CUSTOM.date [local],CUSTOM.updateTime [local],OSD.flyTime,OSD.flyTime [s],OSD.latitude,OSD.longitude,OSD.height [ft],OSD.heightMax [ft],OSD.vpsHeight [ft],OSD.altitude [ft],OSD.mileage [ft],OSD.hSpeed [MPH],OSD.hSpeedMax [MPH],OSD.xSpeed [MPH],OSD.xSpeedMax [MPH],OSD.ySpeed [MPH],OSD.ySpeedMax [MPH],OSD.zSpeed [MPH],OSD.zSpeedMax [MPH],OSD.pitch,OSD.roll,OSD.yaw,OSD.yaw [360],OSD.directionOfTravel,OSD.flycState,OSD.flycCommand,OSD.flightAction,OSD.gpsNum,OSD.gpsLevel,OSD.isGPSUsed,OSD.nonGPSCause,OSD.droneType,OSD.isSwaveWork,OSD.waveError,OSD.goHomeStatus,OSD.batteryType,OSD.ctrlDevice,OSD.isOnGround,OSD.isMotorOn,OSD.isMotorBlocked,OSD.motorStartFailedCause,OSD.motorFailReason,OSD.isImuPreheated,OSD.imuInitFailReason,OSD.isAcceletorOverRange,OSD.isBarometerDeadInAir,OSD.isCompassError,OSD.isGoHomeHeightModified,OSD.canIOCWork,OSD.isNotEnoughForce,OSD.isOutOfLimit,OSD.isPropellerCatapult,OSD.isVibrating,OSD.isVisionUsed,OSD.voltageWarning,GIMBAL.mode,GIMBAL.pitch,GIMBAL.roll,GIMBAL.yaw,GIMBAL.yaw [360],GIMBAL.isPitchAtLimit,GIMBAL.isRollAtLimit,GIMBAL.isYawAtLimit,GIMBAL.isStuck,CAMERA.isPhoto,CAMERA.isVideo,CAMERA.filename,CAMERA.sdCardIsInserted,CAMERA.sdCardState,RC.downlinkSignal,RC.uplinkSignal,RC.aileron,RC.elevator,RC.throttle,RC.rudder,RC.mode,RC.goHomeDepressed,RC.recordDepressed,RC.shutterDepressed,RC.playbackDepressed,RC.wheelDepressed,RC.wheelOffset,RC.custom1Depressed,RC.custom2Depressed,RC.custom3Depressed,RC.custom4Depressed,BATTERY.chargeLevel,BATTERY.currentPV [V],BATTERY.currentCapacity [mAh],BATTERY.fullCapacity [mAh],BATTERY.voltage [V],BATTERY.isCellVoltageEstimated,BATTERY.cellVoltage1 [V],BATTERY.cellVoltage2 [V],BATTERY.maxCellVoltageDeviation,BATTERY.isCellVoltageDeviationHigh,BATTERY.isVoltageLow,BATTERY.current [A],BATTERY.temperature [F],BATTERY.minTemperature [F],BATTERY.maxTemperature [F],BATTERY.usefulTime [s],BATTERY.goHomeTime [s],BATTERY.landTime [s],BATTERY.goHomeBattery,BATTERY.landBattery,BATTERY.safeFlyRadius,BATTERY.volumeConsume,BATTERY.status,BATTERY.goHomeStatus,BATTERY.goHomeCountdown,BATTERY.lowWarning,BATTERY.lowWarningGoHome,BATTERY.seriousLowWarning,BATTERY.seriousLowWarningLanding,BATTERY.timesCharged,MC.failSafeAction,MC.isObstacleAvoidanceEnabled,MC.isCollisionAvoidanceEnabled,MC.isRthObstacleAvoidanceEnabled,MC.isBraking,MC.isAvoidingObstacle,MC.isAvoidingActiveObstacle,MC.isAscentLimitedByObstacle,MC.isLandingConfirmationNeeded,MC.atLowAltitudeLimit,MC.atDistanceLimit,MC.atAirportAltitudeLimit,MC.atAirportBoundary,HOME.latitude,HOME.longitude,HOME.distance [ft],HOME.height [ft],HOME.heightLimit [ft],HOME.isHomeRecord,HOME.goHomeMode,HOME.aircraftHeadDirection,HOME.isDynamicHomePointEnabled,HOME.isReachedLimitDistance,HOME.isReachedLimitHeight,HOME.isCompassCalibrating,HOME.compassCalibrationState,HOME.isMultipleFlightModeEnabled,HOME.isBeginnerMode,HOME.isIOCEnabled,HOME.iocMode,HOME.goHomeHeight [ft],HOME.courseLockAngle,HOME.forceLandingHeight [ft],HOME.wind,HOME.dataRecorderFileIndex,RECOVER.appType,RECOVER.appVersion,RECOVER.aircraftName,RECOVER.aircraftSerial,RECOVER.cameraSerial,RECOVER.rcSerial,RECOVER.batterySerial,DETAILS.totalTime [s],DETAILS.totalDistance [ft],DETAILS.maxHeight [ft],DETAILS.maxHorizontalSpeed [MPH],DETAILS.maxVerticalSpeed [MPH],DETAILS.photoNum,DETAILS.videoTime [s],DETAILS.aircraftName,DETAILS.aircraftSerial,DETAILS.cameraSerial,DETAILS.rcSerial,DETAILS.batterySerial,DETAILS.appName,DETAILS.appType,DETAILS.appVersion,DETAILS.guid,SERIAL.flightController,SERIAL.camera,SERIAL.gimbal,SERIAL.rc,SERIAL.battery,APPGPS.latitude,APPGPS.longitude,APPGPS.accuracy,APP.tip,APP.warning
2/21/2024,23:22.4,1m 30.8s,90.8,6.974148745,79.91427194,0,0,0.6,0,0,0,0,0,0,0,0,0,0,2.3,0.4,-50.9,309.1,,Starting Motors,Other,Takeoff (RC Assisted),13,5,TRUE,,Mavic Mini,FALSE,FALSE,,Smart,RC,TRUE,TRUE,FALSE,,,TRUE,,FALSE,FALSE,FALSE,FALSE,FALSE,FALSE,FALSE,FALSE,FALSE,FALSE,0,Follow Yaw,0,0,-39.2,320.8,FALSE,FALSE,FALSE,FALSE,FALSE,FALSE,,TRUE,Normal,,,1024,1024,1024,1024,2,FALSE,FALSE,FALSE,FALSE,FALSE,0,FALSE,FALSE,FALSE,FALSE,70,7.73,1426,2051,7.728,TRUE,3.864,3.864,,FALSE,FALSE,NA,88.3,88.3,88.3,0,0,0,0,5,2630.6,657.66,,Idle,0,20,FALSE,5,TRUE,10,Go Home,FALSE,FALSE,FALSE,FALSE,FALSE,FALSE,FALSE,FALSE,FALSE,FALSE,FALSE,FALSE,6.974150681,79.91427533,1.4,143.2,328,TRUE,1,1,FALSE,FALSE,FALSE,FALSE,,TRUE,FALSE,FALSE,Course Lock,65.6,,16.4,Calm,29,,1.12.8,Mavic Mini,1SDCH7G0169R0K,1SFLH6Q0AB03DJ,1SRCH7F014TAHX,1U5X071EXP5ZJG,82.8,0.2,3.2,4.47388,3.35541,0,60,Mavic Mini,1SDCH7G0169R0K,1SFLH6Q0AB03DJ,1SRCH7F014TAHX,1U5X071EXP5ZJG,DJI Fly,,1.12.8,BA26A668-AC55-BABC-12A0-F3A3DC374360,1SDCH7G0169R0K,,,,,,,,Data Recorder File Index is 29.; Set Return to Home (RTH) altitude to 20 m (66 ft).; Set maximum flight altitude to 100 m (328 ft).; Flight mode changed to Starting Motors.,
2/21/2024,21:51.8,1m 30.9s,90.9,6.974148755,79.91427197,0,0,0.6,0,0,0,0,0,0,0,0,0,0,2.4,0.4,-50.9,309.1,,Starting Motors,Other,Takeoff (RC Assisted),13,5,TRUE,,Mavic Mini,FALSE,FALSE,,Smart,RC,TRUE,TRUE,FALSE,,,TRUE,,FALSE,FALSE,FALSE,FALSE,FALSE,FALSE,FALSE,FALSE,FALSE,FALSE,0,Follow Yaw,0,0,-39.2,320.8,FALSE,FALSE,FALSE,FALSE,FALSE,FALSE,,TRUE,Normal,,100,1024,1024,1024,1024,2,FALSE,FALSE,FALSE,FALSE,FALSE,0,FALSE,FALSE,FALSE,FALSE,70,7.73,1426,2051,7.728,TRUE,3.864,3.864,,FALSE,FALSE,NA,88.3,88.3,88.3,0,0,0,0,5,2630.6,657.66,,Idle,0,20,FALSE,5,TRUE,10,Go Home,FALSE,FALSE,FALSE,FALSE,FALSE,FALSE,FALSE,FALSE,FALSE,FALSE,FALSE,FALSE,6.974150681,79.91427533,1.4,143.2,328,TRUE,1,1,FALSE,FALSE,FALSE,FALSE,,TRUE,FALSE,FALSE,Course Lock,65.6,,16.4,Calm,29,,1.12.8,Mavic Mini,1SDCH7G0169R0K,1SFLH6Q0AB03DJ,1SRCH7F014TAHX,1U5X071EXP5ZJG,82.8,0.2,3.2,4.47388,3.35541,0,60,Mavic Mini,1SDCH7G0169R0K,1SFLH6Q0AB03DJ,1SRCH7F014TAHX,1U5X071EXP5ZJG,DJI Fly,,1.12.8,BA26A668-AC55-BABC-12A0-F3A3DC374360,1SDCH7G0169R0K,,,,,,,,,
2/21/2024,21:51.8,1m 31.0s,91,6.974148756,79.91427199,0,0,0.3,0,0,0,0,0,0,0,0,0,0,2.4,0.4,-50.9,309.1,,Starting Motors,Other,Takeoff (RC Assisted),13,5,TRUE,,Mavic Mini,TRUE,FALSE,,Smart,RC,TRUE,TRUE,FALSE,,,TRUE,,FALSE,FALSE,FALSE,FALSE,FALSE,FALSE,FALSE,FALSE,FALSE,FALSE,0,Follow Yaw,0,0,-39.3,320.7,FALSE,FALSE,FALSE,FALSE,FALSE,FALSE,,TRUE,Normal,,100,1024,1024,1024,1024,2,FALSE,FALSE,FALSE,FALSE,FALSE,0,FALSE,FALSE,FALSE,FALSE,70,7.73,1426,2051,7.728,TRUE,3.864,3.864,,FALSE,FALSE,NA,88.3,88.3,88.3,0,0,0,0,5,2630.6,657.66,,Idle,0,20,FALSE,5,TRUE,10,Go Home,FALSE,FALSE,FALSE,FALSE,FALSE,FALSE,FALSE,FALSE,FALSE,FALSE,FALSE,FALSE,6.974150681,79.91427533,1.4,143.2,328,TRUE,1,1,FALSE,FALSE,FALSE,FALSE,,TRUE,FALSE,FALSE,Course Lock,65.6,,16.4,Calm,29,,1.12.8,Mavic Mini,1SDCH7G0169R0K,1SFLH6Q0AB03DJ,1SRCH7F014TAHX,1U5X071EXP5ZJG,82.8,0.2,3.2,4.47388,3.35541,0,60,Mavic Mini,1SDCH7G0169R0K,1SFLH6Q0AB03DJ,1SRCH7F014TAHX,1U5X071EXP5ZJG,DJI Fly,,1.12.8,BA26A668-AC55-BABC-12A0-F3A3DC374360,1SDCH7G0169R0K,,,,,,,,,
2/21/2024,21:51.9,1m 31.1s,91.1,6.974148747,79.91427199,0,0,0.3,0,0,0,0,0,0,0,0,0,0,2.3,0.3,-50.9,309.1,,Starting Motors,Other,Takeoff (RC Assisted),13,5,TRUE,,Mavic Mini,TRUE,FALSE,,Smart,RC,TRUE,TRUE,FALSE,,,TRUE,,FALSE,FALSE,FALSE,FALSE,FALSE,FALSE,FALSE,FALSE,FALSE,FALSE,0,Follow Yaw,0,0,-39.2,320.8,FALSE,FALSE,FALSE,FALSE,FALSE,FALSE,,TRUE,Normal,,100,1024,1024,1024,1024,2,FALSE,FALSE,FALSE,FALSE,FALSE,0,FALSE,FALSE,FALSE,FALSE,70,7.73,1426,2051,7.728,TRUE,3.864,3.864,,FALSE,FALSE,NA,88.3,88.3,88.3,0,0,0,0,5,2630.6,657.66,,Idle,0,20,FALSE,5,TRUE,10,Go Home,FALSE,FALSE,FALSE,FALSE,FALSE,FALSE,FALSE,FALSE,FALSE,FALSE,FALSE,FALSE,6.974150681,79.91427533,1.4,143.2,328,TRUE,1,1,FALSE,FALSE,FALSE,FALSE,,TRUE,FALSE,FALSE,Course Lock,65.6,,16.4,Calm,29,,1.12.8,Mavic Mini,1SDCH7G0169R0K,1SFLH6Q0AB03DJ,1SRCH7F014TAHX,1U5X071EXP5ZJG,82.8,0.2,3.2,4.47388,3.35541,0,60,Mavic Mini,1SDCH7G0169R0K,1SFLH6Q0AB03DJ,1SRCH7F014TAHX,1U5X071EXP5ZJG,DJI Fly,,1.12.8,BA26A668-AC55-BABC-12A0-F3A3DC374360,1SDCH7G0169R0K,,,,,,,,,
2/21/2024,21:52.1,1m 31.2s,91.2,6.974148699,79.91427196,0,0,0.3,0,0,0,0,0,0,0,0,0,0,2.4,0.3,-50.8,309.2,,Starting Motors,Other,Takeoff (RC Assisted),13,5,TRUE,,Mavic Mini,TRUE,FALSE,,Smart,RC,TRUE,TRUE,FALSE,,,TRUE,,FALSE,FALSE,FALSE,FALSE,FALSE,FALSE,FALSE,FALSE,FALSE,FALSE,0,Follow Yaw,0,0,-39.2,320.8,FALSE,FALSE,FALSE,FALSE,FALSE,FALSE,,TRUE,Normal,,100,1024,1024,1024,1024,2,FALSE,FALSE,FALSE,FALSE,FALSE,0,FALSE,FALSE,FALSE,FALSE,70,7.723,1426,2051,7.728,FALSE,3.861,3.862,0.001,FALSE,FALSE,NA,88.3,88.3,88.3,0,0,0,0,5,2630.6,657.66,,Idle,0,20,FALSE,5,TRUE,10,Go Home,FALSE,FALSE,FALSE,FALSE,FALSE,FALSE,FALSE,FALSE,FALSE,FALSE,FALSE,FALSE,6.974150681,79.91427533,1.4,143.2,328,TRUE,1,1,FALSE,FALSE,FALSE,FALSE,,TRUE,FALSE,FALSE,Course Lock,65.6,,16.4,Calm,29,,1.12.8,Mavic Mini,1SDCH7G0169R0K,1SFLH6Q0AB03DJ,1SRCH7F014TAHX,1U5X071EXP5ZJG,82.8,0.2,3.2,4.47388,3.35541,0,60,Mavic Mini,1SDCH7G0169R0K,1SFLH6Q0AB03DJ,1SRCH7F014TAHX,1U5X071EXP5ZJG,DJI Fly,,1.12.8,BA26A668-AC55-BABC-12A0-F3A3DC374360,1SDCH7G0169R0K,,,,,,,,,
2/21/2024,21:52.2,1m 31.3s,91.3,6.974148726,79.91427195,0,0,0.3,0,0,0,0,0,0,0,0,0,0,2.4,0.3,-50.8,309.2,,Starting Motors,Other,Takeoff (RC Assisted),13,5,TRUE,,Mavic Mini,TRUE,FALSE,,Smart,RC,TRUE,TRUE,FALSE,,,TRUE,,FALSE,FALSE,FALSE,FALSE,FALSE,FALSE,FALSE,FALSE,FALSE,FALSE,0,Follow Yaw,0,0,-39.3,320.7,FALSE,FALSE,FALSE,FALSE,FALSE,FALSE,,TRUE,Normal,,100,1024,1024,1024,1024,2,FALSE,FALSE,FALSE,FALSE,FALSE,0,FALSE,FALSE,FALSE,FALSE,70,7.723,1426,2051,7.728,FALSE,3.861,3.862,0.001,FALSE,FALSE,NA,88.3,88.3,88.3,0,0,0,0,5,2630.6,657.66,,Idle,0,20,FALSE,5,TRUE,10,Go Home,FALSE,FALSE,FALSE,FALSE,FALSE,FALSE,FALSE,FALSE,FALSE,FALSE,FALSE,FALSE,6.974150681,79.91427533,1.4,143.2,328,TRUE,1,1,FALSE,FALSE,FALSE,FALSE,,TRUE,FALSE,FALSE,Course Lock,65.6,,16.4,Calm,29,,1.12.8,Mavic Mini,1SDCH7G0169R0K,1SFLH6Q0AB03DJ,1SRCH7F014TAHX,1U5X071EXP5ZJG,82.8,0.2,3.2,4.47388,3.35541,0,60,Mavic Mini,1SDCH7G0169R0K,1SFLH6Q0AB03DJ,1SRCH7F014TAHX,1U5X071EXP5ZJG,DJI Fly,,1.12.8,BA26A668-AC55-BABC-12A0-F3A3DC374360,1SDCH7G0169R0K,,,,,,,,,
2/21/2024,21:52.3,1m 31.4s,91.4,6.974148764,79.91427195,0,0,0.3,0,0,0,0,0,0,0,0,0,0,2.3,0.3,-50.9,309.1,,Starting Motors,Other,Takeoff (RC Assisted),13,5,TRUE,,Mavic Mini,TRUE,FALSE,,Smart,RC,TRUE,TRUE,FALSE,,,TRUE,,FALSE,FALSE,FALSE,FALSE,FALSE,FALSE,FALSE,FALSE,FALSE,FALSE,0,Follow Yaw,0,0,-39.3,320.7,FALSE,FALSE,FALSE,FALSE,FALSE,FALSE,,TRUE,Normal,,100,1024,1024,1024,1024,2,FALSE,FALSE,FALSE,FALSE,FALSE,0,FALSE,FALSE,FALSE,FALSE,70,7.723,1426,2051,7.728,FALSE,3.861,3.862,0.001,FALSE,FALSE,NA,88.3,88.3,88.3,0,0,0,0,5,2630.6,657.66,,Idle,0,20,FALSE,5,TRUE,10,Go Home,FALSE,FALSE,FALSE,FALSE,FALSE,FALSE,FALSE,FALSE,FALSE,FALSE,FALSE,FALSE,6.974150681,79.91427533,1.4,143.2,328,TRUE,1,1,FALSE,FALSE,FALSE,FALSE,,TRUE,FALSE,FALSE,Course Lock,65.6,,16.4,Calm,29,,1.12.8,Mavic Mini,1SDCH7G0169R0K,1SFLH6Q0AB03DJ,1SRCH7F014TAHX,1U5X071EXP5ZJG,82.8,0.2,3.2,4.47388,3.35541,0,60,Mavic Mini,1SDCH7G0169R0K,1SFLH6Q0AB03DJ,1SRCH7F014TAHX,1U5X071EXP5ZJG,DJI Fly,,1.12.8,BA26A668-AC55-BABC-12A0-F3A3DC374360,1SDCH7G0169R0K,,,,,,,,,
2/21/2024,21:52.3,1m 31.5s,91.5,6.974148779,79.91427194,0,0,0.3,0,0,0,0,0,0,0,0,0,0,2.4,0.4,-50.9,309.1,,Starting Motors,Other,Takeoff (RC Assisted),13,5,TRUE,,Mavic Mini,TRUE,FALSE,,Smart,RC,TRUE,TRUE,FALSE,,,TRUE,,FALSE,FALSE,FALSE,FALSE,FALSE,FALSE,FALSE,FALSE,FALSE,FALSE,0,Follow Yaw,0,0,-39.3,320.7,FALSE,FALSE,FALSE,FALSE,FALSE,FALSE,,TRUE,Normal,,100,1024,1024,1024,1024,2,FALSE,FALSE,FALSE,FALSE,FALSE,0,FALSE,FALSE,FALSE,FALSE,70,7.723,1426,2051,7.728,FALSE,3.861,3.862,0.001,FALSE,FALSE,NA,88.3,88.3,88.3,0,0,0,0,5,2630.6,657.66,,Idle,0,20,FALSE,5,TRUE,10,Go Home,FALSE,FALSE,FALSE,FALSE,FALSE,FALSE,FALSE,FALSE,FALSE,FALSE,FALSE,FALSE,6.974150681,79.91427533,1.4,143.2,328,TRUE,1,1,FALSE,FALSE,FALSE,FALSE,,TRUE,FALSE,FALSE,Course Lock,65.6,,16.4,Calm,29,,1.12.8,Mavic Mini,1SDCH7G0169R0K,1SFLH6Q0AB03DJ,1SRCH7F014TAHX,1U5X071EXP5ZJG,82.8,0.2,3.2,4.47388,3.35541,0,60,Mavic Mini,1SDCH7G0169R0K,1SFLH6Q0AB03DJ,1SRCH7F014TAHX,1U5X071EXP5ZJG,DJI Fly,,1.12.8,BA26A668-AC55-BABC-12A0-F3A3DC374360,1SDCH7G0169R0K,,,,,,,,,
2/21/2024,21:52.4,1m 31.6s,91.6,6.974148837,79.91427189,0,0,0.3,0,0,0,0,0,0,0,0,0,0,2.4,0.4,-50.9,309.1,,Starting Motors,Other,Takeoff (RC Assisted),13,5,TRUE,,Mavic Mini,TRUE,FALSE,,Smart,RC,TRUE,TRUE,FALSE,,,TRUE,,FALSE,FALSE,FALSE,FALSE,FALSE,FALSE,FALSE,FALSE,FALSE,FALSE,0,Follow Yaw,0,0,-39.3,320.7,FALSE,FALSE,FALSE,FALSE,FALSE,FALSE,,TRUE,Normal,,100,1024,1024,1024,1024,2,FALSE,FALSE,FALSE,FALSE,FALSE,0,FALSE,FALSE,FALSE,FALSE,70,7.723,1426,2051,7.728,FALSE,3.861,3.862,0.001,FALSE,FALSE,NA,88.3,88.3,88.3,0,0,0,0,5,2630.6,657.66,,Idle,0,20,FALSE,5,TRUE,10,Go Home,FALSE,FALSE,FALSE,FALSE,FALSE,FALSE,FALSE,FALSE,FALSE,FALSE,FALSE,FALSE,6.974150681,79.91427533,1.4,143.2,328,TRUE,1,1,FALSE,FALSE,FALSE,FALSE,,TRUE,FALSE,FALSE,Course Lock,65.6,,16.4,Calm,29,,1.12.8,Mavic Mini,1SDCH7G0169R0K,1SFLH6Q0AB03DJ,1SRCH7F014TAHX,1U5X071EXP5ZJG,82.8,0.2,3.2,4.47388,3.35541,0,60,Mavic Mini,1SDCH7G0169R0K,1SFLH6Q0AB03DJ,1SRCH7F014TAHX,1U5X071EXP5ZJG,DJI Fly,,1.12.8,BA26A668-AC55-BABC-12A0-F3A3DC374360,1SDCH7G0169R0K,,,,,,,,,
2/21/2024,21:52.5,1m 31.7s,91.7,6.974148872,79.91427189,0,0,0.3,0,0.1,0,0,0,0,0,0,0,0,2.3,0.4,-50.9,309.1,,Starting Motors,Other,Takeoff (RC Assisted),13,5,TRUE,,Mavic Mini,TRUE,FALSE,,Smart,RC,TRUE,TRUE,FALSE,,,TRUE,,FALSE,FALSE,FALSE,FALSE,FALSE,FALSE,FALSE,FALSE,FALSE,FALSE,0,Follow Yaw,0,0,-39.3,320.7,FALSE,FALSE,FALSE,FALSE,FALSE,FALSE,,TRUE,Normal,,100,1024,1024,1024,1024,2,FALSE,FALSE,FALSE,FALSE,FALSE,0,FALSE,FALSE,FALSE,FALSE,70,7.723,1426,2051,7.728,FALSE,3.861,3.862,0.001,FALSE,FALSE,NA,88.3,88.3,88.3,0,0,0,0,5,2630.6,657.66,,Idle,0,20,FALSE,5,TRUE,10,Go Home,FALSE,FALSE,FALSE,FALSE,FALSE,FALSE,FALSE,FALSE,FALSE,FALSE,FALSE,FALSE,6.974150681,79.91427533,1.4,143.2,328,TRUE,1,1,FALSE,FALSE,FALSE,FALSE,,TRUE,FALSE,FALSE,Course Lock,65.6,,16.4,Calm,29,,1.12.8,Mavic Mini,1SDCH7G0169R0K,1SFLH6Q0AB03DJ,1SRCH7F014TAHX,1U5X071EXP5ZJG,82.8,0.2,3.2,4.47388,3.35541,0,60,Mavic Mini,1SDCH7G0169R0K,1SFLH6Q0AB03DJ,1SRCH7F014TAHX,1U5X071EXP5ZJG,DJI Fly,,1.12.8,BA26A668-AC55-BABC-12A0-F3A3DC374360,1SDCH7G0169R0K,,,,,,,,,
2/21/2024,21:52.6,1m 31.8s,91.8,6.974148915,79.91427189,0,0,0.3,0,0.1,0,0,0,0,0,0,0,0,2.4,0.3,-50.9,309.1,,Starting Motors,Other,Takeoff (RC Assisted),13,5,TRUE,,Mavic Mini,TRUE,FALSE,,Smart,RC,TRUE,TRUE,FALSE,,,TRUE,,FALSE,FALSE,FALSE,FALSE,FALSE,FALSE,FALSE,FALSE,FALSE,FALSE,0,Follow Yaw,0,0,-39.3,320.7,FALSE,FALSE,FALSE,FALSE,FALSE,FALSE,,TRUE,Normal,,100,1024,1024,1024,1024,2,FALSE,FALSE,FALSE,FALSE,FALSE,0,FALSE,FALSE,FALSE,FALSE,70,7.723,1426,2051,7.72,FALSE,3.861,3.862,0.001,FALSE,FALSE,NA,88.3,88.3,88.3,0,0,0,0,5,2693.6,673.41,,Idle,0,20,FALSE,5,TRUE,10,Go Home,FALSE,FALSE,FALSE,FALSE,FALSE,FALSE,FALSE,FALSE,FALSE,FALSE,FALSE,FALSE,6.974150681,79.91427533,1.4,143.2,328,TRUE,1,1,FALSE,FALSE,FALSE,FALSE,,TRUE,FALSE,FALSE,Course Lock,65.6,,16.4,Calm,29,,1.12.8,Mavic Mini,1SDCH7G0169R0K,1SFLH6Q0AB03DJ,1SRCH7F014TAHX,1U5X071EXP5ZJG,82.8,0.2,3.2,4.47388,3.35541,0,60,Mavic Mini,1SDCH7G0169R0K,1SFLH6Q0AB03DJ,1SRCH7F014TAHX,1U5X071EXP5ZJG,DJI Fly,,1.12.8,BA26A668-AC55-BABC-12A0-F3A3DC374360,1SDCH7G0169R0K,,,,,,,,,
2/21/2024,21:52.7,1m 31.9s,91.9,6.974148927,79.91427193,0,0,0.3,0,0.1,0,0,0,0,0,0,0,0,2.4,0.4,-50.9,309.1,,Manual Takeoff,Other,Takeoff (RC Assisted),13,5,TRUE,,Mavic Mini,TRUE,FALSE,,Smart,RC,TRUE,TRUE,FALSE,,,TRUE,,FALSE,FALSE,FALSE,FALSE,FALSE,FALSE,FALSE,FALSE,FALSE,FALSE,0,Follow Yaw,0,0,-39.3,320.7,FALSE,FALSE,FALSE,FALSE,FALSE,FALSE,,TRUE,Normal,,100,1024,1024,1024,1024,2,FALSE,FALSE,FALSE,FALSE,FALSE,0,FALSE,FALSE,FALSE,FALSE,70,7.723,1426,2051,7.72,FALSE,3.861,3.862,0.001,FALSE,FALSE,NA,88.3,88.3,88.3,0,0,0,0,5,2693.6,673.41,,Idle,0,20,FALSE,5,TRUE,10,Go Home,FALSE,FALSE,FALSE,FALSE,FALSE,FALSE,FALSE,FALSE,FALSE,FALSE,FALSE,FALSE,6.974150681,79.91427533,1.3,143.2,328,TRUE,1,1,FALSE,FALSE,FALSE,FALSE,,TRUE,FALSE,FALSE,Course Lock,65.6,,16.4,Calm,29,,1.12.8,Mavic Mini,1SDCH7G0169R0K,1SFLH6Q0AB03DJ,1SRCH7F014TAHX,1U5X071EXP5ZJG,82.8,0.2,3.2,4.47388,3.35541,0,60,Mavic Mini,1SDCH7G0169R0K,1SFLH6Q0AB03DJ,1SRCH7F014TAHX,1U5X071EXP5ZJG,DJI Fly,,1.12.8,BA26A668-AC55-BABC-12A0-F3A3DC374360,1SDCH7G0169R0K,,,,,,,,Flight mode changed to Manual Takeoff.,
2/21/2024,21:52.9,1m 32.0s,92,6.97414897,79.91427204,0,0,0.3,0,0.1,0,0,0,0,0,0,0,0,2.3,0.4,-50.9,309.1,,Manual Takeoff,Other,Takeoff (RC Assisted),13,5,TRUE,,Mavic Mini,TRUE,FALSE,,Smart,RC,TRUE,TRUE,FALSE,,,TRUE,,FALSE,FALSE,FALSE,FALSE,FALSE,FALSE,FALSE,FALSE,FALSE,FALSE,0,Follow Yaw,0,0,-39.3,320.7,FALSE,FALSE,FALSE,FALSE,FALSE,FALSE,,TRUE,Normal,,100,1024,1024,1288,1024,2,FALSE,FALSE,FALSE,FALSE,FALSE,0,FALSE,FALSE,FALSE,FALSE,70,7.723,1426,2051,7.72,FALSE,3.861,3.862,0.001,FALSE,FALSE,NA,88.3,88.3,88.3,0,0,0,0,5,2693.6,673.41,,Idle,0,20,FALSE,5,TRUE,10,Go Home,FALSE,FALSE,FALSE,FALSE,FALSE,FALSE,FALSE,FALSE,FALSE,FALSE,FALSE,FALSE,6.974150681,79.91427533,1.3,143.2,328,TRUE,1,1,FALSE,FALSE,FALSE,FALSE,,TRUE,FALSE,FALSE,Course Lock,65.6,,16.4,Calm,29,,1.12.8,Mavic Mini,1SDCH7G0169R0K,1SFLH6Q0AB03DJ,1SRCH7F014TAHX,1U5X071EXP5ZJG,82.8,0.2,3.2,4.47388,3.35541,0,60,Mavic Mini,1SDCH7G0169R0K,1SFLH6Q0AB03DJ,1SRCH7F014TAHX,1U5X071EXP5ZJG,DJI Fly,,1.12.8,BA26A668-AC55-BABC-12A0-F3A3DC374360,1SDCH7G0169R0K,,,,,,,,,
2/21/2024,21:53.0,1m 32.1s,92.1,6.974148962,79.91427206,0,0,0.3,0,0.1,0,0,0,0,0,0,0,0,2.3,0.4,-50.9,309.1,,Manual Takeoff,Other,Takeoff (RC Assisted),13,5,TRUE,,Mavic Mini,TRUE,FALSE,,Smart,RC,TRUE,TRUE,FALSE,,,TRUE,,FALSE,FALSE,FALSE,FALSE,FALSE,FALSE,FALSE,FALSE,FALSE,FALSE,0,Follow Yaw,0,0,-39.3,320.7,FALSE,FALSE,FALSE,FALSE,FALSE,FALSE,,TRUE,Normal,,100,1024,1024,1543,1024,2,FALSE,FALSE,FALSE,FALSE,FALSE,0,FALSE,FALSE,FALSE,FALSE,70,7.723,1426,2051,7.72,FALSE,3.861,3.862,0.001,FALSE,FALSE,NA,88.3,88.3,88.3,0,0,0,0,5,2693.6,673.41,,Idle,0,20,FALSE,5,TRUE,10,Go Home,FALSE,FALSE,FALSE,FALSE,FALSE,FALSE,FALSE,FALSE,FALSE,FALSE,FALSE,FALSE,6.974150681,79.91427533,1.3,143.2,328,TRUE,1,1,FALSE,FALSE,FALSE,FALSE,,TRUE,FALSE,FALSE,Course Lock,65.6,,16.4,Calm,29,,1.12.8,Mavic Mini,1SDCH7G0169R0K,1SFLH6Q0AB03DJ,1SRCH7F014TAHX,1U5X071EXP5ZJG,82.8,0.2,3.2,4.47388,3.35541,0,60,Mavic Mini,1SDCH7G0169R0K,1SFLH6Q0AB03DJ,1SRCH7F014TAHX,1U5X071EXP5ZJG,DJI Fly,,1.12.8,BA26A668-AC55-BABC-12A0-F3A3DC374360,1SDCH7G0169R0K,,,,,,,,,
2/21/2024,21:53.1,1m 32.2s,92.2,6.97414895,79.91427208,0,0,0.3,0,0.1,0,0,0,0,0,0,0,0,2.3,0.4,-50.9,309.1,,Manual Takeoff,Other,Takeoff (RC Assisted),13,5,TRUE,,Mavic Mini,TRUE,FALSE,,Smart,RC,TRUE,TRUE,FALSE,,,TRUE,,FALSE,FALSE,FALSE,FALSE,FALSE,FALSE,FALSE,FALSE,FALSE,FALSE,0,Follow Yaw,0,0,-39.3,320.7,FALSE,FALSE,FALSE,FALSE,FALSE,FALSE,,TRUE,Normal,,100,1024,1024,1672,1024,2,FALSE,FALSE,FALSE,FALSE,FALSE,0,FALSE,FALSE,FALSE,FALSE,70,7.723,1426,2051,7.72,FALSE,3.861,3.862,0.001,FALSE,FALSE,NA,88.3,88.3,88.3,0,0,0,0,5,2693.6,673.41,,Idle,0,20,FALSE,5,TRUE,10,Go Home,FALSE,FALSE,FALSE,FALSE,FALSE,FALSE,FALSE,FALSE,FALSE,FALSE,FALSE,FALSE,6.974150681,79.91427533,1.3,143.2,328,TRUE,1,1,FALSE,FALSE,FALSE,FALSE,,TRUE,FALSE,FALSE,Course Lock,65.6,,16.4,Calm,29,,1.12.8,Mavic Mini,1SDCH7G0169R0K,1SFLH6Q0AB03DJ,1SRCH7F014TAHX,1U5X071EXP5ZJG,82.8,0.2,3.2,4.47388,3.35541,0,60,Mavic Mini,1SDCH7G0169R0K,1SFLH6Q0AB03DJ,1SRCH7F014TAHX,1U5X071EXP5ZJG,DJI Fly,,1.12.8,BA26A668-AC55-BABC-12A0-F3A3DC374360,1SDCH7G0169R0K,,,,,,,,,
2/21/2024,21:53.2,1m 32.3s,92.3,6.974148977,79.91427213,0,0,0.3,0,0.2,0,0,0,0,0,0,0,0,2.3,0.3,-50.9,309.1,,Manual Takeoff,Other,Takeoff (RC Assisted),13,5,TRUE,,Mavic Mini,TRUE,FALSE,,Smart,RC,TRUE,TRUE,FALSE,,,TRUE,,FALSE,FALSE,FALSE,FALSE,FALSE,FALSE,FALSE,FALSE,FALSE,FALSE,0,Follow Yaw,0,0,-39.3,320.7,FALSE,FALSE,FALSE,FALSE,FALSE,FALSE,,TRUE,Normal,,100,1024,1024,1684,1024,2,FALSE,FALSE,FALSE,FALSE,FALSE,0,FALSE,FALSE,FALSE,FALSE,70,7.711,1426,2051,7.72,FALSE,3.856,3.855,0.001,FALSE,FALSE,NA,88.3,88.3,88.3,0,0,0,0,5,2693.6,673.41,,Idle,0,20,FALSE,5,TRUE,10,Go Home,FALSE,FALSE,FALSE,FALSE,FALSE,FALSE,FALSE,FALSE,FALSE,FALSE,FALSE,FALSE,6.974150681,79.91427533,1.3,143.2,328,TRUE,1,1,FALSE,FALSE,FALSE,FALSE,,TRUE,FALSE,FALSE,Course Lock,65.6,,16.4,Calm,29,,1.12.8,Mavic Mini,1SDCH7G0169R0K,1SFLH6Q0AB03DJ,1SRCH7F014TAHX,1U5X071EXP5ZJG,82.8,0.2,3.2,4.47388,3.35541,0,60,Mavic Mini,1SDCH7G0169R0K,1SFLH6Q0AB03DJ,1SRCH7F014TAHX,1U5X071EXP5ZJG,DJI Fly,,1.12.8,BA26A668-AC55-BABC-12A0-F3A3DC374360,1SDCH7G0169R0K,,,,,,,,,
2/21/2024,21:53.2,1m 32.4s,92.4,6.974149014,79.91427218,0,0,0.3,0,0.2,0,0,0,0,0,0,0,0,2.4,0.3,-50.9,309.1,,Manual Takeoff,Other,Takeoff (RC Assisted),13,5,TRUE,,Mavic Mini,TRUE,FALSE,,Smart,RC,TRUE,TRUE,FALSE,,,TRUE,,FALSE,FALSE,FALSE,FALSE,FALSE,FALSE,FALSE,FALSE,FALSE,FALSE,0,Follow Yaw,0,0,-39.3,320.7,FALSE,FALSE,FALSE,FALSE,FALSE,FALSE,,TRUE,Normal,,100,1024,1024,1684,1024,2,FALSE,FALSE,FALSE,FALSE,FALSE,0,FALSE,FALSE,FALSE,FALSE,70,7.711,1426,2051,7.72,FALSE,3.856,3.855,0.001,FALSE,FALSE,NA,88.3,88.3,88.3,0,0,0,0,5,2693.6,673.41,,Idle,0,20,FALSE,5,TRUE,10,Go Home,FALSE,FALSE,FALSE,FALSE,FALSE,FALSE,FALSE,FALSE,FALSE,FALSE,FALSE,FALSE,6.974150681,79.91427533,1.2,143.2,328,TRUE,1,1,FALSE,FALSE,FALSE,FALSE,,TRUE,FALSE,FALSE,Course Lock,65.6,,16.4,Calm,29,,1.12.8,Mavic Mini,1SDCH7G0169R0K,1SFLH6Q0AB03DJ,1SRCH7F014TAHX,1U5X071EXP5ZJG,82.8,0.2,3.2,4.47388,3.35541,0,60,Mavic Mini,1SDCH7G0169R0K,1SFLH6Q0AB03DJ,1SRCH7F014TAHX,1U5X071EXP5ZJG,DJI Fly,,1.12.8,BA26A668-AC55-BABC-12A0-F3A3DC374360,1SDCH7G0169R0K,,,,,,,,,
2/21/2024,21:53.3,1m 32.5s,92.5,6.974149032,79.9142722,0,0,0.3,0,0.2,0,0,0,0,0,0,0,0,2.3,0.2,-51.1,308.9,,Manual Takeoff,Other,Takeoff (RC Assisted),13,5,TRUE,,Mavic Mini,TRUE,FALSE,,Smart,RC,TRUE,TRUE,FALSE,,,TRUE,,FALSE,FALSE,FALSE,FALSE,FALSE,FALSE,FALSE,FALSE,FALSE,FALSE,0,Follow Yaw,0,0,-39.3,320.7,FALSE,FALSE,FALSE,FALSE,FALSE,FALSE,,TRUE,Normal,,100,1024,1024,1684,1024,2,FALSE,FALSE,FALSE,FALSE,FALSE,0,FALSE,FALSE,FALSE,FALSE,70,7.711,1426,2051,7.72,FALSE,3.856,3.855,0.001,FALSE,FALSE,NA,88.3,88.3,88.3,0,0,0,0,5,2693.6,673.41,,Idle,0,20,FALSE,5,TRUE,10,Go Home,FALSE,FALSE,FALSE,FALSE,FALSE,FALSE,FALSE,FALSE,FALSE,FALSE,FALSE,FALSE,6.974150681,79.91427533,1.2,143.2,328,TRUE,1,1,FALSE,FALSE,FALSE,FALSE,,TRUE,FALSE,FALSE,Course Lock,65.6,,16.4,Calm,29,,1.12.8,Mavic Mini,1SDCH7G0169R0K,1SFLH6Q0AB03DJ,1SRCH7F014TAHX,1U5X071EXP5ZJG,82.8,0.2,3.2,4.47388,3.35541,0,60,Mavic Mini,1SDCH7G0169R0K,1SFLH6Q0AB03DJ,1SRCH7F014TAHX,1U5X071EXP5ZJG,DJI Fly,,1.12.8,BA26A668-AC55-BABC-12A0-F3A3DC374360,1SDCH7G0169R0K,,,,,,,,,
2/21/2024,21:53.5,1m 32.6s,92.6,6.974149045,79.91427221,0,0,0.3,0,0.2,0,0,0,0,0,0,0,0,2.3,0.1,-51.3,308.7,,Manual Takeoff,Other,Takeoff (RC Assisted),13,5,TRUE,,Mavic Mini,TRUE,FALSE,,Smart,RC,TRUE,TRUE,FALSE,,,TRUE,,FALSE,FALSE,FALSE,FALSE,FALSE,FALSE,FALSE,FALSE,FALSE,FALSE,0,Follow Yaw,0,0,-39.4,320.6,FALSE,FALSE,FALSE,FALSE,FALSE,FALSE,,TRUE,Normal,,100,1024,1024,1684,1024,2,FALSE,FALSE,FALSE,FALSE,FALSE,0,FALSE,FALSE,FALSE,FALSE,70,7.711,1426,2051,7.72,FALSE,3.856,3.855,0.001,FALSE,FALSE,NA,88.3,88.3,88.3,0,0,0,0,5,2693.6,673.41,,Idle,0,20,FALSE,5,TRUE,10,Go Home,FALSE,FALSE,FALSE,FALSE,FALSE,FALSE,FALSE,FALSE,FALSE,FALSE,FALSE,FALSE,6.974150681,79.91427533,1.2,143.2,328,TRUE,1,1,FALSE,FALSE,FALSE,FALSE,,TRUE,FALSE,FALSE,Course Lock,65.6,,16.4,Calm,29,,1.12.8,Mavic Mini,1SDCH7G0169R0K,1SFLH6Q0AB03DJ,1SRCH7F014TAHX,1U5X071EXP5ZJG,82.8,0.2,3.2,4.47388,3.35541,0,60,Mavic Mini,1SDCH7G0169R0K,1SFLH6Q0AB03DJ,1SRCH7F014TAHX,1U5X071EXP5ZJG,DJI Fly,,1.12.8,BA26A668-AC55-BABC-12A0-F3A3DC374360,1SDCH7G0169R0K,,,,,,,,,
2/21/2024,21:53.5,1m 32.7s,92.7,6.97414904,79.91427221,0,0,0.3,0,0.2,0,0,0,0,0,0,0,0,1.4,0,-51.9,308.1,,Manual Takeoff,Other,Takeoff (RC Assisted),13,5,TRUE,,Mavic Mini,TRUE,FALSE,,Smart,RC,TRUE,TRUE,FALSE,,,TRUE,,FALSE,FALSE,FALSE,FALSE,FALSE,FALSE,FALSE,FALSE,FALSE,FALSE,0,Follow Yaw,0,0,-39.7,320.3,FALSE,FALSE,FALSE,FALSE,FALSE,FALSE,,TRUE,Normal,,100,1024,1024,1684,1024,2,FALSE,FALSE,FALSE,FALSE,FALSE,0,FALSE,FALSE,FALSE,FALSE,70,7.711,1426,2051,7.72,FALSE,3.856,3.855,0.001,FALSE,FALSE,NA,88.3,88.3,88.3,0,0,0,0,5,2693.6,673.41,,Idle,0,20,FALSE,5,TRUE,10,Go Home,FALSE,FALSE,FALSE,FALSE,FALSE,FALSE,FALSE,FALSE,FALSE,FALSE,FALSE,FALSE,6.974150681,79.91427533,1.2,143.2,328,TRUE,1,1,FALSE,FALSE,FALSE,FALSE,,TRUE,FALSE,FALSE,Course Lock,65.6,,16.4,Calm,29,,1.12.8,Mavic Mini,1SDCH7G0169R0K,1SFLH6Q0AB03DJ,1SRCH7F014TAHX,1U5X071EXP5ZJG,82.8,0.2,3.2,4.47388,3.35541,0,60,Mavic Mini,1SDCH7G0169R0K,1SFLH6Q0AB03DJ,1SRCH7F014TAHX,1U5X071EXP5ZJG,DJI Fly,,1.12.8,BA26A668-AC55-BABC-12A0-F3A3DC374360,1SDCH7G0169R0K,,,,,,,,,
2/21/2024,21:53.6,1m 32.8s,92.8,6.974149043,79.91427219,0,0,0.3,0,0.2,0,0,0,0,0,0,0,0,-0.5,-0.2,-52.3,307.7,,Manual Takeoff,Other,Takeoff (RC Assisted),13,5,TRUE,,Mavic Mini,TRUE,FALSE,,Smart,RC,TRUE,TRUE,FALSE,,,TRUE,,FALSE,FALSE,FALSE,FALSE,FALSE,FALSE,FALSE,FALSE,FALSE,FALSE,0,Follow Yaw,0,0,-40.1,319.9,FALSE,FALSE,FALSE,FALSE,FALSE,FALSE,,TRUE,Normal,,100,1024,1024,1684,1024,2,FALSE,FALSE,FALSE,FALSE,FALSE,0,FALSE,FALSE,FALSE,FALSE,70,7.711,1426,2051,7.675,FALSE,3.856,3.855,0.001,FALSE,FALSE,NA,88.3,88.3,88.3,0,0,0,0,5,2791.1,697.78,,Idle,0,20,FALSE,5,TRUE,10,Go Home,FALSE,FALSE,FALSE,FALSE,FALSE,FALSE,FALSE,FALSE,FALSE,FALSE,FALSE,FALSE,6.974150681,79.91427533,1.2,143.2,328,TRUE,1,1,FALSE,FALSE,FALSE,FALSE,,TRUE,FALSE,FALSE,Course Lock,65.6,,16.4,Calm,29,,1.12.8,Mavic Mini,1SDCH7G0169R0K,1SFLH6Q0AB03DJ,1SRCH7F014TAHX,1U5X071EXP5ZJG,82.8,0.2,3.2,4.47388,3.35541,0,60,Mavic Mini,1SDCH7G0169R0K,1SFLH6Q0AB03DJ,1SRCH7F014TAHX,1U5X071EXP5ZJG,DJI Fly,,1.12.8,BA26A668-AC55-BABC-12A0-F3A3DC374360,1SDCH7G0169R0K,,,,,6.974155577,79.91426647,5,,
2/21/2024,21:53.8,1m 32.9s,92.9,6.97414915,79.91427209,0,0,0.3,0,0.3,0,0,0,0,0,0,-0.223694,0,-1.5,-0.7,-53.1,306.9,,Manual Takeoff,Other,Takeoff (RC Assisted),13,5,TRUE,,Mavic Mini,TRUE,FALSE,,Smart,RC,TRUE,TRUE,FALSE,,,TRUE,,FALSE,FALSE,FALSE,FALSE,FALSE,FALSE,FALSE,FALSE,FALSE,FALSE,0,Follow Yaw,0,0,-40.7,319.3,FALSE,FALSE,FALSE,FALSE,FALSE,FALSE,,TRUE,Normal,,100,1024,1024,1684,1024,2,FALSE,FALSE,FALSE,FALSE,FALSE,0,FALSE,FALSE,FALSE,FALSE,70,7.711,1426,2051,7.675,FALSE,3.856,3.855,0.001,FALSE,FALSE,NA,88.3,88.3,88.3,0,0,0,0,5,2791.1,697.78,,Idle,0,20,FALSE,5,TRUE,10,Go Home,FALSE,FALSE,FALSE,FALSE,FALSE,FALSE,FALSE,FALSE,FALSE,FALSE,FALSE,FALSE,6.974150681,79.91427533,1.3,143.2,328,TRUE,1,1,FALSE,FALSE,FALSE,FALSE,,TRUE,FALSE,FALSE,Course Lock,65.6,,16.4,Calm,29,,1.12.8,Mavic Mini,1SDCH7G0169R0K,1SFLH6Q0AB03DJ,1SRCH7F014TAHX,1U5X071EXP5ZJG,82.8,0.2,3.2,4.47388,3.35541,0,60,Mavic Mini,1SDCH7G0169R0K,1SFLH6Q0AB03DJ,1SRCH7F014TAHX,1U5X071EXP5ZJG,DJI Fly,,1.12.8,BA26A668-AC55-BABC-12A0-F3A3DC374360,1SDCH7G0169R0K,,,,,6.974155577,79.91426647,5,,
2/21/2024,21:53.8,1m 33.0s,93,6.974149276,79.91427204,0,0,0.3,0,0.3,0.223694,0.223694,0.223694,0.223694,0,0,-0.447388,0,-0.6,-0.2,-53.7,306.3,341.9,Tripod,Other,,13,5,TRUE,,Mavic Mini,TRUE,FALSE,,Smart,RC,FALSE,TRUE,FALSE,,,TRUE,,FALSE,FALSE,FALSE,FALSE,FALSE,FALSE,FALSE,FALSE,FALSE,FALSE,0,Follow Yaw,0,0,-41.3,318.7,FALSE,FALSE,FALSE,FALSE,FALSE,FALSE,,TRUE,Normal,,100,1024,1024,1684,1024,2,FALSE,FALSE,FALSE,FALSE,FALSE,0,FALSE,FALSE,FALSE,FALSE,70,7.711,1426,2051,7.675,FALSE,3.856,3.855,0.001,FALSE,FALSE,NA,88.3,88.3,88.3,0,0,0,0,5,2791.1,697.78,,Idle,0,20,FALSE,5,TRUE,10,Go Home,FALSE,FALSE,FALSE,FALSE,FALSE,FALSE,FALSE,FALSE,FALSE,FALSE,FALSE,FALSE,6.974150681,79.91427533,1.2,143.2,328,TRUE,1,1,FALSE,FALSE,FALSE,FALSE,,TRUE,FALSE,FALSE,Course Lock,65.6,,16.4,Calm,29,,1.12.8,Mavic Mini,1SDCH7G0169R0K,1SFLH6Q0AB03DJ,1SRCH7F014TAHX,1U5X071EXP5ZJG,82.8,0.2,3.2,4.47388,3.35541,0,60,Mavic Mini,1SDCH7G0169R0K,1SFLH6Q0AB03DJ,1SRCH7F014TAHX,1U5X071EXP5ZJG,DJI Fly,,1.12.8,BA26A668-AC55-BABC-12A0-F3A3DC374360,1SDCH7G0169R0K,,,,,6.974155577,79.91426647,5,Flight mode changed to Tripod.,
2/21/2024,21:53.9,1m 33.1s,93.1,6.974149409,79.91427201,0,0,0.3,0,0.4,0.223694,0.223694,0.223694,0.223694,0,0,-0.894776,0,1.1,-0.9,-53.5,306.5,349.9,Tripod,Other,,13,5,TRUE,,Mavic Mini,TRUE,FALSE,,Smart,RC,FALSE,TRUE,FALSE,,,TRUE,,FALSE,FALSE,FALSE,FALSE,FALSE,FALSE,FALSE,FALSE,FALSE,FALSE,0,Follow Yaw,0,0,-41.3,318.7,FALSE,FALSE,FALSE,FALSE,FALSE,FALSE,,TRUE,Normal,,100,1024,1024,1684,1024,2,FALSE,FALSE,FALSE,FALSE,FALSE,0,FALSE,FALSE,FALSE,FALSE,70,7.711,1426,2051,7.675,FALSE,3.856,3.855,0.001,FALSE,FALSE,NA,88.3,88.3,88.3,0,0,0,0,5,2791.1,697.78,,Idle,0,20,FALSE,5,TRUE,10,Go Home,FALSE,FALSE,FALSE,FALSE,FALSE,FALSE,FALSE,FALSE,FALSE,FALSE,FALSE,FALSE,6.974150681,79.91427533,1.2,143.2,328,TRUE,1,1,FALSE,FALSE,FALSE,FALSE,,TRUE,FALSE,FALSE,Course Lock,65.6,,16.4,Calm,29,,1.12.8,Mavic Mini,1SDCH7G0169R0K,1SFLH6Q0AB03DJ,1SRCH7F014TAHX,1U5X071EXP5ZJG,82.8,0.2,3.2,4.47388,3.35541,0,60,Mavic Mini,1SDCH7G0169R0K,1SFLH6Q0AB03DJ,1SRCH7F014TAHX,1U5X071EXP5ZJG,DJI Fly,,1.12.8,BA26A668-AC55-BABC-12A0-F3A3DC374360,1SDCH7G0169R0K,,,,,6.974155577,79.91426647,5,,
2/21/2024,21:54.1,1m 33.2s,93.2,6.974149546,79.91427197,0,0,0.6,0,0.4,0.223694,0.223694,0.223694,0.223694,0,0,-1.342164,0,2.1,-1.2,-53.3,306.7,348.5,Tripod,Other,,12,5,TRUE,,Mavic Mini,TRUE,FALSE,,Smart,RC,FALSE,TRUE,FALSE,,,TRUE,,FALSE,FALSE,FALSE,FALSE,FALSE,FALSE,FALSE,FALSE,FALSE,FALSE,0,Follow Yaw,0,0,-41.3,318.7,FALSE,FALSE,FALSE,FALSE,FALSE,FALSE,,TRUE,Normal,,100,1024,1024,1684,1024,2,FALSE,FALSE,FALSE,FALSE,FALSE,0,FALSE,FALSE,FALSE,FALSE,70,7.711,1426,2051,7.675,FALSE,3.856,3.855,0.001,FALSE,FALSE,NA,88.3,88.3,88.3,0,0,0,0,5,2791.1,697.78,,Idle,0,20,FALSE,5,TRUE,10,Go Home,FALSE,FALSE,FALSE,FALSE,FALSE,FALSE,FALSE,FALSE,FALSE,FALSE,FALSE,FALSE,6.974150681,79.91427533,1.2,143.2,328,TRUE,1,1,FALSE,FALSE,FALSE,FALSE,,TRUE,FALSE,FALSE,Course Lock,65.6,,16.4,Calm,29,,1.12.8,Mavic Mini,1SDCH7G0169R0K,1SFLH6Q0AB03DJ,1SRCH7F014TAHX,1U5X071EXP5ZJG,82.8,0.2,3.2,4.47388,3.35541,0,60,Mavic Mini,1SDCH7G0169R0K,1SFLH6Q0AB03DJ,1SRCH7F014TAHX,1U5X071EXP5ZJG,DJI Fly,,1.12.8,BA26A668-AC55-BABC-12A0-F3A3DC374360,1SDCH7G0169R0K,,,,,6.974155577,79.91426647,5,,
2/21/2024,21:54.1,1m 33.3s,93.3,6.974149726,79.91427198,0.3,0.3,0.9,0,0.5,0.223694,0.223694,0.223694,0.223694,0,0,-2.013246,0,2.2,-1,-53.2,306.8,1.5,Tripod,Other,,12,5,TRUE,,Mavic Mini,TRUE,FALSE,,Smart,RC,FALSE,TRUE,FALSE,,,TRUE,,FALSE,FALSE,FALSE,FALSE,FALSE,FALSE,FALSE,FALSE,FALSE,FALSE,0,Follow Yaw,0,0,-41.3,318.7,FALSE,FALSE,FALSE,FALSE,FALSE,FALSE,,TRUE,Normal,,100,1024,1024,1684,1024,2,FALSE,FALSE,FALSE,FALSE,FALSE,0,FALSE,FALSE,FALSE,FALSE,70,7.711,1426,2051,7.675,FALSE,3.856,3.855,0.001,FALSE,FALSE,NA,88.3,88.3,88.3,0,0,0,0,5,2791.1,697.78,,Idle,0,20,FALSE,5,TRUE,10,Go Home,FALSE,FALSE,FALSE,FALSE,FALSE,FALSE,FALSE,FALSE,FALSE,FALSE,FALSE,FALSE,6.974150681,79.91427533,1.2,143.2,328,TRUE,1,1,FALSE,FALSE,FALSE,FALSE,,TRUE,FALSE,FALSE,Course Lock,65.6,,16.4,Calm,29,,1.12.8,Mavic Mini,1SDCH7G0169R0K,1SFLH6Q0AB03DJ,1SRCH7F014TAHX,1U5X071EXP5ZJG,82.8,0.2,3.2,4.47388,3.35541,0,60,Mavic Mini,1SDCH7G0169R0K,1SFLH6Q0AB03DJ,1SRCH7F014TAHX,1U5X071EXP5ZJG,DJI Fly,,1.12.8,BA26A668-AC55-BABC-12A0-F3A3DC374360,1SDCH7G0169R0K,,,,,6.974155577,79.91426647,5,,
2/21/2024,21:54.2,1m 33.4s,93.4,6.974149882,79.91427193,0.6,0.6,0.9,1,0.5,0.223694,0.223694,0.223694,0.223694,0,0,-2.460634,0,2,-1,-53.2,306.8,347.1,Tripod,Other,,11,4,TRUE,,Mavic Mini,TRUE,FALSE,,Smart,RC,FALSE,TRUE,FALSE,,,TRUE,,FALSE,FALSE,FALSE,FALSE,FALSE,FALSE,FALSE,FALSE,FALSE,FALSE,0,Follow Yaw,0,0,-41.3,318.7,FALSE,FALSE,FALSE,FALSE,FALSE,FALSE,,TRUE,Normal,,100,1024,1024,1684,1024,2,FALSE,FALSE,FALSE,FALSE,FALSE,0,FALSE,FALSE,FALSE,FALSE,70,7.46,1425,2051,7.675,FALSE,3.731,3.729,0.002,FALSE,FALSE,NA,88.3,88.3,88.3,0,0,0,0,5,2791.1,697.78,,Idle,0,20,FALSE,5,TRUE,10,Go Home,FALSE,FALSE,FALSE,FALSE,FALSE,FALSE,FALSE,FALSE,FALSE,FALSE,FALSE,FALSE,6.974150681,79.91427533,1.2,143.2,328,TRUE,1,1,FALSE,FALSE,FALSE,FALSE,,TRUE,FALSE,FALSE,Course Lock,65.6,,16.4,Calm,29,,1.12.8,Mavic Mini,1SDCH7G0169R0K,1SFLH6Q0AB03DJ,1SRCH7F014TAHX,1U5X071EXP5ZJG,82.8,0.2,3.2,4.47388,3.35541,0,60,Mavic Mini,1SDCH7G0169R0K,1SFLH6Q0AB03DJ,1SRCH7F014TAHX,1U5X071EXP5ZJG,DJI Fly,,1.12.8,BA26A668-AC55-BABC-12A0-F3A3DC374360,1SDCH7G0169R0K,,,,,6.974155577,79.91426647,5,,
2/21/2024,21:54.3,1m 33.5s,93.5,6.97415004,79.91427187,0.9,0.9,1.6,1,0.6,0.223694,0.223694,0.223694,0.223694,0,0,-2.908022,0,1.9,-1.2,-53.3,306.7,344.6,Tripod,Other,,11,4,TRUE,,Mavic Mini,TRUE,FALSE,,Smart,RC,FALSE,TRUE,FALSE,,,TRUE,,FALSE,FALSE,FALSE,FALSE,FALSE,FALSE,FALSE,FALSE,FALSE,FALSE,0,Follow Yaw,0,0,-41.3,318.7,FALSE,FALSE,FALSE,FALSE,FALSE,FALSE,,TRUE,Normal,,100,1024,1024,1684,1024,2,FALSE,FALSE,FALSE,FALSE,FALSE,0,FALSE,FALSE,FALSE,FALSE,70,7.46,1425,2051,7.675,FALSE,3.731,3.729,0.002,FALSE,FALSE,NA,88.3,88.3,88.3,0,0,0,0,5,2791.1,697.78,,Idle,0,20,FALSE,5,TRUE,10,Go Home,FALSE,FALSE,FALSE,FALSE,FALSE,FALSE,FALSE,FALSE,FALSE,FALSE,FALSE,FALSE,6.974150681,79.91427533,1.2,143.2,328,TRUE,1,1,FALSE,FALSE,FALSE,FALSE,,TRUE,FALSE,FALSE,Course Lock,65.6,,16.4,Calm,29,,1.12.8,Mavic Mini,1SDCH7G0169R0K,1SFLH6Q0AB03DJ,1SRCH7F014TAHX,1U5X071EXP5ZJG,82.8,0.2,3.2,4.47388,3.35541,0,60,Mavic Mini,1SDCH7G0169R0K,1SFLH6Q0AB03DJ,1SRCH7F014TAHX,1U5X071EXP5ZJG,DJI Fly,,1.12.8,BA26A668-AC55-BABC-12A0-F3A3DC374360,1SDCH7G0169R0K,,,,,6.974155577,79.91426647,5,,
2/21/2024,21:54.4,1m 33.6s,93.6,6.974150206,79.91427182,1.3,1.3,1.9,1,0.7,0.223694,0.223694,0.223694,0.223694,0,0,-3.131716,0,2,-1.8,-53.3,306.7,346.6,Tripod,Other,,11,4,TRUE,,Mavic Mini,TRUE,FALSE,,Smart,RC,FALSE,TRUE,FALSE,,,TRUE,,FALSE,FALSE,FALSE,FALSE,FALSE,FALSE,FALSE,FALSE,FALSE,FALSE,0,Follow Yaw,0,0,-41.3,318.7,FALSE,FALSE,FALSE,FALSE,FALSE,FALSE,,TRUE,Normal,,100,1024,1024,1684,1024,2,FALSE,FALSE,FALSE,FALSE,FALSE,0,FALSE,FALSE,FALSE,FALSE,70,7.46,1425,2051,7.675,FALSE,3.731,3.729,0.002,FALSE,FALSE,NA,88.3,88.3,88.3,0,0,0,0,5,2791.1,697.78,,Idle,0,20,FALSE,5,TRUE,10,Go Home,FALSE,FALSE,FALSE,FALSE,FALSE,FALSE,FALSE,FALSE,FALSE,FALSE,FALSE,FALSE,6.974150681,79.91427533,1.2,143.2,328,TRUE,1,1,FALSE,FALSE,FALSE,FALSE,,TRUE,FALSE,FALSE,Course Lock,65.6,,16.4,Calm,29,,1.12.8,Mavic Mini,1SDCH7G0169R0K,1SFLH6Q0AB03DJ,1SRCH7F014TAHX,1U5X071EXP5ZJG,82.8,0.2,3.2,4.47388,3.35541,0,60,Mavic Mini,1SDCH7G0169R0K,1SFLH6Q0AB03DJ,1SRCH7F014TAHX,1U5X071EXP5ZJG,DJI Fly,,1.12.8,BA26A668-AC55-BABC-12A0-F3A3DC374360,1SDCH7G0169R0K,,,,,6.974155577,79.91426647,5,,
2/21/2024,21:54.6,1m 33.7s,93.7,6.97415052,79.91427175,1.9,1.9,2.2,2,0.8,0.223694,0.223694,0.223694,0.223694,0,0,-3.35541,0,2.1,-2.2,-53.2,306.8,349.2,Tripod,Other,,11,4,TRUE,,Mavic Mini,TRUE,FALSE,,Smart,RC,FALSE,TRUE,FALSE,,,TRUE,,FALSE,FALSE,FALSE,FALSE,FALSE,FALSE,FALSE,FALSE,FALSE,FALSE,0,Follow Yaw,0,0,-41.3,318.7,FALSE,FALSE,FALSE,FALSE,FALSE,FALSE,,TRUE,Normal,,100,1024,1024,1684,1024,2,FALSE,FALSE,FALSE,FALSE,FALSE,0,FALSE,FALSE,FALSE,FALSE,70,7.46,1425,2051,7.675,FALSE,3.731,3.729,0.002,FALSE,FALSE,NA,88.3,88.3,88.3,0,0,0,0,5,2791.1,697.78,,Idle,0,20,FALSE,5,TRUE,10,Go Home,FALSE,FALSE,FALSE,FALSE,FALSE,FALSE,FALSE,FALSE,FALSE,FALSE,FALSE,FALSE,6.974150681,79.91427533,1.3,143.2,328,TRUE,1,1,FALSE,FALSE,FALSE,FALSE,,TRUE,FALSE,FALSE,Course Lock,65.6,,16.4,Calm,29,,1.12.8,Mavic Mini,1SDCH7G0169R0K,1SFLH6Q0AB03DJ,1SRCH7F014TAHX,1U5X071EXP5ZJG,82.8,0.2,3.2,4.47388,3.35541,0,60,Mavic Mini,1SDCH7G0169R0K,1SFLH6Q0AB03DJ,1SRCH7F014TAHX,1U5X071EXP5ZJG,DJI Fly,,1.12.8,BA26A668-AC55-BABC-12A0-F3A3DC374360,1SDCH7G0169R0K,,,,,6.974155577,79.91426647,5,,
2/21/2024,21:54.7,1m 33.8s,93.8,6.974150702,79.91427173,2.2,2.2,2.9,2,0.8,0,0.223694,0,0.223694,0,0,-3.35541,0,2.3,-2.3,-53.3,306.7,,Tripod,Other,,11,4,TRUE,,Mavic Mini,TRUE,FALSE,,Smart,RC,FALSE,TRUE,FALSE,,,TRUE,,FALSE,FALSE,FALSE,FALSE,FALSE,FALSE,FALSE,FALSE,FALSE,FALSE,0,Follow Yaw,0,0,-41.3,318.7,FALSE,FALSE,FALSE,FALSE,FALSE,FALSE,,TRUE,Normal,,100,1024,1024,1684,1024,2,FALSE,FALSE,FALSE,FALSE,FALSE,0,FALSE,FALSE,FALSE,FALSE,70,7.46,1425,2051,7.571,FALSE,3.731,3.729,0.002,FALSE,FALSE,NA,88.3,88.3,88.3,0,0,1,0,5,3271.5,817.88,,Idle,0,20,FALSE,5,TRUE,10,Go Home,FALSE,FALSE,FALSE,FALSE,FALSE,FALSE,FALSE,FALSE,FALSE,FALSE,FALSE,FALSE,6.974149214,79.91427206,0.5,143.2,328,TRUE,1,1,FALSE,FALSE,FALSE,FALSE,,TRUE,FALSE,FALSE,Course Lock,65.6,,16.4,Calm,29,,1.12.8,Mavic Mini,1SDCH7G0169R0K,1SFLH6Q0AB03DJ,1SRCH7F014TAHX,1U5X071EXP5ZJG,82.8,0.2,3.2,4.47388,3.35541,0,60,Mavic Mini,1SDCH7G0169R0K,1SFLH6Q0AB03DJ,1SRCH7F014TAHX,1U5X071EXP5ZJG,DJI Fly,,1.12.8,BA26A668-AC55-BABC-12A0-F3A3DC374360,1SDCH7G0169R0K,,,,,6.974155577,79.91426647,5,Home Point Updated.,
2/21/2024,21:54.8,1m 33.9s,93.9,6.974150788,79.91427174,2.6,2.6,3.6,3,0.9,0,0.223694,0,0.223694,0,0,-3.35541,0,2.1,-2.5,-53.4,306.6,,Tripod,Other,,11,4,TRUE,,Mavic Mini,TRUE,FALSE,,Smart,RC,FALSE,TRUE,FALSE,,,TRUE,,FALSE,FALSE,FALSE,FALSE,FALSE,FALSE,FALSE,FALSE,FALSE,FALSE,0,Follow Yaw,0,0,-41.3,318.7,FALSE,FALSE,FALSE,FALSE,FALSE,FALSE,,TRUE,Normal,,100,1024,1024,1684,1024,2,FALSE,FALSE,FALSE,FALSE,FALSE,0,FALSE,FALSE,FALSE,FALSE,70,7.46,1425,2051,7.571,FALSE,3.731,3.729,0.002,FALSE,FALSE,NA,88.3,88.3,88.3,0,0,1,0,5,3271.5,817.88,,Idle,0,20,FALSE,5,TRUE,10,Go Home,FALSE,FALSE,FALSE,FALSE,FALSE,FALSE,FALSE,FALSE,FALSE,FALSE,FALSE,FALSE,6.974149214,79.91427206,0.5,143.2,328,TRUE,1,1,FALSE,FALSE,FALSE,FALSE,,TRUE,FALSE,FALSE,Course Lock,65.6,,16.4,Calm,29,,1.12.8,Mavic Mini,1SDCH7G0169R0K,1SFLH6Q0AB03DJ,1SRCH7F014TAHX,1U5X071EXP5ZJG,82.8,0.2,3.2,4.47388,3.35541,0,60,Mavic Mini,1SDCH7G0169R0K,1SFLH6Q0AB03DJ,1SRCH7F014TAHX,1U5X071EXP5ZJG,DJI Fly,,1.12.8,BA26A668-AC55-BABC-12A0-F3A3DC374360,1SDCH7G0169R0K,,,,,6.974155577,79.91426647,5,Home Point updated. RTH altitude adjusted to 20 m! (Code: 120852).,
2/21/2024,21:54.9,1m 34.0s,94,6.974150845,79.91427176,3.2,3.2,3.9,3,0.9,0,0.223694,0,0.223694,0,0,-3.35541,0,1.5,-2.3,-53.4,306.6,,Tripod,Other,,12,4,TRUE,,Mavic Mini,TRUE,FALSE,,Smart,RC,FALSE,TRUE,FALSE,,,TRUE,,FALSE,FALSE,FALSE,FALSE,FALSE,FALSE,FALSE,FALSE,FALSE,FALSE,0,Follow Yaw,0,0,-41.3,318.7,FALSE,FALSE,FALSE,FALSE,FALSE,FALSE,,TRUE,Normal,,100,1024,1024,1436,1024,2,FALSE,FALSE,FALSE,FALSE,FALSE,0,FALSE,FALSE,FALSE,FALSE,70,7.46,1425,2051,7.571,FALSE,3.731,3.729,0.002,FALSE,FALSE,NA,88.3,88.3,88.3,0,0,1,0,5,3271.5,817.88,,Idle,0,20,FALSE,5,TRUE,10,Go Home,FALSE,FALSE,FALSE,FALSE,FALSE,FALSE,FALSE,FALSE,FALSE,FALSE,FALSE,FALSE,6.974149214,79.91427206,0.6,143.2,328,TRUE,1,1,FALSE,FALSE,FALSE,FALSE,,TRUE,FALSE,FALSE,Course Lock,65.6,,16.4,Calm,29,,1.12.8,Mavic Mini,1SDCH7G0169R0K,1SFLH6Q0AB03DJ,1SRCH7F014TAHX,1U5X071EXP5ZJG,82.8,0.2,3.2,4.47388,3.35541,0,60,Mavic Mini,1SDCH7G0169R0K,1SFLH6Q0AB03DJ,1SRCH7F014TAHX,1U5X071EXP5ZJG,DJI Fly,,1.12.8,BA26A668-AC55-BABC-12A0-F3A3DC374360,1SDCH7G0169R0K,,,,,6.974155577,79.91426647,5,,
2/21/2024,21:55.0,1m 34.1s,94.1,6.974150899,79.91427172,3.6,3.6,4.5,4,0.9,0,0.223694,0,0.223694,0,0,-3.35541,0,1.4,-2.2,-53.3,306.7,,Tripod,Other,,12,4,TRUE,,Mavic Mini,TRUE,FALSE,,Smart,RC,FALSE,TRUE,FALSE,,,TRUE,,FALSE,FALSE,FALSE,FALSE,FALSE,FALSE,FALSE,FALSE,FALSE,FALSE,0,Follow Yaw,0,0,-41.3,318.7,FALSE,FALSE,FALSE,FALSE,FALSE,FALSE,,TRUE,Normal,,100,1024,1024,1024,1024,2,FALSE,FALSE,FALSE,FALSE,FALSE,0,FALSE,FALSE,FALSE,FALSE,70,7.46,1425,2051,7.571,FALSE,3.731,3.729,0.002,FALSE,FALSE,NA,88.3,88.3,88.3,0,0,1,0,5,3271.5,817.88,,Idle,0,20,FALSE,5,TRUE,10,Go Home,FALSE,FALSE,FALSE,FALSE,FALSE,FALSE,FALSE,FALSE,FALSE,FALSE,FALSE,FALSE,6.974149214,79.91427206,0.6,143.2,328,TRUE,1,1,FALSE,FALSE,FALSE,FALSE,,TRUE,FALSE,FALSE,Course Lock,65.6,,16.4,Calm,29,,1.12.8,Mavic Mini,1SDCH7G0169R0K,1SFLH6Q0AB03DJ,1SRCH7F014TAHX,1U5X071EXP5ZJG,82.8,0.2,3.2,4.47388,3.35541,0,60,Mavic Mini,1SDCH7G0169R0K,1SFLH6Q0AB03DJ,1SRCH7F014TAHX,1U5X071EXP5ZJG,DJI Fly,,1.12.8,BA26A668-AC55-BABC-12A0-F3A3DC374360,1SDCH7G0169R0K,,,,,6.974155577,79.91426647,5,,
2/21/2024,21:55.0,1m 34.2s,94.2,6.974150852,79.91427159,4.2,4.2,5.2,4,1,0,0.223694,0,0.223694,0,0,-3.35541,0,0.9,-1.9,-53.2,306.8,,Tripod,Other,,12,4,TRUE,,Mavic Mini,TRUE,FALSE,,Smart,RC,FALSE,TRUE,FALSE,,,TRUE,,FALSE,FALSE,FALSE,FALSE,FALSE,FALSE,FALSE,FALSE,FALSE,FALSE,0,Follow Yaw,0,0,-41.3,318.7,FALSE,FALSE,FALSE,FALSE,FALSE,FALSE,,TRUE,Normal,,100,1024,1024,1024,1024,2,FALSE,FALSE,FALSE,FALSE,FALSE,0,FALSE,FALSE,FALSE,FALSE,70,7.46,1425,2051,7.571,FALSE,3.731,3.729,0.002,FALSE,FALSE,NA,88.3,88.3,88.3,0,0,1,0,5,3271.5,817.88,,Idle,0,20,FALSE,5,TRUE,10,Go Home,FALSE,FALSE,FALSE,FALSE,FALSE,FALSE,FALSE,FALSE,FALSE,FALSE,FALSE,FALSE,6.974149214,79.91427206,0.6,143.2,328,TRUE,1,1,FALSE,FALSE,FALSE,FALSE,,TRUE,FALSE,FALSE,Course Lock,65.6,,16.4,Calm,29,,1.12.8,Mavic Mini,1SDCH7G0169R0K,1SFLH6Q0AB03DJ,1SRCH7F014TAHX,1U5X071EXP5ZJG,82.8,0.2,3.2,4.47388,3.35541,0,60,Mavic Mini,1SDCH7G0169R0K,1SFLH6Q0AB03DJ,1SRCH7F014TAHX,1U5X071EXP5ZJG,DJI Fly,,1.12.8,BA26A668-AC55-BABC-12A0-F3A3DC374360,1SDCH7G0169R0K,,,,,6.974155577,79.91426647,5,,
2/21/2024,21:55.1,1m 34.3s,94.3,6.974150878,79.91427157,4.5,4.5,5.5,5,1,0,0.223694,0,0.223694,0,0,-3.131716,0,0.8,-1.9,-53.2,306.8,,Tripod,Other,,12,4,TRUE,,Mavic Mini,TRUE,FALSE,,Smart,RC,FALSE,TRUE,FALSE,,,TRUE,,FALSE,FALSE,FALSE,FALSE,FALSE,FALSE,FALSE,FALSE,FALSE,FALSE,0,Follow Yaw,0,0,-41.3,318.7,FALSE,FALSE,FALSE,FALSE,FALSE,FALSE,,TRUE,Normal,,100,1024,1024,1024,1024,2,FALSE,FALSE,FALSE,FALSE,FALSE,0,FALSE,FALSE,FALSE,FALSE,70,7.46,1425,2051,7.571,FALSE,3.731,3.729,0.002,FALSE,FALSE,NA,88.3,88.3,88.3,0,0,1,0,5,3271.5,817.88,,Idle,0,20,FALSE,5,TRUE,10,Go Home,FALSE,FALSE,FALSE,FALSE,FALSE,FALSE,FALSE,FALSE,FALSE,FALSE,FALSE,FALSE,6.974149214,79.91427206,0.6,143.2,328,TRUE,1,1,FALSE,FALSE,FALSE,FALSE,,TRUE,FALSE,FALSE,Course Lock,65.6,,16.4,Calm,29,,1.12.8,Mavic Mini,1SDCH7G0169R0K,1SFLH6Q0AB03DJ,1SRCH7F014TAHX,1U5X071EXP5ZJG,82.8,0.2,3.2,4.47388,3.35541,0,60,Mavic Mini,1SDCH7G0169R0K,1SFLH6Q0AB03DJ,1SRCH7F014TAHX,1U5X071EXP5ZJG,DJI Fly,,1.12.8,BA26A668-AC55-BABC-12A0-F3A3DC374360,1SDCH7G0169R0K,,,,,6.974155577,79.91426647,5,,
2/21/2024,21:55.2,1m 34.4s,94.4,6.9741509,79.91427156,4.9,4.9,6.2,5,1,0,0.223694,0,0.223694,0,0,-2.684328,0,0.3,-1.6,-53.1,306.9,,Tripod,Other,,12,4,TRUE,,Mavic Mini,TRUE,FALSE,,Smart,RC,FALSE,TRUE,FALSE,,,TRUE,,FALSE,FALSE,FALSE,FALSE,FALSE,FALSE,FALSE,FALSE,FALSE,FALSE,0,Follow Yaw,0,0,-41.3,318.7,FALSE,FALSE,FALSE,FALSE,FALSE,FALSE,,TRUE,Normal,,100,1024,1024,1024,1024,2,FALSE,FALSE,FALSE,FALSE,FALSE,0,FALSE,FALSE,FALSE,FALSE,70,7.46,1425,2051,7.571,FALSE,3.731,3.729,0.002,FALSE,FALSE,NA,88.3,88.3,88.3,0,0,1,0,5,3271.5,817.88,,Idle,0,20,FALSE,5,TRUE,10,Go Home,FALSE,FALSE,FALSE,FALSE,FALSE,FALSE,FALSE,FALSE,FALSE,FALSE,FALSE,FALSE,6.974149214,79.91427206,0.6,143.2,328,TRUE,1,1,FALSE,FALSE,FALSE,FALSE,,TRUE,FALSE,FALSE,Course Lock,65.6,,16.4,Calm,29,,1.12.8,Mavic Mini,1SDCH7G0169R0K,1SFLH6Q0AB03DJ,1SRCH7F014TAHX,1U5X071EXP5ZJG,82.8,0.2,3.2,4.47388,3.35541,0,60,Mavic Mini,1SDCH7G0169R0K,1SFLH6Q0AB03DJ,1SRCH7F014TAHX,1U5X071EXP5ZJG,DJI Fly,,1.12.8,BA26A668-AC55-BABC-12A0-F3A3DC374360,1SDCH7G0169R0K,,,,,6.974155577,79.91426647,5,,
2/21/2024,21:55.3,1m 34.5s,94.5,6.97415083,79.9142716,5.2,5.2,6.5,5,1,0,0.223694,0,0.223694,0,0,-2.013246,0,0.5,-1.6,-53,307,,Tripod,Other,,12,4,TRUE,,Mavic Mini,TRUE,FALSE,,Smart,RC,FALSE,TRUE,FALSE,,,TRUE,,FALSE,FALSE,FALSE,FALSE,FALSE,FALSE,FALSE,FALSE,FALSE,FALSE,0,Follow Yaw,0,0,-41.3,318.7,FALSE,FALSE,FALSE,FALSE,FALSE,FALSE,,TRUE,Normal,,100,1024,1024,1024,1024,2,FALSE,FALSE,FALSE,FALSE,FALSE,0,FALSE,FALSE,FALSE,FALSE,70,7.46,1425,2051,7.571,FALSE,3.731,3.729,0.002,FALSE,FALSE,NA,88.3,88.3,88.3,0,0,1,0,5,3271.5,817.88,,Idle,0,20,FALSE,5,TRUE,10,Go Home,FALSE,FALSE,FALSE,FALSE,FALSE,FALSE,FALSE,FALSE,FALSE,FALSE,FALSE,FALSE,6.974149214,79.91427206,0.6,143.2,328,TRUE,1,1,FALSE,FALSE,FALSE,FALSE,,TRUE,FALSE,FALSE,Course Lock,65.6,,16.4,Calm,29,,1.12.8,Mavic Mini,1SDCH7G0169R0K,1SFLH6Q0AB03DJ,1SRCH7F014TAHX,1U5X071EXP5ZJG,82.8,0.2,3.2,4.47388,3.35541,0,60,Mavic Mini,1SDCH7G0169R0K,1SFLH6Q0AB03DJ,1SRCH7F014TAHX,1U5X071EXP5ZJG,DJI Fly,,1.12.8,BA26A668-AC55-BABC-12A0-F3A3DC374360,1SDCH7G0169R0K,,,,,6.974155577,79.91426647,5,,
2/21/2024,21:55.4,1m 34.6s,94.6,6.97415047,79.91427177,5.5,5.5,6.5,6,1.2,0,0.223694,0,0.223694,0,0,-1.342164,0,0.6,-1.6,-53.1,306.9,,Tripod,Other,,13,4,TRUE,,Mavic Mini,TRUE,FALSE,,Smart,RC,FALSE,TRUE,FALSE,,,TRUE,,FALSE,FALSE,FALSE,FALSE,FALSE,FALSE,FALSE,FALSE,FALSE,FALSE,0,Follow Yaw,0,0,-41.3,318.7,FALSE,FALSE,FALSE,FALSE,FALSE,FALSE,,TRUE,Normal,,100,1024,1024,1024,1024,2,FALSE,FALSE,FALSE,FALSE,FALSE,0,FALSE,FALSE,FALSE,FALSE,70,7.548,1422,2051,7.571,FALSE,3.774,3.775,0.002,FALSE,FALSE,NA,88.5,88.3,88.5,0,0,1,0,5,3271.5,817.88,,Idle,0,20,FALSE,5,TRUE,10,Go Home,FALSE,FALSE,FALSE,FALSE,FALSE,FALSE,FALSE,FALSE,FALSE,FALSE,FALSE,FALSE,6.974149214,79.91427206,0.4,143.2,328,TRUE,1,1,FALSE,FALSE,FALSE,FALSE,,TRUE,FALSE,FALSE,Course Lock,65.6,,16.4,Calm,29,,1.12.8,Mavic Mini,1SDCH7G0169R0K,1SFLH6Q0AB03DJ,1SRCH7F014TAHX,1U5X071EXP5ZJG,82.8,0.2,3.2,4.47388,3.35541,0,60,Mavic Mini,1SDCH7G0169R0K,1SFLH6Q0AB03DJ,1SRCH7F014TAHX,1U5X071EXP5ZJG,DJI Fly,,1.12.8,BA26A668-AC55-BABC-12A0-F3A3DC374360,1SDCH7G0169R0K,,,,,6.974155577,79.91426647,5,,
2/21/2024,21:55.5,1m 34.7s,94.7,6.974150498,79.91427178,5.5,5.5,6.8,6,1.2,0,0.223694,0,0.223694,0,0,-0.671082,0,0.8,-1.6,-53.1,306.9,,Tripod,Other,,13,4,TRUE,,Mavic Mini,TRUE,FALSE,,Smart,RC,FALSE,TRUE,FALSE,,,TRUE,,FALSE,FALSE,FALSE,FALSE,FALSE,FALSE,FALSE,FALSE,FALSE,FALSE,0,Follow Yaw,0,0,-41.3,318.7,FALSE,FALSE,FALSE,FALSE,FALSE,FALSE,,TRUE,Normal,,100,1024,1024,1024,1024,2,FALSE,FALSE,FALSE,FALSE,FALSE,0,FALSE,FALSE,FALSE,FALSE,70,7.548,1422,2051,7.571,FALSE,3.774,3.775,0.002,FALSE,FALSE,NA,88.5,88.3,88.5,0,0,1,0,5,3271.5,817.88,,Idle,0,20,FALSE,5,TRUE,10,Go Home,FALSE,FALSE,FALSE,FALSE,FALSE,FALSE,FALSE,FALSE,FALSE,FALSE,FALSE,FALSE,6.974149214,79.91427206,0.4,143.2,328,TRUE,1,1,FALSE,FALSE,FALSE,FALSE,,TRUE,FALSE,FALSE,Course Lock,65.6,,16.4,Calm,29,,1.12.8,Mavic Mini,1SDCH7G0169R0K,1SFLH6Q0AB03DJ,1SRCH7F014TAHX,1U5X071EXP5ZJG,82.8,0.2,3.2,4.47388,3.35541,0,60,Mavic Mini,1SDCH7G0169R0K,1SFLH6Q0AB03DJ,1SRCH7F014TAHX,1U5X071EXP5ZJG,DJI Fly,,1.12.8,BA26A668-AC55-BABC-12A0-F3A3DC374360,1SDCH7G0169R0K,,,,,6.974155577,79.91426647,5,,
2/21/2024,21:55.6,1m 34.8s,94.8,6.974150565,79.91427177,5.5,5.5,6.8,6,1.2,0,0.223694,0,0.223694,0,0,-0.223694,0,1,-1.5,-53.1,306.9,,Tripod,Other,,13,4,TRUE,,Mavic Mini,TRUE,FALSE,,Smart,RC,FALSE,TRUE,FALSE,,,TRUE,,FALSE,FALSE,FALSE,FALSE,FALSE,FALSE,FALSE,FALSE,FALSE,FALSE,0,Follow Yaw,0,0,-41.3,318.7,FALSE,FALSE,FALSE,FALSE,FALSE,FALSE,,TRUE,Normal,,100,1024,1024,1024,1024,2,FALSE,FALSE,FALSE,FALSE,FALSE,0,FALSE,FALSE,FALSE,FALSE,70,7.548,1422,2051,7.492,FALSE,3.774,3.775,0.002,FALSE,FALSE,NA,88.5,88.3,88.5,0,0,1,0,5,4551.9,1137.98,,Idle,0,20,FALSE,5,TRUE,10,Go Home,FALSE,FALSE,FALSE,FALSE,FALSE,FALSE,FALSE,FALSE,FALSE,FALSE,FALSE,FALSE,6.974149214,79.91427206,0.5,143.2,328,TRUE,1,1,FALSE,FALSE,FALSE,FALSE,,TRUE,FALSE,FALSE,Course Lock,65.6,,16.4,Calm,29,,1.12.8,Mavic Mini,1SDCH7G0169R0K,1SFLH6Q0AB03DJ,1SRCH7F014TAHX,1U5X071EXP5ZJG,82.8,0.2,3.2,4.47388,3.35541,0,60,Mavic Mini,1SDCH7G0169R0K,1SFLH6Q0AB03DJ,1SRCH7F014TAHX,1U5X071EXP5ZJG,DJI Fly,,1.12.8,BA26A668-AC55-BABC-12A0-F3A3DC374360,1SDCH7G0169R0K,,,,,6.974155577,79.91426647,5,,
2/21/2024,21:55.7,1m 34.9s,94.9,6.974150728,79.91427172,5.5,5.5,6.8,6,1.3,0,0.223694,0,0.223694,0,0,0,0,1.3,-1.6,-53.1,306.9,,Tripod,Other,,13,4,TRUE,,Mavic Mini,TRUE,FALSE,,Smart,RC,FALSE,TRUE,FALSE,,,TRUE,,FALSE,FALSE,FALSE,FALSE,FALSE,FALSE,FALSE,FALSE,FALSE,FALSE,0,Follow Yaw,0,0,-41.3,318.7,FALSE,FALSE,FALSE,FALSE,FALSE,FALSE,,TRUE,Normal,,100,1024,1024,1024,1024,2,FALSE,FALSE,FALSE,FALSE,FALSE,0,FALSE,FALSE,FALSE,FALSE,70,7.548,1422,2051,7.492,FALSE,3.774,3.775,0.002,FALSE,FALSE,NA,88.5,88.3,88.5,0,0,1,0,5,4551.9,1137.98,,Idle,0,20,FALSE,5,TRUE,10,Go Home,FALSE,FALSE,FALSE,FALSE,FALSE,FALSE,FALSE,FALSE,FALSE,FALSE,FALSE,FALSE,6.974149214,79.91427206,0.5,143.2,328,TRUE,1,1,FALSE,FALSE,FALSE,FALSE,,TRUE,FALSE,FALSE,Course Lock,65.6,,16.4,Calm,29,,1.12.8,Mavic Mini,1SDCH7G0169R0K,1SFLH6Q0AB03DJ,1SRCH7F014TAHX,1U5X071EXP5ZJG,82.8,0.2,3.2,4.47388,3.35541,0,60,Mavic Mini,1SDCH7G0169R0K,1SFLH6Q0AB03DJ,1SRCH7F014TAHX,1U5X071EXP5ZJG,DJI Fly,,1.12.8,BA26A668-AC55-BABC-12A0-F3A3DC374360,1SDCH7G0169R0K,,,,,6.974155577,79.91426647,5,,
2/21/2024,21:55.9,1m 35.0s,95,6.97415126,79.91427155,5.5,5.5,6.8,6,1.5,0,0.223694,0,0.223694,0,0,0,0,1.5,-1.6,-53.1,306.9,,Tripod,Other,,13,4,TRUE,,Mavic Mini,TRUE,FALSE,,Smart,RC,FALSE,TRUE,FALSE,,,TRUE,,FALSE,FALSE,FALSE,FALSE,FALSE,FALSE,FALSE,FALSE,FALSE,FALSE,0,Follow Yaw,0,0,-41.3,318.7,FALSE,FALSE,FALSE,FALSE,FALSE,FALSE,,TRUE,Normal,,100,1024,1024,695,1024,2,FALSE,FALSE,FALSE,FALSE,FALSE,0,FALSE,FALSE,FALSE,FALSE,70,7.548,1422,2051,7.492,FALSE,3.774,3.775,0.002,FALSE,FALSE,NA,88.5,88.3,88.5,0,0,1,0,5,4551.9,1137.98,,Idle,0,20,FALSE,5,TRUE,10,Go Home,FALSE,FALSE,FALSE,FALSE,FALSE,FALSE,FALSE,FALSE,FALSE,FALSE,FALSE,FALSE,6.974149214,79.91427206,0.7,143.2,328,TRUE,1,1,FALSE,FALSE,FALSE,FALSE,,TRUE,FALSE,FALSE,Course Lock,65.6,,16.4,Calm,29,,1.12.8,Mavic Mini,1SDCH7G0169R0K,1SFLH6Q0AB03DJ,1SRCH7F014TAHX,1U5X071EXP5ZJG,82.8,0.2,3.2,4.47388,3.35541,0,60,Mavic Mini,1SDCH7G0169R0K,1SFLH6Q0AB03DJ,1SRCH7F014TAHX,1U5X071EXP5ZJG,DJI Fly,,1.12.8,BA26A668-AC55-BABC-12A0-F3A3DC374360,1SDCH7G0169R0K,,,,,6.974155577,79.91426647,5,,
2/21/2024,21:56.0,1m 35.1s,95.1,6.974151479,79.91427143,5.5,5.5,6.8,6,1.6,0,0.223694,0,0.223694,0,0,0,0,1.6,-1.9,-53.1,306.9,,Tripod,Other,,13,4,TRUE,,Mavic Mini,TRUE,FALSE,,Smart,RC,FALSE,TRUE,FALSE,,,TRUE,,FALSE,FALSE,FALSE,FALSE,FALSE,FALSE,FALSE,FALSE,FALSE,FALSE,0,Follow Yaw,0,0,-41.3,318.7,FALSE,FALSE,FALSE,FALSE,FALSE,FALSE,,TRUE,Normal,,100,1024,1024,364,1024,2,FALSE,FALSE,FALSE,FALSE,FALSE,0,FALSE,FALSE,FALSE,FALSE,70,7.548,1422,2051,7.492,FALSE,3.774,3.775,0.002,FALSE,FALSE,NA,88.5,88.3,88.5,0,0,1,0,5,4551.9,1137.98,,Idle,0,20,FALSE,5,TRUE,10,Go Home,FALSE,FALSE,FALSE,FALSE,FALSE,FALSE,FALSE,FALSE,FALSE,FALSE,FALSE,FALSE,6.974149214,79.91427206,0.8,143.2,328,TRUE,1,1,FALSE,FALSE,FALSE,FALSE,,TRUE,FALSE,FALSE,Course Lock,65.6,,16.4,Calm,29,,1.12.8,Mavic Mini,1SDCH7G0169R0K,1SFLH6Q0AB03DJ,1SRCH7F014TAHX,1U5X071EXP5ZJG,82.8,0.2,3.2,4.47388,3.35541,0,60,Mavic Mini,1SDCH7G0169R0K,1SFLH6Q0AB03DJ,1SRCH7F014TAHX,1U5X071EXP5ZJG,DJI Fly,,1.12.8,BA26A668-AC55-BABC-12A0-F3A3DC374360,1SDCH7G0169R0K,,,,,6.974155577,79.91426647,5,,
2/21/2024,21:56.1,1m 35.2s,95.2,6.974151708,79.91427129,5.2,5.5,6.8,5,1.7,0,0.223694,0,0.223694,0,0,0,0,1.7,-2.1,-53.1,306.9,,Tripod,Other,,12,4,TRUE,,Mavic Mini,TRUE,FALSE,,Smart,RC,FALSE,TRUE,FALSE,,,TRUE,,FALSE,FALSE,FALSE,FALSE,FALSE,FALSE,FALSE,FALSE,FALSE,FALSE,0,Follow Yaw,0,0,-41.3,318.7,FALSE,FALSE,FALSE,FALSE,FALSE,FALSE,,TRUE,Normal,,100,1024,1024,364,1024,2,FALSE,FALSE,FALSE,FALSE,FALSE,0,FALSE,FALSE,FALSE,FALSE,70,7.548,1422,2051,7.492,FALSE,3.774,3.775,0.002,FALSE,FALSE,NA,88.5,88.3,88.5,0,0,1,0,5,4551.9,1137.98,,Idle,0,20,FALSE,5,TRUE,10,Go Home,FALSE,FALSE,FALSE,FALSE,FALSE,FALSE,FALSE,FALSE,FALSE,FALSE,FALSE,FALSE,6.974149214,79.91427206,0.9,143.2,328,TRUE,1,1,FALSE,FALSE,FALSE,FALSE,,TRUE,FALSE,FALSE,Course Lock,65.6,,16.4,Calm,29,,1.12.8,Mavic Mini,1SDCH7G0169R0K,1SFLH6Q0AB03DJ,1SRCH7F014TAHX,1U5X071EXP5ZJG,82.8,0.2,3.2,4.47388,3.35541,0,60,Mavic Mini,1SDCH7G0169R0K,1SFLH6Q0AB03DJ,1SRCH7F014TAHX,1U5X071EXP5ZJG,DJI Fly,,1.12.8,BA26A668-AC55-BABC-12A0-F3A3DC374360,1SDCH7G0169R0K,,,,,6.974155577,79.91426647,5,,
2/21/2024,21:56.2,1m 35.3s,95.3,6.974151869,79.91427119,5.2,5.5,6.8,5,1.7,0,0.223694,0,0.223694,0,0,0.447388,0.447388,2,-2.2,-53,307,,Tripod,Other,,12,4,TRUE,,Mavic Mini,TRUE,FALSE,,Smart,RC,FALSE,TRUE,FALSE,,,TRUE,,FALSE,FALSE,FALSE,FALSE,FALSE,FALSE,FALSE,FALSE,FALSE,FALSE,0,Follow Yaw,0,0,-41.3,318.7,FALSE,FALSE,FALSE,FALSE,FALSE,FALSE,,TRUE,Normal,,100,1024,1024,364,1024,2,FALSE,FALSE,FALSE,FALSE,FALSE,0,FALSE,FALSE,FALSE,FALSE,70,7.548,1422,2051,7.492,FALSE,3.774,3.775,0.002,FALSE,FALSE,NA,88.5,88.3,88.5,0,0,1,0,5,4551.9,1137.98,,Idle,0,20,FALSE,5,TRUE,10,Go Home,FALSE,FALSE,FALSE,FALSE,FALSE,FALSE,FALSE,FALSE,FALSE,FALSE,FALSE,FALSE,6.974149214,79.91427206,1,143.2,328,TRUE,1,1,FALSE,FALSE,FALSE,FALSE,,TRUE,FALSE,FALSE,Course Lock,65.6,,16.4,Calm,29,,1.12.8,Mavic Mini,1SDCH7G0169R0K,1SFLH6Q0AB03DJ,1SRCH7F014TAHX,1U5X071EXP5ZJG,82.8,0.2,3.2,4.47388,3.35541,0,60,Mavic Mini,1SDCH7G0169R0K,1SFLH6Q0AB03DJ,1SRCH7F014TAHX,1U5X071EXP5ZJG,DJI Fly,,1.12.8,BA26A668-AC55-BABC-12A0-F3A3DC374360,1SDCH7G0169R0K,,,,,6.974155577,79.91426647,5,,
2/21/2024,21:56.3,1m 35.4s,95.4,6.974152228,79.91427092,5.2,5.5,6.8,5,1.9,0,0.223694,0,0.223694,0,0,0.894776,0.894776,2.3,-2.4,-53,307,,Tripod,Other,,12,4,TRUE,,Mavic Mini,TRUE,FALSE,,Smart,RC,FALSE,TRUE,FALSE,,,TRUE,,FALSE,FALSE,FALSE,FALSE,FALSE,FALSE,FALSE,FALSE,FALSE,FALSE,0,Follow Yaw,0,0,-41.3,318.7,FALSE,FALSE,FALSE,FALSE,FALSE,FALSE,,TRUE,Normal,,100,1024,1024,364,1024,2,FALSE,FALSE,FALSE,FALSE,FALSE,0,FALSE,FALSE,FALSE,FALSE,70,7.548,1422,2051,7.492,FALSE,3.774,3.775,0.002,FALSE,FALSE,NA,88.5,88.3,88.5,0,0,1,0,5,4551.9,1137.98,,Idle,0,20,FALSE,5,TRUE,10,Go Home,FALSE,FALSE,FALSE,FALSE,FALSE,FALSE,FALSE,FALSE,FALSE,FALSE,FALSE,FALSE,6.974149214,79.91427206,1.1,143.2,328,TRUE,1,1,FALSE,FALSE,FALSE,FALSE,,TRUE,FALSE,FALSE,Course Lock,65.6,,16.4,Calm,29,,1.12.8,Mavic Mini,1SDCH7G0169R0K,1SFLH6Q0AB03DJ,1SRCH7F014TAHX,1U5X071EXP5ZJG,82.8,0.2,3.2,4.47388,3.35541,0,60,Mavic Mini,1SDCH7G0169R0K,1SFLH6Q0AB03DJ,1SRCH7F014TAHX,1U5X071EXP5ZJG,DJI Fly,,1.12.8,BA26A668-AC55-BABC-12A0-F3A3DC374360,1SDCH7G0169R0K,,,,,6.974155577,79.91426647,5,,
2/21/2024,21:56.4,1m 35.5s,95.5,6.974152397,79.91427095,4.9,5.5,6.5,5,2,0,0.223694,0,0.223694,0,0,1.342164,1.342164,3,-2.8,-53.1,306.9,,Tripod,Other,,12,4,TRUE,,Mavic Mini,TRUE,FALSE,,Smart,RC,FALSE,TRUE,FALSE,,,TRUE,,FALSE,FALSE,FALSE,FALSE,FALSE,FALSE,FALSE,FALSE,FALSE,FALSE,0,Follow Yaw,0,0,-41.3,318.7,FALSE,FALSE,FALSE,FALSE,FALSE,FALSE,,TRUE,Normal,,100,1024,1024,364,1024,2,FALSE,FALSE,FALSE,FALSE,FALSE,0,FALSE,FALSE,FALSE,FALSE,70,7.548,1422,2051,7.492,FALSE,3.774,3.775,0.002,FALSE,FALSE,NA,88.5,88.3,88.5,0,0,1,0,5,4551.9,1137.98,,Idle,0,20,FALSE,5,TRUE,10,Go Home,FALSE,FALSE,FALSE,FALSE,FALSE,FALSE,FALSE,FALSE,FALSE,FALSE,FALSE,FALSE,6.974149214,79.91427206,1.2,143.2,328,TRUE,1,1,FALSE,FALSE,FALSE,FALSE,,TRUE,FALSE,FALSE,Course Lock,65.6,,16.4,Calm,29,,1.12.8,Mavic Mini,1SDCH7G0169R0K,1SFLH6Q0AB03DJ,1SRCH7F014TAHX,1U5X071EXP5ZJG,82.8,0.2,3.2,4.47388,3.35541,0,60,Mavic Mini,1SDCH7G0169R0K,1SFLH6Q0AB03DJ,1SRCH7F014TAHX,1U5X071EXP5ZJG,DJI Fly,,1.12.8,BA26A668-AC55-BABC-12A0-F3A3DC374360,1SDCH7G0169R0K,,,,,6.974155577,79.91426647,5,,
2/21/2024,21:56.4,1m 35.6s,95.6,6.974152569,79.91427101,4.5,5.5,6.2,5,2,0,0.223694,0,0.223694,0,0,1.565858,1.565858,2.8,-2.6,-53.1,306.9,,Tripod,Other,,13,4,TRUE,,Mavic Mini,TRUE,FALSE,,Smart,RC,FALSE,TRUE,FALSE,,,TRUE,,FALSE,FALSE,FALSE,FALSE,FALSE,FALSE,FALSE,FALSE,FALSE,FALSE,0,Follow Yaw,0,0,-41.3,318.7,FALSE,FALSE,FALSE,FALSE,FALSE,FALSE,,TRUE,Normal,,100,1024,1024,364,1024,2,FALSE,FALSE,FALSE,FALSE,FALSE,0,FALSE,FALSE,FALSE,FALSE,70,7.548,1422,2051,7.492,FALSE,3.774,3.775,0.002,FALSE,FALSE,NA,88.5,88.3,88.5,0,0,1,0,5,4551.9,1137.98,,Idle,0,20,FALSE,5,TRUE,10,Go Home,FALSE,FALSE,FALSE,FALSE,FALSE,FALSE,FALSE,FALSE,FALSE,FALSE,FALSE,FALSE,6.974149214,79.91427206,1.2,143.2,328,TRUE,1,1,FALSE,FALSE,FALSE,FALSE,,TRUE,FALSE,FALSE,Course Lock,65.6,,16.4,Calm,29,,1.12.8,Mavic Mini,1SDCH7G0169R0K,1SFLH6Q0AB03DJ,1SRCH7F014TAHX,1U5X071EXP5ZJG,82.8,0.2,3.2,4.47388,3.35541,0,60,Mavic Mini,1SDCH7G0169R0K,1SFLH6Q0AB03DJ,1SRCH7F014TAHX,1U5X071EXP5ZJG,DJI Fly,,1.12.8,BA26A668-AC55-BABC-12A0-F3A3DC374360,1SDCH7G0169R0K,,,,,6.974155577,79.91426647,5,,
2/21/2024,21:56.5,1m 35.7s,95.7,6.974152686,79.91427103,4.5,5.5,6.2,5,2.1,0,0.223694,0,0.223694,0,0,1.789552,1.789552,2.9,-2.5,-53,307,,Tripod,Other,,13,4,TRUE,,Mavic Mini,TRUE,FALSE,,Smart,RC,FALSE,TRUE,FALSE,,,TRUE,,FALSE,FALSE,FALSE,FALSE,FALSE,FALSE,FALSE,FALSE,FALSE,FALSE,0,Follow Yaw,0,0,-41.3,318.7,FALSE,FALSE,FALSE,FALSE,FALSE,FALSE,,TRUE,Normal,,100,1024,1024,847,1024,2,FALSE,FALSE,FALSE,FALSE,FALSE,0,FALSE,FALSE,FALSE,FALSE,70,7.548,1422,2051,7.492,FALSE,3.774,3.775,0.002,FALSE,FALSE,NA,88.5,88.3,88.5,0,0,1,0,5,4551.9,1137.98,,Idle,0,20,FALSE,5,TRUE,10,Go Home,FALSE,FALSE,FALSE,FALSE,FALSE,FALSE,FALSE,FALSE,FALSE,FALSE,FALSE,FALSE,6.974149214,79.91427206,1.3,143.2,328,TRUE,1,1,FALSE,FALSE,FALSE,FALSE,,TRUE,FALSE,FALSE,Course Lock,65.6,,16.4,Calm,29,,1.12.8,Mavic Mini,1SDCH7G0169R0K,1SFLH6Q0AB03DJ,1SRCH7F014TAHX,1U5X071EXP5ZJG,82.8,0.2,3.2,4.47388,3.35541,0,60,Mavic Mini,1SDCH7G0169R0K,1SFLH6Q0AB03DJ,1SRCH7F014TAHX,1U5X071EXP5ZJG,DJI Fly,,1.12.8,BA26A668-AC55-BABC-12A0-F3A3DC374360,1SDCH7G0169R0K,,,,,6.974155577,79.91426647,5,,
2/21/2024,21:56.7,1m 35.8s,95.8,6.974152781,79.91427105,4.2,5.5,5.9,4,2.1,0,0.223694,0,0.223694,0,0,1.789552,1.789552,3.1,-2.4,-53,307,,Tripod,Other,,13,4,TRUE,,Mavic Mini,TRUE,FALSE,,Smart,RC,FALSE,TRUE,FALSE,,,TRUE,,FALSE,FALSE,FALSE,FALSE,FALSE,FALSE,FALSE,FALSE,FALSE,FALSE,0,Follow Yaw,0,0,-41.3,318.7,FALSE,FALSE,FALSE,FALSE,FALSE,FALSE,,TRUE,Normal,,100,1024,1024,963,1024,2,FALSE,FALSE,FALSE,FALSE,FALSE,0,FALSE,FALSE,FALSE,FALSE,70,7.535,1421,2051,7.531,FALSE,3.769,3.766,0.003,FALSE,FALSE,NA,88.5,88.3,88.5,0,0,1,0,5,6459,1614.77,,Idle,0,20,FALSE,5,TRUE,10,Go Home,FALSE,FALSE,FALSE,FALSE,FALSE,FALSE,FALSE,FALSE,FALSE,FALSE,FALSE,FALSE,6.974149214,79.91427206,1.3,143.2,328,TRUE,1,1,FALSE,FALSE,FALSE,FALSE,,TRUE,FALSE,FALSE,Course Lock,65.6,,16.4,Calm,29,,1.12.8,Mavic Mini,1SDCH7G0169R0K,1SFLH6Q0AB03DJ,1SRCH7F014TAHX,1U5X071EXP5ZJG,82.8,0.2,3.2,4.47388,3.35541,0,60,Mavic Mini,1SDCH7G0169R0K,1SFLH6Q0AB03DJ,1SRCH7F014TAHX,1U5X071EXP5ZJG,DJI Fly,,1.12.8,BA26A668-AC55-BABC-12A0-F3A3DC374360,1SDCH7G0169R0K,,,,,6.974155577,79.91426647,5,,
2/21/2024,21:56.7,1m 35.9s,95.9,6.974152736,79.91427125,3.9,5.5,5.5,4,2.2,0,0.223694,0,0.223694,0,0,1.565858,1.789552,3,-2.3,-53.1,306.9,,Tripod,Other,,13,4,TRUE,,Mavic Mini,TRUE,FALSE,,Smart,RC,FALSE,TRUE,FALSE,,,TRUE,,FALSE,FALSE,FALSE,FALSE,FALSE,FALSE,FALSE,FALSE,FALSE,FALSE,0,Follow Yaw,0,0,-41.3,318.7,FALSE,FALSE,FALSE,FALSE,FALSE,FALSE,,TRUE,Normal,,100,1024,1024,592,1024,2,FALSE,FALSE,FALSE,FALSE,FALSE,0,FALSE,FALSE,FALSE,FALSE,70,7.535,1421,2051,7.531,FALSE,3.769,3.766,0.003,FALSE,FALSE,NA,88.5,88.3,88.5,0,0,1,0,5,6459,1614.77,,Idle,0,20,FALSE,5,TRUE,10,Go Home,FALSE,FALSE,FALSE,FALSE,FALSE,FALSE,FALSE,FALSE,FALSE,FALSE,FALSE,FALSE,6.974149214,79.91427206,1.3,143.2,328,TRUE,1,1,FALSE,FALSE,FALSE,FALSE,,TRUE,FALSE,FALSE,Course Lock,65.6,,16.4,Calm,29,,1.12.8,Mavic Mini,1SDCH7G0169R0K,1SFLH6Q0AB03DJ,1SRCH7F014TAHX,1U5X071EXP5ZJG,82.8,0.2,3.2,4.47388,3.35541,0,60,Mavic Mini,1SDCH7G0169R0K,1SFLH6Q0AB03DJ,1SRCH7F014TAHX,1U5X071EXP5ZJG,DJI Fly,,1.12.8,BA26A668-AC55-BABC-12A0-F3A3DC374360,1SDCH7G0169R0K,,,,,6.974155577,79.91426647,5,,
2/21/2024,21:56.8,1m 36.0s,96,6.974152634,79.91427153,3.9,5.5,5.2,4,2.3,0,0.223694,0,0.223694,0,0,1.11847,1.789552,2.2,-2.1,-53,307,,Tripod,Other,,13,4,TRUE,,Mavic Mini,TRUE,FALSE,,Smart,RC,FALSE,TRUE,FALSE,,,TRUE,,FALSE,FALSE,FALSE,FALSE,FALSE,FALSE,FALSE,FALSE,FALSE,FALSE,0,Follow Yaw,0,0,-41.3,318.7,FALSE,FALSE,FALSE,FALSE,FALSE,FALSE,,TRUE,Normal,,100,1024,1024,471,1024,2,FALSE,FALSE,FALSE,FALSE,FALSE,0,FALSE,FALSE,FALSE,FALSE,70,7.535,1421,2051,7.531,FALSE,3.769,3.766,0.003,FALSE,FALSE,NA,88.5,88.3,88.5,0,0,1,0,5,6459,1614.77,,Idle,0,20,FALSE,5,TRUE,10,Go Home,FALSE,FALSE,FALSE,FALSE,FALSE,FALSE,FALSE,FALSE,FALSE,FALSE,FALSE,FALSE,6.974149214,79.91427206,1.2,143.2,328,TRUE,1,1,FALSE,FALSE,FALSE,FALSE,,TRUE,FALSE,FALSE,Course Lock,65.6,,16.4,Calm,29,,1.12.8,Mavic Mini,1SDCH7G0169R0K,1SFLH6Q0AB03DJ,1SRCH7F014TAHX,1U5X071EXP5ZJG,82.8,0.2,3.2,4.47388,3.35541,0,60,Mavic Mini,1SDCH7G0169R0K,1SFLH6Q0AB03DJ,1SRCH7F014TAHX,1U5X071EXP5ZJG,DJI Fly,,1.12.8,BA26A668-AC55-BABC-12A0-F3A3DC374360,1SDCH7G0169R0K,,,,,6.974155577,79.91426647,5,,
