CUSTOM.date [local],CUSTOM.updateTime [local],OSD.flyTime,OSD.flyTime [s],OSD.latitude,OSD.longitude,OSD.height [ft],OSD.heightMax [ft],OSD.vpsHeight [ft],OSD.altitude [ft],OSD.mileage [ft],OSD.hSpeed [MPH],OSD.hSpeedMax [MPH],OSD.xSpeed [MPH],OSD.xSpeedMax [MPH],OSD.ySpeed [MPH],OSD.ySpeedMax [MPH],OSD.zSpeed [MPH],OSD.zSpeedMax [MPH],OSD.pitch,OSD.roll,OSD.yaw,OSD.yaw [360],OSD.directionOfTravel,OSD.flycState,OSD.flycCommand,OSD.flightAction,OSD.gpsNum,OSD.gpsLevel,OSD.isGPSUsed,OSD.nonGPSCause,OSD.droneType,OSD.isSwaveWork,OSD.waveError,OSD.goHomeStatus,OSD.batteryType,OSD.ctrlDevice,OSD.isOnGround,OSD.isMotorOn,OSD.isMotorBlocked,OSD.motorStartFailedCause,OSD.motorFailReason,OSD.isImuPreheated,OSD.imuInitFailReason,OSD.isAcceletorOverRange,OSD.isBarometerDeadInAir,OSD.isCompassError,OSD.isGoHomeHeightModified,OSD.canIOCWork,OSD.isNotEnoughForce,OSD.isOutOfLimit,OSD.isPropellerCatapult,OSD.isVibrating,OSD.isVisionUsed,OSD.voltageWarning,GIMBAL.mode,GIMBAL.pitch,GIMBAL.roll,GIMBAL.yaw,GIMBAL.yaw [360],GIMBAL.isPitchAtLimit,GIMBAL.isRollAtLimit,GIMBAL.isYawAtLimit,GIMBAL.isStuck,CAMERA.isPhoto,CAMERA.isVideo,CAMERA.filename,CAMERA.sdCardIsInserted,CAMERA.sdCardState,RC.downlinkSignal,RC.uplinkSignal,RC.aileron,RC.elevator,RC.throttle,RC.rudder,RC.mode,RC.goHomeDepressed,RC.recordDepressed,RC.shutterDepressed,RC.playbackDepressed,RC.wheelDepressed,RC.wheelOffset,RC.custom1Depressed,RC.custom2Depressed,RC.custom3Depressed,RC.custom4Depressed,BATTERY.chargeLevel,BATTERY.currentPV [V],BATTERY.currentCapacity [mAh],BATTERY.fullCapacity [mAh],BATTERY.voltage [V],BATTERY.isCellVoltageEstimated,BATTERY.cellVoltage1 [V],BATTERY.cellVoltage2 [V],BATTERY.maxCellVoltageDeviation,BATTERY.isCellVoltageDeviationHigh,BATTERY.isVoltageLow,BATTERY.current [A],BATTERY.temperature [F],BATTERY.minTemperature [F],BATTERY.maxTemperature [F],BATTERY.usefulTime [s],BATTERY.goHomeTime [s],BATTERY.landTime [s],BATTERY.goHomeBattery,BATTERY.landBattery,BATTERY.safeFlyRadius,BATTERY.volumeConsume,BATTERY.status,BATTERY.goHomeStatus,BATTERY.goHomeCountdown,BATTERY.lowWarning,BATTERY.lowWarningGoHome,BATTERY.seriousLowWarning,BATTERY.seriousLowWarningLanding,BATTERY.timesCharged,MC.failSafeAction,MC.isObstacleAvoidanceEnabled,MC.isCollisionAvoidanceEnabled,MC.isRthObstacleAvoidanceEnabled,MC.isBraking,MC.isAvoidingObstacle,MC.isAvoidingActiveObstacle,MC.isAscentLimitedByObstacle,MC.isLandingConfirmationNeeded,MC.atLowAltitudeLimit,MC.atDistanceLimit,MC.atAirportAltitudeLimit,MC.atAirportBoundary,HOME.latitude,HOME.longitude,HOME.distance [ft],HOME.height [ft],HOME.heightLimit [ft],HOME.isHomeRecord,HOME.goHomeMode,HOME.aircraftHeadDirection,HOME.isDynamicHomePointEnabled,HOME.isReachedLimitDistance,HOME.isReachedLimitHeight,HOME.isCompassCalibrating,HOME.compassCalibrationState,HOME.isMultipleFlightModeEnabled,HOME.isBeginnerMode,HOME.isIOCEnabled,HOME.iocMode,HOME.goHomeHeight [ft],HOME.courseLockAngle,HOME.forceLandingHeight [ft],HOME.wind,HOME.dataRecorderFileIndex,RECOVER.appType,RECOVER.appVersion,RECOVER.aircraftName,RECOVER.aircraftSerial,RECOVER.cameraSerial,RECOVER.rcSerial,RECOVER.batterySerial,DETAILS.totalTime [s],DETAILS.totalDistance [ft],DETAILS.maxHeight [ft],DETAILS.maxHorizontalSpeed [MPH],DETAILS.maxVerticalSpeed [MPH],DETAILS.photoNum,DETAILS.videoTime [s],DETAILS.aircraftName,DETAILS.aircraftSerial,DETAILS.cameraSerial,DETAILS.rcSerial,DETAILS.batterySerial,DETAILS.appName,DETAILS.appType,DETAILS.appVersion,DETAILS.guid,SERIAL.flightController,SERIAL.camera,SERIAL.gimbal,SERIAL.rc,SERIAL.battery,APPGPS.latitude,APPGPS.longitude,APPGPS.accuracy,APP.tip,APP.warning
2/13/2024,34:26.7,6m 31.3s,391.3,6.974715216,79.91481997,0,0,0.6,68,0,0,0,0,0,0,0,0,0,2.6,-4.7,-131,229,,Starting Motors,Auto Landing,Takeoff (RC Assisted),10,4,TRUE,,Mavic Mini,FALSE,FALSE,,Smart,RC,TRUE,TRUE,FALSE,,,TRUE,,FALSE,FALSE,FALSE,FALSE,FALSE,FALSE,FALSE,FALSE,FALSE,FALSE,0,Follow Yaw,0,0,-129.2,230.8,FALSE,FALSE,FALSE,FALSE,FALSE,FALSE,,TRUE,Normal,,,1024,1024,1024,1024,2,FALSE,FALSE,FALSE,FALSE,FALSE,0,FALSE,FALSE,FALSE,FALSE,70,7.76,1422,2054,7.76,TRUE,3.88,3.88,,FALSE,FALSE,NA,112.3,112.2,112.2,,,,,,,,,Idle,,,TRUE,,FALSE,8,Go Home,FALSE,FALSE,FALSE,FALSE,FALSE,FALSE,FALSE,FALSE,FALSE,FALSE,FALSE,FALSE,,,,,,FALSE,,,FALSE,FALSE,FALSE,FALSE,,FALSE,FALSE,FALSE,,,,,Calm,,,1.12.8,Mavic Mini,1SDCH7G0169R0K,1SFLH6Q0AB03DJ,1SRCH7F014TAHX,1U5X071EXP5ZJG,76.1,0,49.2,3.179362,3.35541,0,0,Mavic Mini,1SDCH7G0169R0K,1SFLH6Q0AB03DJ,1SRCH7F014TAHX,1U5X071EXP5ZJG,DJI Fly,,1.12.8,434EDF9E-C3B0-789C-D353-216008B41547,1SDCH7G0169R0K,,,,,,,,Flight mode changed to Starting Motors.,
2/13/2024,27:55.6,6m 31.4s,391.4,6.974715222,79.91481994,0,0,0.6,68,0,0,0,0,0,0,0,0,0,2.6,-4.7,-131,229,,Starting Motors,Auto Landing,Takeoff (RC Assisted),10,4,TRUE,,Mavic Mini,FALSE,FALSE,,Smart,RC,TRUE,TRUE,FALSE,,,TRUE,,FALSE,FALSE,FALSE,FALSE,FALSE,FALSE,FALSE,FALSE,FALSE,FALSE,0,Follow Yaw,0,0,-129.2,230.8,FALSE,FALSE,FALSE,FALSE,FALSE,FALSE,,TRUE,Normal,,100,1024,1024,1024,1024,2,FALSE,FALSE,FALSE,FALSE,FALSE,0,FALSE,FALSE,FALSE,FALSE,70,7.76,1422,2054,7.76,TRUE,3.88,3.88,,FALSE,FALSE,NA,112.3,112.2,112.2,,,,,,,,,Idle,,,TRUE,,FALSE,8,Go Home,FALSE,FALSE,FALSE,FALSE,FALSE,FALSE,FALSE,FALSE,FALSE,FALSE,FALSE,FALSE,,,,,,FALSE,,,FALSE,FALSE,FALSE,FALSE,,FALSE,FALSE,FALSE,,,,,Calm,,,1.12.8,Mavic Mini,1SDCH7G0169R0K,1SFLH6Q0AB03DJ,1SRCH7F014TAHX,1U5X071EXP5ZJG,76.1,0,49.2,3.179362,3.35541,0,0,Mavic Mini,1SDCH7G0169R0K,1SFLH6Q0AB03DJ,1SRCH7F014TAHX,1U5X071EXP5ZJG,DJI Fly,,1.12.8,434EDF9E-C3B0-789C-D353-216008B41547,1SDCH7G0169R0K,,,,,,,,,
2/13/2024,27:55.7,6m 31.5s,391.5,6.974715225,79.91481988,0,0,0.3,68,0,0,0,0,0,0,0,0,0,2.7,-4.7,-131,229,,Starting Motors,Auto Landing,Takeoff (RC Assisted),10,4,TRUE,,Mavic Mini,TRUE,FALSE,,Smart,RC,TRUE,TRUE,FALSE,,,TRUE,,FALSE,FALSE,FALSE,FALSE,FALSE,FALSE,FALSE,FALSE,FALSE,FALSE,0,Follow Yaw,0,0,-129.2,230.8,FALSE,FALSE,FALSE,FALSE,FALSE,FALSE,,TRUE,Normal,,100,1024,1024,1024,1024,2,FALSE,FALSE,FALSE,FALSE,FALSE,0,FALSE,FALSE,FALSE,FALSE,70,7.76,1422,2054,7.76,TRUE,3.88,3.88,,FALSE,FALSE,NA,112.3,112.2,112.2,,,,,,,,,Idle,,,TRUE,,FALSE,8,Go Home,FALSE,FALSE,FALSE,FALSE,FALSE,FALSE,FALSE,FALSE,FALSE,FALSE,FALSE,FALSE,,,,,,FALSE,,,FALSE,FALSE,FALSE,FALSE,,FALSE,FALSE,FALSE,,,,,Calm,,,1.12.8,Mavic Mini,1SDCH7G0169R0K,1SFLH6Q0AB03DJ,1SRCH7F014TAHX,1U5X071EXP5ZJG,76.1,0,49.2,3.179362,3.35541,0,0,Mavic Mini,1SDCH7G0169R0K,1SFLH6Q0AB03DJ,1SRCH7F014TAHX,1U5X071EXP5ZJG,DJI Fly,,1.12.8,434EDF9E-C3B0-789C-D353-216008B41547,1SDCH7G0169R0K,,,,,,,,,
2/13/2024,27:55.8,6m 31.6s,391.6,6.974715243,79.91481981,0,0,0.3,68,0,0,0,0,0,0,0,0,0,2.6,-4.7,-131,229,,Starting Motors,Auto Landing,Takeoff (RC Assisted),10,4,TRUE,,Mavic Mini,TRUE,FALSE,,Smart,RC,TRUE,TRUE,FALSE,,,TRUE,,FALSE,FALSE,FALSE,FALSE,FALSE,FALSE,FALSE,FALSE,FALSE,FALSE,0,Follow Yaw,0,0,-129.2,230.8,FALSE,FALSE,FALSE,FALSE,FALSE,FALSE,,TRUE,Normal,,100,1024,1024,1024,1024,2,FALSE,FALSE,FALSE,FALSE,FALSE,0,FALSE,FALSE,FALSE,FALSE,70,7.76,1422,2054,7.76,TRUE,3.88,3.88,,FALSE,FALSE,NA,112.3,112.2,112.2,,,,,,,,,Idle,,,TRUE,,FALSE,8,Go Home,FALSE,FALSE,FALSE,FALSE,FALSE,FALSE,FALSE,FALSE,FALSE,FALSE,FALSE,FALSE,,,,,,FALSE,,,FALSE,FALSE,FALSE,FALSE,,FALSE,FALSE,FALSE,,,,,Calm,,,1.12.8,Mavic Mini,1SDCH7G0169R0K,1SFLH6Q0AB03DJ,1SRCH7F014TAHX,1U5X071EXP5ZJG,76.1,0,49.2,3.179362,3.35541,0,0,Mavic Mini,1SDCH7G0169R0K,1SFLH6Q0AB03DJ,1SRCH7F014TAHX,1U5X071EXP5ZJG,DJI Fly,,1.12.8,434EDF9E-C3B0-789C-D353-216008B41547,1SDCH7G0169R0K,,,,,,,,,
2/13/2024,27:55.9,6m 31.7s,391.7,6.974715245,79.91481981,0,0,0.3,68,0,0,0,0,0,0,0,0,0,2.6,-4.7,-131.1,228.9,,Starting Motors,Auto Landing,Takeoff (RC Assisted),10,4,TRUE,,Mavic Mini,TRUE,FALSE,,Smart,RC,TRUE,TRUE,FALSE,,,TRUE,,FALSE,FALSE,FALSE,FALSE,FALSE,FALSE,FALSE,FALSE,FALSE,FALSE,0,Follow Yaw,0,0,-129.2,230.8,FALSE,FALSE,FALSE,FALSE,FALSE,FALSE,,TRUE,Normal,,100,1024,1024,1024,1024,2,FALSE,FALSE,FALSE,FALSE,FALSE,0,FALSE,FALSE,FALSE,FALSE,70,7.76,1422,2054,7.76,TRUE,3.88,3.88,,FALSE,FALSE,NA,112.3,112.2,112.2,,,,,,,,,Idle,,,TRUE,,FALSE,8,Go Home,FALSE,FALSE,FALSE,FALSE,FALSE,FALSE,FALSE,FALSE,FALSE,FALSE,FALSE,FALSE,,,,,,FALSE,,,FALSE,FALSE,FALSE,FALSE,,FALSE,FALSE,FALSE,,,,,Calm,,,1.12.8,Mavic Mini,1SDCH7G0169R0K,1SFLH6Q0AB03DJ,1SRCH7F014TAHX,1U5X071EXP5ZJG,76.1,0,49.2,3.179362,3.35541,0,0,Mavic Mini,1SDCH7G0169R0K,1SFLH6Q0AB03DJ,1SRCH7F014TAHX,1U5X071EXP5ZJG,DJI Fly,,1.12.8,434EDF9E-C3B0-789C-D353-216008B41547,1SDCH7G0169R0K,,,,,,,,,
2/13/2024,27:56.0,6m 31.8s,391.8,6.974715238,79.91481979,0,0,0.3,68,0,0,0,0,0,0,0,0,0,2.5,-4.7,-131,229,,Starting Motors,Auto Landing,Takeoff (RC Assisted),10,4,TRUE,,Mavic Mini,TRUE,FALSE,,Smart,RC,TRUE,TRUE,FALSE,,,TRUE,,FALSE,FALSE,FALSE,FALSE,FALSE,FALSE,FALSE,FALSE,FALSE,FALSE,0,Follow Yaw,0,0,-129.2,230.8,FALSE,FALSE,FALSE,FALSE,FALSE,FALSE,,TRUE,Normal,,100,1024,1024,1024,1024,2,FALSE,FALSE,FALSE,FALSE,FALSE,0,FALSE,FALSE,FALSE,FALSE,70,7.76,1422,2054,7.76,TRUE,3.88,3.88,,FALSE,FALSE,NA,112.3,112.2,112.2,,,,,,,,,Idle,,,TRUE,,FALSE,8,Go Home,FALSE,FALSE,FALSE,FALSE,FALSE,FALSE,FALSE,FALSE,FALSE,FALSE,FALSE,FALSE,,,,,,FALSE,,,FALSE,FALSE,FALSE,FALSE,,FALSE,FALSE,FALSE,,,,,Calm,,,1.12.8,Mavic Mini,1SDCH7G0169R0K,1SFLH6Q0AB03DJ,1SRCH7F014TAHX,1U5X071EXP5ZJG,76.1,0,49.2,3.179362,3.35541,0,0,Mavic Mini,1SDCH7G0169R0K,1SFLH6Q0AB03DJ,1SRCH7F014TAHX,1U5X071EXP5ZJG,DJI Fly,,1.12.8,434EDF9E-C3B0-789C-D353-216008B41547,1SDCH7G0169R0K,,,,,,,,,
2/13/2024,27:56.1,6m 31.9s,391.9,6.974715185,79.91481975,0,0,0.3,68,0,0,0,0,0,0,0,0,0,2.5,-4.6,-131.1,228.9,,Starting Motors,Auto Landing,Takeoff (RC Assisted),10,4,TRUE,,Mavic Mini,TRUE,FALSE,,Smart,RC,TRUE,TRUE,FALSE,,,TRUE,,FALSE,FALSE,FALSE,FALSE,FALSE,FALSE,FALSE,FALSE,FALSE,FALSE,0,Follow Yaw,0,0,-129.2,230.8,FALSE,FALSE,FALSE,FALSE,FALSE,FALSE,,TRUE,Normal,,100,1024,1024,1024,1024,2,FALSE,FALSE,FALSE,FALSE,FALSE,0,FALSE,FALSE,FALSE,FALSE,70,7.743,1422,2054,7.743,FALSE,3.873,3.87,0.003,FALSE,FALSE,NA,112.3,112.2,112.2,,,,,,,,,Idle,,,TRUE,,FALSE,8,Go Home,FALSE,FALSE,FALSE,FALSE,FALSE,FALSE,FALSE,FALSE,FALSE,FALSE,FALSE,FALSE,,,,,,FALSE,,,FALSE,FALSE,FALSE,FALSE,,FALSE,FALSE,FALSE,,,,,Calm,,,1.12.8,Mavic Mini,1SDCH7G0169R0K,1SFLH6Q0AB03DJ,1SRCH7F014TAHX,1U5X071EXP5ZJG,76.1,0,49.2,3.179362,3.35541,0,0,Mavic Mini,1SDCH7G0169R0K,1SFLH6Q0AB03DJ,1SRCH7F014TAHX,1U5X071EXP5ZJG,DJI Fly,,1.12.8,434EDF9E-C3B0-789C-D353-216008B41547,1SDCH7G0169R0K,,,,,,,,,
2/13/2024,27:56.1,6m 32.0s,392,6.974715066,79.91481973,0,0,0.3,68,0.1,0,0,0,0,0,0,0,0,2.6,-4.8,-131,229,,Starting Motors,Auto Landing,Takeoff (RC Assisted),10,4,TRUE,,Mavic Mini,TRUE,FALSE,,Smart,RC,TRUE,TRUE,FALSE,,,TRUE,,FALSE,FALSE,FALSE,FALSE,FALSE,FALSE,FALSE,FALSE,FALSE,FALSE,0,Follow Yaw,0,0,-129.2,230.8,FALSE,FALSE,FALSE,FALSE,FALSE,FALSE,,TRUE,Normal,,100,1024,1024,1024,1024,2,FALSE,FALSE,FALSE,FALSE,FALSE,0,FALSE,FALSE,FALSE,FALSE,70,7.743,1422,2054,7.743,FALSE,3.873,3.87,0.003,FALSE,FALSE,NA,112.3,112.2,112.2,,,,,,,,,Idle,,,TRUE,,FALSE,8,Go Home,FALSE,FALSE,FALSE,FALSE,FALSE,FALSE,FALSE,FALSE,FALSE,FALSE,FALSE,FALSE,,,,,,FALSE,,,FALSE,FALSE,FALSE,FALSE,,FALSE,FALSE,FALSE,,,,,Calm,,,1.12.8,Mavic Mini,1SDCH7G0169R0K,1SFLH6Q0AB03DJ,1SRCH7F014TAHX,1U5X071EXP5ZJG,76.1,0,49.2,3.179362,3.35541,0,0,Mavic Mini,1SDCH7G0169R0K,1SFLH6Q0AB03DJ,1SRCH7F014TAHX,1U5X071EXP5ZJG,DJI Fly,,1.12.8,434EDF9E-C3B0-789C-D353-216008B41547,1SDCH7G0169R0K,,,,,,,,,
2/13/2024,27:56.2,6m 32.1s,392.1,6.974715099,79.91481967,0,0,0.3,68,0.1,0,0,0,0,0,0,0,0,2.5,-4.7,-131,229,,Starting Motors,Auto Landing,Takeoff (RC Assisted),10,4,TRUE,,Mavic Mini,TRUE,FALSE,,Smart,RC,TRUE,TRUE,FALSE,,,TRUE,,FALSE,FALSE,FALSE,FALSE,FALSE,FALSE,FALSE,FALSE,FALSE,FALSE,0,Follow Yaw,0,0,-129.2,230.8,FALSE,FALSE,FALSE,FALSE,FALSE,FALSE,,TRUE,Normal,,100,1024,1024,1024,1024,2,FALSE,FALSE,FALSE,FALSE,FALSE,0,FALSE,FALSE,FALSE,FALSE,70,7.743,1422,2054,7.75,FALSE,3.873,3.87,0.003,FALSE,FALSE,NA,112.3,112.2,112.2,0,5,0,0,5,2572.2,643.05,,Idle,0,20,FALSE,5,TRUE,8,Go Home,FALSE,FALSE,FALSE,FALSE,FALSE,FALSE,FALSE,FALSE,FALSE,FALSE,FALSE,FALSE,6.974701799,79.9148136,5.3,111.8,328,TRUE,1,1,FALSE,FALSE,FALSE,FALSE,,TRUE,FALSE,FALSE,Course Lock,246,303.7,16.4,Calm,23,,1.12.8,Mavic Mini,1SDCH7G0169R0K,1SFLH6Q0AB03DJ,1SRCH7F014TAHX,1U5X071EXP5ZJG,76.1,0,49.2,3.179362,3.35541,0,0,Mavic Mini,1SDCH7G0169R0K,1SFLH6Q0AB03DJ,1SRCH7F014TAHX,1U5X071EXP5ZJG,DJI Fly,,1.12.8,434EDF9E-C3B0-789C-D353-216008B41547,1SDCH7G0169R0K,,,,,,,,Data Recorder File Index is 23.; Set Return to Home (RTH) altitude to 75 m (246 ft).; Set maximum flight altitude to 100 m (328 ft).,
2/13/2024,27:56.3,6m 32.2s,392.2,6.974715122,79.91481962,0,0,0.3,68,0.1,0,0,0,0,0,0,0,0,2.6,-4.7,-131,229,,Starting Motors,Auto Landing,Takeoff (RC Assisted),10,4,TRUE,,Mavic Mini,TRUE,FALSE,,Smart,RC,TRUE,TRUE,FALSE,,,TRUE,,FALSE,FALSE,FALSE,FALSE,FALSE,FALSE,FALSE,FALSE,FALSE,FALSE,0,Follow Yaw,0,0,-129.2,230.8,FALSE,FALSE,FALSE,FALSE,FALSE,FALSE,,TRUE,Normal,,100,1024,1024,1024,1024,2,FALSE,FALSE,FALSE,FALSE,FALSE,0,FALSE,FALSE,FALSE,FALSE,70,7.743,1422,2054,7.75,FALSE,3.873,3.87,0.003,FALSE,FALSE,NA,112.3,112.2,112.2,0,5,0,0,5,2572.2,643.05,,Idle,0,20,FALSE,5,TRUE,8,Go Home,FALSE,FALSE,FALSE,FALSE,FALSE,FALSE,FALSE,FALSE,FALSE,FALSE,FALSE,FALSE,6.974701799,79.9148136,5.3,111.8,328,TRUE,1,1,FALSE,FALSE,FALSE,FALSE,,TRUE,FALSE,FALSE,Course Lock,246,303.7,16.4,Calm,23,,1.12.8,Mavic Mini,1SDCH7G0169R0K,1SFLH6Q0AB03DJ,1SRCH7F014TAHX,1U5X071EXP5ZJG,76.1,0,49.2,3.179362,3.35541,0,0,Mavic Mini,1SDCH7G0169R0K,1SFLH6Q0AB03DJ,1SRCH7F014TAHX,1U5X071EXP5ZJG,DJI Fly,,1.12.8,434EDF9E-C3B0-789C-D353-216008B41547,1SDCH7G0169R0K,,,,,,,,,
2/13/2024,27:56.4,6m 32.3s,392.3,6.974715086,79.91481961,0,0,0.3,68,0.1,0,0,0,0,0,0,0,0,2.5,-4.7,-130.9,229.1,,Starting Motors,Auto Landing,Takeoff (RC Assisted),10,4,TRUE,,Mavic Mini,TRUE,FALSE,,Smart,RC,TRUE,TRUE,FALSE,,,TRUE,,FALSE,FALSE,FALSE,FALSE,FALSE,FALSE,FALSE,FALSE,FALSE,FALSE,0,Follow Yaw,0,0,-129.2,230.8,FALSE,FALSE,FALSE,FALSE,FALSE,FALSE,,TRUE,Normal,,100,1024,1024,1024,1024,2,FALSE,FALSE,FALSE,FALSE,FALSE,0,FALSE,FALSE,FALSE,FALSE,70,7.743,1422,2054,7.75,FALSE,3.873,3.87,0.003,FALSE,FALSE,NA,112.3,112.2,112.2,0,5,0,0,5,2572.2,643.05,,Idle,0,20,FALSE,5,TRUE,8,Go Home,FALSE,FALSE,FALSE,FALSE,FALSE,FALSE,FALSE,FALSE,FALSE,FALSE,FALSE,FALSE,6.974701799,79.9148136,5.3,111.8,328,TRUE,1,1,FALSE,FALSE,FALSE,FALSE,,TRUE,FALSE,FALSE,Course Lock,246,303.7,16.4,Calm,23,,1.12.8,Mavic Mini,1SDCH7G0169R0K,1SFLH6Q0AB03DJ,1SRCH7F014TAHX,1U5X071EXP5ZJG,76.1,0,49.2,3.179362,3.35541,0,0,Mavic Mini,1SDCH7G0169R0K,1SFLH6Q0AB03DJ,1SRCH7F014TAHX,1U5X071EXP5ZJG,DJI Fly,,1.12.8,434EDF9E-C3B0-789C-D353-216008B41547,1SDCH7G0169R0K,,,,,,,,,
2/13/2024,27:56.5,6m 32.4s,392.4,6.974715079,79.91481964,0,0,0.3,68,0.1,0,0,0,0,0,0,0,0,2.6,-4.7,-130.9,229.1,,Manual Takeoff,Auto Landing,Takeoff (RC Assisted),10,4,TRUE,,Mavic Mini,TRUE,FALSE,,Smart,RC,TRUE,TRUE,FALSE,,,TRUE,,FALSE,FALSE,FALSE,FALSE,FALSE,FALSE,FALSE,FALSE,FALSE,FALSE,0,Follow Yaw,0,0,-129.2,230.8,FALSE,FALSE,FALSE,FALSE,FALSE,FALSE,,TRUE,Normal,,100,1024,1024,1024,1024,2,FALSE,FALSE,FALSE,FALSE,FALSE,0,FALSE,FALSE,FALSE,FALSE,70,7.743,1422,2054,7.75,FALSE,3.873,3.87,0.003,FALSE,FALSE,NA,112.3,112.2,112.2,0,5,0,0,5,2572.2,643.05,,Idle,0,20,FALSE,5,TRUE,8,Go Home,FALSE,FALSE,FALSE,FALSE,FALSE,FALSE,FALSE,FALSE,FALSE,FALSE,FALSE,FALSE,6.974701799,79.9148136,5.3,111.8,328,TRUE,1,1,FALSE,FALSE,FALSE,FALSE,,TRUE,FALSE,FALSE,Course Lock,246,303.7,16.4,Calm,23,,1.12.8,Mavic Mini,1SDCH7G0169R0K,1SFLH6Q0AB03DJ,1SRCH7F014TAHX,1U5X071EXP5ZJG,76.1,0,49.2,3.179362,3.35541,0,0,Mavic Mini,1SDCH7G0169R0K,1SFLH6Q0AB03DJ,1SRCH7F014TAHX,1U5X071EXP5ZJG,DJI Fly,,1.12.8,434EDF9E-C3B0-789C-D353-216008B41547,1SDCH7G0169R0K,,,,,,,,Flight mode changed to Manual Takeoff.,
2/13/2024,27:56.6,6m 32.5s,392.5,6.974715067,79.91481965,0,0,0.3,68,0.1,0,0,0,0,0,0,0,0,2.5,-4.7,-130.9,229.1,,Manual Takeoff,Auto Landing,Takeoff (RC Assisted),10,4,TRUE,,Mavic Mini,TRUE,FALSE,,Smart,RC,TRUE,TRUE,FALSE,,,TRUE,,FALSE,FALSE,FALSE,FALSE,FALSE,FALSE,FALSE,FALSE,FALSE,FALSE,0,Follow Yaw,0,0,-129.2,230.8,FALSE,FALSE,FALSE,FALSE,FALSE,FALSE,,TRUE,Normal,,100,1024,1024,1024,1024,2,FALSE,FALSE,FALSE,FALSE,FALSE,0,FALSE,FALSE,FALSE,FALSE,70,7.743,1422,2054,7.75,FALSE,3.873,3.87,0.003,FALSE,FALSE,NA,112.3,112.2,112.2,0,5,0,0,5,2572.2,643.05,,Idle,0,20,FALSE,5,TRUE,8,Go Home,FALSE,FALSE,FALSE,FALSE,FALSE,FALSE,FALSE,FALSE,FALSE,FALSE,FALSE,FALSE,6.974701799,79.9148136,5.3,111.8,328,TRUE,1,1,FALSE,FALSE,FALSE,FALSE,,TRUE,FALSE,FALSE,Course Lock,246,303.7,16.4,Calm,23,,1.12.8,Mavic Mini,1SDCH7G0169R0K,1SFLH6Q0AB03DJ,1SRCH7F014TAHX,1U5X071EXP5ZJG,76.1,0,49.2,3.179362,3.35541,0,0,Mavic Mini,1SDCH7G0169R0K,1SFLH6Q0AB03DJ,1SRCH7F014TAHX,1U5X071EXP5ZJG,DJI Fly,,1.12.8,434EDF9E-C3B0-789C-D353-216008B41547,1SDCH7G0169R0K,,,,,,,,,
2/13/2024,27:56.7,6m 32.6s,392.6,6.974715057,79.91481966,0,0,0.3,68,0.2,0,0,0,0,0,0,0,0,2.6,-4.7,-130.9,229.1,,Manual Takeoff,Auto Landing,Takeoff (RC Assisted),10,4,TRUE,,Mavic Mini,TRUE,FALSE,,Smart,RC,TRUE,TRUE,FALSE,,,TRUE,,FALSE,FALSE,FALSE,FALSE,FALSE,FALSE,FALSE,FALSE,FALSE,FALSE,0,Follow Yaw,0,0,-129.2,230.8,FALSE,FALSE,FALSE,FALSE,FALSE,FALSE,,TRUE,Normal,,100,1024,1024,1024,1024,2,FALSE,FALSE,FALSE,FALSE,FALSE,0,FALSE,FALSE,FALSE,FALSE,70,7.743,1422,2054,7.75,FALSE,3.873,3.87,0.003,FALSE,FALSE,NA,112.3,112.2,112.2,0,5,0,0,5,2572.2,643.05,,Idle,0,20,FALSE,5,TRUE,8,Go Home,FALSE,FALSE,FALSE,FALSE,FALSE,FALSE,FALSE,FALSE,FALSE,FALSE,FALSE,FALSE,6.974701799,79.9148136,5.3,111.8,328,TRUE,1,1,FALSE,FALSE,FALSE,FALSE,,TRUE,FALSE,FALSE,Course Lock,246,303.7,16.4,Calm,23,,1.12.8,Mavic Mini,1SDCH7G0169R0K,1SFLH6Q0AB03DJ,1SRCH7F014TAHX,1U5X071EXP5ZJG,76.1,0,49.2,3.179362,3.35541,0,0,Mavic Mini,1SDCH7G0169R0K,1SFLH6Q0AB03DJ,1SRCH7F014TAHX,1U5X071EXP5ZJG,DJI Fly,,1.12.8,434EDF9E-C3B0-789C-D353-216008B41547,1SDCH7G0169R0K,,,,,,,,,
2/13/2024,27:56.8,6m 32.7s,392.7,6.974715057,79.91481968,0,0,0.3,68,0.2,0,0,0,0,0,0,0,0,2.5,-4.7,-130.9,229.1,,Manual Takeoff,Auto Landing,Takeoff (RC Assisted),10,4,TRUE,,Mavic Mini,TRUE,FALSE,,Smart,RC,TRUE,TRUE,FALSE,,,TRUE,,FALSE,FALSE,FALSE,FALSE,FALSE,FALSE,FALSE,FALSE,FALSE,FALSE,0,Follow Yaw,0,0,-129.2,230.8,FALSE,FALSE,FALSE,FALSE,FALSE,FALSE,,TRUE,Normal,,100,1024,1024,1024,1024,2,FALSE,FALSE,FALSE,FALSE,FALSE,0,FALSE,FALSE,FALSE,FALSE,70,7.743,1422,2054,7.75,FALSE,3.873,3.87,0.003,FALSE,FALSE,NA,112.3,112.2,112.2,0,5,0,0,5,2572.2,643.05,,Idle,0,20,FALSE,5,TRUE,8,Go Home,FALSE,FALSE,FALSE,FALSE,FALSE,FALSE,FALSE,FALSE,FALSE,FALSE,FALSE,FALSE,6.974701799,79.9148136,5.3,111.8,328,TRUE,1,1,FALSE,FALSE,FALSE,FALSE,,TRUE,FALSE,FALSE,Course Lock,246,303.7,16.4,Calm,23,,1.12.8,Mavic Mini,1SDCH7G0169R0K,1SFLH6Q0AB03DJ,1SRCH7F014TAHX,1U5X071EXP5ZJG,76.1,0,49.2,3.179362,3.35541,0,0,Mavic Mini,1SDCH7G0169R0K,1SFLH6Q0AB03DJ,1SRCH7F014TAHX,1U5X071EXP5ZJG,DJI Fly,,1.12.8,434EDF9E-C3B0-789C-D353-216008B41547,1SDCH7G0169R0K,,,,,,,,,
2/13/2024,27:56.9,6m 32.8s,392.8,6.974715057,79.91481968,0,0,0.3,68,0.2,0,0,0,0,0,0,0,0,2.5,-4.7,-130.9,229.1,,Manual Takeoff,Auto Landing,Takeoff (RC Assisted),10,4,TRUE,,Mavic Mini,TRUE,FALSE,,Smart,RC,TRUE,TRUE,FALSE,,,TRUE,,FALSE,FALSE,FALSE,FALSE,FALSE,FALSE,FALSE,FALSE,FALSE,FALSE,0,Follow Yaw,0,0,-129.2,230.8,FALSE,FALSE,FALSE,FALSE,FALSE,FALSE,,TRUE,Normal,,100,1024,1024,1024,1024,2,FALSE,FALSE,FALSE,FALSE,FALSE,0,FALSE,FALSE,FALSE,FALSE,70,7.743,1422,2054,7.75,FALSE,3.873,3.87,0.003,FALSE,FALSE,NA,112.3,112.2,112.2,0,5,0,0,5,2572.2,643.05,,Idle,0,20,FALSE,5,TRUE,8,Go Home,FALSE,FALSE,FALSE,FALSE,FALSE,FALSE,FALSE,FALSE,FALSE,FALSE,FALSE,FALSE,6.974701799,79.9148136,5.3,111.8,328,TRUE,1,1,FALSE,FALSE,FALSE,FALSE,,TRUE,FALSE,FALSE,Course Lock,246,303.7,16.4,Calm,23,,1.12.8,Mavic Mini,1SDCH7G0169R0K,1SFLH6Q0AB03DJ,1SRCH7F014TAHX,1U5X071EXP5ZJG,76.1,0,49.2,3.179362,3.35541,0,0,Mavic Mini,1SDCH7G0169R0K,1SFLH6Q0AB03DJ,1SRCH7F014TAHX,1U5X071EXP5ZJG,DJI Fly,,1.12.8,434EDF9E-C3B0-789C-D353-216008B41547,1SDCH7G0169R0K,,,,,,,,,
2/13/2024,27:57.0,6m 32.9s,392.9,6.9747151,79.91481968,0,0,0.3,68,0.2,0,0,0,0,0,0,0,0,2.6,-4.7,-130.9,229.1,,Manual Takeoff,Auto Landing,Takeoff (RC Assisted),10,4,TRUE,,Mavic Mini,TRUE,FALSE,,Smart,RC,TRUE,TRUE,FALSE,,,TRUE,,FALSE,FALSE,FALSE,FALSE,FALSE,FALSE,FALSE,FALSE,FALSE,FALSE,0,Follow Yaw,0,0,-129.2,230.8,FALSE,FALSE,FALSE,FALSE,FALSE,FALSE,,TRUE,Normal,,100,1024,1024,1024,1024,2,FALSE,FALSE,FALSE,FALSE,FALSE,0,FALSE,FALSE,FALSE,FALSE,70,7.743,1422,2054,7.75,FALSE,3.873,3.87,0.003,FALSE,FALSE,NA,112.3,112.2,112.2,0,5,0,0,5,2572.2,643.05,,Idle,0,20,FALSE,5,TRUE,8,Go Home,FALSE,FALSE,FALSE,FALSE,FALSE,FALSE,FALSE,FALSE,FALSE,FALSE,FALSE,FALSE,6.974701799,79.9148136,5.3,111.8,328,TRUE,1,1,FALSE,FALSE,FALSE,FALSE,,TRUE,FALSE,FALSE,Course Lock,246,303.7,16.4,Calm,23,,1.12.8,Mavic Mini,1SDCH7G0169R0K,1SFLH6Q0AB03DJ,1SRCH7F014TAHX,1U5X071EXP5ZJG,76.1,0,49.2,3.179362,3.35541,0,0,Mavic Mini,1SDCH7G0169R0K,1SFLH6Q0AB03DJ,1SRCH7F014TAHX,1U5X071EXP5ZJG,DJI Fly,,1.12.8,434EDF9E-C3B0-789C-D353-216008B41547,1SDCH7G0169R0K,,,,,,,,,
2/13/2024,27:57.1,6m 33.0s,393,6.974715103,79.91481964,0,0,0.3,68,0.2,0,0,0,0,0,0,0,0,2.6,-4.7,-130.9,229.1,,Manual Takeoff,Auto Landing,Takeoff (RC Assisted),10,4,TRUE,,Mavic Mini,TRUE,FALSE,,Smart,RC,TRUE,TRUE,FALSE,,,TRUE,,FALSE,FALSE,FALSE,FALSE,FALSE,FALSE,FALSE,FALSE,FALSE,FALSE,0,Follow Yaw,0,0,-129.2,230.8,FALSE,FALSE,FALSE,FALSE,FALSE,FALSE,,TRUE,Normal,,100,1024,1024,1024,1024,2,FALSE,FALSE,FALSE,FALSE,FALSE,0,FALSE,FALSE,FALSE,FALSE,70,7.749,1422,2054,7.75,FALSE,3.876,3.873,0.003,FALSE,FALSE,NA,112.3,112.2,112.2,0,5,0,0,5,2572.2,643.05,,Idle,0,20,FALSE,5,TRUE,8,Go Home,FALSE,FALSE,FALSE,FALSE,FALSE,FALSE,FALSE,FALSE,FALSE,FALSE,FALSE,FALSE,6.974701799,79.9148136,5.3,111.8,328,TRUE,1,1,FALSE,FALSE,FALSE,FALSE,,TRUE,FALSE,FALSE,Course Lock,246,303.7,16.4,Calm,23,,1.12.8,Mavic Mini,1SDCH7G0169R0K,1SFLH6Q0AB03DJ,1SRCH7F014TAHX,1U5X071EXP5ZJG,76.1,0,49.2,3.179362,3.35541,0,0,Mavic Mini,1SDCH7G0169R0K,1SFLH6Q0AB03DJ,1SRCH7F014TAHX,1U5X071EXP5ZJG,DJI Fly,,1.12.8,434EDF9E-C3B0-789C-D353-216008B41547,1SDCH7G0169R0K,,,,,,,,,
2/13/2024,27:57.2,6m 33.1s,393.1,6.974715105,79.91481962,0,0,0.3,68,0.2,0,0,0,0,0,0,0,0,2.6,-4.7,-130.9,229.1,,Manual Takeoff,Auto Landing,Takeoff (RC Assisted),10,4,TRUE,,Mavic Mini,TRUE,FALSE,,Smart,RC,TRUE,TRUE,FALSE,,,TRUE,,FALSE,FALSE,FALSE,FALSE,FALSE,FALSE,FALSE,FALSE,FALSE,FALSE,0,Follow Yaw,0,0,-129.2,230.8,FALSE,FALSE,FALSE,FALSE,FALSE,FALSE,,TRUE,Normal,,100,1024,1024,1024,1024,2,FALSE,FALSE,FALSE,FALSE,FALSE,0,FALSE,FALSE,FALSE,FALSE,70,7.749,1422,2054,7.744,FALSE,3.876,3.873,0.003,FALSE,FALSE,NA,112.5,112.2,112.4,0,5,0,0,5,2662.2,665.56,,Idle,0,20,FALSE,5,TRUE,8,Go Home,FALSE,FALSE,FALSE,FALSE,FALSE,FALSE,FALSE,FALSE,FALSE,FALSE,FALSE,FALSE,6.974701799,79.9148136,5.3,111.8,328,TRUE,1,1,FALSE,FALSE,FALSE,FALSE,,TRUE,FALSE,FALSE,Course Lock,246,303.7,16.4,Calm,23,,1.12.8,Mavic Mini,1SDCH7G0169R0K,1SFLH6Q0AB03DJ,1SRCH7F014TAHX,1U5X071EXP5ZJG,76.1,0,49.2,3.179362,3.35541,0,0,Mavic Mini,1SDCH7G0169R0K,1SFLH6Q0AB03DJ,1SRCH7F014TAHX,1U5X071EXP5ZJG,DJI Fly,,1.12.8,434EDF9E-C3B0-789C-D353-216008B41547,1SDCH7G0169R0K,,,,,,,,,
2/13/2024,27:57.4,6m 33.2s,393.2,6.974715107,79.9148196,0,0,0.3,68,0.2,0,0,0,0,0,0,0,0,2.5,-4.7,-130.9,229.1,,Manual Takeoff,Auto Landing,Takeoff (RC Assisted),10,4,TRUE,,Mavic Mini,TRUE,FALSE,,Smart,RC,TRUE,TRUE,FALSE,,,TRUE,,FALSE,FALSE,FALSE,FALSE,FALSE,FALSE,FALSE,FALSE,FALSE,FALSE,0,Follow Yaw,0,0,-129.2,230.8,FALSE,FALSE,FALSE,FALSE,FALSE,FALSE,,TRUE,Normal,,100,1024,1024,1024,1024,2,FALSE,FALSE,FALSE,FALSE,FALSE,0,FALSE,FALSE,FALSE,FALSE,70,7.749,1422,2054,7.744,FALSE,3.876,3.873,0.003,FALSE,FALSE,NA,112.5,112.2,112.4,0,5,0,0,5,2662.2,665.56,,Idle,0,20,FALSE,5,TRUE,8,Go Home,FALSE,FALSE,FALSE,FALSE,FALSE,FALSE,FALSE,FALSE,FALSE,FALSE,FALSE,FALSE,6.974701799,79.9148136,5.3,111.8,328,TRUE,1,1,FALSE,FALSE,FALSE,FALSE,,TRUE,FALSE,FALSE,Course Lock,246,303.7,16.4,Calm,23,,1.12.8,Mavic Mini,1SDCH7G0169R0K,1SFLH6Q0AB03DJ,1SRCH7F014TAHX,1U5X071EXP5ZJG,76.1,0,49.2,3.179362,3.35541,0,0,Mavic Mini,1SDCH7G0169R0K,1SFLH6Q0AB03DJ,1SRCH7F014TAHX,1U5X071EXP5ZJG,DJI Fly,,1.12.8,434EDF9E-C3B0-789C-D353-216008B41547,1SDCH7G0169R0K,,,,,,,,,
2/13/2024,27:57.5,6m 33.3s,393.3,6.974715133,79.91481952,0,0,0.3,68,0.2,0,0,0,0,0,0,0,0,2.6,-4.7,-131,229,,Manual Takeoff,Auto Landing,Takeoff (RC Assisted),10,4,TRUE,,Mavic Mini,TRUE,FALSE,,Smart,RC,TRUE,TRUE,FALSE,,,TRUE,,FALSE,FALSE,FALSE,FALSE,FALSE,FALSE,FALSE,FALSE,FALSE,FALSE,0,Follow Yaw,0,0,-129.2,230.8,FALSE,FALSE,FALSE,FALSE,FALSE,FALSE,,TRUE,Normal,,100,1024,1024,1024,1024,2,FALSE,FALSE,FALSE,FALSE,FALSE,0,FALSE,FALSE,FALSE,FALSE,70,7.749,1422,2054,7.744,FALSE,3.876,3.873,0.003,FALSE,FALSE,NA,112.5,112.2,112.4,0,5,0,0,5,2662.2,665.56,,Idle,0,20,FALSE,5,TRUE,8,Go Home,FALSE,FALSE,FALSE,FALSE,FALSE,FALSE,FALSE,FALSE,FALSE,FALSE,FALSE,FALSE,6.974701799,79.9148136,5.3,111.8,328,TRUE,1,1,FALSE,FALSE,FALSE,FALSE,,TRUE,FALSE,FALSE,Course Lock,246,303.7,16.4,Calm,23,,1.12.8,Mavic Mini,1SDCH7G0169R0K,1SFLH6Q0AB03DJ,1SRCH7F014TAHX,1U5X071EXP5ZJG,76.1,0,49.2,3.179362,3.35541,0,0,Mavic Mini,1SDCH7G0169R0K,1SFLH6Q0AB03DJ,1SRCH7F014TAHX,1U5X071EXP5ZJG,DJI Fly,,1.12.8,434EDF9E-C3B0-789C-D353-216008B41547,1SDCH7G0169R0K,,,,,6.974709579,79.91479293,5,,
2/13/2024,27:57.6,6m 33.4s,393.4,6.974715134,79.91481948,0,0,0.3,68,0.3,0,0,0,0,0,0,0,0,2.6,-4.7,-130.9,229.1,,Manual Takeoff,Auto Landing,Takeoff (RC Assisted),10,4,TRUE,,Mavic Mini,TRUE,FALSE,,Smart,RC,TRUE,TRUE,FALSE,,,TRUE,,FALSE,FALSE,FALSE,FALSE,FALSE,FALSE,FALSE,FALSE,FALSE,FALSE,0,Follow Yaw,0,0,-129.2,230.8,FALSE,FALSE,FALSE,FALSE,FALSE,FALSE,,TRUE,Normal,,100,1024,1024,1024,1024,2,FALSE,FALSE,FALSE,FALSE,FALSE,0,FALSE,FALSE,FALSE,FALSE,70,7.749,1422,2054,7.744,FALSE,3.876,3.873,0.003,FALSE,FALSE,NA,112.5,112.2,112.4,0,5,0,0,5,2662.2,665.56,,Idle,0,20,FALSE,5,TRUE,8,Go Home,FALSE,FALSE,FALSE,FALSE,FALSE,FALSE,FALSE,FALSE,FALSE,FALSE,FALSE,FALSE,6.974701799,79.9148136,5.3,111.8,328,TRUE,1,1,FALSE,FALSE,FALSE,FALSE,,TRUE,FALSE,FALSE,Course Lock,246,303.7,16.4,Calm,23,,1.12.8,Mavic Mini,1SDCH7G0169R0K,1SFLH6Q0AB03DJ,1SRCH7F014TAHX,1U5X071EXP5ZJG,76.1,0,49.2,3.179362,3.35541,0,0,Mavic Mini,1SDCH7G0169R0K,1SFLH6Q0AB03DJ,1SRCH7F014TAHX,1U5X071EXP5ZJG,DJI Fly,,1.12.8,434EDF9E-C3B0-789C-D353-216008B41547,1SDCH7G0169R0K,,,,,6.974709579,79.91479293,5,,
2/13/2024,27:57.7,6m 33.5s,393.5,6.974715134,79.91481946,0,0,0.3,68,0.3,0,0,0,0,0,0,0,0,2.6,-4.7,-130.9,229.1,,Manual Takeoff,Auto Landing,Takeoff (RC Assisted),10,4,TRUE,,Mavic Mini,TRUE,FALSE,,Smart,RC,TRUE,TRUE,FALSE,,,TRUE,,FALSE,FALSE,FALSE,FALSE,FALSE,FALSE,FALSE,FALSE,FALSE,FALSE,0,Follow Yaw,0,0,-129.2,230.8,FALSE,FALSE,FALSE,FALSE,FALSE,FALSE,,TRUE,Normal,,100,1024,1024,1137,1024,2,FALSE,FALSE,FALSE,FALSE,FALSE,0,FALSE,FALSE,FALSE,FALSE,70,7.749,1422,2054,7.744,FALSE,3.876,3.873,0.003,FALSE,FALSE,NA,112.5,112.2,112.4,0,5,0,0,5,2662.2,665.56,,Idle,0,20,FALSE,5,TRUE,8,Go Home,FALSE,FALSE,FALSE,FALSE,FALSE,FALSE,FALSE,FALSE,FALSE,FALSE,FALSE,FALSE,6.974701799,79.9148136,5.3,111.8,328,TRUE,1,1,FALSE,FALSE,FALSE,FALSE,,TRUE,FALSE,FALSE,Course Lock,246,303.7,16.4,Calm,23,,1.12.8,Mavic Mini,1SDCH7G0169R0K,1SFLH6Q0AB03DJ,1SRCH7F014TAHX,1U5X071EXP5ZJG,76.1,0,49.2,3.179362,3.35541,0,0,Mavic Mini,1SDCH7G0169R0K,1SFLH6Q0AB03DJ,1SRCH7F014TAHX,1U5X071EXP5ZJG,DJI Fly,,1.12.8,434EDF9E-C3B0-789C-D353-216008B41547,1SDCH7G0169R0K,,,,,6.974709579,79.91479293,5,,
2/13/2024,27:57.8,6m 33.6s,393.6,6.974715135,79.91481946,0,0,0.3,68,0.3,0,0,0,0,0,0,0,0,2.5,-4.7,-131,229,,Manual Takeoff,Auto Landing,Takeoff (RC Assisted),10,4,TRUE,,Mavic Mini,TRUE,FALSE,,Smart,RC,TRUE,TRUE,FALSE,,,TRUE,,FALSE,FALSE,FALSE,FALSE,FALSE,FALSE,FALSE,FALSE,FALSE,FALSE,0,Follow Yaw,0,0,-129.2,230.8,FALSE,FALSE,FALSE,FALSE,FALSE,FALSE,,TRUE,Normal,,100,1024,1024,1293,1024,2,FALSE,FALSE,FALSE,FALSE,FALSE,0,FALSE,FALSE,FALSE,FALSE,70,7.749,1422,2054,7.744,FALSE,3.876,3.873,0.003,FALSE,FALSE,NA,112.5,112.2,112.4,0,5,0,0,5,2662.2,665.56,,Idle,0,20,FALSE,5,TRUE,8,Go Home,FALSE,FALSE,FALSE,FALSE,FALSE,FALSE,FALSE,FALSE,FALSE,FALSE,FALSE,FALSE,6.974701799,79.9148136,5.3,111.8,328,TRUE,1,1,FALSE,FALSE,FALSE,FALSE,,TRUE,FALSE,FALSE,Course Lock,246,303.7,16.4,Calm,23,,1.12.8,Mavic Mini,1SDCH7G0169R0K,1SFLH6Q0AB03DJ,1SRCH7F014TAHX,1U5X071EXP5ZJG,76.1,0,49.2,3.179362,3.35541,0,0,Mavic Mini,1SDCH7G0169R0K,1SFLH6Q0AB03DJ,1SRCH7F014TAHX,1U5X071EXP5ZJG,DJI Fly,,1.12.8,434EDF9E-C3B0-789C-D353-216008B41547,1SDCH7G0169R0K,,,,,6.974709579,79.91479293,5,,
2/13/2024,27:57.8,6m 33.7s,393.7,6.974715132,79.91481967,0,0,0.3,68,0.3,0,0,0,0,0,0,0,0,2.5,-4.7,-130.9,229.1,,Manual Takeoff,Auto Landing,Takeoff (RC Assisted),10,4,TRUE,,Mavic Mini,TRUE,FALSE,,Smart,RC,TRUE,TRUE,FALSE,,,TRUE,,FALSE,FALSE,FALSE,FALSE,FALSE,FALSE,FALSE,FALSE,FALSE,FALSE,0,Follow Yaw,0,0,-129.2,230.8,FALSE,FALSE,FALSE,FALSE,FALSE,FALSE,,TRUE,Normal,,100,1024,1024,1293,1024,2,FALSE,FALSE,FALSE,FALSE,FALSE,0,FALSE,FALSE,FALSE,FALSE,70,7.749,1422,2054,7.744,FALSE,3.876,3.873,0.003,FALSE,FALSE,NA,112.5,112.2,112.4,0,5,0,0,5,2662.2,665.56,,Idle,0,20,FALSE,5,TRUE,8,Go Home,FALSE,FALSE,FALSE,FALSE,FALSE,FALSE,FALSE,FALSE,FALSE,FALSE,FALSE,FALSE,6.974701799,79.9148136,5.3,111.8,328,TRUE,1,1,FALSE,FALSE,FALSE,FALSE,,TRUE,FALSE,FALSE,Course Lock,246,303.7,16.4,Calm,23,,1.12.8,Mavic Mini,1SDCH7G0169R0K,1SFLH6Q0AB03DJ,1SRCH7F014TAHX,1U5X071EXP5ZJG,76.1,0,49.2,3.179362,3.35541,0,0,Mavic Mini,1SDCH7G0169R0K,1SFLH6Q0AB03DJ,1SRCH7F014TAHX,1U5X071EXP5ZJG,DJI Fly,,1.12.8,434EDF9E-C3B0-789C-D353-216008B41547,1SDCH7G0169R0K,,,,,6.974709579,79.91479293,5,,
2/13/2024,27:57.9,6m 33.8s,393.8,6.974715131,79.91481972,0,0,0.3,68,0.3,0,0,0,0,0,0,0,0,2.5,-4.6,-130.9,229.1,,Manual Takeoff,Auto Landing,Takeoff (RC Assisted),9,4,TRUE,,Mavic Mini,TRUE,FALSE,,Smart,RC,TRUE,TRUE,FALSE,,,TRUE,,FALSE,FALSE,FALSE,FALSE,FALSE,FALSE,FALSE,FALSE,FALSE,FALSE,0,Follow Yaw,0,0,-129.2,230.8,FALSE,FALSE,FALSE,FALSE,FALSE,FALSE,,TRUE,Normal,,100,1024,1024,1443,1024,2,FALSE,FALSE,FALSE,FALSE,FALSE,0,FALSE,FALSE,FALSE,FALSE,70,7.749,1422,2054,7.744,FALSE,3.876,3.873,0.003,FALSE,FALSE,NA,112.5,112.2,112.4,0,5,0,0,5,2662.2,665.56,,Idle,0,20,FALSE,5,TRUE,8,Go Home,FALSE,FALSE,FALSE,FALSE,FALSE,FALSE,FALSE,FALSE,FALSE,FALSE,FALSE,FALSE,6.974701799,79.9148136,5.3,111.8,328,TRUE,1,1,FALSE,FALSE,FALSE,FALSE,,TRUE,FALSE,FALSE,Course Lock,246,303.7,16.4,Calm,23,,1.12.8,Mavic Mini,1SDCH7G0169R0K,1SFLH6Q0AB03DJ,1SRCH7F014TAHX,1U5X071EXP5ZJG,76.1,0,49.2,3.179362,3.35541,0,0,Mavic Mini,1SDCH7G0169R0K,1SFLH6Q0AB03DJ,1SRCH7F014TAHX,1U5X071EXP5ZJG,DJI Fly,,1.12.8,434EDF9E-C3B0-789C-D353-216008B41547,1SDCH7G0169R0K,,,,,6.974709579,79.91479293,5,,
2/13/2024,27:58.0,6m 33.9s,393.9,6.974715129,79.91481968,0,0,0.3,68,0.4,0,0,0,0,0,0,0,0,2.4,-4.6,-131,229,,Manual Takeoff,Auto Landing,Takeoff (RC Assisted),9,4,TRUE,,Mavic Mini,TRUE,FALSE,,Smart,RC,TRUE,TRUE,FALSE,,,TRUE,,FALSE,FALSE,FALSE,FALSE,FALSE,FALSE,FALSE,FALSE,FALSE,FALSE,0,Follow Yaw,0,0,-129.2,230.8,FALSE,FALSE,FALSE,FALSE,FALSE,FALSE,,TRUE,Normal,,100,1024,1024,1498,1024,2,FALSE,FALSE,FALSE,FALSE,FALSE,0,FALSE,FALSE,FALSE,FALSE,70,7.749,1422,2054,7.744,FALSE,3.876,3.873,0.003,FALSE,FALSE,NA,112.5,112.2,112.4,0,5,0,0,5,2662.2,665.56,,Idle,0,20,FALSE,5,TRUE,8,Go Home,FALSE,FALSE,FALSE,FALSE,FALSE,FALSE,FALSE,FALSE,FALSE,FALSE,FALSE,FALSE,6.974701799,79.9148136,5.3,111.8,328,TRUE,1,1,FALSE,FALSE,FALSE,FALSE,,TRUE,FALSE,FALSE,Course Lock,246,303.7,16.4,Calm,23,,1.12.8,Mavic Mini,1SDCH7G0169R0K,1SFLH6Q0AB03DJ,1SRCH7F014TAHX,1U5X071EXP5ZJG,76.1,0,49.2,3.179362,3.35541,0,0,Mavic Mini,1SDCH7G0169R0K,1SFLH6Q0AB03DJ,1SRCH7F014TAHX,1U5X071EXP5ZJG,DJI Fly,,1.12.8,434EDF9E-C3B0-789C-D353-216008B41547,1SDCH7G0169R0K,,,,,6.974709579,79.91479293,5,,
2/13/2024,27:58.1,6m 34.0s,394,6.974715126,79.91481966,0,0,0.3,68,0.4,0,0,0,0,0,0,0,0,2.4,-4.5,-130.9,229.1,,Manual Takeoff,Auto Landing,Takeoff (RC Assisted),9,4,TRUE,,Mavic Mini,TRUE,FALSE,,Smart,RC,TRUE,TRUE,FALSE,,,TRUE,,FALSE,FALSE,FALSE,FALSE,FALSE,FALSE,FALSE,FALSE,FALSE,FALSE,0,Follow Yaw,0,0,-129.2,230.8,FALSE,FALSE,FALSE,FALSE,FALSE,FALSE,,TRUE,Normal,,100,1024,1024,1499,1024,2,FALSE,FALSE,FALSE,FALSE,FALSE,0,FALSE,FALSE,FALSE,FALSE,70,7.749,1422,2054,7.744,FALSE,3.876,3.873,0.003,FALSE,FALSE,NA,112.5,112.2,112.4,0,5,0,0,5,2662.2,665.56,,Idle,0,20,FALSE,5,TRUE,8,Go Home,FALSE,FALSE,FALSE,FALSE,FALSE,FALSE,FALSE,FALSE,FALSE,FALSE,FALSE,FALSE,6.974701799,79.9148136,5.3,111.8,328,TRUE,1,1,FALSE,FALSE,FALSE,FALSE,,TRUE,FALSE,FALSE,Course Lock,246,303.7,16.4,Calm,23,,1.12.8,Mavic Mini,1SDCH7G0169R0K,1SFLH6Q0AB03DJ,1SRCH7F014TAHX,1U5X071EXP5ZJG,76.1,0,49.2,3.179362,3.35541,0,0,Mavic Mini,1SDCH7G0169R0K,1SFLH6Q0AB03DJ,1SRCH7F014TAHX,1U5X071EXP5ZJG,DJI Fly,,1.12.8,434EDF9E-C3B0-789C-D353-216008B41547,1SDCH7G0169R0K,,,,,6.974709579,79.91479293,5,,
2/13/2024,27:58.2,6m 34.1s,394.1,6.974715129,79.9148196,0,0,0.3,68,0.4,0,0,0,0,0,0,0,0,2.4,-4.5,-130.9,229.1,,Manual Takeoff,Auto Landing,Takeoff (RC Assisted),9,4,TRUE,,Mavic Mini,TRUE,FALSE,,Smart,RC,TRUE,TRUE,FALSE,,,TRUE,,FALSE,FALSE,FALSE,FALSE,FALSE,FALSE,FALSE,FALSE,FALSE,FALSE,0,Follow Yaw,0,0,-129.2,230.8,FALSE,FALSE,FALSE,FALSE,FALSE,FALSE,,TRUE,Normal,,100,1024,1024,1499,1024,2,FALSE,FALSE,FALSE,FALSE,FALSE,0,FALSE,FALSE,FALSE,FALSE,70,7.749,1422,2054,7.725,FALSE,3.876,3.873,0.003,FALSE,FALSE,NA,112.5,112.2,112.4,0,5,0,0,5,2662.2,665.56,,Idle,0,20,FALSE,5,TRUE,8,Go Home,FALSE,FALSE,FALSE,FALSE,FALSE,FALSE,FALSE,FALSE,FALSE,FALSE,FALSE,FALSE,6.974701799,79.9148136,5.3,111.8,328,TRUE,1,1,FALSE,FALSE,FALSE,FALSE,,TRUE,FALSE,FALSE,Course Lock,246,303.7,16.4,Calm,23,,1.12.8,Mavic Mini,1SDCH7G0169R0K,1SFLH6Q0AB03DJ,1SRCH7F014TAHX,1U5X071EXP5ZJG,76.1,0,49.2,3.179362,3.35541,0,0,Mavic Mini,1SDCH7G0169R0K,1SFLH6Q0AB03DJ,1SRCH7F014TAHX,1U5X071EXP5ZJG,DJI Fly,,1.12.8,434EDF9E-C3B0-789C-D353-216008B41547,1SDCH7G0169R0K,,,,,6.974709579,79.91479293,5,,
2/13/2024,27:58.3,6m 34.2s,394.2,6.974715123,79.91481959,0,0,0.3,68,0.4,0,0,0,0,0,0,0,0,2.3,-4.5,-130.8,229.2,,Manual Takeoff,Auto Landing,Takeoff (RC Assisted),9,4,TRUE,,Mavic Mini,TRUE,FALSE,,Smart,RC,TRUE,TRUE,FALSE,,,TRUE,,FALSE,FALSE,FALSE,FALSE,FALSE,FALSE,FALSE,FALSE,FALSE,FALSE,0,Follow Yaw,0,0,-129.2,230.8,FALSE,FALSE,FALSE,FALSE,FALSE,FALSE,,TRUE,Normal,,100,1024,1024,1526,1024,2,FALSE,FALSE,FALSE,FALSE,FALSE,0,FALSE,FALSE,FALSE,FALSE,70,7.72,1421,2054,7.725,FALSE,3.861,3.859,0.003,FALSE,FALSE,NA,112.5,112.2,112.4,0,5,0,0,5,2662.2,665.56,,Idle,0,20,FALSE,5,TRUE,8,Go Home,FALSE,FALSE,FALSE,FALSE,FALSE,FALSE,FALSE,FALSE,FALSE,FALSE,FALSE,FALSE,6.974701799,79.9148136,5.3,111.8,328,TRUE,1,1,FALSE,FALSE,FALSE,FALSE,,TRUE,FALSE,FALSE,Course Lock,246,303.7,16.4,Calm,23,,1.12.8,Mavic Mini,1SDCH7G0169R0K,1SFLH6Q0AB03DJ,1SRCH7F014TAHX,1U5X071EXP5ZJG,76.1,0,49.2,3.179362,3.35541,0,0,Mavic Mini,1SDCH7G0169R0K,1SFLH6Q0AB03DJ,1SRCH7F014TAHX,1U5X071EXP5ZJG,DJI Fly,,1.12.8,434EDF9E-C3B0-789C-D353-216008B41547,1SDCH7G0169R0K,,,,,6.974709579,79.91479293,5,,
2/13/2024,27:58.4,6m 34.3s,394.3,6.974715103,79.91481959,0,0,0.3,68,0.4,0,0,0,0,0,0,0,0,1.2,-4.2,-130.3,229.7,,Manual Takeoff,Auto Landing,Takeoff (RC Assisted),9,4,TRUE,,Mavic Mini,TRUE,FALSE,,Smart,RC,TRUE,TRUE,FALSE,,,TRUE,,FALSE,FALSE,FALSE,FALSE,FALSE,FALSE,FALSE,FALSE,FALSE,FALSE,0,Follow Yaw,0,0,-129.1,230.9,FALSE,FALSE,FALSE,FALSE,FALSE,FALSE,,TRUE,Normal,,100,1024,1024,1532,1024,2,FALSE,FALSE,FALSE,FALSE,FALSE,0,FALSE,FALSE,FALSE,FALSE,70,7.72,1421,2054,7.725,FALSE,3.861,3.859,0.003,FALSE,FALSE,NA,112.5,112.2,112.4,0,5,0,0,5,2662.2,665.56,,Idle,0,20,FALSE,5,TRUE,8,Go Home,FALSE,FALSE,FALSE,FALSE,FALSE,FALSE,FALSE,FALSE,FALSE,FALSE,FALSE,FALSE,6.974701799,79.9148136,5.3,111.8,328,TRUE,1,1,FALSE,FALSE,FALSE,FALSE,,TRUE,FALSE,FALSE,Course Lock,246,303.7,16.4,Calm,23,,1.12.8,Mavic Mini,1SDCH7G0169R0K,1SFLH6Q0AB03DJ,1SRCH7F014TAHX,1U5X071EXP5ZJG,76.1,0,49.2,3.179362,3.35541,0,0,Mavic Mini,1SDCH7G0169R0K,1SFLH6Q0AB03DJ,1SRCH7F014TAHX,1U5X071EXP5ZJG,DJI Fly,,1.12.8,434EDF9E-C3B0-789C-D353-216008B41547,1SDCH7G0169R0K,,,,,6.974709579,79.91479293,5,,
2/13/2024,27:58.5,6m 34.4s,394.4,6.974715038,79.91481961,0,0,0.3,68,0.4,0,0,0,0,0,0,0,0,-1.2,-2.2,-130.6,229.4,,Manual Takeoff,Auto Landing,Takeoff (RC Assisted),9,4,TRUE,,Mavic Mini,TRUE,FALSE,,Smart,RC,TRUE,TRUE,FALSE,,,TRUE,,FALSE,FALSE,FALSE,FALSE,FALSE,FALSE,FALSE,FALSE,FALSE,FALSE,0,Follow Yaw,0,0,-129,231,FALSE,FALSE,FALSE,FALSE,FALSE,FALSE,,TRUE,Normal,,100,1024,1024,1531,1024,2,FALSE,FALSE,FALSE,FALSE,FALSE,0,FALSE,FALSE,FALSE,FALSE,70,7.72,1421,2054,7.725,FALSE,3.861,3.859,0.003,FALSE,FALSE,NA,112.5,112.2,112.4,0,5,0,0,5,2662.2,665.56,,Idle,0,20,FALSE,5,TRUE,8,Go Home,FALSE,FALSE,FALSE,FALSE,FALSE,FALSE,FALSE,FALSE,FALSE,FALSE,FALSE,FALSE,6.974701799,79.9148136,5.2,111.8,328,TRUE,1,1,FALSE,FALSE,FALSE,FALSE,,TRUE,FALSE,FALSE,Course Lock,246,303.7,16.4,Calm,23,,1.12.8,Mavic Mini,1SDCH7G0169R0K,1SFLH6Q0AB03DJ,1SRCH7F014TAHX,1U5X071EXP5ZJG,76.1,0,49.2,3.179362,3.35541,0,0,Mavic Mini,1SDCH7G0169R0K,1SFLH6Q0AB03DJ,1SRCH7F014TAHX,1U5X071EXP5ZJG,DJI Fly,,1.12.8,434EDF9E-C3B0-789C-D353-216008B41547,1SDCH7G0169R0K,,,,,6.974709579,79.91479293,5,,
2/13/2024,27:58.6,6m 34.5s,394.5,6.974714881,79.91481966,0,0,0.3,68,0.5,0.223694,0.223694,-0.223694,0,0,0,-0.223694,0,-0.7,-1.1,-130.7,229.3,167.2,Tripod,Auto Landing,,9,4,TRUE,,Mavic Mini,TRUE,FALSE,,Smart,RC,FALSE,TRUE,FALSE,,,TRUE,,FALSE,FALSE,FALSE,FALSE,FALSE,FALSE,FALSE,FALSE,FALSE,FALSE,0,Follow Yaw,0,0,-129,231,FALSE,FALSE,FALSE,FALSE,FALSE,FALSE,,TRUE,Normal,,100,1024,1024,1530,1024,2,FALSE,FALSE,FALSE,FALSE,FALSE,0,FALSE,FALSE,FALSE,FALSE,70,7.72,1421,2054,7.725,FALSE,3.861,3.859,0.003,FALSE,FALSE,NA,112.5,112.2,112.4,0,5,0,0,5,2662.2,665.56,,Idle,0,20,FALSE,5,TRUE,8,Go Home,FALSE,FALSE,FALSE,FALSE,FALSE,FALSE,FALSE,FALSE,FALSE,FALSE,FALSE,FALSE,6.974701799,79.9148136,5.2,111.8,328,TRUE,1,1,FALSE,FALSE,FALSE,FALSE,,TRUE,FALSE,FALSE,Course Lock,246,303.7,16.4,Calm,23,,1.12.8,Mavic Mini,1SDCH7G0169R0K,1SFLH6Q0AB03DJ,1SRCH7F014TAHX,1U5X071EXP5ZJG,76.1,0,49.2,3.179362,3.35541,0,0,Mavic Mini,1SDCH7G0169R0K,1SFLH6Q0AB03DJ,1SRCH7F014TAHX,1U5X071EXP5ZJG,DJI Fly,,1.12.8,434EDF9E-C3B0-789C-D353-216008B41547,1SDCH7G0169R0K,,,,,6.974709579,79.91479293,5,Flight mode changed to Tripod.,
2/13/2024,27:58.7,6m 34.6s,394.6,6.974714635,79.9148198,0,0,0.3,68,0.6,0.223694,0.223694,-0.223694,0,0,0,-0.671082,0,0.2,-0.1,-131,229,156.2,Tripod,Auto Landing,,9,4,TRUE,,Mavic Mini,TRUE,FALSE,,Smart,RC,FALSE,TRUE,FALSE,,,TRUE,,FALSE,FALSE,FALSE,FALSE,FALSE,FALSE,FALSE,FALSE,FALSE,FALSE,0,Follow Yaw,0,0,-129,231,FALSE,FALSE,FALSE,FALSE,FALSE,FALSE,,TRUE,Normal,,100,1024,1024,1530,1024,2,FALSE,FALSE,FALSE,FALSE,FALSE,0,FALSE,FALSE,FALSE,FALSE,70,7.72,1421,2054,7.725,FALSE,3.861,3.859,0.003,FALSE,FALSE,NA,112.5,112.2,112.4,0,5,0,0,5,2662.2,665.56,,Idle,0,20,FALSE,5,TRUE,8,Go Home,FALSE,FALSE,FALSE,FALSE,FALSE,FALSE,FALSE,FALSE,FALSE,FALSE,FALSE,FALSE,6.974701799,79.9148136,5.1,111.8,328,TRUE,1,1,FALSE,FALSE,FALSE,FALSE,,TRUE,FALSE,FALSE,Course Lock,246,303.7,16.4,Calm,23,,1.12.8,Mavic Mini,1SDCH7G0169R0K,1SFLH6Q0AB03DJ,1SRCH7F014TAHX,1U5X071EXP5ZJG,76.1,0,49.2,3.179362,3.35541,0,0,Mavic Mini,1SDCH7G0169R0K,1SFLH6Q0AB03DJ,1SRCH7F014TAHX,1U5X071EXP5ZJG,DJI Fly,,1.12.8,434EDF9E-C3B0-789C-D353-216008B41547,1SDCH7G0169R0K,,,,,6.974709579,79.91479293,5,,
2/13/2024,27:58.8,6m 34.7s,394.7,6.974714465,79.9148198,0,0,0.6,68,0.7,0.223694,0.223694,-0.223694,0,0,0,-0.894776,0,2.1,0,-131,229,178.5,Tripod,Auto Landing,,9,4,TRUE,,Mavic Mini,TRUE,FALSE,,Smart,RC,FALSE,TRUE,FALSE,,,TRUE,,FALSE,FALSE,FALSE,FALSE,FALSE,FALSE,FALSE,FALSE,FALSE,FALSE,0,Follow Yaw,0,0,-129,231,FALSE,FALSE,FALSE,FALSE,FALSE,FALSE,,TRUE,Normal,,100,1024,1024,1530,1024,2,FALSE,FALSE,FALSE,FALSE,FALSE,0,FALSE,FALSE,FALSE,FALSE,70,7.72,1421,2054,7.725,FALSE,3.861,3.859,0.003,FALSE,FALSE,NA,112.5,112.2,112.4,0,5,0,0,5,2662.2,665.56,,Idle,0,20,FALSE,5,TRUE,8,Go Home,FALSE,FALSE,FALSE,FALSE,FALSE,FALSE,FALSE,FALSE,FALSE,FALSE,FALSE,FALSE,6.974701799,79.9148136,5.1,111.8,328,TRUE,1,1,FALSE,FALSE,FALSE,FALSE,,TRUE,FALSE,FALSE,Course Lock,246,303.7,16.4,Calm,23,,1.12.8,Mavic Mini,1SDCH7G0169R0K,1SFLH6Q0AB03DJ,1SRCH7F014TAHX,1U5X071EXP5ZJG,76.1,0,49.2,3.179362,3.35541,0,0,Mavic Mini,1SDCH7G0169R0K,1SFLH6Q0AB03DJ,1SRCH7F014TAHX,1U5X071EXP5ZJG,DJI Fly,,1.12.8,434EDF9E-C3B0-789C-D353-216008B41547,1SDCH7G0169R0K,,,,,6.974709579,79.91479293,5,,
2/13/2024,27:58.9,6m 34.8s,394.8,6.97471431,79.91481978,0.3,0.3,0.6,69,0.7,0.223694,0.223694,-0.223694,0,0,0,-1.11847,0,2.4,0.7,-130.9,229.1,187.2,Tripod,Auto Landing,,9,4,TRUE,,Mavic Mini,TRUE,FALSE,,Smart,RC,FALSE,TRUE,FALSE,,,TRUE,,FALSE,FALSE,FALSE,FALSE,FALSE,FALSE,FALSE,FALSE,FALSE,FALSE,0,Follow Yaw,0,0,-129,231,FALSE,FALSE,FALSE,FALSE,FALSE,FALSE,,TRUE,Normal,,100,1024,1024,1530,1024,2,FALSE,FALSE,FALSE,FALSE,FALSE,0,FALSE,FALSE,FALSE,FALSE,70,7.72,1421,2054,7.725,FALSE,3.861,3.859,0.003,FALSE,FALSE,NA,112.5,112.2,112.4,0,5,0,0,5,2662.2,665.56,,Idle,0,20,FALSE,5,TRUE,8,Go Home,FALSE,FALSE,FALSE,FALSE,FALSE,FALSE,FALSE,FALSE,FALSE,FALSE,FALSE,FALSE,6.974701799,79.9148136,5,111.8,328,TRUE,1,1,FALSE,FALSE,FALSE,FALSE,,TRUE,FALSE,FALSE,Course Lock,246,303.7,16.4,Calm,23,,1.12.8,Mavic Mini,1SDCH7G0169R0K,1SFLH6Q0AB03DJ,1SRCH7F014TAHX,1U5X071EXP5ZJG,76.1,0,49.2,3.179362,3.35541,0,0,Mavic Mini,1SDCH7G0169R0K,1SFLH6Q0AB03DJ,1SRCH7F014TAHX,1U5X071EXP5ZJG,DJI Fly,,1.12.8,434EDF9E-C3B0-789C-D353-216008B41547,1SDCH7G0169R0K,,,,,6.974709579,79.91479293,5,,
2/13/2024,27:59.1,6m 34.9s,394.9,6.974714165,79.91481964,0.3,0.3,0.9,69,0.8,0.223694,0.223694,-0.223694,0,0,0,-1.342164,0,2.9,0,-130.8,229.2,216,Tripod,Auto Landing,,9,4,TRUE,,Mavic Mini,TRUE,FALSE,,Smart,RC,FALSE,TRUE,FALSE,,,TRUE,,FALSE,FALSE,FALSE,FALSE,FALSE,FALSE,FALSE,FALSE,FALSE,FALSE,0,Follow Yaw,0,0,-129,231,FALSE,FALSE,FALSE,FALSE,FALSE,FALSE,,TRUE,Normal,,100,1024,1024,1527,1024,2,FALSE,FALSE,FALSE,FALSE,FALSE,0,FALSE,FALSE,FALSE,FALSE,70,7.72,1421,2054,7.725,FALSE,3.861,3.859,0.003,FALSE,FALSE,NA,112.5,112.2,112.4,0,5,0,0,5,2662.2,665.56,,Idle,0,20,FALSE,5,TRUE,8,Go Home,FALSE,FALSE,FALSE,FALSE,FALSE,FALSE,FALSE,FALSE,FALSE,FALSE,FALSE,FALSE,6.974701799,79.9148136,5,111.8,328,TRUE,1,1,FALSE,FALSE,FALSE,FALSE,,TRUE,FALSE,FALSE,Course Lock,246,303.7,16.4,Calm,23,,1.12.8,Mavic Mini,1SDCH7G0169R0K,1SFLH6Q0AB03DJ,1SRCH7F014TAHX,1U5X071EXP5ZJG,76.1,0,49.2,3.179362,3.35541,0,0,Mavic Mini,1SDCH7G0169R0K,1SFLH6Q0AB03DJ,1SRCH7F014TAHX,1U5X071EXP5ZJG,DJI Fly,,1.12.8,434EDF9E-C3B0-789C-D353-216008B41547,1SDCH7G0169R0K,,,,,6.974709579,79.91479293,5,,
2/13/2024,27:59.1,6m 35.0s,395,6.974714045,79.91481948,0.6,0.6,0.9,69,0.9,0,0.223694,0,0,0,0,-1.789552,0,2.5,-0.2,-130.9,229.1,,Tripod,Auto Landing,,9,4,TRUE,,Mavic Mini,TRUE,FALSE,,Smart,RC,FALSE,TRUE,FALSE,,,TRUE,,FALSE,FALSE,FALSE,FALSE,FALSE,FALSE,FALSE,FALSE,FALSE,FALSE,0,Follow Yaw,0,0,-129,231,FALSE,FALSE,FALSE,FALSE,FALSE,FALSE,,TRUE,Normal,,100,1024,1024,1504,1024,2,FALSE,FALSE,FALSE,FALSE,FALSE,0,FALSE,FALSE,FALSE,FALSE,70,7.72,1421,2054,7.725,FALSE,3.861,3.859,0.003,FALSE,FALSE,NA,112.5,112.2,112.4,0,5,0,0,5,2662.2,665.56,,Idle,0,20,FALSE,5,TRUE,8,Go Home,FALSE,FALSE,FALSE,FALSE,FALSE,FALSE,FALSE,FALSE,FALSE,FALSE,FALSE,FALSE,6.974701799,79.9148136,4.9,111.8,328,TRUE,1,1,FALSE,FALSE,FALSE,FALSE,,TRUE,FALSE,FALSE,Course Lock,246,303.7,16.4,Calm,23,,1.12.8,Mavic Mini,1SDCH7G0169R0K,1SFLH6Q0AB03DJ,1SRCH7F014TAHX,1U5X071EXP5ZJG,76.1,0,49.2,3.179362,3.35541,0,0,Mavic Mini,1SDCH7G0169R0K,1SFLH6Q0AB03DJ,1SRCH7F014TAHX,1U5X071EXP5ZJG,DJI Fly,,1.12.8,434EDF9E-C3B0-789C-D353-216008B41547,1SDCH7G0169R0K,,,,,6.974709579,79.91479293,5,,
2/13/2024,27:59.3,6m 35.1s,395.1,6.974713928,79.91481942,0.9,0.9,1.3,69,0.9,0,0.223694,0,0,0,0,-2.013246,0,2.8,-0.4,-130.9,229.1,,Tripod,Auto Landing,,9,4,TRUE,,Mavic Mini,TRUE,FALSE,,Smart,RC,FALSE,TRUE,FALSE,,,TRUE,,FALSE,FALSE,FALSE,FALSE,FALSE,FALSE,FALSE,FALSE,FALSE,FALSE,0,Follow Yaw,0,0,-129,231,FALSE,FALSE,FALSE,FALSE,FALSE,FALSE,,TRUE,Normal,,100,1024,1024,1482,1024,2,FALSE,FALSE,FALSE,FALSE,FALSE,0,FALSE,FALSE,FALSE,FALSE,70,7.72,1421,2054,7.701,FALSE,3.861,3.859,0.003,FALSE,FALSE,NA,112.5,112.2,112.4,0,0,0,0,5,2859,714.76,,Idle,0,20,FALSE,5,TRUE,8,Go Home,FALSE,FALSE,FALSE,FALSE,FALSE,FALSE,FALSE,FALSE,FALSE,FALSE,FALSE,FALSE,6.974714915,79.91481965,0.3,111.8,328,TRUE,1,1,FALSE,FALSE,FALSE,FALSE,,TRUE,FALSE,FALSE,Course Lock,246,303.7,16.4,Calm,23,,1.12.8,Mavic Mini,1SDCH7G0169R0K,1SFLH6Q0AB03DJ,1SRCH7F014TAHX,1U5X071EXP5ZJG,76.1,0,49.2,3.179362,3.35541,0,0,Mavic Mini,1SDCH7G0169R0K,1SFLH6Q0AB03DJ,1SRCH7F014TAHX,1U5X071EXP5ZJG,DJI Fly,,1.12.8,434EDF9E-C3B0-789C-D353-216008B41547,1SDCH7G0169R0K,,,,,6.974709579,79.91479293,5,Home Point Updated.,
2/13/2024,27:59.3,6m 35.2s,395.2,6.974713839,79.91481935,1.3,1.3,1.6,70,0.9,0.223694,0.223694,0,0,-0.223694,0,-2.013246,0,2.5,-0.7,-130.9,229.1,210.4,Tripod,Auto Landing,,9,4,TRUE,,Mavic Mini,TRUE,FALSE,,Smart,RC,FALSE,TRUE,FALSE,,,TRUE,,FALSE,FALSE,FALSE,FALSE,FALSE,FALSE,FALSE,FALSE,FALSE,FALSE,0,Follow Yaw,0,0,-129,231,FALSE,FALSE,FALSE,FALSE,FALSE,FALSE,,TRUE,Normal,,100,1024,1024,1441,1024,2,FALSE,FALSE,FALSE,FALSE,FALSE,0,FALSE,FALSE,FALSE,FALSE,70,7.72,1421,2054,7.701,FALSE,3.861,3.859,0.003,FALSE,FALSE,NA,112.5,112.2,112.4,0,0,0,0,5,2859,714.76,,Idle,0,20,FALSE,5,TRUE,8,Go Home,FALSE,FALSE,FALSE,FALSE,FALSE,FALSE,FALSE,FALSE,FALSE,FALSE,FALSE,FALSE,6.974714915,79.91481965,0.4,111.8,328,TRUE,1,1,FALSE,FALSE,FALSE,FALSE,,TRUE,FALSE,FALSE,Course Lock,246,303.7,16.4,Calm,23,,1.12.8,Mavic Mini,1SDCH7G0169R0K,1SFLH6Q0AB03DJ,1SRCH7F014TAHX,1U5X071EXP5ZJG,76.1,0,49.2,3.179362,3.35541,0,0,Mavic Mini,1SDCH7G0169R0K,1SFLH6Q0AB03DJ,1SRCH7F014TAHX,1U5X071EXP5ZJG,DJI Fly,,1.12.8,434EDF9E-C3B0-789C-D353-216008B41547,1SDCH7G0169R0K,,,,,6.974709579,79.91479293,5,,
2/13/2024,27:59.4,6m 35.3s,395.3,6.97471379,79.91481922,1.6,1.6,1.9,70,1,0,0.223694,0,0,0,0,-2.23694,0,2.8,-1,-130.9,229.1,,Tripod,Auto Landing,,9,4,TRUE,,Mavic Mini,TRUE,FALSE,,Smart,RC,FALSE,TRUE,FALSE,,,TRUE,,FALSE,FALSE,FALSE,FALSE,FALSE,FALSE,FALSE,FALSE,FALSE,FALSE,0,Follow Yaw,0,0,-129,231,FALSE,FALSE,FALSE,FALSE,FALSE,FALSE,,TRUE,Normal,,100,1024,1024,1416,1024,2,FALSE,FALSE,FALSE,FALSE,FALSE,0,FALSE,FALSE,FALSE,FALSE,70,7.72,1421,2054,7.701,FALSE,3.861,3.859,0.003,FALSE,FALSE,NA,112.5,112.2,112.4,0,0,0,0,5,2859,714.76,,Idle,0,20,FALSE,5,TRUE,8,Go Home,FALSE,FALSE,FALSE,FALSE,FALSE,FALSE,FALSE,FALSE,FALSE,FALSE,FALSE,FALSE,6.974714915,79.91481965,0.4,111.8,328,TRUE,1,1,FALSE,FALSE,FALSE,FALSE,,TRUE,FALSE,FALSE,Course Lock,246,303.7,16.4,Calm,23,,1.12.8,Mavic Mini,1SDCH7G0169R0K,1SFLH6Q0AB03DJ,1SRCH7F014TAHX,1U5X071EXP5ZJG,76.1,0,49.2,3.179362,3.35541,0,0,Mavic Mini,1SDCH7G0169R0K,1SFLH6Q0AB03DJ,1SRCH7F014TAHX,1U5X071EXP5ZJG,DJI Fly,,1.12.8,434EDF9E-C3B0-789C-D353-216008B41547,1SDCH7G0169R0K,,,,,6.974709579,79.91479293,5,,
2/13/2024,27:59.5,6m 35.4s,395.4,6.974713752,79.91481909,1.6,1.6,2.2,70,1,0,0.223694,0,0,0,0,-2.23694,0,3.1,-1.4,-130.9,229.1,,Tripod,Auto Landing,,9,4,TRUE,,Mavic Mini,TRUE,FALSE,,Smart,RC,FALSE,TRUE,FALSE,,,TRUE,,FALSE,FALSE,FALSE,FALSE,FALSE,FALSE,FALSE,FALSE,FALSE,FALSE,0,Follow Yaw,0,0,-129,231,FALSE,FALSE,FALSE,FALSE,FALSE,FALSE,,TRUE,Normal,,100,1024,1024,1416,1024,2,FALSE,FALSE,FALSE,FALSE,FALSE,0,FALSE,FALSE,FALSE,FALSE,70,7.558,1420,2054,7.701,FALSE,3.78,3.779,0.003,FALSE,FALSE,NA,112.5,112.2,112.4,0,0,0,0,5,2859,714.76,,Idle,0,20,FALSE,5,TRUE,8,Go Home,FALSE,FALSE,FALSE,FALSE,FALSE,FALSE,FALSE,FALSE,FALSE,FALSE,FALSE,FALSE,6.974714915,79.91481965,0.4,111.8,328,TRUE,1,1,FALSE,FALSE,FALSE,FALSE,,TRUE,FALSE,FALSE,Course Lock,246,303.7,16.4,Calm,23,,1.12.8,Mavic Mini,1SDCH7G0169R0K,1SFLH6Q0AB03DJ,1SRCH7F014TAHX,1U5X071EXP5ZJG,76.1,0,49.2,3.179362,3.35541,0,0,Mavic Mini,1SDCH7G0169R0K,1SFLH6Q0AB03DJ,1SRCH7F014TAHX,1U5X071EXP5ZJG,DJI Fly,,1.12.8,434EDF9E-C3B0-789C-D353-216008B41547,1SDCH7G0169R0K,,,,,6.974709579,79.91479293,5,,
2/13/2024,27:59.6,6m 35.5s,395.5,6.974713807,79.91481904,1.9,1.9,2.6,70,1.1,0,0.223694,0,0,0,0,-2.013246,0,3,-1.3,-130.9,229.1,,Tripod,Auto Landing,,9,4,TRUE,,Mavic Mini,TRUE,FALSE,,Smart,RC,FALSE,TRUE,FALSE,,,TRUE,,FALSE,FALSE,FALSE,FALSE,FALSE,FALSE,FALSE,FALSE,FALSE,FALSE,0,Follow Yaw,0,0,-129,231,FALSE,FALSE,FALSE,FALSE,FALSE,FALSE,,TRUE,Normal,,100,1024,1024,1415,1024,2,FALSE,FALSE,FALSE,FALSE,FALSE,0,FALSE,FALSE,FALSE,FALSE,70,7.558,1420,2054,7.701,FALSE,3.78,3.779,0.003,FALSE,FALSE,NA,112.5,112.2,112.4,0,0,0,0,5,2859,714.76,,Idle,0,20,FALSE,5,TRUE,8,Go Home,FALSE,FALSE,FALSE,FALSE,FALSE,FALSE,FALSE,FALSE,FALSE,FALSE,FALSE,FALSE,6.974714915,79.91481965,0.4,111.8,328,TRUE,1,1,FALSE,FALSE,FALSE,FALSE,,TRUE,FALSE,FALSE,Course Lock,246,303.7,16.4,Calm,23,,1.12.8,Mavic Mini,1SDCH7G0169R0K,1SFLH6Q0AB03DJ,1SRCH7F014TAHX,1U5X071EXP5ZJG,76.1,0,49.2,3.179362,3.35541,0,0,Mavic Mini,1SDCH7G0169R0K,1SFLH6Q0AB03DJ,1SRCH7F014TAHX,1U5X071EXP5ZJG,DJI Fly,,1.12.8,434EDF9E-C3B0-789C-D353-216008B41547,1SDCH7G0169R0K,,,,,6.974709579,79.91479293,5,,
2/13/2024,27:59.7,6m 35.6s,395.6,6.974713859,79.91481901,2.2,2.2,2.9,71,1.1,0,0.223694,0,0,0,0,-2.013246,0,2.6,-1.1,-130.9,229.1,,Tripod,Auto Landing,,9,4,TRUE,,Mavic Mini,TRUE,FALSE,,Smart,RC,FALSE,TRUE,FALSE,,,TRUE,,FALSE,FALSE,FALSE,FALSE,FALSE,FALSE,FALSE,FALSE,FALSE,FALSE,0,Follow Yaw,0,0,-129,231,FALSE,FALSE,FALSE,FALSE,FALSE,FALSE,,TRUE,Normal,,100,1024,1024,1362,1024,2,FALSE,FALSE,FALSE,FALSE,FALSE,0,FALSE,FALSE,FALSE,FALSE,70,7.558,1420,2054,7.701,FALSE,3.78,3.779,0.003,FALSE,FALSE,NA,112.5,112.2,112.4,0,0,0,0,5,2859,714.76,,Idle,0,20,FALSE,5,TRUE,8,Go Home,FALSE,FALSE,FALSE,FALSE,FALSE,FALSE,FALSE,FALSE,FALSE,FALSE,FALSE,FALSE,6.974714915,79.91481965,0.4,111.8,328,TRUE,1,1,FALSE,FALSE,FALSE,FALSE,,TRUE,FALSE,FALSE,Course Lock,246,303.7,16.4,Calm,23,,1.12.8,Mavic Mini,1SDCH7G0169R0K,1SFLH6Q0AB03DJ,1SRCH7F014TAHX,1U5X071EXP5ZJG,76.1,0,49.2,3.179362,3.35541,0,0,Mavic Mini,1SDCH7G0169R0K,1SFLH6Q0AB03DJ,1SRCH7F014TAHX,1U5X071EXP5ZJG,DJI Fly,,1.12.8,434EDF9E-C3B0-789C-D353-216008B41547,1SDCH7G0169R0K,,,,,6.974709579,79.91479293,5,,
2/13/2024,27:59.8,6m 35.7s,395.7,6.97471385,79.91481902,2.6,2.6,3.2,71,1.1,0,0.223694,0,0,0,0,-1.789552,0,2.3,-1,-130.8,229.2,,Tripod,Auto Landing,,9,4,TRUE,,Mavic Mini,TRUE,FALSE,,Smart,RC,FALSE,TRUE,FALSE,,,TRUE,,FALSE,FALSE,FALSE,FALSE,FALSE,FALSE,FALSE,FALSE,FALSE,FALSE,0,Follow Yaw,0,0,-129,231,FALSE,FALSE,FALSE,FALSE,FALSE,FALSE,,TRUE,Normal,,100,1024,1024,1336,1024,2,FALSE,FALSE,FALSE,FALSE,FALSE,0,FALSE,FALSE,FALSE,FALSE,70,7.558,1420,2054,7.701,FALSE,3.78,3.779,0.003,FALSE,FALSE,NA,112.5,112.2,112.4,0,0,0,0,5,2859,714.76,,Idle,0,20,FALSE,5,TRUE,8,Go Home,FALSE,FALSE,FALSE,FALSE,FALSE,FALSE,FALSE,FALSE,FALSE,FALSE,FALSE,FALSE,6.974714915,79.91481965,0.4,111.8,328,TRUE,1,1,FALSE,FALSE,FALSE,FALSE,,TRUE,FALSE,FALSE,Course Lock,246,303.7,16.4,Calm,23,,1.12.8,Mavic Mini,1SDCH7G0169R0K,1SFLH6Q0AB03DJ,1SRCH7F014TAHX,1U5X071EXP5ZJG,76.1,0,49.2,3.179362,3.35541,0,0,Mavic Mini,1SDCH7G0169R0K,1SFLH6Q0AB03DJ,1SRCH7F014TAHX,1U5X071EXP5ZJG,DJI Fly,,1.12.8,434EDF9E-C3B0-789C-D353-216008B41547,1SDCH7G0169R0K,,,,,6.974709579,79.91479293,5,,
2/13/2024,27:59.9,6m 35.8s,395.8,6.974713962,79.91481913,2.9,2.9,3.6,71,1.2,0,0.223694,0,0,0,0,-1.565858,0,2.1,-1,-130.8,229.2,,Tripod,Auto Landing,,9,4,TRUE,,Mavic Mini,TRUE,FALSE,,Smart,RC,FALSE,TRUE,FALSE,,,TRUE,,FALSE,FALSE,FALSE,FALSE,FALSE,FALSE,FALSE,FALSE,FALSE,FALSE,0,Follow Yaw,0,0,-129,231,FALSE,FALSE,FALSE,FALSE,FALSE,FALSE,,TRUE,Normal,,100,1024,1024,1024,1024,2,FALSE,FALSE,FALSE,FALSE,FALSE,0,FALSE,FALSE,FALSE,FALSE,70,7.558,1420,2054,7.701,FALSE,3.78,3.779,0.003,FALSE,FALSE,NA,112.5,112.2,112.4,0,0,0,0,5,2859,714.76,,Idle,0,20,FALSE,5,TRUE,8,Go Home,FALSE,FALSE,FALSE,FALSE,FALSE,FALSE,FALSE,FALSE,FALSE,FALSE,FALSE,FALSE,6.974714915,79.91481965,0.3,111.8,328,TRUE,1,1,FALSE,FALSE,FALSE,FALSE,,TRUE,FALSE,FALSE,Course Lock,246,303.7,16.4,Calm,23,,1.12.8,Mavic Mini,1SDCH7G0169R0K,1SFLH6Q0AB03DJ,1SRCH7F014TAHX,1U5X071EXP5ZJG,76.1,0,49.2,3.179362,3.35541,0,0,Mavic Mini,1SDCH7G0169R0K,1SFLH6Q0AB03DJ,1SRCH7F014TAHX,1U5X071EXP5ZJG,DJI Fly,,1.12.8,434EDF9E-C3B0-789C-D353-216008B41547,1SDCH7G0169R0K,,,,,6.974709579,79.91479293,5,,
2/13/2024,28:00.1,6m 35.9s,395.9,6.974713941,79.91481904,2.9,2.9,3.9,71,1.2,0,0.223694,0,0,0,0,-1.565858,0,1.9,-0.9,-130.8,229.2,,Tripod,Auto Landing,,9,4,TRUE,,Mavic Mini,TRUE,FALSE,,Smart,RC,FALSE,TRUE,FALSE,,,TRUE,,FALSE,FALSE,FALSE,FALSE,FALSE,FALSE,FALSE,FALSE,FALSE,FALSE,0,Follow Yaw,0,0,-129,231,FALSE,FALSE,FALSE,FALSE,FALSE,FALSE,,TRUE,Normal,,100,1024,1024,1024,1024,2,FALSE,FALSE,FALSE,FALSE,FALSE,0,FALSE,FALSE,FALSE,FALSE,70,7.558,1420,2054,7.701,FALSE,3.78,3.779,0.003,FALSE,FALSE,NA,112.5,112.2,112.4,0,0,0,0,5,2859,714.76,,Idle,0,20,FALSE,5,TRUE,8,Go Home,FALSE,FALSE,FALSE,FALSE,FALSE,FALSE,FALSE,FALSE,FALSE,FALSE,FALSE,FALSE,6.974714915,79.91481965,0.4,111.8,328,TRUE,1,1,FALSE,FALSE,FALSE,FALSE,,TRUE,FALSE,FALSE,Course Lock,246,303.7,16.4,Calm,23,,1.12.8,Mavic Mini,1SDCH7G0169R0K,1SFLH6Q0AB03DJ,1SRCH7F014TAHX,1U5X071EXP5ZJG,76.1,0,49.2,3.179362,3.35541,0,0,Mavic Mini,1SDCH7G0169R0K,1SFLH6Q0AB03DJ,1SRCH7F014TAHX,1U5X071EXP5ZJG,DJI Fly,,1.12.8,434EDF9E-C3B0-789C-D353-216008B41547,1SDCH7G0169R0K,,,,,6.974709579,79.91479293,5,,
2/13/2024,28:00.2,6m 36.0s,396,6.974713918,79.91481896,3.2,3.2,4.2,72,1.2,0,0.223694,0,0,0,0,-1.342164,0,2,-1,-130.8,229.2,,Tripod,Auto Landing,,10,4,TRUE,,Mavic Mini,TRUE,FALSE,,Smart,RC,FALSE,TRUE,FALSE,,,TRUE,,FALSE,FALSE,FALSE,FALSE,FALSE,FALSE,FALSE,FALSE,FALSE,FALSE,0,Follow Yaw,0,0,-129,231,FALSE,FALSE,FALSE,FALSE,FALSE,FALSE,,TRUE,Normal,,100,1024,1024,1024,1024,2,FALSE,FALSE,FALSE,FALSE,FALSE,0,FALSE,FALSE,FALSE,FALSE,70,7.558,1420,2054,7.701,FALSE,3.78,3.779,0.003,FALSE,FALSE,NA,112.5,112.2,112.4,0,0,0,0,5,2859,714.76,,Idle,0,20,FALSE,5,TRUE,8,Go Home,FALSE,FALSE,FALSE,FALSE,FALSE,FALSE,FALSE,FALSE,FALSE,FALSE,FALSE,FALSE,6.974714915,79.91481965,0.4,111.8,328,TRUE,1,1,FALSE,FALSE,FALSE,FALSE,,TRUE,FALSE,FALSE,Course Lock,246,303.7,16.4,Calm,23,,1.12.8,Mavic Mini,1SDCH7G0169R0K,1SFLH6Q0AB03DJ,1SRCH7F014TAHX,1U5X071EXP5ZJG,76.1,0,49.2,3.179362,3.35541,0,0,Mavic Mini,1SDCH7G0169R0K,1SFLH6Q0AB03DJ,1SRCH7F014TAHX,1U5X071EXP5ZJG,DJI Fly,,1.12.8,434EDF9E-C3B0-789C-D353-216008B41547,1SDCH7G0169R0K,,,,,6.974709579,79.91479293,5,Home Point updated. RTH altitude adjusted to 75 m! (Code: 120852).,
2/13/2024,28:00.2,6m 36.1s,396.1,6.974713875,79.91481891,3.2,3.2,4.5,72,1.2,0,0.223694,0,0,0,0,-0.894776,0,2,-1,-130.8,229.2,,Tripod,Auto Landing,,10,4,TRUE,,Mavic Mini,TRUE,FALSE,,Smart,RC,FALSE,TRUE,FALSE,,,TRUE,,FALSE,FALSE,FALSE,FALSE,FALSE,FALSE,FALSE,FALSE,FALSE,FALSE,0,Follow Yaw,0,0,-129,231,FALSE,FALSE,FALSE,FALSE,FALSE,FALSE,,TRUE,Normal,,100,1024,1024,1024,1024,2,FALSE,FALSE,FALSE,FALSE,FALSE,0,FALSE,FALSE,FALSE,FALSE,70,7.558,1420,2054,7.582,FALSE,3.78,3.779,0.003,FALSE,FALSE,NA,112.5,112.2,112.4,0,0,1,0,5,3500.4,875.11,,Idle,0,20,FALSE,5,TRUE,8,Go Home,FALSE,FALSE,FALSE,FALSE,FALSE,FALSE,FALSE,FALSE,FALSE,FALSE,FALSE,FALSE,6.974714915,79.91481965,0.4,111.8,328,TRUE,1,1,FALSE,FALSE,FALSE,FALSE,,TRUE,FALSE,FALSE,Course Lock,246,303.7,16.4,Calm,23,,1.12.8,Mavic Mini,1SDCH7G0169R0K,1SFLH6Q0AB03DJ,1SRCH7F014TAHX,1U5X071EXP5ZJG,76.1,0,49.2,3.179362,3.35541,0,0,Mavic Mini,1SDCH7G0169R0K,1SFLH6Q0AB03DJ,1SRCH7F014TAHX,1U5X071EXP5ZJG,DJI Fly,,1.12.8,434EDF9E-C3B0-789C-D353-216008B41547,1SDCH7G0169R0K,,,,,6.974709579,79.91479293,5,,
2/13/2024,28:00.3,6m 36.2s,396.2,6.974713837,79.91481887,3.2,3.2,4.5,72,1.3,0,0.223694,0,0,0,0,-0.671082,0,2,-1,-130.7,229.3,,Tripod,Auto Landing,,11,4,TRUE,,Mavic Mini,TRUE,FALSE,,Smart,RC,FALSE,TRUE,FALSE,,,TRUE,,FALSE,FALSE,FALSE,FALSE,FALSE,FALSE,FALSE,FALSE,FALSE,FALSE,0,Follow Yaw,0,0,-129,231,FALSE,FALSE,FALSE,FALSE,FALSE,FALSE,,TRUE,Normal,,100,1024,1024,1024,1024,2,FALSE,FALSE,FALSE,FALSE,FALSE,0,FALSE,FALSE,FALSE,FALSE,70,7.558,1420,2054,7.582,FALSE,3.78,3.779,0.003,FALSE,FALSE,NA,112.5,112.2,112.4,0,0,1,0,5,3500.4,875.11,,Idle,0,20,FALSE,5,TRUE,8,Go Home,FALSE,FALSE,FALSE,FALSE,FALSE,FALSE,FALSE,FALSE,FALSE,FALSE,FALSE,FALSE,6.974714915,79.91481965,0.4,111.8,328,TRUE,1,1,FALSE,FALSE,FALSE,FALSE,,TRUE,FALSE,FALSE,Course Lock,246,303.7,16.4,Calm,23,,1.12.8,Mavic Mini,1SDCH7G0169R0K,1SFLH6Q0AB03DJ,1SRCH7F014TAHX,1U5X071EXP5ZJG,76.1,0,49.2,3.179362,3.35541,0,0,Mavic Mini,1SDCH7G0169R0K,1SFLH6Q0AB03DJ,1SRCH7F014TAHX,1U5X071EXP5ZJG,DJI Fly,,1.12.8,434EDF9E-C3B0-789C-D353-216008B41547,1SDCH7G0169R0K,,,,,6.974709579,79.91479293,5,,
2/13/2024,28:00.4,6m 36.3s,396.3,6.974713744,79.91481885,3.2,3.2,4.9,72,1.3,0,0.223694,0,0,0,0,-0.223694,0,1.9,-1.1,-130.7,229.3,,Tripod,Auto Landing,,11,4,TRUE,,Mavic Mini,TRUE,FALSE,,Smart,RC,FALSE,TRUE,FALSE,,,TRUE,,FALSE,FALSE,FALSE,FALSE,FALSE,FALSE,FALSE,FALSE,FALSE,FALSE,0,Follow Yaw,0,0,-129,231,FALSE,FALSE,FALSE,FALSE,FALSE,FALSE,,TRUE,Normal,,100,1024,1024,1024,1024,2,FALSE,FALSE,FALSE,FALSE,FALSE,0,FALSE,FALSE,FALSE,FALSE,70,7.558,1420,2054,7.582,FALSE,3.78,3.779,0.003,FALSE,FALSE,NA,112.5,112.2,112.4,0,0,1,0,5,3500.4,875.11,,Idle,0,20,FALSE,5,TRUE,8,Go Home,FALSE,FALSE,FALSE,FALSE,FALSE,FALSE,FALSE,FALSE,FALSE,FALSE,FALSE,FALSE,6.974714915,79.91481965,0.5,111.8,328,TRUE,1,1,FALSE,FALSE,FALSE,FALSE,,TRUE,FALSE,FALSE,Course Lock,246,303.7,16.4,Calm,23,,1.12.8,Mavic Mini,1SDCH7G0169R0K,1SFLH6Q0AB03DJ,1SRCH7F014TAHX,1U5X071EXP5ZJG,76.1,0,49.2,3.179362,3.35541,0,0,Mavic Mini,1SDCH7G0169R0K,1SFLH6Q0AB03DJ,1SRCH7F014TAHX,1U5X071EXP5ZJG,DJI Fly,,1.12.8,434EDF9E-C3B0-789C-D353-216008B41547,1SDCH7G0169R0K,,,,,6.974709579,79.91479293,5,,
2/13/2024,28:00.5,6m 36.4s,396.4,6.974713733,79.91481886,3.2,3.2,4.9,72,1.3,0,0.223694,0,0,0,0,-0.223694,0,1.9,-1.1,-130.7,229.3,,Tripod,Auto Landing,,10,4,TRUE,,Mavic Mini,TRUE,FALSE,,Smart,RC,FALSE,TRUE,FALSE,,,TRUE,,FALSE,FALSE,FALSE,FALSE,FALSE,FALSE,FALSE,FALSE,FALSE,FALSE,0,Follow Yaw,0,0,-129,231,FALSE,FALSE,FALSE,FALSE,FALSE,FALSE,,TRUE,Normal,,100,1024,1024,1024,1024,2,FALSE,FALSE,FALSE,FALSE,FALSE,0,FALSE,FALSE,FALSE,FALSE,70,7.558,1420,2054,7.582,FALSE,3.78,3.779,0.003,FALSE,FALSE,NA,112.5,112.2,112.4,0,0,1,0,5,3500.4,875.11,,Idle,0,20,FALSE,5,TRUE,8,Go Home,FALSE,FALSE,FALSE,FALSE,FALSE,FALSE,FALSE,FALSE,FALSE,FALSE,FALSE,FALSE,6.974714915,79.91481965,0.5,111.8,328,TRUE,1,1,FALSE,FALSE,FALSE,FALSE,,TRUE,FALSE,FALSE,Course Lock,246,303.7,16.4,Calm,23,,1.12.8,Mavic Mini,1SDCH7G0169R0K,1SFLH6Q0AB03DJ,1SRCH7F014TAHX,1U5X071EXP5ZJG,76.1,0,49.2,3.179362,3.35541,0,0,Mavic Mini,1SDCH7G0169R0K,1SFLH6Q0AB03DJ,1SRCH7F014TAHX,1U5X071EXP5ZJG,DJI Fly,,1.12.8,434EDF9E-C3B0-789C-D353-216008B41547,1SDCH7G0169R0K,,,,,6.974709579,79.91479293,5,,
2/13/2024,28:00.6,6m 36.5s,396.5,6.974713725,79.91481888,3.2,3.2,5.2,72,1.3,0,0.223694,0,0,0,0,0,0,2,-1.1,-130.7,229.3,,Tripod,Auto Landing,,10,4,TRUE,,Mavic Mini,TRUE,FALSE,,Smart,RC,FALSE,TRUE,FALSE,,,TRUE,,FALSE,FALSE,FALSE,FALSE,FALSE,FALSE,FALSE,FALSE,FALSE,FALSE,0,Follow Yaw,0,0,-129,231,FALSE,FALSE,FALSE,FALSE,FALSE,FALSE,,TRUE,Normal,,100,1024,1024,1024,1024,2,FALSE,FALSE,FALSE,FALSE,FALSE,0,FALSE,FALSE,FALSE,FALSE,70,7.602,1419,2054,7.582,FALSE,3.802,3.8,0.003,FALSE,FALSE,NA,112.5,112.2,112.4,0,0,1,0,5,3500.4,875.11,,Idle,0,20,FALSE,5,TRUE,8,Go Home,FALSE,FALSE,FALSE,FALSE,FALSE,FALSE,FALSE,FALSE,FALSE,FALSE,FALSE,FALSE,6.974714915,79.91481965,0.5,111.8,328,TRUE,1,1,FALSE,FALSE,FALSE,FALSE,,TRUE,FALSE,FALSE,Course Lock,246,303.7,16.4,Calm,23,,1.12.8,Mavic Mini,1SDCH7G0169R0K,1SFLH6Q0AB03DJ,1SRCH7F014TAHX,1U5X071EXP5ZJG,76.1,0,49.2,3.179362,3.35541,0,0,Mavic Mini,1SDCH7G0169R0K,1SFLH6Q0AB03DJ,1SRCH7F014TAHX,1U5X071EXP5ZJG,DJI Fly,,1.12.8,434EDF9E-C3B0-789C-D353-216008B41547,1SDCH7G0169R0K,,,,,6.974709579,79.91479293,5,,
