CUSTOM.date [local],CUSTOM.updateTime [local],OSD.flyTime,OSD.flyTime [s],OSD.latitude,OSD.longitude,OSD.height [ft],OSD.heightMax [ft],OSD.vpsHeight [ft],OSD.altitude [ft],OSD.mileage [ft],OSD.hSpeed [MPH],OSD.hSpeedMax [MPH],OSD.xSpeed [MPH],OSD.xSpeedMax [MPH],OSD.ySpeed [MPH],OSD.ySpeedMax [MPH],OSD.zSpeed [MPH],OSD.zSpeedMax [MPH],OSD.pitch,OSD.roll,OSD.yaw,OSD.yaw [360],OSD.directionOfTravel,OSD.flycState,OSD.flycCommand,OSD.flightAction,OSD.gpsNum,OSD.gpsLevel,OSD.isGPSUsed,OSD.nonGPSCause,OSD.droneType,OSD.isSwaveWork,OSD.waveError,OSD.goHomeStatus,OSD.batteryType,OSD.ctrlDevice,OSD.isOnGround,OSD.isMotorOn,OSD.isMotorBlocked,OSD.motorStartFailedCause,OSD.motorFailReason,OSD.isImuPreheated,OSD.imuInitFailReason,OSD.isAcceletorOverRange,OSD.isBarometerDeadInAir,OSD.isCompassError,OSD.isGoHomeHeightModified,OSD.canIOCWork,OSD.isNotEnoughForce,OSD.isOutOfLimit,OSD.isPropellerCatapult,OSD.isVibrating,OSD.isVisionUsed,OSD.voltageWarning,GIMBAL.mode,GIMBAL.pitch,GIMBAL.roll,GIMBAL.yaw,GIMBAL.yaw [360],GIMBAL.isPitchAtLimit,GIMBAL.isRollAtLimit,GIMBAL.isYawAtLimit,GIMBAL.isStuck,CAMERA.isPhoto,CAMERA.isVideo,CAMERA.filename,CAMERA.sdCardIsInserted,CAMERA.sdCardState,RC.downlinkSignal,RC.uplinkSignal,RC.aileron,RC.elevator,RC.throttle,RC.rudder,RC.mode,RC.goHomeDepressed,RC.recordDepressed,RC.shutterDepressed,RC.playbackDepressed,RC.wheelDepressed,RC.wheelOffset,RC.custom1Depressed,RC.custom2Depressed,RC.custom3Depressed,RC.custom4Depressed,BATTERY.chargeLevel,BATTERY.currentPV [V],BATTERY.currentCapacity [mAh],BATTERY.fullCapacity [mAh],BATTERY.voltage [V],BATTERY.isCellVoltageEstimated,BATTERY.cellVoltage1 [V],BATTERY.cellVoltage2 [V],BATTERY.maxCellVoltageDeviation,BATTERY.isCellVoltageDeviationHigh,BATTERY.isVoltageLow,BATTERY.current [A],BATTERY.temperature [F],BATTERY.minTemperature [F],BATTERY.maxTemperature [F],BATTERY.usefulTime [s],BATTERY.goHomeTime [s],BATTERY.landTime [s],BATTERY.goHomeBattery,BATTERY.landBattery,BATTERY.safeFlyRadius,BATTERY.volumeConsume,BATTERY.status,BATTERY.goHomeStatus,BATTERY.goHomeCountdown,BATTERY.lowWarning,BATTERY.lowWarningGoHome,BATTERY.seriousLowWarning,BATTERY.seriousLowWarningLanding,BATTERY.timesCharged,MC.failSafeAction,MC.isObstacleAvoidanceEnabled,MC.isCollisionAvoidanceEnabled,MC.isRthObstacleAvoidanceEnabled,MC.isBraking,MC.isAvoidingObstacle,MC.isAvoidingActiveObstacle,MC.isAscentLimitedByObstacle,MC.isLandingConfirmationNeeded,MC.atLowAltitudeLimit,MC.atDistanceLimit,MC.atAirportAltitudeLimit,MC.atAirportBoundary,HOME.latitude,HOME.longitude,HOME.distance [ft],HOME.height [ft],HOME.heightLimit [ft],HOME.isHomeRecord,HOME.goHomeMode,HOME.aircraftHeadDirection,HOME.isDynamicHomePointEnabled,HOME.isReachedLimitDistance,HOME.isReachedLimitHeight,HOME.isCompassCalibrating,HOME.compassCalibrationState,HOME.isMultipleFlightModeEnabled,HOME.isBeginnerMode,HOME.isIOCEnabled,HOME.iocMode,HOME.goHomeHeight [ft],HOME.courseLockAngle,HOME.forceLandingHeight [ft],HOME.wind,HOME.dataRecorderFileIndex,RECOVER.appType,RECOVER.appVersion,RECOVER.aircraftName,RECOVER.aircraftSerial,RECOVER.cameraSerial,RECOVER.rcSerial,RECOVER.batterySerial,DETAILS.totalTime [s],DETAILS.totalDistance [ft],DETAILS.maxHeight [ft],DETAILS.maxHorizontalSpeed [MPH],DETAILS.maxVerticalSpeed [MPH],DETAILS.photoNum,DETAILS.videoTime [s],DETAILS.aircraftName,DETAILS.aircraftSerial,DETAILS.cameraSerial,DETAILS.rcSerial,DETAILS.batterySerial,DETAILS.appName,DETAILS.appType,DETAILS.appVersion,DETAILS.guid,SERIAL.flightController,SERIAL.camera,SERIAL.gimbal,SERIAL.rc,SERIAL.battery,APPGPS.latitude,APPGPS.longitude,APPGPS.accuracy,APP.tip,APP.warning
2/13/2024,39:24.0,7m 47.5s,467.5,6.974657508,79.91479946,0,0,,68,0,0,0,0,0,0,0,0,0,3.4,2,178.9,178.9,,Tripod,Auto Landing,Takeoff (RC Assisted),11,4,TRUE,,Mavic Mini,FALSE,FALSE,,Smart,RC,TRUE,TRUE,FALSE,,,TRUE,,FALSE,FALSE,FALSE,FALSE,FALSE,FALSE,FALSE,FALSE,FALSE,FALSE,0,Follow Yaw,0,0,-179.6,180.4,FALSE,FALSE,FALSE,FALSE,FALSE,FALSE,,TRUE,Normal,,100,364,364,364,1660,2,FALSE,FALSE,FALSE,FALSE,FALSE,0,FALSE,FALSE,FALSE,FALSE,63,7.695,1297,2054,7.695,TRUE,3.848,3.848,,FALSE,FALSE,NA,116.8,116.7,116.7,,,,,,,,,Idle,,,TRUE,,FALSE,8,Go Home,FALSE,FALSE,FALSE,FALSE,FALSE,FALSE,FALSE,FALSE,FALSE,FALSE,FALSE,FALSE,,,,,,FALSE,,,FALSE,FALSE,FALSE,FALSE,,FALSE,FALSE,FALSE,,,,,Calm,,,1.12.8,Mavic Mini,1SDCH7G0169R0K,1SFLH6Q0AB03DJ,1SRCH7F014TAHX,1U5X071EXP5ZJG,150,0.1,0,2.062458,1.342164,0,0,Mavic Mini,1SDCH7G0169R0K,1SFLH6Q0AB03DJ,1SRCH7F014TAHX,1U5X071EXP5ZJG,DJI Fly,,1.12.8,636B794F-F441-A54A-E062-018A8C9DBF34,1SDCH7G0169R0K,,,,,,,,Flight mode changed to Tripod.,
2/13/2024,31:36.6,7m 47.6s,467.6,6.974657506,79.91479928,0,0,,68,0,0,0,0,0,0,0,0,0,3.4,2,178.8,178.8,,Starting Motors,Auto Landing,Takeoff (RC Assisted),11,4,TRUE,,Mavic Mini,FALSE,FALSE,,Smart,RC,TRUE,TRUE,FALSE,,,TRUE,,FALSE,FALSE,FALSE,FALSE,FALSE,FALSE,FALSE,FALSE,FALSE,FALSE,0,Follow Yaw,0,0,-179.6,180.4,FALSE,FALSE,FALSE,FALSE,FALSE,FALSE,,TRUE,Normal,,100,1024,1024,1024,1024,2,FALSE,FALSE,FALSE,FALSE,FALSE,0,FALSE,FALSE,FALSE,FALSE,63,7.695,1297,2054,7.695,TRUE,3.848,3.848,,FALSE,FALSE,NA,116.8,116.7,116.7,,,,,,,,,Idle,,,TRUE,,FALSE,8,Go Home,FALSE,FALSE,FALSE,FALSE,FALSE,FALSE,FALSE,FALSE,FALSE,FALSE,FALSE,FALSE,,,,,,FALSE,,,FALSE,FALSE,FALSE,FALSE,,FALSE,FALSE,FALSE,,,,,Calm,,,1.12.8,Mavic Mini,1SDCH7G0169R0K,1SFLH6Q0AB03DJ,1SRCH7F014TAHX,1U5X071EXP5ZJG,150,0.1,0,2.062458,1.342164,0,0,Mavic Mini,1SDCH7G0169R0K,1SFLH6Q0AB03DJ,1SRCH7F014TAHX,1U5X071EXP5ZJG,DJI Fly,,1.12.8,636B794F-F441-A54A-E062-018A8C9DBF34,1SDCH7G0169R0K,,,,,,,,Flight mode changed to Starting Motors.,
2/13/2024,31:36.8,7m 47.7s,467.7,6.974657506,79.91479911,0,0,0.3,68,0,0,0,0,0,0,0,0,0,3.4,2,178.9,178.9,,Starting Motors,Auto Landing,Takeoff (RC Assisted),11,4,TRUE,,Mavic Mini,TRUE,FALSE,,Smart,RC,TRUE,TRUE,FALSE,,,TRUE,,FALSE,FALSE,FALSE,FALSE,FALSE,FALSE,FALSE,FALSE,FALSE,FALSE,0,Follow Yaw,0,0,-179.6,180.4,FALSE,FALSE,FALSE,FALSE,FALSE,FALSE,,TRUE,Normal,,100,1024,1024,1024,1024,2,FALSE,FALSE,FALSE,FALSE,FALSE,0,FALSE,FALSE,FALSE,FALSE,63,7.695,1297,2054,7.695,TRUE,3.848,3.848,,FALSE,FALSE,NA,116.8,116.7,116.7,,,,,,,,,Idle,,,TRUE,,FALSE,8,Go Home,FALSE,FALSE,FALSE,FALSE,FALSE,FALSE,FALSE,FALSE,FALSE,FALSE,FALSE,FALSE,,,,,,FALSE,,,FALSE,FALSE,FALSE,FALSE,,FALSE,FALSE,FALSE,,,,,Calm,,,1.12.8,Mavic Mini,1SDCH7G0169R0K,1SFLH6Q0AB03DJ,1SRCH7F014TAHX,1U5X071EXP5ZJG,150,0.1,0,2.062458,1.342164,0,0,Mavic Mini,1SDCH7G0169R0K,1SFLH6Q0AB03DJ,1SRCH7F014TAHX,1U5X071EXP5ZJG,DJI Fly,,1.12.8,636B794F-F441-A54A-E062-018A8C9DBF34,1SDCH7G0169R0K,,,,,,,,,
2/13/2024,31:36.8,7m 47.8s,467.8,6.974657435,79.91479862,0,0,0.3,68,0.2,0,0,0,0,0,0,0,0,3.4,2,178.9,178.9,,Starting Motors,Auto Landing,Takeoff (RC Assisted),11,4,TRUE,,Mavic Mini,TRUE,FALSE,,Smart,RC,TRUE,TRUE,FALSE,,,TRUE,,FALSE,FALSE,FALSE,FALSE,FALSE,FALSE,FALSE,FALSE,FALSE,FALSE,0,Follow Yaw,0,0,-179.6,180.4,FALSE,FALSE,FALSE,FALSE,FALSE,FALSE,,TRUE,Normal,,100,1024,1024,1024,1024,2,FALSE,FALSE,FALSE,FALSE,FALSE,0,FALSE,FALSE,FALSE,FALSE,63,7.695,1297,2054,7.695,TRUE,3.848,3.848,,FALSE,FALSE,NA,116.8,116.7,116.7,,,,,,,,,Idle,,,TRUE,,FALSE,8,Go Home,FALSE,FALSE,FALSE,FALSE,FALSE,FALSE,FALSE,FALSE,FALSE,FALSE,FALSE,FALSE,,,,,,FALSE,,,FALSE,FALSE,FALSE,FALSE,,FALSE,FALSE,FALSE,,,,,Calm,,,1.12.8,Mavic Mini,1SDCH7G0169R0K,1SFLH6Q0AB03DJ,1SRCH7F014TAHX,1U5X071EXP5ZJG,150,0.1,0,2.062458,1.342164,0,0,Mavic Mini,1SDCH7G0169R0K,1SFLH6Q0AB03DJ,1SRCH7F014TAHX,1U5X071EXP5ZJG,DJI Fly,,1.12.8,636B794F-F441-A54A-E062-018A8C9DBF34,1SDCH7G0169R0K,,,,,,,,,
2/13/2024,31:37.0,7m 47.9s,467.9,6.974657388,79.91479845,0,0,0.3,68,0.3,0,0,0,0,0,0,0,0,3.4,2,178.9,178.9,,Starting Motors,Auto Landing,Takeoff (RC Assisted),10,4,TRUE,,Mavic Mini,TRUE,FALSE,,Smart,RC,TRUE,TRUE,FALSE,,,TRUE,,FALSE,FALSE,FALSE,FALSE,FALSE,FALSE,FALSE,FALSE,FALSE,FALSE,0,Follow Yaw,0,0,-179.6,180.4,FALSE,FALSE,FALSE,FALSE,FALSE,FALSE,,TRUE,Normal,,100,1024,1024,1024,1024,2,FALSE,FALSE,FALSE,FALSE,FALSE,0,FALSE,FALSE,FALSE,FALSE,63,7.695,1297,2054,7.695,TRUE,3.848,3.848,,FALSE,FALSE,NA,116.8,116.7,116.7,,,,,,,,,Idle,,,TRUE,,FALSE,8,Go Home,FALSE,FALSE,FALSE,FALSE,FALSE,FALSE,FALSE,FALSE,FALSE,FALSE,FALSE,FALSE,,,,,,FALSE,,,FALSE,FALSE,FALSE,FALSE,,FALSE,FALSE,FALSE,,,,,Calm,,,1.12.8,Mavic Mini,1SDCH7G0169R0K,1SFLH6Q0AB03DJ,1SRCH7F014TAHX,1U5X071EXP5ZJG,150,0.1,0,2.062458,1.342164,0,0,Mavic Mini,1SDCH7G0169R0K,1SFLH6Q0AB03DJ,1SRCH7F014TAHX,1U5X071EXP5ZJG,DJI Fly,,1.12.8,636B794F-F441-A54A-E062-018A8C9DBF34,1SDCH7G0169R0K,,,,,,,,,
2/13/2024,31:37.1,7m 48.0s,468,6.97465737,79.91479829,0,0,0.3,68,0.3,0,0,0,0,0,0,0,0,3.4,2,178.9,178.9,,Starting Motors,Auto Landing,Takeoff (RC Assisted),10,4,TRUE,,Mavic Mini,TRUE,FALSE,,Smart,RC,TRUE,TRUE,FALSE,,,TRUE,,FALSE,FALSE,FALSE,FALSE,FALSE,FALSE,FALSE,FALSE,FALSE,FALSE,0,Follow Yaw,0,0,-179.6,180.4,FALSE,FALSE,FALSE,FALSE,FALSE,FALSE,,TRUE,Normal,,100,1024,1024,1024,1024,2,FALSE,FALSE,FALSE,FALSE,FALSE,0,FALSE,FALSE,FALSE,FALSE,63,7.695,1297,2054,7.695,TRUE,3.848,3.848,,FALSE,FALSE,NA,116.8,116.7,116.7,,,,,,,,,Idle,,,TRUE,,FALSE,8,Go Home,FALSE,FALSE,FALSE,FALSE,FALSE,FALSE,FALSE,FALSE,FALSE,FALSE,FALSE,FALSE,,,,,,FALSE,,,FALSE,FALSE,FALSE,FALSE,,FALSE,FALSE,FALSE,,,,,Calm,,,1.12.8,Mavic Mini,1SDCH7G0169R0K,1SFLH6Q0AB03DJ,1SRCH7F014TAHX,1U5X071EXP5ZJG,150,0.1,0,2.062458,1.342164,0,0,Mavic Mini,1SDCH7G0169R0K,1SFLH6Q0AB03DJ,1SRCH7F014TAHX,1U5X071EXP5ZJG,DJI Fly,,1.12.8,636B794F-F441-A54A-E062-018A8C9DBF34,1SDCH7G0169R0K,,,,,,,,,
2/13/2024,31:37.1,7m 48.1s,468.1,6.974657358,79.91479812,0,0,0.3,68,0.4,0,0,0,0,0,0,0,0,3.4,2.1,178.8,178.8,,Starting Motors,Auto Landing,Takeoff (RC Assisted),10,4,TRUE,,Mavic Mini,TRUE,FALSE,,Smart,RC,TRUE,TRUE,FALSE,,,TRUE,,FALSE,FALSE,FALSE,FALSE,FALSE,FALSE,FALSE,FALSE,FALSE,FALSE,0,Follow Yaw,0,0,-179.6,180.4,FALSE,FALSE,FALSE,FALSE,FALSE,FALSE,,TRUE,Normal,,100,1024,1024,1024,1024,2,FALSE,FALSE,FALSE,FALSE,FALSE,0,FALSE,FALSE,FALSE,FALSE,63,7.684,1297,2054,7.684,FALSE,3.843,3.841,0.002,FALSE,FALSE,NA,116.8,116.7,116.7,,,,,,,,,Idle,,,TRUE,,FALSE,8,Go Home,FALSE,FALSE,FALSE,FALSE,FALSE,FALSE,FALSE,FALSE,FALSE,FALSE,FALSE,FALSE,,,,,,FALSE,,,FALSE,FALSE,FALSE,FALSE,,FALSE,FALSE,FALSE,,,,,Calm,,,1.12.8,Mavic Mini,1SDCH7G0169R0K,1SFLH6Q0AB03DJ,1SRCH7F014TAHX,1U5X071EXP5ZJG,150,0.1,0,2.062458,1.342164,0,0,Mavic Mini,1SDCH7G0169R0K,1SFLH6Q0AB03DJ,1SRCH7F014TAHX,1U5X071EXP5ZJG,DJI Fly,,1.12.8,636B794F-F441-A54A-E062-018A8C9DBF34,1SDCH7G0169R0K,,,,,,,,,
2/13/2024,31:37.3,7m 48.2s,468.2,6.974657409,79.91479805,0,0,0.3,68,0.4,0,0,0,0,0,0,0,0,3.4,2,178.6,178.6,,Starting Motors,Auto Landing,Takeoff (RC Assisted),10,4,TRUE,,Mavic Mini,TRUE,FALSE,,Smart,RC,TRUE,TRUE,FALSE,,,TRUE,,FALSE,FALSE,FALSE,FALSE,FALSE,FALSE,FALSE,FALSE,FALSE,FALSE,0,Follow Yaw,0,0,-179.7,180.3,FALSE,FALSE,FALSE,FALSE,FALSE,FALSE,,TRUE,Normal,,100,1024,1024,1024,1024,2,FALSE,FALSE,FALSE,FALSE,FALSE,0,FALSE,FALSE,FALSE,FALSE,63,7.684,1297,2054,7.684,FALSE,3.843,3.841,0.002,FALSE,FALSE,NA,116.8,116.7,116.7,,,,,,,,,Idle,,,TRUE,,FALSE,8,Go Home,FALSE,FALSE,FALSE,FALSE,FALSE,FALSE,FALSE,FALSE,FALSE,FALSE,FALSE,FALSE,,,,,,FALSE,,,FALSE,FALSE,FALSE,FALSE,,FALSE,FALSE,FALSE,,,,,Calm,,,1.12.8,Mavic Mini,1SDCH7G0169R0K,1SFLH6Q0AB03DJ,1SRCH7F014TAHX,1U5X071EXP5ZJG,150,0.1,0,2.062458,1.342164,0,0,Mavic Mini,1SDCH7G0169R0K,1SFLH6Q0AB03DJ,1SRCH7F014TAHX,1U5X071EXP5ZJG,DJI Fly,,1.12.8,636B794F-F441-A54A-E062-018A8C9DBF34,1SDCH7G0169R0K,,,,,,,,,
2/13/2024,31:37.4,7m 48.3s,468.3,6.974657411,79.91479794,0,0,0.3,68,0.4,0,0,0,0,0,0,0,0,3.4,2,178.7,178.7,,Starting Motors,Auto Landing,Takeoff (RC Assisted),10,4,TRUE,,Mavic Mini,TRUE,FALSE,,Smart,RC,TRUE,TRUE,FALSE,,,TRUE,,FALSE,FALSE,FALSE,FALSE,FALSE,FALSE,FALSE,FALSE,FALSE,FALSE,0,Follow Yaw,0,0,-179.7,180.3,FALSE,FALSE,FALSE,FALSE,FALSE,FALSE,,TRUE,Normal,,100,1024,1024,1024,1024,2,FALSE,FALSE,FALSE,FALSE,FALSE,0,FALSE,FALSE,FALSE,FALSE,63,7.684,1297,2054,7.688,FALSE,3.843,3.841,0.002,FALSE,FALSE,NA,116.8,116.7,116.7,0,21,0,0,5,2571,642.76,,Idle,0,20,FALSE,5,TRUE,8,Go Home,FALSE,FALSE,FALSE,FALSE,FALSE,FALSE,FALSE,FALSE,FALSE,FALSE,FALSE,FALSE,6.974714915,79.91481965,22.4,107.7,328,TRUE,1,1,FALSE,FALSE,FALSE,FALSE,,TRUE,FALSE,FALSE,Course Lock,246,303.7,16.4,Calm,23,,1.12.8,Mavic Mini,1SDCH7G0169R0K,1SFLH6Q0AB03DJ,1SRCH7F014TAHX,1U5X071EXP5ZJG,150,0.1,0,2.062458,1.342164,0,0,Mavic Mini,1SDCH7G0169R0K,1SFLH6Q0AB03DJ,1SRCH7F014TAHX,1U5X071EXP5ZJG,DJI Fly,,1.12.8,636B794F-F441-A54A-E062-018A8C9DBF34,1SDCH7G0169R0K,,,,,,,,Data Recorder File Index is 23.; Set Return to Home (RTH) altitude to 75 m (246 ft).; Set maximum flight altitude to 100 m (328 ft).,
2/13/2024,31:37.5,7m 48.4s,468.4,6.974657416,79.9147979,0,0,0.3,68,0.5,0,0,0,0,0,0,0,0,3.4,2,178.7,178.7,,Starting Motors,Auto Landing,Takeoff (RC Assisted),10,4,TRUE,,Mavic Mini,TRUE,FALSE,,Smart,RC,TRUE,TRUE,FALSE,,,TRUE,,FALSE,FALSE,FALSE,FALSE,FALSE,FALSE,FALSE,FALSE,FALSE,FALSE,0,Follow Yaw,0,0,-179.8,180.2,FALSE,FALSE,FALSE,FALSE,FALSE,FALSE,,TRUE,Normal,,100,1024,1024,1024,1024,2,FALSE,FALSE,FALSE,FALSE,FALSE,0,FALSE,FALSE,FALSE,FALSE,63,7.684,1297,2054,7.688,FALSE,3.843,3.841,0.002,FALSE,FALSE,NA,116.8,116.7,116.7,0,21,0,0,5,2571,642.76,,Idle,0,20,FALSE,5,TRUE,8,Go Home,FALSE,FALSE,FALSE,FALSE,FALSE,FALSE,FALSE,FALSE,FALSE,FALSE,FALSE,FALSE,6.974714915,79.91481965,22.4,107.7,328,TRUE,1,1,FALSE,FALSE,FALSE,FALSE,,TRUE,FALSE,FALSE,Course Lock,246,303.7,16.4,Calm,23,,1.12.8,Mavic Mini,1SDCH7G0169R0K,1SFLH6Q0AB03DJ,1SRCH7F014TAHX,1U5X071EXP5ZJG,150,0.1,0,2.062458,1.342164,0,0,Mavic Mini,1SDCH7G0169R0K,1SFLH6Q0AB03DJ,1SRCH7F014TAHX,1U5X071EXP5ZJG,DJI Fly,,1.12.8,636B794F-F441-A54A-E062-018A8C9DBF34,1SDCH7G0169R0K,,,,,,,,,
2/13/2024,31:37.6,7m 48.5s,468.5,6.974657423,79.91479787,0,0,0.3,68,0.5,0,0,0,0,0,0,0,0,3.4,2,178.6,178.6,,Starting Motors,Auto Landing,Takeoff (RC Assisted),10,4,TRUE,,Mavic Mini,TRUE,FALSE,,Smart,RC,TRUE,TRUE,FALSE,,,TRUE,,FALSE,FALSE,FALSE,FALSE,FALSE,FALSE,FALSE,FALSE,FALSE,FALSE,0,Follow Yaw,0,0,-179.8,180.2,FALSE,FALSE,FALSE,FALSE,FALSE,FALSE,,TRUE,Normal,,100,1024,1024,1024,1024,2,FALSE,FALSE,FALSE,FALSE,FALSE,0,FALSE,FALSE,FALSE,FALSE,63,7.684,1297,2054,7.688,FALSE,3.843,3.841,0.002,FALSE,FALSE,NA,116.8,116.7,116.7,0,21,0,0,5,2571,642.76,,Idle,0,20,FALSE,5,TRUE,8,Go Home,FALSE,FALSE,FALSE,FALSE,FALSE,FALSE,FALSE,FALSE,FALSE,FALSE,FALSE,FALSE,6.974714915,79.91481965,22.4,107.7,328,TRUE,1,1,FALSE,FALSE,FALSE,FALSE,,TRUE,FALSE,FALSE,Course Lock,246,303.7,16.4,Calm,23,,1.12.8,Mavic Mini,1SDCH7G0169R0K,1SFLH6Q0AB03DJ,1SRCH7F014TAHX,1U5X071EXP5ZJG,150,0.1,0,2.062458,1.342164,0,0,Mavic Mini,1SDCH7G0169R0K,1SFLH6Q0AB03DJ,1SRCH7F014TAHX,1U5X071EXP5ZJG,DJI Fly,,1.12.8,636B794F-F441-A54A-E062-018A8C9DBF34,1SDCH7G0169R0K,,,,,,,,,
2/13/2024,31:37.6,7m 48.6s,468.6,6.974657361,79.91479803,0,0,0.3,68,0.5,0,0,0,0,0,0,0,0,3.5,2.1,178.7,178.7,,Starting Motors,Auto Landing,Takeoff (RC Assisted),10,4,TRUE,,Mavic Mini,TRUE,FALSE,,Smart,RC,TRUE,TRUE,FALSE,,,TRUE,,FALSE,FALSE,FALSE,FALSE,FALSE,FALSE,FALSE,FALSE,FALSE,FALSE,0,Follow Yaw,0,0,-179.8,180.2,FALSE,FALSE,FALSE,FALSE,FALSE,FALSE,,TRUE,Normal,,100,1024,1024,1024,1024,2,FALSE,FALSE,FALSE,FALSE,FALSE,0,FALSE,FALSE,FALSE,FALSE,63,7.684,1297,2054,7.688,FALSE,3.843,3.841,0.002,FALSE,FALSE,NA,116.8,116.7,116.7,0,21,0,0,5,2571,642.76,,Idle,0,20,FALSE,5,TRUE,8,Go Home,FALSE,FALSE,FALSE,FALSE,FALSE,FALSE,FALSE,FALSE,FALSE,FALSE,FALSE,FALSE,6.974714915,79.91481965,22.4,107.7,328,TRUE,1,1,FALSE,FALSE,FALSE,FALSE,,TRUE,FALSE,FALSE,Course Lock,246,303.7,16.4,Calm,23,,1.12.8,Mavic Mini,1SDCH7G0169R0K,1SFLH6Q0AB03DJ,1SRCH7F014TAHX,1U5X071EXP5ZJG,150,0.1,0,2.062458,1.342164,0,0,Mavic Mini,1SDCH7G0169R0K,1SFLH6Q0AB03DJ,1SRCH7F014TAHX,1U5X071EXP5ZJG,DJI Fly,,1.12.8,636B794F-F441-A54A-E062-018A8C9DBF34,1SDCH7G0169R0K,,,,,,,,,
2/13/2024,31:37.7,7m 48.7s,468.7,6.974657316,79.91479797,0,0,0.3,68,0.6,0,0,0,0,0,0,0,0,3.5,2,178.7,178.7,,Manual Takeoff,Auto Landing,Takeoff (RC Assisted),10,4,TRUE,,Mavic Mini,TRUE,FALSE,,Smart,RC,TRUE,TRUE,FALSE,,,TRUE,,FALSE,FALSE,FALSE,FALSE,FALSE,FALSE,FALSE,FALSE,FALSE,FALSE,0,Follow Yaw,0,0,-179.8,180.2,FALSE,FALSE,FALSE,FALSE,FALSE,FALSE,,TRUE,Normal,,100,1024,1024,1024,1024,2,FALSE,FALSE,FALSE,FALSE,FALSE,0,FALSE,FALSE,FALSE,FALSE,63,7.684,1297,2054,7.688,FALSE,3.843,3.841,0.002,FALSE,FALSE,NA,116.8,116.7,116.7,0,21,0,0,5,2571,642.76,,Idle,0,20,FALSE,5,TRUE,8,Go Home,FALSE,FALSE,FALSE,FALSE,FALSE,FALSE,FALSE,FALSE,FALSE,FALSE,FALSE,FALSE,6.974714915,79.91481965,22.4,107.7,328,TRUE,1,1,FALSE,FALSE,FALSE,FALSE,,TRUE,FALSE,FALSE,Course Lock,246,303.7,16.4,Calm,23,,1.12.8,Mavic Mini,1SDCH7G0169R0K,1SFLH6Q0AB03DJ,1SRCH7F014TAHX,1U5X071EXP5ZJG,150,0.1,0,2.062458,1.342164,0,0,Mavic Mini,1SDCH7G0169R0K,1SFLH6Q0AB03DJ,1SRCH7F014TAHX,1U5X071EXP5ZJG,DJI Fly,,1.12.8,636B794F-F441-A54A-E062-018A8C9DBF34,1SDCH7G0169R0K,,,,,,,,Flight mode changed to Manual Takeoff.,
2/13/2024,31:37.8,7m 48.8s,468.8,6.974657297,79.91479789,0,0,0.3,68,0.6,0,0,0,0,0,0,0,0,3.4,2,178.6,178.6,,Manual Takeoff,Auto Landing,Takeoff (RC Assisted),10,4,TRUE,,Mavic Mini,TRUE,FALSE,,Smart,RC,TRUE,TRUE,FALSE,,,TRUE,,FALSE,FALSE,FALSE,FALSE,FALSE,FALSE,FALSE,FALSE,FALSE,FALSE,0,Follow Yaw,0,0,-179.8,180.2,FALSE,FALSE,FALSE,FALSE,FALSE,FALSE,,TRUE,Normal,,100,1024,1024,1024,1024,2,FALSE,FALSE,FALSE,FALSE,FALSE,0,FALSE,FALSE,FALSE,FALSE,63,7.684,1297,2054,7.688,FALSE,3.843,3.841,0.002,FALSE,FALSE,NA,116.8,116.7,116.7,0,21,0,0,5,2571,642.76,,Idle,0,20,FALSE,5,TRUE,8,Go Home,FALSE,FALSE,FALSE,FALSE,FALSE,FALSE,FALSE,FALSE,FALSE,FALSE,FALSE,FALSE,6.974714915,79.91481965,22.4,107.7,328,TRUE,1,1,FALSE,FALSE,FALSE,FALSE,,TRUE,FALSE,FALSE,Course Lock,246,303.7,16.4,Calm,23,,1.12.8,Mavic Mini,1SDCH7G0169R0K,1SFLH6Q0AB03DJ,1SRCH7F014TAHX,1U5X071EXP5ZJG,150,0.1,0,2.062458,1.342164,0,0,Mavic Mini,1SDCH7G0169R0K,1SFLH6Q0AB03DJ,1SRCH7F014TAHX,1U5X071EXP5ZJG,DJI Fly,,1.12.8,636B794F-F441-A54A-E062-018A8C9DBF34,1SDCH7G0169R0K,,,,,,,,,
2/13/2024,31:37.9,7m 48.9s,468.9,6.974657284,79.9147978,0,0,0.3,68,0.6,0,0,0,0,0,0,0,0,3.5,2,178.6,178.6,,Manual Takeoff,Auto Landing,Takeoff (RC Assisted),10,4,TRUE,,Mavic Mini,TRUE,FALSE,,Smart,RC,TRUE,TRUE,FALSE,,,TRUE,,FALSE,FALSE,FALSE,FALSE,FALSE,FALSE,FALSE,FALSE,FALSE,FALSE,0,Follow Yaw,0,0,-179.8,180.2,FALSE,FALSE,FALSE,FALSE,FALSE,FALSE,,TRUE,Normal,,100,1024,1024,1024,1024,2,FALSE,FALSE,FALSE,FALSE,FALSE,0,FALSE,FALSE,FALSE,FALSE,63,7.684,1297,2054,7.688,FALSE,3.843,3.841,0.002,FALSE,FALSE,NA,116.8,116.7,116.7,0,21,0,0,5,2571,642.76,,Idle,0,20,FALSE,5,TRUE,8,Go Home,FALSE,FALSE,FALSE,FALSE,FALSE,FALSE,FALSE,FALSE,FALSE,FALSE,FALSE,FALSE,6.974714915,79.91481965,22.4,107.7,328,TRUE,1,1,FALSE,FALSE,FALSE,FALSE,,TRUE,FALSE,FALSE,Course Lock,246,303.7,16.4,Calm,23,,1.12.8,Mavic Mini,1SDCH7G0169R0K,1SFLH6Q0AB03DJ,1SRCH7F014TAHX,1U5X071EXP5ZJG,150,0.1,0,2.062458,1.342164,0,0,Mavic Mini,1SDCH7G0169R0K,1SFLH6Q0AB03DJ,1SRCH7F014TAHX,1U5X071EXP5ZJG,DJI Fly,,1.12.8,636B794F-F441-A54A-E062-018A8C9DBF34,1SDCH7G0169R0K,,,,,,,,,
2/13/2024,31:38.0,7m 49.0s,469,6.974657319,79.91479767,0,0,0.3,68,0.7,0,0,0,0,0,0,0,0,3.4,2.1,178.6,178.6,,Manual Takeoff,Auto Landing,Takeoff (RC Assisted),10,4,TRUE,,Mavic Mini,TRUE,FALSE,,Smart,RC,TRUE,TRUE,FALSE,,,TRUE,,FALSE,FALSE,FALSE,FALSE,FALSE,FALSE,FALSE,FALSE,FALSE,FALSE,0,Follow Yaw,0,0,-179.8,180.2,FALSE,FALSE,FALSE,FALSE,FALSE,FALSE,,TRUE,Normal,,100,1024,1024,1024,1024,2,FALSE,FALSE,FALSE,FALSE,FALSE,0,FALSE,FALSE,FALSE,FALSE,63,7.684,1297,2054,7.688,FALSE,3.843,3.841,0.002,FALSE,FALSE,NA,116.8,116.7,116.7,0,21,0,0,5,2571,642.76,,Idle,0,20,FALSE,5,TRUE,8,Go Home,FALSE,FALSE,FALSE,FALSE,FALSE,FALSE,FALSE,FALSE,FALSE,FALSE,FALSE,FALSE,6.974714915,79.91481965,22.4,107.7,328,TRUE,1,1,FALSE,FALSE,FALSE,FALSE,,TRUE,FALSE,FALSE,Course Lock,246,303.7,16.4,Calm,23,,1.12.8,Mavic Mini,1SDCH7G0169R0K,1SFLH6Q0AB03DJ,1SRCH7F014TAHX,1U5X071EXP5ZJG,150,0.1,0,2.062458,1.342164,0,0,Mavic Mini,1SDCH7G0169R0K,1SFLH6Q0AB03DJ,1SRCH7F014TAHX,1U5X071EXP5ZJG,DJI Fly,,1.12.8,636B794F-F441-A54A-E062-018A8C9DBF34,1SDCH7G0169R0K,,,,,,,,,
2/13/2024,31:38.1,7m 49.1s,469.1,6.97465732,79.91479757,0,0,0.3,68,0.7,0,0,0,0,0,0,0,0,3.4,2,178.6,178.6,,Manual Takeoff,Auto Landing,Takeoff (RC Assisted),10,4,TRUE,,Mavic Mini,TRUE,FALSE,,Smart,RC,TRUE,TRUE,FALSE,,,TRUE,,FALSE,FALSE,FALSE,FALSE,FALSE,FALSE,FALSE,FALSE,FALSE,FALSE,0,Follow Yaw,0,0,-179.8,180.2,FALSE,FALSE,FALSE,FALSE,FALSE,FALSE,,TRUE,Normal,,100,1024,1024,1024,1024,2,FALSE,FALSE,FALSE,FALSE,FALSE,0,FALSE,FALSE,FALSE,FALSE,63,7.684,1297,2054,7.688,FALSE,3.843,3.841,0.002,FALSE,FALSE,NA,116.8,116.7,116.7,0,21,0,0,5,2571,642.76,,Idle,0,20,FALSE,5,TRUE,8,Go Home,FALSE,FALSE,FALSE,FALSE,FALSE,FALSE,FALSE,FALSE,FALSE,FALSE,FALSE,FALSE,6.974714915,79.91481965,22.4,107.7,328,TRUE,1,1,FALSE,FALSE,FALSE,FALSE,,TRUE,FALSE,FALSE,Course Lock,246,303.7,16.4,Calm,23,,1.12.8,Mavic Mini,1SDCH7G0169R0K,1SFLH6Q0AB03DJ,1SRCH7F014TAHX,1U5X071EXP5ZJG,150,0.1,0,2.062458,1.342164,0,0,Mavic Mini,1SDCH7G0169R0K,1SFLH6Q0AB03DJ,1SRCH7F014TAHX,1U5X071EXP5ZJG,DJI Fly,,1.12.8,636B794F-F441-A54A-E062-018A8C9DBF34,1SDCH7G0169R0K,,,,,,,,,
2/13/2024,31:38.2,7m 49.2s,469.2,6.974657284,79.91479746,0,0,0.3,68,0.8,0,0,0,0,0,0,0,0,3.4,2,178.6,178.6,,Manual Takeoff,Auto Landing,Takeoff (RC Assisted),10,4,TRUE,,Mavic Mini,TRUE,FALSE,,Smart,RC,TRUE,TRUE,FALSE,,,TRUE,,FALSE,FALSE,FALSE,FALSE,FALSE,FALSE,FALSE,FALSE,FALSE,FALSE,0,Follow Yaw,0,0,-179.8,180.2,FALSE,FALSE,FALSE,FALSE,FALSE,FALSE,,TRUE,Normal,,100,1024,1024,1024,1024,2,FALSE,FALSE,FALSE,FALSE,FALSE,0,FALSE,FALSE,FALSE,FALSE,63,7.681,1297,2054,7.688,FALSE,3.842,3.839,0.003,FALSE,FALSE,NA,116.8,116.7,116.7,0,21,0,0,5,2571,642.76,,Idle,0,20,FALSE,5,TRUE,8,Go Home,FALSE,FALSE,FALSE,FALSE,FALSE,FALSE,FALSE,FALSE,FALSE,FALSE,FALSE,FALSE,6.974714915,79.91481965,22.5,107.7,328,TRUE,1,1,FALSE,FALSE,FALSE,FALSE,,TRUE,FALSE,FALSE,Course Lock,246,303.7,16.4,Calm,23,,1.12.8,Mavic Mini,1SDCH7G0169R0K,1SFLH6Q0AB03DJ,1SRCH7F014TAHX,1U5X071EXP5ZJG,150,0.1,0,2.062458,1.342164,0,0,Mavic Mini,1SDCH7G0169R0K,1SFLH6Q0AB03DJ,1SRCH7F014TAHX,1U5X071EXP5ZJG,DJI Fly,,1.12.8,636B794F-F441-A54A-E062-018A8C9DBF34,1SDCH7G0169R0K,,,,,,,,,
2/13/2024,31:38.4,7m 49.3s,469.3,6.974657238,79.91479735,0,0,0.3,68,0.8,0,0,0,0,0,0,0,0,3.4,2,178.6,178.6,,Manual Takeoff,Auto Landing,Takeoff (RC Assisted),10,4,TRUE,,Mavic Mini,TRUE,FALSE,,Smart,RC,TRUE,TRUE,FALSE,,,TRUE,,FALSE,FALSE,FALSE,FALSE,FALSE,FALSE,FALSE,FALSE,FALSE,FALSE,0,Follow Yaw,0,0,-179.8,180.2,FALSE,FALSE,FALSE,FALSE,FALSE,FALSE,,TRUE,Normal,,100,1024,1024,1024,1024,2,FALSE,FALSE,FALSE,FALSE,FALSE,0,FALSE,FALSE,FALSE,FALSE,63,7.681,1297,2054,7.682,FALSE,3.842,3.839,0.003,FALSE,FALSE,NA,116.8,116.7,116.7,0,21,0,0,5,2571,642.76,,Idle,0,20,FALSE,5,TRUE,8,Go Home,FALSE,FALSE,FALSE,FALSE,FALSE,FALSE,FALSE,FALSE,FALSE,FALSE,FALSE,FALSE,6.974714915,79.91481965,22.5,107.7,328,TRUE,1,1,FALSE,FALSE,FALSE,FALSE,,TRUE,FALSE,FALSE,Course Lock,246,303.7,16.4,Calm,23,,1.12.8,Mavic Mini,1SDCH7G0169R0K,1SFLH6Q0AB03DJ,1SRCH7F014TAHX,1U5X071EXP5ZJG,150,0.1,0,2.062458,1.342164,0,0,Mavic Mini,1SDCH7G0169R0K,1SFLH6Q0AB03DJ,1SRCH7F014TAHX,1U5X071EXP5ZJG,DJI Fly,,1.12.8,636B794F-F441-A54A-E062-018A8C9DBF34,1SDCH7G0169R0K,,,,,,,,,
2/13/2024,31:38.4,7m 49.4s,469.4,6.974657222,79.91479729,0,0,0.3,68,0.8,0,0,0,0,0,0,0,0,3.4,2,178.6,178.6,,Manual Takeoff,Auto Landing,Takeoff (RC Assisted),10,4,TRUE,,Mavic Mini,TRUE,FALSE,,Smart,RC,TRUE,TRUE,FALSE,,,TRUE,,FALSE,FALSE,FALSE,FALSE,FALSE,FALSE,FALSE,FALSE,FALSE,FALSE,0,Follow Yaw,0,0,-179.8,180.2,FALSE,FALSE,FALSE,FALSE,FALSE,FALSE,,TRUE,Normal,,100,1024,1024,1024,1024,2,FALSE,FALSE,FALSE,FALSE,FALSE,0,FALSE,FALSE,FALSE,FALSE,63,7.681,1297,2054,7.682,FALSE,3.842,3.839,0.003,FALSE,FALSE,NA,116.8,116.7,116.7,0,21,0,0,5,2571,642.76,,Idle,0,20,FALSE,5,TRUE,8,Go Home,FALSE,FALSE,FALSE,FALSE,FALSE,FALSE,FALSE,FALSE,FALSE,FALSE,FALSE,FALSE,6.974714915,79.91481965,22.5,107.7,328,TRUE,1,1,FALSE,FALSE,FALSE,FALSE,,TRUE,FALSE,FALSE,Course Lock,246,303.7,16.4,Calm,23,,1.12.8,Mavic Mini,1SDCH7G0169R0K,1SFLH6Q0AB03DJ,1SRCH7F014TAHX,1U5X071EXP5ZJG,150,0.1,0,2.062458,1.342164,0,0,Mavic Mini,1SDCH7G0169R0K,1SFLH6Q0AB03DJ,1SRCH7F014TAHX,1U5X071EXP5ZJG,DJI Fly,,1.12.8,636B794F-F441-A54A-E062-018A8C9DBF34,1SDCH7G0169R0K,,,,,,,,,
2/13/2024,31:38.5,7m 49.5s,469.5,6.974657184,79.91479729,0,0,0.3,68,0.8,0,0,0,0,0,0,0,0,3.4,2,178.6,178.6,,Manual Takeoff,Auto Landing,Takeoff (RC Assisted),10,4,TRUE,,Mavic Mini,TRUE,FALSE,,Smart,RC,TRUE,TRUE,FALSE,,,TRUE,,FALSE,FALSE,FALSE,FALSE,FALSE,FALSE,FALSE,FALSE,FALSE,FALSE,0,Follow Yaw,0,0,-179.8,180.2,FALSE,FALSE,FALSE,FALSE,FALSE,FALSE,,TRUE,Normal,,100,1024,1024,1024,1024,2,FALSE,FALSE,FALSE,FALSE,FALSE,0,FALSE,FALSE,FALSE,FALSE,63,7.681,1297,2054,7.682,FALSE,3.842,3.839,0.003,FALSE,FALSE,NA,116.8,116.7,116.7,0,21,0,0,5,2571,642.76,,Idle,0,20,FALSE,5,TRUE,8,Go Home,FALSE,FALSE,FALSE,FALSE,FALSE,FALSE,FALSE,FALSE,FALSE,FALSE,FALSE,FALSE,6.974714915,79.91481965,22.5,107.7,328,TRUE,1,1,FALSE,FALSE,FALSE,FALSE,,TRUE,FALSE,FALSE,Course Lock,246,303.7,16.4,Calm,23,,1.12.8,Mavic Mini,1SDCH7G0169R0K,1SFLH6Q0AB03DJ,1SRCH7F014TAHX,1U5X071EXP5ZJG,150,0.1,0,2.062458,1.342164,0,0,Mavic Mini,1SDCH7G0169R0K,1SFLH6Q0AB03DJ,1SRCH7F014TAHX,1U5X071EXP5ZJG,DJI Fly,,1.12.8,636B794F-F441-A54A-E062-018A8C9DBF34,1SDCH7G0169R0K,,,,,6.974683888,79.91478967,10,,
2/13/2024,31:38.7,7m 49.6s,469.6,6.974657144,79.91479721,0,0,0.3,68,0.9,0,0,0,0,0,0,0,0,3.4,2,178.6,178.6,,Manual Takeoff,Auto Landing,Takeoff (RC Assisted),10,4,TRUE,,Mavic Mini,TRUE,FALSE,,Smart,RC,TRUE,TRUE,FALSE,,,TRUE,,FALSE,FALSE,FALSE,FALSE,FALSE,FALSE,FALSE,FALSE,FALSE,FALSE,0,Follow Yaw,0,0,-179.8,180.2,FALSE,FALSE,FALSE,FALSE,FALSE,FALSE,,TRUE,Normal,,100,1024,1024,1024,1024,2,FALSE,FALSE,FALSE,FALSE,FALSE,0,FALSE,FALSE,FALSE,FALSE,63,7.681,1297,2054,7.682,FALSE,3.842,3.839,0.003,FALSE,FALSE,NA,116.8,116.7,116.7,0,21,0,0,5,2571,642.76,,Idle,0,20,FALSE,5,TRUE,8,Go Home,FALSE,FALSE,FALSE,FALSE,FALSE,FALSE,FALSE,FALSE,FALSE,FALSE,FALSE,FALSE,6.974714915,79.91481965,22.5,107.7,328,TRUE,1,1,FALSE,FALSE,FALSE,FALSE,,TRUE,FALSE,FALSE,Course Lock,246,303.7,16.4,Calm,23,,1.12.8,Mavic Mini,1SDCH7G0169R0K,1SFLH6Q0AB03DJ,1SRCH7F014TAHX,1U5X071EXP5ZJG,150,0.1,0,2.062458,1.342164,0,0,Mavic Mini,1SDCH7G0169R0K,1SFLH6Q0AB03DJ,1SRCH7F014TAHX,1U5X071EXP5ZJG,DJI Fly,,1.12.8,636B794F-F441-A54A-E062-018A8C9DBF34,1SDCH7G0169R0K,,,,,6.974683888,79.91478967,10,,
2/13/2024,31:38.8,7m 49.7s,469.7,6.974657097,79.91479713,0,0,0.3,68,0.9,0,0,0,0,0,0,0,0,3.4,2,178.6,178.6,,Manual Takeoff,Auto Landing,Takeoff (RC Assisted),10,4,TRUE,,Mavic Mini,TRUE,FALSE,,Smart,RC,TRUE,TRUE,FALSE,,,TRUE,,FALSE,FALSE,FALSE,FALSE,FALSE,FALSE,FALSE,FALSE,FALSE,FALSE,0,Follow Yaw,0,0,-179.8,180.2,FALSE,FALSE,FALSE,FALSE,FALSE,FALSE,,TRUE,Normal,,100,1024,1024,1053,1024,2,FALSE,FALSE,FALSE,FALSE,FALSE,0,FALSE,FALSE,FALSE,FALSE,63,7.681,1297,2054,7.682,FALSE,3.842,3.839,0.003,FALSE,FALSE,NA,116.8,116.7,116.7,0,21,0,0,5,2571,642.76,,Idle,0,20,FALSE,5,TRUE,8,Go Home,FALSE,FALSE,FALSE,FALSE,FALSE,FALSE,FALSE,FALSE,FALSE,FALSE,FALSE,FALSE,6.974714915,79.91481965,22.6,107.7,328,TRUE,1,1,FALSE,FALSE,FALSE,FALSE,,TRUE,FALSE,FALSE,Course Lock,246,303.7,16.4,Calm,23,,1.12.8,Mavic Mini,1SDCH7G0169R0K,1SFLH6Q0AB03DJ,1SRCH7F014TAHX,1U5X071EXP5ZJG,150,0.1,0,2.062458,1.342164,0,0,Mavic Mini,1SDCH7G0169R0K,1SFLH6Q0AB03DJ,1SRCH7F014TAHX,1U5X071EXP5ZJG,DJI Fly,,1.12.8,636B794F-F441-A54A-E062-018A8C9DBF34,1SDCH7G0169R0K,,,,,6.974683888,79.91478967,10,,
2/13/2024,31:38.9,7m 49.8s,469.8,6.974657081,79.91479707,0,0,0.3,68,0.9,0,0,0,0,0,0,0,0,3.4,2,178.7,178.7,,Manual Takeoff,Auto Landing,Takeoff (RC Assisted),10,4,TRUE,,Mavic Mini,TRUE,FALSE,,Smart,RC,TRUE,TRUE,FALSE,,,TRUE,,FALSE,FALSE,FALSE,FALSE,FALSE,FALSE,FALSE,FALSE,FALSE,FALSE,0,Follow Yaw,0,0,-179.8,180.2,FALSE,FALSE,FALSE,FALSE,FALSE,FALSE,,TRUE,Normal,,100,1024,1024,1066,1024,2,FALSE,FALSE,FALSE,FALSE,FALSE,0,FALSE,FALSE,FALSE,FALSE,63,7.681,1297,2054,7.682,FALSE,3.842,3.839,0.003,FALSE,FALSE,NA,116.8,116.7,116.7,0,21,0,0,5,2571,642.76,,Idle,0,20,FALSE,5,TRUE,8,Go Home,FALSE,FALSE,FALSE,FALSE,FALSE,FALSE,FALSE,FALSE,FALSE,FALSE,FALSE,FALSE,6.974714915,79.91481965,22.6,107.7,328,TRUE,1,1,FALSE,FALSE,FALSE,FALSE,,TRUE,FALSE,FALSE,Course Lock,246,303.7,16.4,Calm,23,,1.12.8,Mavic Mini,1SDCH7G0169R0K,1SFLH6Q0AB03DJ,1SRCH7F014TAHX,1U5X071EXP5ZJG,150,0.1,0,2.062458,1.342164,0,0,Mavic Mini,1SDCH7G0169R0K,1SFLH6Q0AB03DJ,1SRCH7F014TAHX,1U5X071EXP5ZJG,DJI Fly,,1.12.8,636B794F-F441-A54A-E062-018A8C9DBF34,1SDCH7G0169R0K,,,,,6.974683888,79.91478967,10,,
2/13/2024,31:39.0,7m 49.9s,469.9,6.97465706,79.91479706,0,0,0.3,68,0.9,0,0,0,0,0,0,0,0,3.4,2,178.6,178.6,,Manual Takeoff,Auto Landing,Takeoff (RC Assisted),10,4,TRUE,,Mavic Mini,TRUE,FALSE,,Smart,RC,TRUE,TRUE,FALSE,,,TRUE,,FALSE,FALSE,FALSE,FALSE,FALSE,FALSE,FALSE,FALSE,FALSE,FALSE,0,Follow Yaw,0,0,-179.8,180.2,FALSE,FALSE,FALSE,FALSE,FALSE,FALSE,,TRUE,Normal,,100,1024,1024,1069,1024,2,FALSE,FALSE,FALSE,FALSE,FALSE,0,FALSE,FALSE,FALSE,FALSE,63,7.681,1297,2054,7.682,FALSE,3.842,3.839,0.003,FALSE,FALSE,NA,116.8,116.7,116.7,0,21,0,0,5,2571,642.76,,Idle,0,20,FALSE,5,TRUE,8,Go Home,FALSE,FALSE,FALSE,FALSE,FALSE,FALSE,FALSE,FALSE,FALSE,FALSE,FALSE,FALSE,6.974714915,79.91481965,22.6,107.7,328,TRUE,1,1,FALSE,FALSE,FALSE,FALSE,,TRUE,FALSE,FALSE,Course Lock,246,303.7,16.4,Calm,23,,1.12.8,Mavic Mini,1SDCH7G0169R0K,1SFLH6Q0AB03DJ,1SRCH7F014TAHX,1U5X071EXP5ZJG,150,0.1,0,2.062458,1.342164,0,0,Mavic Mini,1SDCH7G0169R0K,1SFLH6Q0AB03DJ,1SRCH7F014TAHX,1U5X071EXP5ZJG,DJI Fly,,1.12.8,636B794F-F441-A54A-E062-018A8C9DBF34,1SDCH7G0169R0K,,,,,6.974683888,79.91478967,10,,
2/13/2024,31:39.1,7m 50.0s,470,6.974657064,79.91479703,0,0,0.3,68,0.9,0,0,0,0,0,0,0,0,3.5,2,178.6,178.6,,Manual Takeoff,Auto Landing,Takeoff (RC Assisted),10,4,TRUE,,Mavic Mini,TRUE,FALSE,,Smart,RC,TRUE,TRUE,FALSE,,,TRUE,,FALSE,FALSE,FALSE,FALSE,FALSE,FALSE,FALSE,FALSE,FALSE,FALSE,0,Follow Yaw,0,0,-179.8,180.2,FALSE,FALSE,FALSE,FALSE,FALSE,FALSE,,TRUE,Normal,,100,1024,1024,1065,1024,2,FALSE,FALSE,FALSE,FALSE,FALSE,0,FALSE,FALSE,FALSE,FALSE,63,7.681,1297,2054,7.682,FALSE,3.842,3.839,0.003,FALSE,FALSE,NA,116.8,116.7,116.7,0,21,0,0,5,2571,642.76,,Idle,0,20,FALSE,5,TRUE,8,Go Home,FALSE,FALSE,FALSE,FALSE,FALSE,FALSE,FALSE,FALSE,FALSE,FALSE,FALSE,FALSE,6.974714915,79.91481965,22.6,107.7,328,TRUE,1,1,FALSE,FALSE,FALSE,FALSE,,TRUE,FALSE,FALSE,Course Lock,246,303.7,16.4,Calm,23,,1.12.8,Mavic Mini,1SDCH7G0169R0K,1SFLH6Q0AB03DJ,1SRCH7F014TAHX,1U5X071EXP5ZJG,150,0.1,0,2.062458,1.342164,0,0,Mavic Mini,1SDCH7G0169R0K,1SFLH6Q0AB03DJ,1SRCH7F014TAHX,1U5X071EXP5ZJG,DJI Fly,,1.12.8,636B794F-F441-A54A-E062-018A8C9DBF34,1SDCH7G0169R0K,,,,,6.974683888,79.91478967,10,,
2/13/2024,31:39.2,7m 50.1s,470.1,6.97465707,79.91479699,0,0,0.3,68,1,0,0,0,0,0,0,0,0,3.5,1.9,178.6,178.6,,Manual Takeoff,Auto Landing,Takeoff (RC Assisted),10,4,TRUE,,Mavic Mini,TRUE,FALSE,,Smart,RC,TRUE,TRUE,FALSE,,,TRUE,,FALSE,FALSE,FALSE,FALSE,FALSE,FALSE,FALSE,FALSE,FALSE,FALSE,0,Follow Yaw,0,0,-179.8,180.2,FALSE,FALSE,FALSE,FALSE,FALSE,FALSE,,TRUE,Normal,,100,1024,1024,1065,1024,2,FALSE,FALSE,FALSE,FALSE,FALSE,0,FALSE,FALSE,FALSE,FALSE,63,7.681,1297,2054,7.682,FALSE,3.842,3.839,0.003,FALSE,FALSE,NA,116.8,116.7,116.7,0,21,0,0,5,2571,642.76,,Idle,0,20,FALSE,5,TRUE,8,Go Home,FALSE,FALSE,FALSE,FALSE,FALSE,FALSE,FALSE,FALSE,FALSE,FALSE,FALSE,FALSE,6.974714915,79.91481965,22.6,107.7,328,TRUE,1,1,FALSE,FALSE,FALSE,FALSE,,TRUE,FALSE,FALSE,Course Lock,246,303.7,16.4,Calm,23,,1.12.8,Mavic Mini,1SDCH7G0169R0K,1SFLH6Q0AB03DJ,1SRCH7F014TAHX,1U5X071EXP5ZJG,150,0.1,0,2.062458,1.342164,0,0,Mavic Mini,1SDCH7G0169R0K,1SFLH6Q0AB03DJ,1SRCH7F014TAHX,1U5X071EXP5ZJG,DJI Fly,,1.12.8,636B794F-F441-A54A-E062-018A8C9DBF34,1SDCH7G0169R0K,,,,,6.974683888,79.91478967,10,,
2/13/2024,31:39.2,7m 50.2s,470.2,6.974657078,79.91479696,0,0,0.3,68,1,0,0,0,0,0,0,0,0,3.3,1.7,178.6,178.6,,Manual Takeoff,Auto Landing,Takeoff (RC Assisted),10,4,TRUE,,Mavic Mini,TRUE,FALSE,,Smart,RC,TRUE,TRUE,FALSE,,,TRUE,,FALSE,FALSE,FALSE,FALSE,FALSE,FALSE,FALSE,FALSE,FALSE,FALSE,0,Follow Yaw,0,0,-179.8,180.2,FALSE,FALSE,FALSE,FALSE,FALSE,FALSE,,TRUE,Normal,,100,1024,1024,1024,1024,2,FALSE,FALSE,FALSE,FALSE,FALSE,0,FALSE,FALSE,FALSE,FALSE,63,7.681,1297,2054,7.682,FALSE,3.842,3.839,0.003,FALSE,FALSE,NA,116.8,116.7,116.7,0,21,0,0,5,2571,642.76,,Idle,0,20,FALSE,5,TRUE,8,Go Home,FALSE,FALSE,FALSE,FALSE,FALSE,FALSE,FALSE,FALSE,FALSE,FALSE,FALSE,FALSE,6.974714915,79.91481965,22.6,107.7,328,TRUE,1,1,FALSE,FALSE,FALSE,FALSE,,TRUE,FALSE,FALSE,Course Lock,246,303.7,16.4,Calm,23,,1.12.8,Mavic Mini,1SDCH7G0169R0K,1SFLH6Q0AB03DJ,1SRCH7F014TAHX,1U5X071EXP5ZJG,150,0.1,0,2.062458,1.342164,0,0,Mavic Mini,1SDCH7G0169R0K,1SFLH6Q0AB03DJ,1SRCH7F014TAHX,1U5X071EXP5ZJG,DJI Fly,,1.12.8,636B794F-F441-A54A-E062-018A8C9DBF34,1SDCH7G0169R0K,,,,,6.974683888,79.91478967,10,,
2/13/2024,31:39.4,7m 50.3s,470.3,6.974657157,79.91479699,0,0,0.3,68,1,0,0,0,0,0,0,0,0,3.3,1.3,178.6,178.6,,Manual Takeoff,Auto Landing,Takeoff (RC Assisted),10,4,TRUE,,Mavic Mini,TRUE,FALSE,,Smart,RC,TRUE,TRUE,FALSE,,,TRUE,,FALSE,FALSE,FALSE,FALSE,FALSE,FALSE,FALSE,FALSE,FALSE,FALSE,0,Follow Yaw,0,0,-179.8,180.2,FALSE,FALSE,FALSE,FALSE,FALSE,FALSE,,TRUE,Normal,,100,1024,1024,1024,1024,2,FALSE,FALSE,FALSE,FALSE,FALSE,0,FALSE,FALSE,FALSE,FALSE,63,7.681,1297,2054,7.667,FALSE,3.842,3.839,0.003,FALSE,FALSE,NA,116.8,116.7,116.7,0,22,0,0,5,2659.9,664.99,,Idle,0,20,FALSE,5,TRUE,8,Go Home,FALSE,FALSE,FALSE,FALSE,FALSE,FALSE,FALSE,FALSE,FALSE,FALSE,FALSE,FALSE,6.974714915,79.91481965,22.6,107.7,328,TRUE,1,1,FALSE,FALSE,FALSE,FALSE,,TRUE,FALSE,FALSE,Course Lock,246,303.7,16.4,Calm,23,,1.12.8,Mavic Mini,1SDCH7G0169R0K,1SFLH6Q0AB03DJ,1SRCH7F014TAHX,1U5X071EXP5ZJG,150,0.1,0,2.062458,1.342164,0,0,Mavic Mini,1SDCH7G0169R0K,1SFLH6Q0AB03DJ,1SRCH7F014TAHX,1U5X071EXP5ZJG,DJI Fly,,1.12.8,636B794F-F441-A54A-E062-018A8C9DBF34,1SDCH7G0169R0K,,,,,6.974683888,79.91478967,10,,
2/13/2024,31:39.4,7m 50.4s,470.4,6.97465716,79.91479695,0,0,0.3,68,1,0,0,0,0,0,0,0,0,3.2,1.1,178.5,178.5,,Manual Takeoff,Auto Landing,Takeoff (RC Assisted),10,4,TRUE,,Mavic Mini,TRUE,FALSE,,Smart,RC,TRUE,TRUE,FALSE,,,TRUE,,FALSE,FALSE,FALSE,FALSE,FALSE,FALSE,FALSE,FALSE,FALSE,FALSE,0,Follow Yaw,0,0,-179.8,180.2,FALSE,FALSE,FALSE,FALSE,FALSE,FALSE,,TRUE,Normal,,100,1024,1024,1024,1024,2,FALSE,FALSE,FALSE,FALSE,FALSE,0,FALSE,FALSE,FALSE,FALSE,63,7.681,1297,2054,7.667,FALSE,3.842,3.839,0.003,FALSE,FALSE,NA,116.8,116.7,116.7,0,22,0,0,5,2659.9,664.99,,Idle,0,20,FALSE,5,TRUE,8,Go Home,FALSE,FALSE,FALSE,FALSE,FALSE,FALSE,FALSE,FALSE,FALSE,FALSE,FALSE,FALSE,6.974714915,79.91481965,22.6,107.7,328,TRUE,1,1,FALSE,FALSE,FALSE,FALSE,,TRUE,FALSE,FALSE,Course Lock,246,303.7,16.4,Calm,23,,1.12.8,Mavic Mini,1SDCH7G0169R0K,1SFLH6Q0AB03DJ,1SRCH7F014TAHX,1U5X071EXP5ZJG,150,0.1,0,2.062458,1.342164,0,0,Mavic Mini,1SDCH7G0169R0K,1SFLH6Q0AB03DJ,1SRCH7F014TAHX,1U5X071EXP5ZJG,DJI Fly,,1.12.8,636B794F-F441-A54A-E062-018A8C9DBF34,1SDCH7G0169R0K,,,,,6.974683888,79.91478967,10,,
2/13/2024,31:39.5,7m 50.5s,470.5,6.974657164,79.91479691,0,0,0.3,68,1,0,0,0,0,0,0,0,0,3.3,1.6,178.6,178.6,,Manual Takeoff,Auto Landing,Takeoff (RC Assisted),10,4,TRUE,,Mavic Mini,TRUE,FALSE,,Smart,RC,TRUE,TRUE,FALSE,,,TRUE,,FALSE,FALSE,FALSE,FALSE,FALSE,FALSE,FALSE,FALSE,FALSE,FALSE,0,Follow Yaw,0,0,-179.8,180.2,FALSE,FALSE,FALSE,FALSE,FALSE,FALSE,,TRUE,Normal,,100,1024,1024,1024,1024,2,FALSE,FALSE,FALSE,FALSE,FALSE,0,FALSE,FALSE,FALSE,FALSE,63,7.683,1296,2054,7.667,FALSE,3.843,3.84,0.003,FALSE,FALSE,NA,116.8,116.7,116.7,0,22,0,0,5,2659.9,664.99,,Idle,0,20,FALSE,5,TRUE,8,Go Home,FALSE,FALSE,FALSE,FALSE,FALSE,FALSE,FALSE,FALSE,FALSE,FALSE,FALSE,FALSE,6.974714915,79.91481965,22.6,107.7,328,TRUE,1,1,FALSE,FALSE,FALSE,FALSE,,TRUE,FALSE,FALSE,Course Lock,246,303.7,16.4,Calm,23,,1.12.8,Mavic Mini,1SDCH7G0169R0K,1SFLH6Q0AB03DJ,1SRCH7F014TAHX,1U5X071EXP5ZJG,150,0.1,0,2.062458,1.342164,0,0,Mavic Mini,1SDCH7G0169R0K,1SFLH6Q0AB03DJ,1SRCH7F014TAHX,1U5X071EXP5ZJG,DJI Fly,,1.12.8,636B794F-F441-A54A-E062-018A8C9DBF34,1SDCH7G0169R0K,,,,,6.974683888,79.91478967,10,,
2/13/2024,31:39.6,7m 50.6s,470.6,6.974657164,79.91479686,0,0,0.3,68,1,0,0,0,0,0,0,0,0,3.3,1.7,178.6,178.6,,Manual Takeoff,Auto Landing,Takeoff (RC Assisted),10,4,TRUE,,Mavic Mini,TRUE,FALSE,,Smart,RC,TRUE,TRUE,FALSE,,,TRUE,,FALSE,FALSE,FALSE,FALSE,FALSE,FALSE,FALSE,FALSE,FALSE,FALSE,0,Follow Yaw,0,0,-179.8,180.2,FALSE,FALSE,FALSE,FALSE,FALSE,FALSE,,TRUE,Normal,,100,1024,1024,1028,1024,2,FALSE,FALSE,FALSE,FALSE,FALSE,0,FALSE,FALSE,FALSE,FALSE,63,7.683,1296,2054,7.667,FALSE,3.843,3.84,0.003,FALSE,FALSE,NA,116.8,116.7,116.7,0,22,0,0,5,2659.9,664.99,,Idle,0,20,FALSE,5,TRUE,8,Go Home,FALSE,FALSE,FALSE,FALSE,FALSE,FALSE,FALSE,FALSE,FALSE,FALSE,FALSE,FALSE,6.974714915,79.91481965,22.6,107.7,328,TRUE,1,1,FALSE,FALSE,FALSE,FALSE,,TRUE,FALSE,FALSE,Course Lock,246,303.7,16.4,Calm,23,,1.12.8,Mavic Mini,1SDCH7G0169R0K,1SFLH6Q0AB03DJ,1SRCH7F014TAHX,1U5X071EXP5ZJG,150,0.1,0,2.062458,1.342164,0,0,Mavic Mini,1SDCH7G0169R0K,1SFLH6Q0AB03DJ,1SRCH7F014TAHX,1U5X071EXP5ZJG,DJI Fly,,1.12.8,636B794F-F441-A54A-E062-018A8C9DBF34,1SDCH7G0169R0K,,,,,6.974683888,79.91478967,10,,
2/13/2024,31:39.7,7m 50.7s,470.7,6.974657194,79.91479682,0,0,0.3,68,1.1,0,0,0,0,0,0,0,0,3.3,1.8,178.5,178.5,,Manual Takeoff,Auto Landing,Takeoff (RC Assisted),10,4,TRUE,,Mavic Mini,TRUE,FALSE,,Smart,RC,TRUE,TRUE,FALSE,,,TRUE,,FALSE,FALSE,FALSE,FALSE,FALSE,FALSE,FALSE,FALSE,FALSE,FALSE,0,Follow Yaw,0,0,-179.8,180.2,FALSE,FALSE,FALSE,FALSE,FALSE,FALSE,,TRUE,Normal,,100,1024,1024,1089,1024,2,FALSE,FALSE,FALSE,FALSE,FALSE,0,FALSE,FALSE,FALSE,FALSE,63,7.683,1296,2054,7.667,FALSE,3.843,3.84,0.003,FALSE,FALSE,NA,116.8,116.7,116.7,0,22,0,0,5,2659.9,664.99,,Idle,0,20,FALSE,5,TRUE,8,Go Home,FALSE,FALSE,FALSE,FALSE,FALSE,FALSE,FALSE,FALSE,FALSE,FALSE,FALSE,FALSE,6.974714915,79.91481965,22.6,107.7,328,TRUE,1,1,FALSE,FALSE,FALSE,FALSE,,TRUE,FALSE,FALSE,Course Lock,246,303.7,16.4,Calm,23,,1.12.8,Mavic Mini,1SDCH7G0169R0K,1SFLH6Q0AB03DJ,1SRCH7F014TAHX,1U5X071EXP5ZJG,150,0.1,0,2.062458,1.342164,0,0,Mavic Mini,1SDCH7G0169R0K,1SFLH6Q0AB03DJ,1SRCH7F014TAHX,1U5X071EXP5ZJG,DJI Fly,,1.12.8,636B794F-F441-A54A-E062-018A8C9DBF34,1SDCH7G0169R0K,,,,,6.974683888,79.91478967,10,,
2/13/2024,31:39.8,7m 50.8s,470.8,6.974657195,79.91479677,0,0,0.3,68,1.1,0,0,0,0,0,0,0,0,3.4,1.9,178.5,178.5,,Manual Takeoff,Auto Landing,Takeoff (RC Assisted),10,4,TRUE,,Mavic Mini,TRUE,FALSE,,Smart,RC,TRUE,TRUE,FALSE,,,TRUE,,FALSE,FALSE,FALSE,FALSE,FALSE,FALSE,FALSE,FALSE,FALSE,FALSE,0,Follow Yaw,0,0,-179.8,180.2,FALSE,FALSE,FALSE,FALSE,FALSE,FALSE,,TRUE,Normal,,100,1024,1024,1153,1024,2,FALSE,FALSE,FALSE,FALSE,FALSE,0,FALSE,FALSE,FALSE,FALSE,63,7.683,1296,2054,7.667,FALSE,3.843,3.84,0.003,FALSE,FALSE,NA,116.8,116.7,116.7,0,22,0,0,5,2659.9,664.99,,Idle,0,20,FALSE,5,TRUE,8,Go Home,FALSE,FALSE,FALSE,FALSE,FALSE,FALSE,FALSE,FALSE,FALSE,FALSE,FALSE,FALSE,6.974714915,79.91481965,22.6,107.7,328,TRUE,1,1,FALSE,FALSE,FALSE,FALSE,,TRUE,FALSE,FALSE,Course Lock,246,303.7,16.4,Calm,23,,1.12.8,Mavic Mini,1SDCH7G0169R0K,1SFLH6Q0AB03DJ,1SRCH7F014TAHX,1U5X071EXP5ZJG,150,0.1,0,2.062458,1.342164,0,0,Mavic Mini,1SDCH7G0169R0K,1SFLH6Q0AB03DJ,1SRCH7F014TAHX,1U5X071EXP5ZJG,DJI Fly,,1.12.8,636B794F-F441-A54A-E062-018A8C9DBF34,1SDCH7G0169R0K,,,,,6.974683888,79.91478967,10,,
2/13/2024,31:39.9,7m 50.9s,470.9,6.974657195,79.91479672,0,0,0.3,68,1.1,0,0,0,0,0,0,0,0,3.4,2,178.6,178.6,,Manual Takeoff,Auto Landing,Takeoff (RC Assisted),10,4,TRUE,,Mavic Mini,TRUE,FALSE,,Smart,RC,TRUE,TRUE,FALSE,,,TRUE,,FALSE,FALSE,FALSE,FALSE,FALSE,FALSE,FALSE,FALSE,FALSE,FALSE,0,Follow Yaw,0,0,-179.8,180.2,FALSE,FALSE,FALSE,FALSE,FALSE,FALSE,,TRUE,Normal,,100,1024,1024,1207,1024,2,FALSE,FALSE,FALSE,FALSE,FALSE,0,FALSE,FALSE,FALSE,FALSE,63,7.683,1296,2054,7.667,FALSE,3.843,3.84,0.003,FALSE,FALSE,NA,116.8,116.7,116.7,0,22,0,0,5,2659.9,664.99,,Idle,0,20,FALSE,5,TRUE,8,Go Home,FALSE,FALSE,FALSE,FALSE,FALSE,FALSE,FALSE,FALSE,FALSE,FALSE,FALSE,FALSE,6.974714915,79.91481965,22.6,107.7,328,TRUE,1,1,FALSE,FALSE,FALSE,FALSE,,TRUE,FALSE,FALSE,Course Lock,246,303.7,16.4,Calm,23,,1.12.8,Mavic Mini,1SDCH7G0169R0K,1SFLH6Q0AB03DJ,1SRCH7F014TAHX,1U5X071EXP5ZJG,150,0.1,0,2.062458,1.342164,0,0,Mavic Mini,1SDCH7G0169R0K,1SFLH6Q0AB03DJ,1SRCH7F014TAHX,1U5X071EXP5ZJG,DJI Fly,,1.12.8,636B794F-F441-A54A-E062-018A8C9DBF34,1SDCH7G0169R0K,,,,,6.974683888,79.91478967,10,,
2/13/2024,31:40.0,7m 51.0s,471,6.974657153,79.91479667,0,0,0.3,68,1.1,0,0,0,0,0,0,0,0,3.3,1.7,178.6,178.6,,Manual Takeoff,Auto Landing,Takeoff (RC Assisted),10,4,TRUE,,Mavic Mini,TRUE,FALSE,,Smart,RC,TRUE,TRUE,FALSE,,,TRUE,,FALSE,FALSE,FALSE,FALSE,FALSE,FALSE,FALSE,FALSE,FALSE,FALSE,0,Follow Yaw,0,0,-179.8,180.2,FALSE,FALSE,FALSE,FALSE,FALSE,FALSE,,TRUE,Normal,,100,1024,1024,1207,1024,2,FALSE,FALSE,FALSE,FALSE,FALSE,0,FALSE,FALSE,FALSE,FALSE,63,7.683,1296,2054,7.667,FALSE,3.843,3.84,0.003,FALSE,FALSE,NA,116.8,116.7,116.7,0,22,0,0,5,2659.9,664.99,,Idle,0,20,FALSE,5,TRUE,8,Go Home,FALSE,FALSE,FALSE,FALSE,FALSE,FALSE,FALSE,FALSE,FALSE,FALSE,FALSE,FALSE,6.974714915,79.91481965,22.6,107.7,328,TRUE,1,1,FALSE,FALSE,FALSE,FALSE,,TRUE,FALSE,FALSE,Course Lock,246,303.7,16.4,Calm,23,,1.12.8,Mavic Mini,1SDCH7G0169R0K,1SFLH6Q0AB03DJ,1SRCH7F014TAHX,1U5X071EXP5ZJG,150,0.1,0,2.062458,1.342164,0,0,Mavic Mini,1SDCH7G0169R0K,1SFLH6Q0AB03DJ,1SRCH7F014TAHX,1U5X071EXP5ZJG,DJI Fly,,1.12.8,636B794F-F441-A54A-E062-018A8C9DBF34,1SDCH7G0169R0K,,,,,6.974683888,79.91478967,10,,
2/13/2024,31:40.2,7m 51.1s,471.1,6.9746571,79.91479661,0,0,0.3,68,1.1,0,0,0,0,0,0,0,0,3.2,1.4,178.6,178.6,,Manual Takeoff,Auto Landing,Takeoff (RC Assisted),10,4,TRUE,,Mavic Mini,TRUE,FALSE,,Smart,RC,TRUE,TRUE,FALSE,,,TRUE,,FALSE,FALSE,FALSE,FALSE,FALSE,FALSE,FALSE,FALSE,FALSE,FALSE,0,Follow Yaw,0,0,-179.8,180.2,FALSE,FALSE,FALSE,FALSE,FALSE,FALSE,,TRUE,Normal,,100,1024,1024,1213,1024,2,FALSE,FALSE,FALSE,FALSE,FALSE,0,FALSE,FALSE,FALSE,FALSE,63,7.683,1296,2054,7.667,FALSE,3.843,3.84,0.003,FALSE,FALSE,NA,116.8,116.7,116.7,0,22,0,0,5,2659.9,664.99,,Idle,0,20,FALSE,5,TRUE,8,Go Home,FALSE,FALSE,FALSE,FALSE,FALSE,FALSE,FALSE,FALSE,FALSE,FALSE,FALSE,FALSE,6.974714915,79.91481965,22.6,107.7,328,TRUE,1,1,FALSE,FALSE,FALSE,FALSE,,TRUE,FALSE,FALSE,Course Lock,246,303.7,16.4,Calm,23,,1.12.8,Mavic Mini,1SDCH7G0169R0K,1SFLH6Q0AB03DJ,1SRCH7F014TAHX,1U5X071EXP5ZJG,150,0.1,0,2.062458,1.342164,0,0,Mavic Mini,1SDCH7G0169R0K,1SFLH6Q0AB03DJ,1SRCH7F014TAHX,1U5X071EXP5ZJG,DJI Fly,,1.12.8,636B794F-F441-A54A-E062-018A8C9DBF34,1SDCH7G0169R0K,,,,,6.974683888,79.91478967,10,,
2/13/2024,31:40.3,7m 51.2s,471.2,6.97465701,79.91479669,0,0,0.3,68,1.2,0,0,0,0,0,0,0,0,3.1,0.8,178.5,178.5,,Manual Takeoff,Auto Landing,Takeoff (RC Assisted),10,4,TRUE,,Mavic Mini,TRUE,FALSE,,Smart,RC,TRUE,TRUE,FALSE,,,TRUE,,FALSE,FALSE,FALSE,FALSE,FALSE,FALSE,FALSE,FALSE,FALSE,FALSE,0,Follow Yaw,0,0,-179.8,180.2,FALSE,FALSE,FALSE,FALSE,FALSE,FALSE,,TRUE,Normal,,100,1024,1024,1213,1024,2,FALSE,FALSE,FALSE,FALSE,FALSE,0,FALSE,FALSE,FALSE,FALSE,63,7.683,1296,2054,7.667,FALSE,3.843,3.84,0.003,FALSE,FALSE,NA,116.8,116.7,116.7,0,22,0,0,5,2659.9,664.99,,Idle,0,20,FALSE,5,TRUE,8,Go Home,FALSE,FALSE,FALSE,FALSE,FALSE,FALSE,FALSE,FALSE,FALSE,FALSE,FALSE,FALSE,6.974714915,79.91481965,22.7,107.7,328,TRUE,1,1,FALSE,FALSE,FALSE,FALSE,,TRUE,FALSE,FALSE,Course Lock,246,303.7,16.4,Calm,23,,1.12.8,Mavic Mini,1SDCH7G0169R0K,1SFLH6Q0AB03DJ,1SRCH7F014TAHX,1U5X071EXP5ZJG,150,0.1,0,2.062458,1.342164,0,0,Mavic Mini,1SDCH7G0169R0K,1SFLH6Q0AB03DJ,1SRCH7F014TAHX,1U5X071EXP5ZJG,DJI Fly,,1.12.8,636B794F-F441-A54A-E062-018A8C9DBF34,1SDCH7G0169R0K,,,,,6.974683888,79.91478967,10,,
2/13/2024,31:40.4,7m 51.3s,471.3,6.974656993,79.9147967,0,0,0.3,68,1.2,0,0,0,0,0,0,0,0,3,0.3,178.5,178.5,,Manual Takeoff,Auto Landing,Takeoff (RC Assisted),10,4,TRUE,,Mavic Mini,TRUE,FALSE,,Smart,RC,TRUE,TRUE,FALSE,,,TRUE,,FALSE,FALSE,FALSE,FALSE,FALSE,FALSE,FALSE,FALSE,FALSE,FALSE,0,Follow Yaw,0,0,-179.8,180.2,FALSE,FALSE,FALSE,FALSE,FALSE,FALSE,,TRUE,Normal,,100,1024,1024,1212,1024,2,FALSE,FALSE,FALSE,FALSE,FALSE,0,FALSE,FALSE,FALSE,FALSE,63,7.683,1296,2054,7.673,FALSE,3.843,3.84,0.003,FALSE,FALSE,NA,116.8,116.7,116.7,0,22,0,0,5,2845.3,711.34,,Idle,0,20,FALSE,5,TRUE,8,Go Home,FALSE,FALSE,FALSE,FALSE,FALSE,FALSE,FALSE,FALSE,FALSE,FALSE,FALSE,FALSE,6.974714915,79.91481965,22.7,107.7,328,TRUE,1,1,FALSE,FALSE,FALSE,FALSE,,TRUE,FALSE,FALSE,Course Lock,246,303.7,16.4,Calm,23,,1.12.8,Mavic Mini,1SDCH7G0169R0K,1SFLH6Q0AB03DJ,1SRCH7F014TAHX,1U5X071EXP5ZJG,150,0.1,0,2.062458,1.342164,0,0,Mavic Mini,1SDCH7G0169R0K,1SFLH6Q0AB03DJ,1SRCH7F014TAHX,1U5X071EXP5ZJG,DJI Fly,,1.12.8,636B794F-F441-A54A-E062-018A8C9DBF34,1SDCH7G0169R0K,,,,,6.974683888,79.91478967,10,,
2/13/2024,31:40.5,7m 51.4s,471.4,6.97465699,79.91479668,0,0,0.3,68,1.2,0,0,0,0,0,0,0,0,2.9,0.2,177.9,177.9,,Manual Takeoff,Auto Landing,Takeoff (RC Assisted),10,4,TRUE,,Mavic Mini,TRUE,FALSE,,Smart,RC,TRUE,TRUE,FALSE,,,TRUE,,FALSE,FALSE,FALSE,FALSE,FALSE,FALSE,FALSE,FALSE,FALSE,FALSE,0,Follow Yaw,0,0,-179.9,180.1,FALSE,FALSE,FALSE,FALSE,FALSE,FALSE,,TRUE,Normal,,100,1024,1024,1203,1024,2,FALSE,FALSE,FALSE,FALSE,FALSE,0,FALSE,FALSE,FALSE,FALSE,63,7.683,1296,2054,7.673,FALSE,3.843,3.84,0.003,FALSE,FALSE,NA,116.8,116.7,116.7,0,22,0,0,5,2845.3,711.34,,Idle,0,20,FALSE,5,TRUE,8,Go Home,FALSE,FALSE,FALSE,FALSE,FALSE,FALSE,FALSE,FALSE,FALSE,FALSE,FALSE,FALSE,6.974714915,79.91481965,22.7,107.7,328,TRUE,1,1,FALSE,FALSE,FALSE,FALSE,,TRUE,FALSE,FALSE,Course Lock,246,303.7,16.4,Calm,23,,1.12.8,Mavic Mini,1SDCH7G0169R0K,1SFLH6Q0AB03DJ,1SRCH7F014TAHX,1U5X071EXP5ZJG,150,0.1,0,2.062458,1.342164,0,0,Mavic Mini,1SDCH7G0169R0K,1SFLH6Q0AB03DJ,1SRCH7F014TAHX,1U5X071EXP5ZJG,DJI Fly,,1.12.8,636B794F-F441-A54A-E062-018A8C9DBF34,1SDCH7G0169R0K,,,,,6.974683888,79.91478967,10,,
2/13/2024,31:40.6,7m 51.5s,471.5,6.974656994,79.91479666,0,0,0.3,68,1.2,0,0,0,0,0,0,0,0,3,-0.3,177.4,177.4,,Manual Takeoff,Auto Landing,Takeoff (RC Assisted),10,4,TRUE,,Mavic Mini,TRUE,FALSE,,Smart,RC,TRUE,TRUE,FALSE,,,TRUE,,FALSE,FALSE,FALSE,FALSE,FALSE,FALSE,FALSE,FALSE,FALSE,FALSE,0,Follow Yaw,0,0,179.8,179.8,FALSE,FALSE,FALSE,FALSE,FALSE,FALSE,,TRUE,Normal,,100,1024,1024,1183,1024,2,FALSE,FALSE,FALSE,FALSE,FALSE,0,FALSE,FALSE,FALSE,FALSE,63,7.683,1296,2054,7.673,FALSE,3.843,3.84,0.003,FALSE,FALSE,NA,116.8,116.7,116.7,0,22,0,0,5,2845.3,711.34,,Idle,0,20,FALSE,5,TRUE,8,Go Home,FALSE,FALSE,FALSE,FALSE,FALSE,FALSE,FALSE,FALSE,FALSE,FALSE,FALSE,FALSE,6.974714915,79.91481965,22.7,107.7,328,TRUE,1,1,FALSE,FALSE,FALSE,FALSE,,TRUE,FALSE,FALSE,Course Lock,246,303.7,16.4,Calm,23,,1.12.8,Mavic Mini,1SDCH7G0169R0K,1SFLH6Q0AB03DJ,1SRCH7F014TAHX,1U5X071EXP5ZJG,150,0.1,0,2.062458,1.342164,0,0,Mavic Mini,1SDCH7G0169R0K,1SFLH6Q0AB03DJ,1SRCH7F014TAHX,1U5X071EXP5ZJG,DJI Fly,,1.12.8,636B794F-F441-A54A-E062-018A8C9DBF34,1SDCH7G0169R0K,,,,,6.974683888,79.91478967,10,,
2/13/2024,31:40.7,7m 51.6s,471.6,6.974657055,79.9147967,0,0,0.3,68,1.2,0,0,0,0,0,0,0,0,2.6,-0.8,177.3,177.3,,Manual Takeoff,Auto Landing,Takeoff (RC Assisted),10,4,TRUE,,Mavic Mini,TRUE,FALSE,,Smart,RC,TRUE,TRUE,FALSE,,,TRUE,,FALSE,FALSE,FALSE,FALSE,FALSE,FALSE,FALSE,FALSE,FALSE,FALSE,0,Follow Yaw,0,0,179.6,179.6,FALSE,FALSE,FALSE,FALSE,FALSE,FALSE,,TRUE,Normal,,100,1024,1024,1178,1024,2,FALSE,FALSE,FALSE,FALSE,FALSE,0,FALSE,FALSE,FALSE,FALSE,63,7.622,1296,2054,7.673,FALSE,3.815,3.808,0.007,FALSE,FALSE,NA,116.8,116.7,116.7,0,22,0,0,5,2845.3,711.34,,Idle,0,20,FALSE,5,TRUE,8,Go Home,FALSE,FALSE,FALSE,FALSE,FALSE,FALSE,FALSE,FALSE,FALSE,FALSE,FALSE,FALSE,6.974714915,79.91481965,22.6,107.7,328,TRUE,1,1,FALSE,FALSE,FALSE,FALSE,,TRUE,FALSE,FALSE,Course Lock,246,303.7,16.4,Calm,23,,1.12.8,Mavic Mini,1SDCH7G0169R0K,1SFLH6Q0AB03DJ,1SRCH7F014TAHX,1U5X071EXP5ZJG,150,0.1,0,2.062458,1.342164,0,0,Mavic Mini,1SDCH7G0169R0K,1SFLH6Q0AB03DJ,1SRCH7F014TAHX,1U5X071EXP5ZJG,DJI Fly,,1.12.8,636B794F-F441-A54A-E062-018A8C9DBF34,1SDCH7G0169R0K,,,,,6.974683888,79.91478967,10,,
2/13/2024,31:40.7,7m 51.7s,471.7,6.974657065,79.91479672,0,0,0.3,68,1.3,0,0,0,0,0,0,0,0,0.8,-1.9,177.5,177.5,,Manual Takeoff,Auto Landing,Takeoff (RC Assisted),10,4,TRUE,,Mavic Mini,TRUE,FALSE,,Smart,RC,TRUE,TRUE,FALSE,,,TRUE,,FALSE,FALSE,FALSE,FALSE,FALSE,FALSE,FALSE,FALSE,FALSE,FALSE,0,Follow Yaw,0,0,179.5,179.5,FALSE,FALSE,FALSE,FALSE,FALSE,FALSE,,TRUE,Normal,,100,1024,1024,1142,1024,2,FALSE,FALSE,FALSE,FALSE,FALSE,0,FALSE,FALSE,FALSE,FALSE,63,7.622,1296,2054,7.673,FALSE,3.815,3.808,0.007,FALSE,FALSE,NA,116.8,116.7,116.7,0,22,0,0,5,2845.3,711.34,,Idle,0,20,FALSE,5,TRUE,8,Go Home,FALSE,FALSE,FALSE,FALSE,FALSE,FALSE,FALSE,FALSE,FALSE,FALSE,FALSE,FALSE,6.974714915,79.91481965,22.6,107.7,328,TRUE,1,1,FALSE,FALSE,FALSE,FALSE,,TRUE,FALSE,FALSE,Course Lock,246,303.7,16.4,Calm,23,,1.12.8,Mavic Mini,1SDCH7G0169R0K,1SFLH6Q0AB03DJ,1SRCH7F014TAHX,1U5X071EXP5ZJG,150,0.1,0,2.062458,1.342164,0,0,Mavic Mini,1SDCH7G0169R0K,1SFLH6Q0AB03DJ,1SRCH7F014TAHX,1U5X071EXP5ZJG,DJI Fly,,1.12.8,636B794F-F441-A54A-E062-018A8C9DBF34,1SDCH7G0169R0K,,,,,6.974683888,79.91478967,10,,
2/13/2024,31:40.9,7m 51.8s,471.8,6.974657059,79.91479673,0,0,0.3,68,1.3,0,0,0,0,0,0,0,0,-0.4,-2.9,177.8,177.8,,Manual Takeoff,Auto Landing,Takeoff (RC Assisted),10,4,TRUE,,Mavic Mini,TRUE,FALSE,,Smart,RC,TRUE,TRUE,FALSE,,,TRUE,,FALSE,FALSE,FALSE,FALSE,FALSE,FALSE,FALSE,FALSE,FALSE,FALSE,0,Follow Yaw,0,0,179.5,179.5,FALSE,FALSE,FALSE,FALSE,FALSE,FALSE,,TRUE,Normal,,100,1024,1024,1091,1024,2,FALSE,FALSE,FALSE,FALSE,FALSE,0,FALSE,FALSE,FALSE,FALSE,63,7.622,1296,2054,7.673,FALSE,3.815,3.808,0.007,FALSE,FALSE,NA,116.8,116.7,116.7,0,22,0,0,5,2845.3,711.34,,Idle,0,20,FALSE,5,TRUE,8,Go Home,FALSE,FALSE,FALSE,FALSE,FALSE,FALSE,FALSE,FALSE,FALSE,FALSE,FALSE,FALSE,6.974714915,79.91481965,22.6,107.7,328,TRUE,1,1,FALSE,FALSE,FALSE,FALSE,,TRUE,FALSE,FALSE,Course Lock,246,303.7,16.4,Calm,23,,1.12.8,Mavic Mini,1SDCH7G0169R0K,1SFLH6Q0AB03DJ,1SRCH7F014TAHX,1U5X071EXP5ZJG,150,0.1,0,2.062458,1.342164,0,0,Mavic Mini,1SDCH7G0169R0K,1SFLH6Q0AB03DJ,1SRCH7F014TAHX,1U5X071EXP5ZJG,DJI Fly,,1.12.8,636B794F-F441-A54A-E062-018A8C9DBF34,1SDCH7G0169R0K,,,,,6.974683888,79.91478967,10,,
2/13/2024,31:40.9,7m 51.9s,471.9,6.974657029,79.91479678,0,0,0.3,68,1.3,0.223694,0.223694,0,0,0.223694,0.223694,-0.223694,0,-0.3,-2.8,177.9,177.9,129.8,Manual Takeoff,Auto Landing,Takeoff (RC Assisted),10,4,TRUE,,Mavic Mini,TRUE,FALSE,,Smart,RC,FALSE,TRUE,FALSE,,,TRUE,,FALSE,FALSE,FALSE,FALSE,FALSE,FALSE,FALSE,FALSE,FALSE,FALSE,0,Follow Yaw,0,0,179.5,179.5,FALSE,FALSE,FALSE,FALSE,FALSE,FALSE,,TRUE,Normal,,100,1024,1024,1091,1024,2,FALSE,FALSE,FALSE,FALSE,FALSE,0,FALSE,FALSE,FALSE,FALSE,63,7.622,1296,2054,7.673,FALSE,3.815,3.808,0.007,FALSE,FALSE,NA,116.8,116.7,116.7,0,22,0,0,5,2845.3,711.34,,Idle,0,20,FALSE,5,TRUE,8,Go Home,FALSE,FALSE,FALSE,FALSE,FALSE,FALSE,FALSE,FALSE,FALSE,FALSE,FALSE,FALSE,6.974714915,79.91481965,22.6,107.7,328,TRUE,1,1,FALSE,FALSE,FALSE,FALSE,,TRUE,FALSE,FALSE,Course Lock,246,303.7,16.4,Calm,23,,1.12.8,Mavic Mini,1SDCH7G0169R0K,1SFLH6Q0AB03DJ,1SRCH7F014TAHX,1U5X071EXP5ZJG,150,0.1,0,2.062458,1.342164,0,0,Mavic Mini,1SDCH7G0169R0K,1SFLH6Q0AB03DJ,1SRCH7F014TAHX,1U5X071EXP5ZJG,DJI Fly,,1.12.8,636B794F-F441-A54A-E062-018A8C9DBF34,1SDCH7G0169R0K,,,,,6.974683888,79.91478967,10,,
2/13/2024,31:41.0,7m 52.0s,472,6.974656998,79.91479675,0,0,0.3,68,1.3,0.223694,0.223694,0,0,0.223694,0.223694,-0.447388,0,0.1,-0.9,177.6,177.6,214.5,Tripod,Auto Landing,,10,4,TRUE,,Mavic Mini,TRUE,FALSE,,Smart,RC,FALSE,TRUE,FALSE,,,TRUE,,FALSE,FALSE,FALSE,FALSE,FALSE,FALSE,FALSE,FALSE,FALSE,FALSE,0,Follow Yaw,0,0,179.5,179.5,FALSE,FALSE,FALSE,FALSE,FALSE,FALSE,,TRUE,Normal,,100,1024,1024,1024,1024,2,FALSE,FALSE,FALSE,FALSE,FALSE,0,FALSE,FALSE,FALSE,FALSE,63,7.622,1296,2054,7.673,FALSE,3.815,3.808,0.007,FALSE,FALSE,NA,116.8,116.7,116.7,0,22,0,0,5,2845.3,711.34,,Idle,0,20,FALSE,5,TRUE,8,Go Home,FALSE,FALSE,FALSE,FALSE,FALSE,FALSE,FALSE,FALSE,FALSE,FALSE,FALSE,FALSE,6.974714915,79.91481965,22.6,107.7,328,TRUE,1,1,FALSE,FALSE,FALSE,FALSE,,TRUE,FALSE,FALSE,Course Lock,246,303.7,16.4,Calm,23,,1.12.8,Mavic Mini,1SDCH7G0169R0K,1SFLH6Q0AB03DJ,1SRCH7F014TAHX,1U5X071EXP5ZJG,150,0.1,0,2.062458,1.342164,0,0,Mavic Mini,1SDCH7G0169R0K,1SFLH6Q0AB03DJ,1SRCH7F014TAHX,1U5X071EXP5ZJG,DJI Fly,,1.12.8,636B794F-F441-A54A-E062-018A8C9DBF34,1SDCH7G0169R0K,,,,,6.974683888,79.91478967,10,Flight mode changed to Tripod.,
2/13/2024,31:41.1,7m 52.1s,472.1,6.974656913,79.91479685,0,0,0.6,68,1.3,0.316351,0.316351,-0.223694,0,0.223694,0.223694,-0.671082,0,1.1,0.8,177.5,177.5,140.1,Tripod,Auto Landing,,10,4,TRUE,,Mavic Mini,TRUE,FALSE,,Smart,RC,FALSE,TRUE,FALSE,,,TRUE,,FALSE,FALSE,FALSE,FALSE,FALSE,FALSE,FALSE,FALSE,FALSE,FALSE,0,Follow Yaw,0,0,179.5,179.5,FALSE,FALSE,FALSE,FALSE,FALSE,FALSE,,TRUE,Normal,,100,1024,1024,1024,1024,2,FALSE,FALSE,FALSE,FALSE,FALSE,0,FALSE,FALSE,FALSE,FALSE,63,7.622,1296,2054,7.673,FALSE,3.815,3.808,0.007,FALSE,FALSE,NA,116.8,116.7,116.7,0,22,0,0,5,2845.3,711.34,,Idle,0,20,FALSE,5,TRUE,8,Go Home,FALSE,FALSE,FALSE,FALSE,FALSE,FALSE,FALSE,FALSE,FALSE,FALSE,FALSE,FALSE,6.974714915,79.91481965,22.7,107.7,328,TRUE,1,1,FALSE,FALSE,FALSE,FALSE,,TRUE,FALSE,FALSE,Course Lock,246,303.7,16.4,Calm,23,,1.12.8,Mavic Mini,1SDCH7G0169R0K,1SFLH6Q0AB03DJ,1SRCH7F014TAHX,1U5X071EXP5ZJG,150,0.1,0,2.062458,1.342164,0,0,Mavic Mini,1SDCH7G0169R0K,1SFLH6Q0AB03DJ,1SRCH7F014TAHX,1U5X071EXP5ZJG,DJI Fly,,1.12.8,636B794F-F441-A54A-E062-018A8C9DBF34,1SDCH7G0169R0K,,,,,6.974683888,79.91478967,10,,
2/13/2024,31:41.2,7m 52.2s,472.2,6.974656817,79.91479698,0,0,0.6,68,1.4,0.316351,0.316351,-0.223694,0,0.223694,0.223694,-0.894776,0,1.6,1.4,177.5,177.5,132.7,Tripod,Auto Landing,,10,4,TRUE,,Mavic Mini,TRUE,FALSE,,Smart,RC,FALSE,TRUE,FALSE,,,TRUE,,FALSE,FALSE,FALSE,FALSE,FALSE,FALSE,FALSE,FALSE,FALSE,FALSE,0,Follow Yaw,0,0,179.5,179.5,FALSE,FALSE,FALSE,FALSE,FALSE,FALSE,,TRUE,Normal,,100,1024,1024,1024,1024,2,FALSE,FALSE,FALSE,FALSE,FALSE,0,FALSE,FALSE,FALSE,FALSE,63,7.622,1296,2054,7.673,FALSE,3.815,3.808,0.007,FALSE,FALSE,NA,116.8,116.7,116.7,0,22,0,0,5,2845.3,711.34,,Idle,0,20,FALSE,5,TRUE,8,Go Home,FALSE,FALSE,FALSE,FALSE,FALSE,FALSE,FALSE,FALSE,FALSE,FALSE,FALSE,FALSE,6.974714915,79.91481965,22.7,107.7,328,TRUE,1,1,FALSE,FALSE,FALSE,FALSE,,TRUE,FALSE,FALSE,Course Lock,246,303.7,16.4,Calm,23,,1.12.8,Mavic Mini,1SDCH7G0169R0K,1SFLH6Q0AB03DJ,1SRCH7F014TAHX,1U5X071EXP5ZJG,150,0.1,0,2.062458,1.342164,0,0,Mavic Mini,1SDCH7G0169R0K,1SFLH6Q0AB03DJ,1SRCH7F014TAHX,1U5X071EXP5ZJG,DJI Fly,,1.12.8,636B794F-F441-A54A-E062-018A8C9DBF34,1SDCH7G0169R0K,,,,,6.974683888,79.91478967,10,,
2/13/2024,31:41.3,7m 52.3s,472.3,6.974656718,79.9147971,0.3,0.3,0.6,68,1.5,0.316351,0.316351,-0.223694,0,0.223694,0.223694,-1.11847,0,1.9,1.1,177.6,177.6,137.8,Tripod,Auto Landing,,9,4,TRUE,,Mavic Mini,TRUE,FALSE,,Smart,RC,FALSE,TRUE,FALSE,,,TRUE,,FALSE,FALSE,FALSE,FALSE,FALSE,FALSE,FALSE,FALSE,FALSE,FALSE,0,Follow Yaw,0,0,179.5,179.5,FALSE,FALSE,FALSE,FALSE,FALSE,FALSE,,TRUE,Normal,,100,1024,1024,1024,1024,2,FALSE,FALSE,FALSE,FALSE,FALSE,0,FALSE,FALSE,FALSE,FALSE,63,7.622,1296,2054,7.604,FALSE,3.815,3.808,0.007,FALSE,FALSE,NA,116.8,116.7,116.7,0,0,1,0,5,3155.5,788.87,,Idle,0,20,FALSE,5,TRUE,8,Go Home,FALSE,FALSE,FALSE,FALSE,FALSE,FALSE,FALSE,FALSE,FALSE,FALSE,FALSE,FALSE,6.974657023,79.91479679,0.1,107.7,328,TRUE,1,1,FALSE,FALSE,FALSE,FALSE,,TRUE,FALSE,FALSE,Course Lock,246,303.7,16.4,Calm,23,,1.12.8,Mavic Mini,1SDCH7G0169R0K,1SFLH6Q0AB03DJ,1SRCH7F014TAHX,1U5X071EXP5ZJG,150,0.1,0,2.062458,1.342164,0,0,Mavic Mini,1SDCH7G0169R0K,1SFLH6Q0AB03DJ,1SRCH7F014TAHX,1U5X071EXP5ZJG,DJI Fly,,1.12.8,636B794F-F441-A54A-E062-018A8C9DBF34,1SDCH7G0169R0K,,,,,6.974683888,79.91478967,10,Home Point Updated.,
2/13/2024,31:41.4,7m 52.4s,472.4,6.974656564,79.91479729,0.3,0.3,0.9,68,1.5,0,0.316351,0,0,0,0.223694,-1.342164,0,1.9,0.7,177.6,177.6,,Tripod,Auto Landing,,9,4,TRUE,,Mavic Mini,TRUE,FALSE,,Smart,RC,FALSE,TRUE,FALSE,,,TRUE,,FALSE,FALSE,FALSE,FALSE,FALSE,FALSE,FALSE,FALSE,FALSE,FALSE,0,Follow Yaw,0,0,179.5,179.5,FALSE,FALSE,FALSE,FALSE,FALSE,FALSE,,TRUE,Normal,,100,1024,1024,1024,1024,2,FALSE,FALSE,FALSE,FALSE,FALSE,0,FALSE,FALSE,FALSE,FALSE,63,7.622,1296,2054,7.604,FALSE,3.815,3.808,0.007,FALSE,FALSE,NA,116.8,116.7,116.7,0,0,1,0,5,3155.5,788.87,,Idle,0,20,FALSE,5,TRUE,8,Go Home,FALSE,FALSE,FALSE,FALSE,FALSE,FALSE,FALSE,FALSE,FALSE,FALSE,FALSE,FALSE,6.974657023,79.91479679,0.2,107.7,328,TRUE,1,1,FALSE,FALSE,FALSE,FALSE,,TRUE,FALSE,FALSE,Course Lock,246,303.7,16.4,Calm,23,,1.12.8,Mavic Mini,1SDCH7G0169R0K,1SFLH6Q0AB03DJ,1SRCH7F014TAHX,1U5X071EXP5ZJG,150,0.1,0,2.062458,1.342164,0,0,Mavic Mini,1SDCH7G0169R0K,1SFLH6Q0AB03DJ,1SRCH7F014TAHX,1U5X071EXP5ZJG,DJI Fly,,1.12.8,636B794F-F441-A54A-E062-018A8C9DBF34,1SDCH7G0169R0K,,,,,6.974683888,79.91478967,10,,
2/13/2024,31:41.5,7m 52.5s,472.5,6.974656459,79.91479731,0.6,0.6,0.9,69,1.6,0,0.316351,0,0,0,0.223694,-1.342164,0,2.3,0.5,177.6,177.6,,Tripod,Auto Landing,,10,4,TRUE,,Mavic Mini,TRUE,FALSE,,Smart,RC,FALSE,TRUE,FALSE,,,TRUE,,FALSE,FALSE,FALSE,FALSE,FALSE,FALSE,FALSE,FALSE,FALSE,FALSE,0,Follow Yaw,0,0,179.5,179.5,FALSE,FALSE,FALSE,FALSE,FALSE,FALSE,,TRUE,Normal,,100,1024,1024,1024,1024,2,FALSE,FALSE,FALSE,FALSE,FALSE,0,FALSE,FALSE,FALSE,FALSE,63,7.622,1296,2054,7.604,FALSE,3.815,3.808,0.007,FALSE,FALSE,NA,116.8,116.7,116.7,0,0,1,0,5,3155.5,788.87,,Idle,0,20,FALSE,5,TRUE,8,Go Home,FALSE,FALSE,FALSE,FALSE,FALSE,FALSE,FALSE,FALSE,FALSE,FALSE,FALSE,FALSE,6.974657023,79.91479679,0.2,107.7,328,TRUE,1,1,FALSE,FALSE,FALSE,FALSE,,TRUE,FALSE,FALSE,Course Lock,246,303.7,16.4,Calm,23,,1.12.8,Mavic Mini,1SDCH7G0169R0K,1SFLH6Q0AB03DJ,1SRCH7F014TAHX,1U5X071EXP5ZJG,150,0.1,0,2.062458,1.342164,0,0,Mavic Mini,1SDCH7G0169R0K,1SFLH6Q0AB03DJ,1SRCH7F014TAHX,1U5X071EXP5ZJG,DJI Fly,,1.12.8,636B794F-F441-A54A-E062-018A8C9DBF34,1SDCH7G0169R0K,,,,,6.974683888,79.91478967,10,,
2/13/2024,31:41.6,7m 52.6s,472.6,6.974656363,79.91479729,0.6,0.6,1.3,69,1.6,0,0.316351,0,0,0,0.223694,-1.11847,0,2.2,-0.1,177.6,177.6,,Tripod,Auto Landing,,10,4,TRUE,,Mavic Mini,TRUE,FALSE,,Smart,RC,FALSE,TRUE,FALSE,,,TRUE,,FALSE,FALSE,FALSE,FALSE,FALSE,FALSE,FALSE,FALSE,FALSE,FALSE,0,Follow Yaw,0,0,179.5,179.5,FALSE,FALSE,FALSE,FALSE,FALSE,FALSE,,TRUE,Normal,,100,1024,1024,1024,1024,2,FALSE,FALSE,FALSE,FALSE,FALSE,0,FALSE,FALSE,FALSE,FALSE,63,7.622,1296,2054,7.604,FALSE,3.815,3.808,0.007,FALSE,FALSE,NA,116.8,116.7,116.7,0,0,1,0,5,3155.5,788.87,,Idle,0,20,FALSE,5,TRUE,8,Go Home,FALSE,FALSE,FALSE,FALSE,FALSE,FALSE,FALSE,FALSE,FALSE,FALSE,FALSE,FALSE,6.974657023,79.91479679,0.2,107.7,328,TRUE,1,1,FALSE,FALSE,FALSE,FALSE,,TRUE,FALSE,FALSE,Course Lock,246,303.7,16.4,Calm,23,,1.12.8,Mavic Mini,1SDCH7G0169R0K,1SFLH6Q0AB03DJ,1SRCH7F014TAHX,1U5X071EXP5ZJG,150,0.1,0,2.062458,1.342164,0,0,Mavic Mini,1SDCH7G0169R0K,1SFLH6Q0AB03DJ,1SRCH7F014TAHX,1U5X071EXP5ZJG,DJI Fly,,1.12.8,636B794F-F441-A54A-E062-018A8C9DBF34,1SDCH7G0169R0K,,,,,6.974683888,79.91478967,10,,
2/13/2024,31:41.7,7m 52.7s,472.7,6.974656278,79.91479724,0.9,0.9,1.3,69,1.7,0,0.316351,0,0,0,0.223694,-0.894776,0,2,-0.2,177.6,177.6,,Tripod,Auto Landing,,8,4,TRUE,,Mavic Mini,TRUE,FALSE,,Smart,RC,FALSE,TRUE,FALSE,,,TRUE,,FALSE,FALSE,FALSE,FALSE,FALSE,FALSE,FALSE,FALSE,FALSE,FALSE,0,Follow Yaw,0,0,179.5,179.5,FALSE,FALSE,FALSE,FALSE,FALSE,FALSE,,TRUE,Normal,,100,1024,1024,1024,1024,2,FALSE,FALSE,FALSE,FALSE,FALSE,0,FALSE,FALSE,FALSE,FALSE,63,7.513,1294,2054,7.604,FALSE,3.757,3.756,0.007,FALSE,FALSE,NA,117,116.7,116.9,0,0,1,0,5,3155.5,788.87,,Idle,0,20,FALSE,5,TRUE,8,Go Home,FALSE,FALSE,FALSE,FALSE,FALSE,FALSE,FALSE,FALSE,FALSE,FALSE,FALSE,FALSE,6.974657023,79.91479679,0.3,107.7,328,TRUE,1,1,FALSE,FALSE,FALSE,FALSE,,TRUE,FALSE,FALSE,Course Lock,246,303.7,16.4,Calm,23,,1.12.8,Mavic Mini,1SDCH7G0169R0K,1SFLH6Q0AB03DJ,1SRCH7F014TAHX,1U5X071EXP5ZJG,150,0.1,0,2.062458,1.342164,0,0,Mavic Mini,1SDCH7G0169R0K,1SFLH6Q0AB03DJ,1SRCH7F014TAHX,1U5X071EXP5ZJG,DJI Fly,,1.12.8,636B794F-F441-A54A-E062-018A8C9DBF34,1SDCH7G0169R0K,,,,,6.974683888,79.91478967,10,,
