CUSTOM.date [local],CUSTOM.updateTime [local],OSD.flyTime,OSD.flyTime [s],OSD.latitude,OSD.longitude,OSD.height [ft],OSD.heightMax [ft],OSD.vpsHeight [ft],OSD.altitude [ft],OSD.mileage [ft],OSD.hSpeed [MPH],OSD.hSpeedMax [MPH],OSD.xSpeed [MPH],OSD.xSpeedMax [MPH],OSD.ySpeed [MPH],OSD.ySpeedMax [MPH],OSD.zSpeed [MPH],OSD.zSpeedMax [MPH],OSD.pitch,OSD.roll,OSD.yaw,OSD.yaw [360],OSD.directionOfTravel,OSD.flycState,OSD.flycCommand,OSD.flightAction,OSD.gpsNum,OSD.gpsLevel,OSD.isGPSUsed,OSD.nonGPSCause,OSD.droneType,OSD.isSwaveWork,OSD.waveError,OSD.goHomeStatus,OSD.batteryType,OSD.ctrlDevice,OSD.isOnGround,OSD.isMotorOn,OSD.isMotorBlocked,OSD.motorStartFailedCause,OSD.motorFailReason,OSD.isImuPreheated,OSD.imuInitFailReason,OSD.isAcceletorOverRange,OSD.isBarometerDeadInAir,OSD.isCompassError,OSD.isGoHomeHeightModified,OSD.canIOCWork,OSD.isNotEnoughForce,OSD.isOutOfLimit,OSD.isPropellerCatapult,OSD.isVibrating,OSD.isVisionUsed,OSD.voltageWarning,GIMBAL.mode,GIMBAL.pitch,GIMBAL.roll,GIMBAL.yaw,GIMBAL.yaw [360],GIMBAL.isPitchAtLimit,GIMBAL.isRollAtLimit,GIMBAL.isYawAtLimit,GIMBAL.isStuck,CAMERA.isPhoto,CAMERA.isVideo,CAMERA.filename,CAMERA.sdCardIsInserted,CAMERA.sdCardState,RC.downlinkSignal,RC.uplinkSignal,RC.aileron,RC.elevator,RC.throttle,RC.rudder,RC.mode,RC.goHomeDepressed,RC.recordDepressed,RC.shutterDepressed,RC.playbackDepressed,RC.wheelDepressed,RC.wheelOffset,RC.custom1Depressed,RC.custom2Depressed,RC.custom3Depressed,RC.custom4Depressed,BATTERY.chargeLevel,BATTERY.currentPV [V],BATTERY.currentCapacity [mAh],BATTERY.fullCapacity [mAh],BATTERY.voltage [V],BATTERY.isCellVoltageEstimated,BATTERY.cellVoltage1 [V],BATTERY.cellVoltage2 [V],BATTERY.maxCellVoltageDeviation,BATTERY.isCellVoltageDeviationHigh,BATTERY.isVoltageLow,BATTERY.current [A],BATTERY.temperature [F],BATTERY.minTemperature [F],BATTERY.maxTemperature [F],BATTERY.usefulTime [s],BATTERY.goHomeTime [s],BATTERY.landTime [s],BATTERY.goHomeBattery,BATTERY.landBattery,BATTERY.safeFlyRadius,BATTERY.volumeConsume,BATTERY.status,BATTERY.goHomeStatus,BATTERY.goHomeCountdown,BATTERY.lowWarning,BATTERY.lowWarningGoHome,BATTERY.seriousLowWarning,BATTERY.seriousLowWarningLanding,BATTERY.timesCharged,MC.failSafeAction,MC.isObstacleAvoidanceEnabled,MC.isCollisionAvoidanceEnabled,MC.isRthObstacleAvoidanceEnabled,MC.isBraking,MC.isAvoidingObstacle,MC.isAvoidingActiveObstacle,MC.isAscentLimitedByObstacle,MC.isLandingConfirmationNeeded,MC.atLowAltitudeLimit,MC.atDistanceLimit,MC.atAirportAltitudeLimit,MC.atAirportBoundary,HOME.latitude,HOME.longitude,HOME.distance [ft],HOME.height [ft],HOME.heightLimit [ft],HOME.isHomeRecord,HOME.goHomeMode,HOME.aircraftHeadDirection,HOME.isDynamicHomePointEnabled,HOME.isReachedLimitDistance,HOME.isReachedLimitHeight,HOME.isCompassCalibrating,HOME.compassCalibrationState,HOME.isMultipleFlightModeEnabled,HOME.isBeginnerMode,HOME.isIOCEnabled,HOME.iocMode,HOME.goHomeHeight [ft],HOME.courseLockAngle,HOME.forceLandingHeight [ft],HOME.wind,HOME.dataRecorderFileIndex,RECOVER.appType,RECOVER.appVersion,RECOVER.aircraftName,RECOVER.aircraftSerial,RECOVER.cameraSerial,RECOVER.rcSerial,RECOVER.batterySerial,DETAILS.totalTime [s],DETAILS.totalDistance [ft],DETAILS.maxHeight [ft],DETAILS.maxHorizontalSpeed [MPH],DETAILS.maxVerticalSpeed [MPH],DETAILS.photoNum,DETAILS.videoTime [s],DETAILS.aircraftName,DETAILS.aircraftSerial,DETAILS.cameraSerial,DETAILS.rcSerial,DETAILS.batterySerial,DETAILS.appName,DETAILS.appType,DETAILS.appVersion,DETAILS.guid,SERIAL.flightController,SERIAL.camera,SERIAL.gimbal,SERIAL.rc,SERIAL.battery,APPGPS.latitude,APPGPS.longitude,APPGPS.accuracy,APP.tip,APP.warning
2/22/2024,31:14.5,14m 50.9s,890.9,6.974220225,79.91416604,0,0,,50,0,0,0,0,0,0,0,0,0,1.1,2.7,36.1,36.1,,Starting Motors,Drop Calibration,Takeoff (RC Assisted),14,5,TRUE,,Mavic Mini,FALSE,FALSE,,Smart,RC,TRUE,TRUE,FALSE,,,TRUE,,FALSE,FALSE,FALSE,FALSE,FALSE,FALSE,FALSE,FALSE,FALSE,FALSE,0,Follow Yaw,0,0,52.8,52.8,FALSE,FALSE,FALSE,FALSE,FALSE,FALSE,,TRUE,Normal,,100,1024,1024,1024,1024,2,FALSE,FALSE,FALSE,FALSE,FALSE,0,FALSE,FALSE,FALSE,FALSE,39,7.283,791,2056,7.283,TRUE,3.642,3.642,,FALSE,FALSE,NA,119.8,119.8,119.8,,,,,,,,,Idle,,,TRUE,,FALSE,6,Go Home,FALSE,FALSE,FALSE,FALSE,FALSE,FALSE,FALSE,FALSE,FALSE,FALSE,FALSE,FALSE,,,,,,FALSE,,,FALSE,FALSE,FALSE,FALSE,,FALSE,FALSE,FALSE,,,,,Calm,,,1.12.8,Mavic Mini,1SDCH7G0169R0K,1SFLH6Q0AB03DJ,1SRCH7F014TAHX,1U5X071EXP6C9Y,77.2,0.2,3.2,5.447396,3.131716,0,0,Mavic Mini,1SDCH7G0169R0K,1SFLH6Q0AB03DJ,1SRCH7F014TAHX,1U5X071EXP6C9Y,DJI Fly,,1.12.8,3D33349A-5DC5-69D2-8B2A-2762D611798E,1SDCH7G0169R0K,,,,,,,,Flight mode changed to Starting Motors.,
2/22/2024,31:14.5,14m 51.0s,891,6.974220235,79.91416603,0,0,,50,0,0,0,0,0,0,0,0,0,1.2,2.7,36.1,36.1,,Starting Motors,Drop Calibration,Takeoff (RC Assisted),14,5,TRUE,,Mavic Mini,FALSE,FALSE,,Smart,RC,TRUE,TRUE,FALSE,,,TRUE,,FALSE,FALSE,FALSE,FALSE,FALSE,FALSE,FALSE,FALSE,FALSE,FALSE,0,Follow Yaw,0,0,52.8,52.8,FALSE,FALSE,FALSE,FALSE,FALSE,FALSE,,TRUE,Normal,,100,1024,1024,1024,1024,2,FALSE,FALSE,FALSE,FALSE,FALSE,0,FALSE,FALSE,FALSE,FALSE,39,7.283,791,2056,7.283,TRUE,3.642,3.642,,FALSE,FALSE,NA,119.8,119.8,119.8,,,,,,,,,Idle,,,TRUE,,FALSE,6,Go Home,FALSE,FALSE,FALSE,FALSE,FALSE,FALSE,FALSE,FALSE,FALSE,FALSE,FALSE,FALSE,,,,,,FALSE,,,FALSE,FALSE,FALSE,FALSE,,FALSE,FALSE,FALSE,,,,,Calm,,,1.12.8,Mavic Mini,1SDCH7G0169R0K,1SFLH6Q0AB03DJ,1SRCH7F014TAHX,1U5X071EXP6C9Y,77.2,0.2,3.2,5.447396,3.131716,0,0,Mavic Mini,1SDCH7G0169R0K,1SFLH6Q0AB03DJ,1SRCH7F014TAHX,1U5X071EXP6C9Y,DJI Fly,,1.12.8,3D33349A-5DC5-69D2-8B2A-2762D611798E,1SDCH7G0169R0K,,,,,,,,,
2/22/2024,31:14.6,14m 51.1s,891.1,6.974220237,79.91416602,0,0,0.3,50,0,0,0,0,0,0,0,0,0,1.2,2.7,36.1,36.1,,Starting Motors,Drop Calibration,Takeoff (RC Assisted),14,5,TRUE,,Mavic Mini,TRUE,FALSE,,Smart,RC,TRUE,TRUE,FALSE,,,TRUE,,FALSE,FALSE,FALSE,FALSE,FALSE,FALSE,FALSE,FALSE,FALSE,FALSE,0,Follow Yaw,0,0,52.8,52.8,FALSE,FALSE,FALSE,FALSE,FALSE,FALSE,,TRUE,Normal,,100,1024,1024,1024,1024,2,FALSE,FALSE,FALSE,FALSE,FALSE,0,FALSE,FALSE,FALSE,FALSE,39,7.283,791,2056,7.276,TRUE,3.638,3.638,,FALSE,FALSE,NA,119.8,119.8,119.8,0,0,0,0,5,2294.8,573.71,,Idle,0,20,FALSE,5,TRUE,6,Go Home,FALSE,FALSE,FALSE,FALSE,FALSE,FALSE,FALSE,FALSE,FALSE,FALSE,FALSE,FALSE,6.974220681,79.91416539,0.2,94.6,328,TRUE,1,1,FALSE,FALSE,FALSE,FALSE,,TRUE,FALSE,FALSE,Course Lock,49.2,,16.4,Calm,33,,1.12.8,Mavic Mini,1SDCH7G0169R0K,1SFLH6Q0AB03DJ,1SRCH7F014TAHX,1U5X071EXP6C9Y,77.2,0.2,3.2,5.447396,3.131716,0,0,Mavic Mini,1SDCH7G0169R0K,1SFLH6Q0AB03DJ,1SRCH7F014TAHX,1U5X071EXP6C9Y,DJI Fly,,1.12.8,3D33349A-5DC5-69D2-8B2A-2762D611798E,1SDCH7G0169R0K,,,,,,,,Data Recorder File Index is 33.; Set Return to Home (RTH) altitude to 15 m (49 ft).; Set maximum flight altitude to 100 m (328 ft).,
2/22/2024,31:14.8,14m 51.2s,891.2,6.974220194,79.91416597,0,0,0.3,50,0,0,0,0,0,0,0,0,0,1.1,2.7,36.1,36.1,,Starting Motors,Drop Calibration,Takeoff (RC Assisted),14,5,TRUE,,Mavic Mini,TRUE,FALSE,,Smart,RC,TRUE,TRUE,FALSE,,,TRUE,,FALSE,FALSE,FALSE,FALSE,FALSE,FALSE,FALSE,FALSE,FALSE,FALSE,0,Follow Yaw,0,0,52.8,52.8,FALSE,FALSE,FALSE,FALSE,FALSE,FALSE,,TRUE,Normal,,100,1024,1024,1024,1024,2,FALSE,FALSE,FALSE,FALSE,FALSE,0,FALSE,FALSE,FALSE,FALSE,39,7.283,791,2056,7.276,TRUE,3.638,3.638,,FALSE,FALSE,NA,119.8,119.8,119.8,0,0,0,0,5,2294.8,573.71,,Idle,0,20,FALSE,5,TRUE,6,Go Home,FALSE,FALSE,FALSE,FALSE,FALSE,FALSE,FALSE,FALSE,FALSE,FALSE,FALSE,FALSE,6.974220681,79.91416539,0.2,94.6,328,TRUE,1,1,FALSE,FALSE,FALSE,FALSE,,TRUE,FALSE,FALSE,Course Lock,49.2,,16.4,Calm,33,,1.12.8,Mavic Mini,1SDCH7G0169R0K,1SFLH6Q0AB03DJ,1SRCH7F014TAHX,1U5X071EXP6C9Y,77.2,0.2,3.2,5.447396,3.131716,0,0,Mavic Mini,1SDCH7G0169R0K,1SFLH6Q0AB03DJ,1SRCH7F014TAHX,1U5X071EXP6C9Y,DJI Fly,,1.12.8,3D33349A-5DC5-69D2-8B2A-2762D611798E,1SDCH7G0169R0K,,,,,,,,,
2/22/2024,31:14.9,14m 51.3s,891.3,6.974220228,79.91416595,0,0,0.3,50,0,0,0,0,0,0,0,0,0,1.1,2.7,36.1,36.1,,Starting Motors,Drop Calibration,Takeoff (RC Assisted),14,5,TRUE,,Mavic Mini,TRUE,FALSE,,Smart,RC,TRUE,TRUE,FALSE,,,TRUE,,FALSE,FALSE,FALSE,FALSE,FALSE,FALSE,FALSE,FALSE,FALSE,FALSE,0,Follow Yaw,0,0,52.8,52.8,FALSE,FALSE,FALSE,FALSE,FALSE,FALSE,,TRUE,Normal,,100,1024,1024,1024,1024,2,FALSE,FALSE,FALSE,FALSE,FALSE,0,FALSE,FALSE,FALSE,FALSE,39,7.276,790,2056,7.276,FALSE,3.642,3.634,0.008,FALSE,FALSE,NA,119.8,119.8,119.8,0,0,0,0,5,2294.8,573.71,,Idle,0,20,FALSE,5,TRUE,6,Go Home,FALSE,FALSE,FALSE,FALSE,FALSE,FALSE,FALSE,FALSE,FALSE,FALSE,FALSE,FALSE,6.974220681,79.91416539,0.2,94.6,328,TRUE,1,1,FALSE,FALSE,FALSE,FALSE,,TRUE,FALSE,FALSE,Course Lock,49.2,,16.4,Calm,33,,1.12.8,Mavic Mini,1SDCH7G0169R0K,1SFLH6Q0AB03DJ,1SRCH7F014TAHX,1U5X071EXP6C9Y,77.2,0.2,3.2,5.447396,3.131716,0,0,Mavic Mini,1SDCH7G0169R0K,1SFLH6Q0AB03DJ,1SRCH7F014TAHX,1U5X071EXP6C9Y,DJI Fly,,1.12.8,3D33349A-5DC5-69D2-8B2A-2762D611798E,1SDCH7G0169R0K,,,,,,,,,
2/22/2024,31:15.0,14m 51.4s,891.4,6.974220233,79.91416598,0,0,0.3,50,0,0,0,0,0,0,0,0,0,1.2,2.7,36.1,36.1,,Starting Motors,Drop Calibration,Takeoff (RC Assisted),14,5,TRUE,,Mavic Mini,TRUE,FALSE,,Smart,RC,TRUE,TRUE,FALSE,,,TRUE,,FALSE,FALSE,FALSE,FALSE,FALSE,FALSE,FALSE,FALSE,FALSE,FALSE,0,Follow Yaw,0,0,52.8,52.8,FALSE,FALSE,FALSE,FALSE,FALSE,FALSE,,TRUE,Normal,,100,1024,1024,1024,1024,2,FALSE,FALSE,FALSE,FALSE,FALSE,0,FALSE,FALSE,FALSE,FALSE,39,7.276,790,2056,7.276,FALSE,3.642,3.634,0.008,FALSE,FALSE,NA,119.8,119.8,119.8,0,0,0,0,5,2294.8,573.71,,Idle,0,20,FALSE,5,TRUE,6,Go Home,FALSE,FALSE,FALSE,FALSE,FALSE,FALSE,FALSE,FALSE,FALSE,FALSE,FALSE,FALSE,6.974220681,79.91416539,0.2,94.6,328,TRUE,1,1,FALSE,FALSE,FALSE,FALSE,,TRUE,FALSE,FALSE,Course Lock,49.2,,16.4,Calm,33,,1.12.8,Mavic Mini,1SDCH7G0169R0K,1SFLH6Q0AB03DJ,1SRCH7F014TAHX,1U5X071EXP6C9Y,77.2,0.2,3.2,5.447396,3.131716,0,0,Mavic Mini,1SDCH7G0169R0K,1SFLH6Q0AB03DJ,1SRCH7F014TAHX,1U5X071EXP6C9Y,DJI Fly,,1.12.8,3D33349A-5DC5-69D2-8B2A-2762D611798E,1SDCH7G0169R0K,,,,,,,,,
2/22/2024,31:15.2,14m 51.5s,891.5,6.974220233,79.91416602,0,0,0.3,50,0,0,0,0,0,0,0,0,0,1.2,2.6,36,36,,Starting Motors,Drop Calibration,Takeoff (RC Assisted),14,5,TRUE,,Mavic Mini,TRUE,FALSE,,Smart,RC,TRUE,TRUE,FALSE,,,TRUE,,FALSE,FALSE,FALSE,FALSE,FALSE,FALSE,FALSE,FALSE,FALSE,FALSE,0,Follow Yaw,0,0,52.8,52.8,FALSE,FALSE,FALSE,FALSE,FALSE,FALSE,,TRUE,Normal,,100,1024,1024,1024,1024,2,FALSE,FALSE,FALSE,FALSE,FALSE,0,FALSE,FALSE,FALSE,FALSE,39,7.276,790,2056,7.276,FALSE,3.642,3.634,0.008,FALSE,FALSE,NA,119.8,119.8,119.8,0,0,0,0,5,2294.8,573.71,,Idle,0,20,FALSE,5,TRUE,6,Go Home,FALSE,FALSE,FALSE,FALSE,FALSE,FALSE,FALSE,FALSE,FALSE,FALSE,FALSE,FALSE,6.974220681,79.91416539,0.2,94.6,328,TRUE,1,1,FALSE,FALSE,FALSE,FALSE,,TRUE,FALSE,FALSE,Course Lock,49.2,,16.4,Calm,33,,1.12.8,Mavic Mini,1SDCH7G0169R0K,1SFLH6Q0AB03DJ,1SRCH7F014TAHX,1U5X071EXP6C9Y,77.2,0.2,3.2,5.447396,3.131716,0,0,Mavic Mini,1SDCH7G0169R0K,1SFLH6Q0AB03DJ,1SRCH7F014TAHX,1U5X071EXP6C9Y,DJI Fly,,1.12.8,3D33349A-5DC5-69D2-8B2A-2762D611798E,1SDCH7G0169R0K,,,,,,,,,
2/22/2024,31:15.2,14m 51.6s,891.6,6.974220265,79.91416599,0,0,0.3,50,0,0,0,0,0,0,0,0,0,1.1,2.7,36,36,,Starting Motors,Drop Calibration,Takeoff (RC Assisted),14,5,TRUE,,Mavic Mini,TRUE,FALSE,,Smart,RC,TRUE,TRUE,FALSE,,,TRUE,,FALSE,FALSE,FALSE,FALSE,FALSE,FALSE,FALSE,FALSE,FALSE,FALSE,0,Follow Yaw,0,0,52.8,52.8,FALSE,FALSE,FALSE,FALSE,FALSE,FALSE,,TRUE,Normal,,100,1024,1024,1024,1024,2,FALSE,FALSE,FALSE,FALSE,FALSE,0,FALSE,FALSE,FALSE,FALSE,39,7.276,790,2056,7.276,FALSE,3.642,3.634,0.008,FALSE,FALSE,NA,119.8,119.8,119.8,0,0,0,0,5,2294.8,573.71,,Idle,0,20,FALSE,5,TRUE,6,Go Home,FALSE,FALSE,FALSE,FALSE,FALSE,FALSE,FALSE,FALSE,FALSE,FALSE,FALSE,FALSE,6.974220681,79.91416539,0.2,94.6,328,TRUE,1,1,FALSE,FALSE,FALSE,FALSE,,TRUE,FALSE,FALSE,Course Lock,49.2,,16.4,Calm,33,,1.12.8,Mavic Mini,1SDCH7G0169R0K,1SFLH6Q0AB03DJ,1SRCH7F014TAHX,1U5X071EXP6C9Y,77.2,0.2,3.2,5.447396,3.131716,0,0,Mavic Mini,1SDCH7G0169R0K,1SFLH6Q0AB03DJ,1SRCH7F014TAHX,1U5X071EXP6C9Y,DJI Fly,,1.12.8,3D33349A-5DC5-69D2-8B2A-2762D611798E,1SDCH7G0169R0K,,,,,,,,,
2/22/2024,31:15.3,14m 51.7s,891.7,6.974220291,79.91416595,0,0,0.3,50,0,0,0,0,0,0,0,0,0,1.1,2.7,36,36,,Starting Motors,Drop Calibration,Takeoff (RC Assisted),14,5,TRUE,,Mavic Mini,TRUE,FALSE,,Smart,RC,TRUE,TRUE,FALSE,,,TRUE,,FALSE,FALSE,FALSE,FALSE,FALSE,FALSE,FALSE,FALSE,FALSE,FALSE,0,Follow Yaw,0,0,52.8,52.8,FALSE,FALSE,FALSE,FALSE,FALSE,FALSE,,TRUE,Normal,,100,1024,1024,1024,1024,2,FALSE,FALSE,FALSE,FALSE,FALSE,0,FALSE,FALSE,FALSE,FALSE,39,7.276,790,2056,7.276,FALSE,3.642,3.634,0.008,FALSE,FALSE,NA,119.8,119.8,119.8,0,0,0,0,5,2294.8,573.71,,Idle,0,20,FALSE,5,TRUE,6,Go Home,FALSE,FALSE,FALSE,FALSE,FALSE,FALSE,FALSE,FALSE,FALSE,FALSE,FALSE,FALSE,6.974220681,79.91416539,0.2,94.6,328,TRUE,1,1,FALSE,FALSE,FALSE,FALSE,,TRUE,FALSE,FALSE,Course Lock,49.2,,16.4,Calm,33,,1.12.8,Mavic Mini,1SDCH7G0169R0K,1SFLH6Q0AB03DJ,1SRCH7F014TAHX,1U5X071EXP6C9Y,77.2,0.2,3.2,5.447396,3.131716,0,0,Mavic Mini,1SDCH7G0169R0K,1SFLH6Q0AB03DJ,1SRCH7F014TAHX,1U5X071EXP6C9Y,DJI Fly,,1.12.8,3D33349A-5DC5-69D2-8B2A-2762D611798E,1SDCH7G0169R0K,,,,,,,,,
2/22/2024,31:15.4,14m 51.8s,891.8,6.974220346,79.91416596,0,0,0.3,50,0.1,0,0,0,0,0,0,0,0,1.2,2.7,35.9,35.9,,Starting Motors,Drop Calibration,Takeoff (RC Assisted),14,5,TRUE,,Mavic Mini,TRUE,FALSE,,Smart,RC,TRUE,TRUE,FALSE,,,TRUE,,FALSE,FALSE,FALSE,FALSE,FALSE,FALSE,FALSE,FALSE,FALSE,FALSE,0,Follow Yaw,0,0,52.7,52.7,FALSE,FALSE,FALSE,FALSE,FALSE,FALSE,,TRUE,Normal,,100,1024,1024,1024,1024,2,FALSE,FALSE,FALSE,FALSE,FALSE,0,FALSE,FALSE,FALSE,FALSE,39,7.276,790,2056,7.276,FALSE,3.642,3.634,0.008,FALSE,FALSE,NA,119.8,119.8,119.8,0,0,0,0,5,2294.8,573.71,,Idle,0,20,FALSE,5,TRUE,6,Go Home,FALSE,FALSE,FALSE,FALSE,FALSE,FALSE,FALSE,FALSE,FALSE,FALSE,FALSE,FALSE,6.974220681,79.91416539,0.2,94.6,328,TRUE,1,1,FALSE,FALSE,FALSE,FALSE,,TRUE,FALSE,FALSE,Course Lock,49.2,,16.4,Calm,33,,1.12.8,Mavic Mini,1SDCH7G0169R0K,1SFLH6Q0AB03DJ,1SRCH7F014TAHX,1U5X071EXP6C9Y,77.2,0.2,3.2,5.447396,3.131716,0,0,Mavic Mini,1SDCH7G0169R0K,1SFLH6Q0AB03DJ,1SRCH7F014TAHX,1U5X071EXP6C9Y,DJI Fly,,1.12.8,3D33349A-5DC5-69D2-8B2A-2762D611798E,1SDCH7G0169R0K,,,,,,,,,
2/22/2024,31:15.6,14m 51.9s,891.9,6.974220406,79.91416599,0,0,0.3,50,0.1,0,0,0,0,0,0,0,0,1.2,2.7,35.8,35.8,,Starting Motors,Drop Calibration,Takeoff (RC Assisted),14,5,TRUE,,Mavic Mini,TRUE,FALSE,,Smart,RC,TRUE,TRUE,FALSE,,,TRUE,,FALSE,FALSE,FALSE,FALSE,FALSE,FALSE,FALSE,FALSE,FALSE,FALSE,0,Follow Yaw,0,0,52.7,52.7,FALSE,FALSE,FALSE,FALSE,FALSE,FALSE,,TRUE,Normal,,100,1024,1024,1024,1024,2,FALSE,FALSE,FALSE,FALSE,FALSE,0,FALSE,FALSE,FALSE,FALSE,39,7.276,790,2056,7.276,FALSE,3.642,3.634,0.008,FALSE,FALSE,NA,119.8,119.8,119.8,0,0,0,0,5,2294.8,573.71,,Idle,0,20,FALSE,5,TRUE,6,Go Home,FALSE,FALSE,FALSE,FALSE,FALSE,FALSE,FALSE,FALSE,FALSE,FALSE,FALSE,FALSE,6.974220681,79.91416539,0.2,94.6,328,TRUE,1,1,FALSE,FALSE,FALSE,FALSE,,TRUE,FALSE,FALSE,Course Lock,49.2,,16.4,Calm,33,,1.12.8,Mavic Mini,1SDCH7G0169R0K,1SFLH6Q0AB03DJ,1SRCH7F014TAHX,1U5X071EXP6C9Y,77.2,0.2,3.2,5.447396,3.131716,0,0,Mavic Mini,1SDCH7G0169R0K,1SFLH6Q0AB03DJ,1SRCH7F014TAHX,1U5X071EXP6C9Y,DJI Fly,,1.12.8,3D33349A-5DC5-69D2-8B2A-2762D611798E,1SDCH7G0169R0K,,,,,,,,,
2/22/2024,31:15.6,14m 52.0s,892,6.974220425,79.91416604,0,0,0.3,50,0.1,0,0,0,0,0,0,0,0,1.2,2.6,35.9,35.9,,Manual Takeoff,Drop Calibration,Takeoff (RC Assisted),14,5,TRUE,,Mavic Mini,TRUE,FALSE,,Smart,RC,TRUE,TRUE,FALSE,,,TRUE,,FALSE,FALSE,FALSE,FALSE,FALSE,FALSE,FALSE,FALSE,FALSE,FALSE,0,Follow Yaw,0,0,52.7,52.7,FALSE,FALSE,FALSE,FALSE,FALSE,FALSE,,TRUE,Normal,,100,1024,1024,1024,1024,2,FALSE,FALSE,FALSE,FALSE,FALSE,0,FALSE,FALSE,FALSE,FALSE,39,7.276,790,2056,7.276,FALSE,3.642,3.634,0.008,FALSE,FALSE,NA,119.8,119.8,119.8,0,0,0,0,5,2294.8,573.71,,Idle,0,20,FALSE,5,TRUE,6,Go Home,FALSE,FALSE,FALSE,FALSE,FALSE,FALSE,FALSE,FALSE,FALSE,FALSE,FALSE,FALSE,6.974220681,79.91416539,0.2,94.6,328,TRUE,1,1,FALSE,FALSE,FALSE,FALSE,,TRUE,FALSE,FALSE,Course Lock,49.2,,16.4,Calm,33,,1.12.8,Mavic Mini,1SDCH7G0169R0K,1SFLH6Q0AB03DJ,1SRCH7F014TAHX,1U5X071EXP6C9Y,77.2,0.2,3.2,5.447396,3.131716,0,0,Mavic Mini,1SDCH7G0169R0K,1SFLH6Q0AB03DJ,1SRCH7F014TAHX,1U5X071EXP6C9Y,DJI Fly,,1.12.8,3D33349A-5DC5-69D2-8B2A-2762D611798E,1SDCH7G0169R0K,,,,,,,,Flight mode changed to Manual Takeoff.,
2/22/2024,31:15.6,14m 52.1s,892.1,6.974220422,79.91416625,0,0,0.3,50,0.2,0,0,0,0,0,0,0,0,1.2,2.6,35.8,35.8,,Manual Takeoff,Drop Calibration,Takeoff (RC Assisted),14,5,TRUE,,Mavic Mini,TRUE,FALSE,,Smart,RC,TRUE,TRUE,FALSE,,,TRUE,,FALSE,FALSE,FALSE,FALSE,FALSE,FALSE,FALSE,FALSE,FALSE,FALSE,0,Follow Yaw,0,0,52.7,52.7,FALSE,FALSE,FALSE,FALSE,FALSE,FALSE,,TRUE,Normal,,100,1024,1024,1024,1024,2,FALSE,FALSE,FALSE,FALSE,FALSE,0,FALSE,FALSE,FALSE,FALSE,39,7.276,790,2056,7.277,FALSE,3.642,3.634,0.008,FALSE,FALSE,NA,119.8,119.8,119.8,0,0,0,0,5,2404.2,601.05,,Idle,0,20,FALSE,5,TRUE,6,Go Home,FALSE,FALSE,FALSE,FALSE,FALSE,FALSE,FALSE,FALSE,FALSE,FALSE,FALSE,FALSE,6.974220681,79.91416539,0.3,94.6,328,TRUE,1,1,FALSE,FALSE,FALSE,FALSE,,TRUE,FALSE,FALSE,Course Lock,49.2,,16.4,Calm,33,,1.12.8,Mavic Mini,1SDCH7G0169R0K,1SFLH6Q0AB03DJ,1SRCH7F014TAHX,1U5X071EXP6C9Y,77.2,0.2,3.2,5.447396,3.131716,0,0,Mavic Mini,1SDCH7G0169R0K,1SFLH6Q0AB03DJ,1SRCH7F014TAHX,1U5X071EXP6C9Y,DJI Fly,,1.12.8,3D33349A-5DC5-69D2-8B2A-2762D611798E,1SDCH7G0169R0K,,,,,,,,,
2/22/2024,31:15.7,14m 52.2s,892.2,6.974220458,79.91416627,0,0,0.3,50,0.2,0,0,0,0,0,0,0,0,1.2,2.7,35.8,35.8,,Manual Takeoff,Drop Calibration,Takeoff (RC Assisted),14,5,TRUE,,Mavic Mini,TRUE,FALSE,,Smart,RC,TRUE,TRUE,FALSE,,,TRUE,,FALSE,FALSE,FALSE,FALSE,FALSE,FALSE,FALSE,FALSE,FALSE,FALSE,0,Follow Yaw,0,0,52.7,52.7,FALSE,FALSE,FALSE,FALSE,FALSE,FALSE,,TRUE,Normal,,100,1024,1024,1024,1024,2,FALSE,FALSE,FALSE,FALSE,FALSE,0,FALSE,FALSE,FALSE,FALSE,39,7.276,790,2056,7.277,FALSE,3.642,3.634,0.008,FALSE,FALSE,NA,119.8,119.8,119.8,0,0,0,0,5,2404.2,601.05,,Idle,0,20,FALSE,5,TRUE,6,Go Home,FALSE,FALSE,FALSE,FALSE,FALSE,FALSE,FALSE,FALSE,FALSE,FALSE,FALSE,FALSE,6.974220681,79.91416539,0.3,94.6,328,TRUE,1,1,FALSE,FALSE,FALSE,FALSE,,TRUE,FALSE,FALSE,Course Lock,49.2,,16.4,Calm,33,,1.12.8,Mavic Mini,1SDCH7G0169R0K,1SFLH6Q0AB03DJ,1SRCH7F014TAHX,1U5X071EXP6C9Y,77.2,0.2,3.2,5.447396,3.131716,0,0,Mavic Mini,1SDCH7G0169R0K,1SFLH6Q0AB03DJ,1SRCH7F014TAHX,1U5X071EXP6C9Y,DJI Fly,,1.12.8,3D33349A-5DC5-69D2-8B2A-2762D611798E,1SDCH7G0169R0K,,,,,,,,,
2/22/2024,31:15.8,14m 52.3s,892.3,6.974220501,79.91416627,0,0,0.3,50,0.2,0,0,0,0,0,0,0,0,1.2,2.7,35.9,35.9,,Manual Takeoff,Drop Calibration,Takeoff (RC Assisted),14,5,TRUE,,Mavic Mini,TRUE,FALSE,,Smart,RC,TRUE,TRUE,FALSE,,,TRUE,,FALSE,FALSE,FALSE,FALSE,FALSE,FALSE,FALSE,FALSE,FALSE,FALSE,0,Follow Yaw,0,0,52.6,52.6,FALSE,FALSE,FALSE,FALSE,FALSE,FALSE,,TRUE,Normal,,100,1024,1024,1024,1024,2,FALSE,FALSE,FALSE,FALSE,FALSE,0,FALSE,FALSE,FALSE,FALSE,39,7.276,790,2056,7.277,FALSE,3.642,3.634,0.008,FALSE,FALSE,NA,119.8,119.8,119.8,0,0,0,0,5,2404.2,601.05,,Idle,0,20,FALSE,5,TRUE,6,Go Home,FALSE,FALSE,FALSE,FALSE,FALSE,FALSE,FALSE,FALSE,FALSE,FALSE,FALSE,FALSE,6.974220681,79.91416539,0.3,94.6,328,TRUE,1,1,FALSE,FALSE,FALSE,FALSE,,TRUE,FALSE,FALSE,Course Lock,49.2,,16.4,Calm,33,,1.12.8,Mavic Mini,1SDCH7G0169R0K,1SFLH6Q0AB03DJ,1SRCH7F014TAHX,1U5X071EXP6C9Y,77.2,0.2,3.2,5.447396,3.131716,0,0,Mavic Mini,1SDCH7G0169R0K,1SFLH6Q0AB03DJ,1SRCH7F014TAHX,1U5X071EXP6C9Y,DJI Fly,,1.12.8,3D33349A-5DC5-69D2-8B2A-2762D611798E,1SDCH7G0169R0K,,,,,,,,,
2/22/2024,31:15.9,14m 52.4s,892.4,6.974220513,79.91416627,0,0,0.3,50,0.2,0,0,0,0,0,0,0,0,1.2,2.6,35.9,35.9,,Manual Takeoff,Drop Calibration,Takeoff (RC Assisted),14,5,TRUE,,Mavic Mini,TRUE,FALSE,,Smart,RC,TRUE,TRUE,FALSE,,,TRUE,,FALSE,FALSE,FALSE,FALSE,FALSE,FALSE,FALSE,FALSE,FALSE,FALSE,0,Follow Yaw,0,0,52.6,52.6,FALSE,FALSE,FALSE,FALSE,FALSE,FALSE,,TRUE,Normal,,100,1024,1024,1024,1024,2,FALSE,FALSE,FALSE,FALSE,FALSE,0,FALSE,FALSE,FALSE,FALSE,39,7.276,790,2056,7.277,FALSE,3.642,3.634,0.008,FALSE,FALSE,NA,119.8,119.8,119.8,0,0,0,0,5,2404.2,601.05,,Idle,0,20,FALSE,5,TRUE,6,Go Home,FALSE,FALSE,FALSE,FALSE,FALSE,FALSE,FALSE,FALSE,FALSE,FALSE,FALSE,FALSE,6.974220681,79.91416539,0.3,94.6,328,TRUE,1,1,FALSE,FALSE,FALSE,FALSE,,TRUE,FALSE,FALSE,Course Lock,49.2,,16.4,Calm,33,,1.12.8,Mavic Mini,1SDCH7G0169R0K,1SFLH6Q0AB03DJ,1SRCH7F014TAHX,1U5X071EXP6C9Y,77.2,0.2,3.2,5.447396,3.131716,0,0,Mavic Mini,1SDCH7G0169R0K,1SFLH6Q0AB03DJ,1SRCH7F014TAHX,1U5X071EXP6C9Y,DJI Fly,,1.12.8,3D33349A-5DC5-69D2-8B2A-2762D611798E,1SDCH7G0169R0K,,,,,,,,,
2/22/2024,31:16.1,14m 52.5s,892.5,6.974220484,79.91416622,0,0,0.3,50,0.2,0,0,0,0,0,0,0,0,1.2,2.6,35.9,35.9,,Manual Takeoff,Drop Calibration,Takeoff (RC Assisted),14,5,TRUE,,Mavic Mini,TRUE,FALSE,,Smart,RC,TRUE,TRUE,FALSE,,,TRUE,,FALSE,FALSE,FALSE,FALSE,FALSE,FALSE,FALSE,FALSE,FALSE,FALSE,0,Follow Yaw,0,0,52.6,52.6,FALSE,FALSE,FALSE,FALSE,FALSE,FALSE,,TRUE,Normal,,100,1024,1024,1024,1024,2,FALSE,FALSE,FALSE,FALSE,FALSE,0,FALSE,FALSE,FALSE,FALSE,39,7.275,790,2056,7.277,FALSE,3.639,3.636,0.008,FALSE,FALSE,NA,119.8,119.8,119.8,0,0,0,0,5,2404.2,601.05,,Idle,0,20,FALSE,5,TRUE,6,Go Home,FALSE,FALSE,FALSE,FALSE,FALSE,FALSE,FALSE,FALSE,FALSE,FALSE,FALSE,FALSE,6.974220681,79.91416539,0.3,94.6,328,TRUE,1,1,FALSE,FALSE,FALSE,FALSE,,TRUE,FALSE,FALSE,Course Lock,49.2,,16.4,Calm,33,,1.12.8,Mavic Mini,1SDCH7G0169R0K,1SFLH6Q0AB03DJ,1SRCH7F014TAHX,1U5X071EXP6C9Y,77.2,0.2,3.2,5.447396,3.131716,0,0,Mavic Mini,1SDCH7G0169R0K,1SFLH6Q0AB03DJ,1SRCH7F014TAHX,1U5X071EXP6C9Y,DJI Fly,,1.12.8,3D33349A-5DC5-69D2-8B2A-2762D611798E,1SDCH7G0169R0K,,,,,,,,,
2/22/2024,31:16.2,14m 52.6s,892.6,6.974220518,79.9141662,0,0,0.3,50,0.3,0,0,0,0,0,0,0,0,1.2,2.6,35.9,35.9,,Manual Takeoff,Drop Calibration,Takeoff (RC Assisted),14,5,TRUE,,Mavic Mini,TRUE,FALSE,,Smart,RC,TRUE,TRUE,FALSE,,,TRUE,,FALSE,FALSE,FALSE,FALSE,FALSE,FALSE,FALSE,FALSE,FALSE,FALSE,0,Follow Yaw,0,0,52.6,52.6,FALSE,FALSE,FALSE,FALSE,FALSE,FALSE,,TRUE,Normal,,100,1024,1024,1024,1024,2,FALSE,FALSE,FALSE,FALSE,FALSE,0,FALSE,FALSE,FALSE,FALSE,39,7.275,790,2056,7.277,FALSE,3.639,3.636,0.008,FALSE,FALSE,NA,119.8,119.8,119.8,0,0,0,0,5,2404.2,601.05,,Idle,0,20,FALSE,5,TRUE,6,Go Home,FALSE,FALSE,FALSE,FALSE,FALSE,FALSE,FALSE,FALSE,FALSE,FALSE,FALSE,FALSE,6.974220681,79.91416539,0.2,94.6,328,TRUE,1,1,FALSE,FALSE,FALSE,FALSE,,TRUE,FALSE,FALSE,Course Lock,49.2,,16.4,Calm,33,,1.12.8,Mavic Mini,1SDCH7G0169R0K,1SFLH6Q0AB03DJ,1SRCH7F014TAHX,1U5X071EXP6C9Y,77.2,0.2,3.2,5.447396,3.131716,0,0,Mavic Mini,1SDCH7G0169R0K,1SFLH6Q0AB03DJ,1SRCH7F014TAHX,1U5X071EXP6C9Y,DJI Fly,,1.12.8,3D33349A-5DC5-69D2-8B2A-2762D611798E,1SDCH7G0169R0K,,,,,,,,,
2/22/2024,31:16.3,14m 52.7s,892.7,6.97422056,79.91416618,0,0,0.3,50,0.3,0,0,0,0,0,0,0,0,1.2,2.6,35.9,35.9,,Manual Takeoff,Drop Calibration,Takeoff (RC Assisted),14,5,TRUE,,Mavic Mini,TRUE,FALSE,,Smart,RC,TRUE,TRUE,FALSE,,,TRUE,,FALSE,FALSE,FALSE,FALSE,FALSE,FALSE,FALSE,FALSE,FALSE,FALSE,0,Follow Yaw,0,0,52.6,52.6,FALSE,FALSE,FALSE,FALSE,FALSE,FALSE,,TRUE,Normal,,100,1024,1024,1024,1024,2,FALSE,FALSE,FALSE,FALSE,FALSE,0,FALSE,FALSE,FALSE,FALSE,39,7.275,790,2056,7.277,FALSE,3.639,3.636,0.008,FALSE,FALSE,NA,119.8,119.8,119.8,0,0,0,0,5,2404.2,601.05,,Idle,0,20,FALSE,5,TRUE,6,Go Home,FALSE,FALSE,FALSE,FALSE,FALSE,FALSE,FALSE,FALSE,FALSE,FALSE,FALSE,FALSE,6.974220681,79.91416539,0.2,94.6,328,TRUE,1,1,FALSE,FALSE,FALSE,FALSE,,TRUE,FALSE,FALSE,Course Lock,49.2,,16.4,Calm,33,,1.12.8,Mavic Mini,1SDCH7G0169R0K,1SFLH6Q0AB03DJ,1SRCH7F014TAHX,1U5X071EXP6C9Y,77.2,0.2,3.2,5.447396,3.131716,0,0,Mavic Mini,1SDCH7G0169R0K,1SFLH6Q0AB03DJ,1SRCH7F014TAHX,1U5X071EXP6C9Y,DJI Fly,,1.12.8,3D33349A-5DC5-69D2-8B2A-2762D611798E,1SDCH7G0169R0K,,,,,,,,,
2/22/2024,31:16.4,14m 52.8s,892.8,6.974220612,79.9141662,0,0,0.3,50,0.3,0,0,0,0,0,0,0,0,1.2,2.6,35.9,35.9,,Manual Takeoff,Drop Calibration,Takeoff (RC Assisted),14,5,TRUE,,Mavic Mini,TRUE,FALSE,,Smart,RC,TRUE,TRUE,FALSE,,,TRUE,,FALSE,FALSE,FALSE,FALSE,FALSE,FALSE,FALSE,FALSE,FALSE,FALSE,0,Follow Yaw,0,0,52.6,52.6,FALSE,FALSE,FALSE,FALSE,FALSE,FALSE,,TRUE,Normal,,100,1024,1024,1024,1024,2,FALSE,FALSE,FALSE,FALSE,FALSE,0,FALSE,FALSE,FALSE,FALSE,39,7.275,790,2056,7.277,FALSE,3.639,3.636,0.008,FALSE,FALSE,NA,119.8,119.8,119.8,0,0,0,0,5,2404.2,601.05,,Idle,0,20,FALSE,5,TRUE,6,Go Home,FALSE,FALSE,FALSE,FALSE,FALSE,FALSE,FALSE,FALSE,FALSE,FALSE,FALSE,FALSE,6.974220681,79.91416539,0.2,94.6,328,TRUE,1,1,FALSE,FALSE,FALSE,FALSE,,TRUE,FALSE,FALSE,Course Lock,49.2,,16.4,Calm,33,,1.12.8,Mavic Mini,1SDCH7G0169R0K,1SFLH6Q0AB03DJ,1SRCH7F014TAHX,1U5X071EXP6C9Y,77.2,0.2,3.2,5.447396,3.131716,0,0,Mavic Mini,1SDCH7G0169R0K,1SFLH6Q0AB03DJ,1SRCH7F014TAHX,1U5X071EXP6C9Y,DJI Fly,,1.12.8,3D33349A-5DC5-69D2-8B2A-2762D611798E,1SDCH7G0169R0K,,,,,,,,,
2/22/2024,31:16.5,14m 52.9s,892.9,6.974220753,79.9141663,0,0,0.3,50,0.4,0,0,0,0,0,0,0,0,1.2,2.6,35.9,35.9,,Manual Takeoff,Drop Calibration,Takeoff (RC Assisted),14,5,TRUE,,Mavic Mini,TRUE,FALSE,,Smart,RC,TRUE,TRUE,FALSE,,,TRUE,,FALSE,FALSE,FALSE,FALSE,FALSE,FALSE,FALSE,FALSE,FALSE,FALSE,0,Follow Yaw,0,0,52.6,52.6,FALSE,FALSE,FALSE,FALSE,FALSE,FALSE,,TRUE,Normal,,100,1024,1024,1024,1024,2,FALSE,FALSE,FALSE,FALSE,FALSE,0,FALSE,FALSE,FALSE,FALSE,39,7.275,790,2056,7.277,FALSE,3.639,3.636,0.008,FALSE,FALSE,NA,119.8,119.8,119.8,0,0,0,0,5,2404.2,601.05,,Idle,0,20,FALSE,5,TRUE,6,Go Home,FALSE,FALSE,FALSE,FALSE,FALSE,FALSE,FALSE,FALSE,FALSE,FALSE,FALSE,FALSE,6.974220681,79.91416539,0.3,94.6,328,TRUE,1,1,FALSE,FALSE,FALSE,FALSE,,TRUE,FALSE,FALSE,Course Lock,49.2,,16.4,Calm,33,,1.12.8,Mavic Mini,1SDCH7G0169R0K,1SFLH6Q0AB03DJ,1SRCH7F014TAHX,1U5X071EXP6C9Y,77.2,0.2,3.2,5.447396,3.131716,0,0,Mavic Mini,1SDCH7G0169R0K,1SFLH6Q0AB03DJ,1SRCH7F014TAHX,1U5X071EXP6C9Y,DJI Fly,,1.12.8,3D33349A-5DC5-69D2-8B2A-2762D611798E,1SDCH7G0169R0K,,,,,6.974143968,79.91413009,5,,
2/22/2024,31:16.6,14m 53.0s,893,6.974220811,79.91416631,0,0,0.3,50,0.4,0,0,0,0,0,0,0,0,1.2,2.6,35.9,35.9,,Manual Takeoff,Drop Calibration,Takeoff (RC Assisted),14,5,TRUE,,Mavic Mini,TRUE,FALSE,,Smart,RC,TRUE,TRUE,FALSE,,,TRUE,,FALSE,FALSE,FALSE,FALSE,FALSE,FALSE,FALSE,FALSE,FALSE,FALSE,0,Follow Yaw,0,0,52.6,52.6,FALSE,FALSE,FALSE,FALSE,FALSE,FALSE,,TRUE,Normal,,100,1024,1024,1024,1024,2,FALSE,FALSE,FALSE,FALSE,FALSE,0,FALSE,FALSE,FALSE,FALSE,39,7.275,790,2056,7.277,FALSE,3.639,3.636,0.008,FALSE,FALSE,NA,119.8,119.8,119.8,0,0,0,0,5,2404.2,601.05,,Idle,0,20,FALSE,5,TRUE,6,Go Home,FALSE,FALSE,FALSE,FALSE,FALSE,FALSE,FALSE,FALSE,FALSE,FALSE,FALSE,FALSE,6.974220681,79.91416539,0.3,94.6,328,TRUE,1,1,FALSE,FALSE,FALSE,FALSE,,TRUE,FALSE,FALSE,Course Lock,49.2,,16.4,Calm,33,,1.12.8,Mavic Mini,1SDCH7G0169R0K,1SFLH6Q0AB03DJ,1SRCH7F014TAHX,1U5X071EXP6C9Y,77.2,0.2,3.2,5.447396,3.131716,0,0,Mavic Mini,1SDCH7G0169R0K,1SFLH6Q0AB03DJ,1SRCH7F014TAHX,1U5X071EXP6C9Y,DJI Fly,,1.12.8,3D33349A-5DC5-69D2-8B2A-2762D611798E,1SDCH7G0169R0K,,,,,6.974143968,79.91413009,5,,
2/22/2024,31:16.7,14m 53.1s,893.1,6.974220872,79.91416631,0,0,0.3,50,0.4,0,0,0,0,0,0,0,0,1.2,2.6,35.9,35.9,,Manual Takeoff,Drop Calibration,Takeoff (RC Assisted),14,5,TRUE,,Mavic Mini,TRUE,FALSE,,Smart,RC,TRUE,TRUE,FALSE,,,TRUE,,FALSE,FALSE,FALSE,FALSE,FALSE,FALSE,FALSE,FALSE,FALSE,FALSE,0,Follow Yaw,0,0,52.6,52.6,FALSE,FALSE,FALSE,FALSE,FALSE,FALSE,,TRUE,Normal,,100,1024,1024,1254,1024,2,FALSE,FALSE,FALSE,FALSE,FALSE,0,FALSE,FALSE,FALSE,FALSE,39,7.275,790,2056,7.274,FALSE,3.639,3.636,0.008,FALSE,FALSE,NA,119.8,119.8,119.8,0,0,0,0,5,2546.3,636.58,,Idle,0,20,FALSE,5,TRUE,6,Go Home,FALSE,FALSE,FALSE,FALSE,FALSE,FALSE,FALSE,FALSE,FALSE,FALSE,FALSE,FALSE,6.974220681,79.91416539,0.3,94.6,328,TRUE,1,1,FALSE,FALSE,FALSE,FALSE,,TRUE,FALSE,FALSE,Course Lock,49.2,,16.4,Calm,33,,1.12.8,Mavic Mini,1SDCH7G0169R0K,1SFLH6Q0AB03DJ,1SRCH7F014TAHX,1U5X071EXP6C9Y,77.2,0.2,3.2,5.447396,3.131716,0,0,Mavic Mini,1SDCH7G0169R0K,1SFLH6Q0AB03DJ,1SRCH7F014TAHX,1U5X071EXP6C9Y,DJI Fly,,1.12.8,3D33349A-5DC5-69D2-8B2A-2762D611798E,1SDCH7G0169R0K,,,,,6.974143968,79.91413009,5,,
2/22/2024,31:16.8,14m 53.2s,893.2,6.97422097,79.9141663,0,0,0.3,50,0.4,0,0,0,0,0,0,0,0,1.2,2.6,35.9,35.9,,Manual Takeoff,Drop Calibration,Takeoff (RC Assisted),14,5,TRUE,,Mavic Mini,TRUE,FALSE,,Smart,RC,TRUE,TRUE,FALSE,,,TRUE,,FALSE,FALSE,FALSE,FALSE,FALSE,FALSE,FALSE,FALSE,FALSE,FALSE,0,Follow Yaw,0,0,52.6,52.6,FALSE,FALSE,FALSE,FALSE,FALSE,FALSE,,TRUE,Normal,,100,1024,1024,1401,1024,2,FALSE,FALSE,FALSE,FALSE,FALSE,0,FALSE,FALSE,FALSE,FALSE,39,7.275,790,2056,7.274,FALSE,3.639,3.636,0.008,FALSE,FALSE,NA,119.8,119.8,119.8,0,0,0,0,5,2546.3,636.58,,Idle,0,20,FALSE,5,TRUE,6,Go Home,FALSE,FALSE,FALSE,FALSE,FALSE,FALSE,FALSE,FALSE,FALSE,FALSE,FALSE,FALSE,6.974220681,79.91416539,0.3,94.6,328,TRUE,1,1,FALSE,FALSE,FALSE,FALSE,,TRUE,FALSE,FALSE,Course Lock,49.2,,16.4,Calm,33,,1.12.8,Mavic Mini,1SDCH7G0169R0K,1SFLH6Q0AB03DJ,1SRCH7F014TAHX,1U5X071EXP6C9Y,77.2,0.2,3.2,5.447396,3.131716,0,0,Mavic Mini,1SDCH7G0169R0K,1SFLH6Q0AB03DJ,1SRCH7F014TAHX,1U5X071EXP6C9Y,DJI Fly,,1.12.8,3D33349A-5DC5-69D2-8B2A-2762D611798E,1SDCH7G0169R0K,,,,,6.974143968,79.91413009,5,,
2/22/2024,31:16.8,14m 53.3s,893.3,6.97422108,79.91416629,0,0,0.3,50,0.5,0,0,0,0,0,0,0,0,1.2,2.6,35.9,35.9,,Manual Takeoff,Drop Calibration,Takeoff (RC Assisted),14,5,TRUE,,Mavic Mini,TRUE,FALSE,,Smart,RC,TRUE,TRUE,FALSE,,,TRUE,,FALSE,FALSE,FALSE,FALSE,FALSE,FALSE,FALSE,FALSE,FALSE,FALSE,0,Follow Yaw,0,0,52.6,52.6,FALSE,FALSE,FALSE,FALSE,FALSE,FALSE,,TRUE,Normal,,100,1024,1024,1465,1024,2,FALSE,FALSE,FALSE,FALSE,FALSE,0,FALSE,FALSE,FALSE,FALSE,39,7.275,790,2056,7.274,FALSE,3.639,3.636,0.008,FALSE,FALSE,NA,119.8,119.8,119.8,0,0,0,0,5,2546.3,636.58,,Idle,0,20,FALSE,5,TRUE,6,Go Home,FALSE,FALSE,FALSE,FALSE,FALSE,FALSE,FALSE,FALSE,FALSE,FALSE,FALSE,FALSE,6.974220681,79.91416539,0.3,94.6,328,TRUE,1,1,FALSE,FALSE,FALSE,FALSE,,TRUE,FALSE,FALSE,Course Lock,49.2,,16.4,Calm,33,,1.12.8,Mavic Mini,1SDCH7G0169R0K,1SFLH6Q0AB03DJ,1SRCH7F014TAHX,1U5X071EXP6C9Y,77.2,0.2,3.2,5.447396,3.131716,0,0,Mavic Mini,1SDCH7G0169R0K,1SFLH6Q0AB03DJ,1SRCH7F014TAHX,1U5X071EXP6C9Y,DJI Fly,,1.12.8,3D33349A-5DC5-69D2-8B2A-2762D611798E,1SDCH7G0169R0K,,,,,6.974143968,79.91413009,5,,
2/22/2024,31:17.1,14m 53.4s,893.4,6.974221276,79.9141663,0,0,0.3,50,0.6,0,0,0,0,0,0,0,0,1.2,2.5,35.8,35.8,,Manual Takeoff,Drop Calibration,Takeoff (RC Assisted),14,5,TRUE,,Mavic Mini,TRUE,FALSE,,Smart,RC,TRUE,TRUE,FALSE,,,TRUE,,FALSE,FALSE,FALSE,FALSE,FALSE,FALSE,FALSE,FALSE,FALSE,FALSE,0,Follow Yaw,0,0,52.6,52.6,FALSE,FALSE,FALSE,FALSE,FALSE,FALSE,,TRUE,Normal,,100,1024,1024,1481,1024,2,FALSE,FALSE,FALSE,FALSE,FALSE,0,FALSE,FALSE,FALSE,FALSE,39,7.275,790,2056,7.274,FALSE,3.639,3.636,0.008,FALSE,FALSE,NA,119.8,119.8,119.8,0,0,0,0,5,2546.3,636.58,,Idle,0,20,FALSE,5,TRUE,6,Go Home,FALSE,FALSE,FALSE,FALSE,FALSE,FALSE,FALSE,FALSE,FALSE,FALSE,FALSE,FALSE,6.974220681,79.91416539,0.3,94.6,328,TRUE,1,1,FALSE,FALSE,FALSE,FALSE,,TRUE,FALSE,FALSE,Course Lock,49.2,,16.4,Calm,33,,1.12.8,Mavic Mini,1SDCH7G0169R0K,1SFLH6Q0AB03DJ,1SRCH7F014TAHX,1U5X071EXP6C9Y,77.2,0.2,3.2,5.447396,3.131716,0,0,Mavic Mini,1SDCH7G0169R0K,1SFLH6Q0AB03DJ,1SRCH7F014TAHX,1U5X071EXP6C9Y,DJI Fly,,1.12.8,3D33349A-5DC5-69D2-8B2A-2762D611798E,1SDCH7G0169R0K,,,,,6.974143968,79.91413009,5,,
2/22/2024,31:17.1,14m 53.5s,893.5,6.974221348,79.91416634,0,0,0.3,50,0.6,0,0,0,0,0,0,0,0,1.1,2,35.8,35.8,,Manual Takeoff,Drop Calibration,Takeoff (RC Assisted),14,5,TRUE,,Mavic Mini,TRUE,FALSE,,Smart,RC,TRUE,TRUE,FALSE,,,TRUE,,FALSE,FALSE,FALSE,FALSE,FALSE,FALSE,FALSE,FALSE,FALSE,FALSE,0,Follow Yaw,0,0,52.6,52.6,FALSE,FALSE,FALSE,FALSE,FALSE,FALSE,,TRUE,Normal,,100,1024,1024,1481,1024,2,FALSE,FALSE,FALSE,FALSE,FALSE,0,FALSE,FALSE,FALSE,FALSE,39,7.275,790,2056,7.274,FALSE,3.639,3.636,0.008,FALSE,FALSE,NA,119.8,119.8,119.8,0,0,0,0,5,2546.3,636.58,,Idle,0,20,FALSE,5,TRUE,6,Go Home,FALSE,FALSE,FALSE,FALSE,FALSE,FALSE,FALSE,FALSE,FALSE,FALSE,FALSE,FALSE,6.974220681,79.91416539,0.4,94.6,328,TRUE,1,1,FALSE,FALSE,FALSE,FALSE,,TRUE,FALSE,FALSE,Course Lock,49.2,,16.4,Calm,33,,1.12.8,Mavic Mini,1SDCH7G0169R0K,1SFLH6Q0AB03DJ,1SRCH7F014TAHX,1U5X071EXP6C9Y,77.2,0.2,3.2,5.447396,3.131716,0,0,Mavic Mini,1SDCH7G0169R0K,1SFLH6Q0AB03DJ,1SRCH7F014TAHX,1U5X071EXP6C9Y,DJI Fly,,1.12.8,3D33349A-5DC5-69D2-8B2A-2762D611798E,1SDCH7G0169R0K,,,,,6.974143968,79.91413009,5,,
2/22/2024,31:17.2,14m 53.6s,893.6,6.974221445,79.91416634,0,0,0.3,50,0.6,0,0,0,0,0,0,0,0,1.2,1.3,35.6,35.6,,Manual Takeoff,Drop Calibration,Takeoff (RC Assisted),14,5,TRUE,,Mavic Mini,TRUE,FALSE,,Smart,RC,TRUE,TRUE,FALSE,,,TRUE,,FALSE,FALSE,FALSE,FALSE,FALSE,FALSE,FALSE,FALSE,FALSE,FALSE,0,Follow Yaw,0,0,52.6,52.6,FALSE,FALSE,FALSE,FALSE,FALSE,FALSE,,TRUE,Normal,,100,1024,1024,1471,1024,2,FALSE,FALSE,FALSE,FALSE,FALSE,0,FALSE,FALSE,FALSE,FALSE,39,7.245,789,2056,7.274,FALSE,3.625,3.62,0.008,FALSE,FALSE,NA,119.8,119.8,119.8,0,0,0,0,5,2546.3,636.58,,Idle,0,20,FALSE,5,TRUE,6,Go Home,FALSE,FALSE,FALSE,FALSE,FALSE,FALSE,FALSE,FALSE,FALSE,FALSE,FALSE,FALSE,6.974220681,79.91416539,0.4,94.6,328,TRUE,1,1,FALSE,FALSE,FALSE,FALSE,,TRUE,FALSE,FALSE,Course Lock,49.2,,16.4,Calm,33,,1.12.8,Mavic Mini,1SDCH7G0169R0K,1SFLH6Q0AB03DJ,1SRCH7F014TAHX,1U5X071EXP6C9Y,77.2,0.2,3.2,5.447396,3.131716,0,0,Mavic Mini,1SDCH7G0169R0K,1SFLH6Q0AB03DJ,1SRCH7F014TAHX,1U5X071EXP6C9Y,DJI Fly,,1.12.8,3D33349A-5DC5-69D2-8B2A-2762D611798E,1SDCH7G0169R0K,,,,,6.974143968,79.91413009,5,,
2/22/2024,31:17.3,14m 53.7s,893.7,6.974221556,79.91416634,0,0,0.3,50,0.7,0,0,0,0,0,0,0,0,1,0.5,34.6,34.6,,Manual Takeoff,Drop Calibration,Takeoff (RC Assisted),14,5,TRUE,,Mavic Mini,TRUE,FALSE,,Smart,RC,TRUE,TRUE,FALSE,,,TRUE,,FALSE,FALSE,FALSE,FALSE,FALSE,FALSE,FALSE,FALSE,FALSE,FALSE,0,Follow Yaw,0,0,52.2,52.2,FALSE,FALSE,FALSE,FALSE,FALSE,FALSE,,TRUE,Normal,,100,1024,1024,1443,1024,2,FALSE,FALSE,FALSE,FALSE,FALSE,0,FALSE,FALSE,FALSE,FALSE,39,7.245,789,2056,7.274,FALSE,3.625,3.62,0.008,FALSE,FALSE,NA,119.8,119.8,119.8,0,0,0,0,5,2546.3,636.58,,Idle,0,20,FALSE,5,TRUE,6,Go Home,FALSE,FALSE,FALSE,FALSE,FALSE,FALSE,FALSE,FALSE,FALSE,FALSE,FALSE,FALSE,6.974220681,79.91416539,0.4,94.6,328,TRUE,1,1,FALSE,FALSE,FALSE,FALSE,,TRUE,FALSE,FALSE,Course Lock,49.2,,16.4,Calm,33,,1.12.8,Mavic Mini,1SDCH7G0169R0K,1SFLH6Q0AB03DJ,1SRCH7F014TAHX,1U5X071EXP6C9Y,77.2,0.2,3.2,5.447396,3.131716,0,0,Mavic Mini,1SDCH7G0169R0K,1SFLH6Q0AB03DJ,1SRCH7F014TAHX,1U5X071EXP6C9Y,DJI Fly,,1.12.8,3D33349A-5DC5-69D2-8B2A-2762D611798E,1SDCH7G0169R0K,,,,,6.974143968,79.91413009,5,,
2/22/2024,31:17.3,14m 53.8s,893.8,6.974221645,79.91416649,0,0,0.3,50,0.7,0,0,0,0,0,0,0,0,1,0,33.7,33.7,,Manual Takeoff,Drop Calibration,Takeoff (RC Assisted),14,5,TRUE,,Mavic Mini,TRUE,FALSE,,Smart,RC,TRUE,TRUE,FALSE,,,TRUE,,FALSE,FALSE,FALSE,FALSE,FALSE,FALSE,FALSE,FALSE,FALSE,FALSE,0,Follow Yaw,0,0,51.5,51.5,FALSE,FALSE,FALSE,FALSE,FALSE,FALSE,,TRUE,Normal,,100,1024,1024,1404,1024,2,FALSE,FALSE,FALSE,FALSE,FALSE,0,FALSE,FALSE,FALSE,FALSE,39,7.245,789,2056,7.274,FALSE,3.625,3.62,0.008,FALSE,FALSE,NA,119.8,119.8,119.8,0,0,0,0,5,2546.3,636.58,,Idle,0,20,FALSE,5,TRUE,6,Go Home,FALSE,FALSE,FALSE,FALSE,FALSE,FALSE,FALSE,FALSE,FALSE,FALSE,FALSE,FALSE,6.974220681,79.91416539,0.5,94.6,328,TRUE,1,1,FALSE,FALSE,FALSE,FALSE,,TRUE,FALSE,FALSE,Course Lock,49.2,,16.4,Calm,33,,1.12.8,Mavic Mini,1SDCH7G0169R0K,1SFLH6Q0AB03DJ,1SRCH7F014TAHX,1U5X071EXP6C9Y,77.2,0.2,3.2,5.447396,3.131716,0,0,Mavic Mini,1SDCH7G0169R0K,1SFLH6Q0AB03DJ,1SRCH7F014TAHX,1U5X071EXP6C9Y,DJI Fly,,1.12.8,3D33349A-5DC5-69D2-8B2A-2762D611798E,1SDCH7G0169R0K,,,,,6.974143968,79.91413009,5,,
2/22/2024,31:17.4,14m 53.9s,893.9,6.974221709,79.91416652,0,0,0.3,50,0.7,0,0,0,0,0,0,0,0,0.9,-1,32.5,32.5,,Manual Takeoff,Drop Calibration,Takeoff (RC Assisted),14,5,TRUE,,Mavic Mini,TRUE,FALSE,,Smart,RC,TRUE,TRUE,FALSE,,,TRUE,,FALSE,FALSE,FALSE,FALSE,FALSE,FALSE,FALSE,FALSE,FALSE,FALSE,0,Follow Yaw,0,0,50.5,50.5,FALSE,FALSE,FALSE,FALSE,FALSE,FALSE,,TRUE,Normal,,100,1024,1024,1399,1024,2,FALSE,FALSE,FALSE,FALSE,FALSE,0,FALSE,FALSE,FALSE,FALSE,39,7.245,789,2056,7.274,FALSE,3.625,3.62,0.008,FALSE,FALSE,NA,119.8,119.8,119.8,0,0,0,0,5,2546.3,636.58,,Idle,0,20,FALSE,5,TRUE,6,Go Home,FALSE,FALSE,FALSE,FALSE,FALSE,FALSE,FALSE,FALSE,FALSE,FALSE,FALSE,FALSE,6.974220681,79.91416539,0.5,94.6,328,TRUE,1,1,FALSE,FALSE,FALSE,FALSE,,TRUE,FALSE,FALSE,Course Lock,49.2,,16.4,Calm,33,,1.12.8,Mavic Mini,1SDCH7G0169R0K,1SFLH6Q0AB03DJ,1SRCH7F014TAHX,1U5X071EXP6C9Y,77.2,0.2,3.2,5.447396,3.131716,0,0,Mavic Mini,1SDCH7G0169R0K,1SFLH6Q0AB03DJ,1SRCH7F014TAHX,1U5X071EXP6C9Y,DJI Fly,,1.12.8,3D33349A-5DC5-69D2-8B2A-2762D611798E,1SDCH7G0169R0K,,,,,6.974143968,79.91413009,5,,
2/22/2024,31:17.6,14m 54.0s,894,6.974221806,79.91416652,0,0,0.3,50,0.8,0,0,0,0,0,0,0,0,-0.2,-2,31.3,31.3,,Manual Takeoff,Drop Calibration,Takeoff (RC Assisted),14,5,TRUE,,Mavic Mini,TRUE,FALSE,,Smart,RC,TRUE,TRUE,FALSE,,,TRUE,,FALSE,FALSE,FALSE,FALSE,FALSE,FALSE,FALSE,FALSE,FALSE,FALSE,0,Follow Yaw,0,0,49.4,49.4,FALSE,FALSE,FALSE,FALSE,FALSE,FALSE,,TRUE,Normal,,100,1024,1024,1387,1024,2,FALSE,FALSE,FALSE,FALSE,FALSE,0,FALSE,FALSE,FALSE,FALSE,39,7.245,789,2056,7.274,FALSE,3.625,3.62,0.008,FALSE,FALSE,NA,119.8,119.8,119.8,0,0,0,0,5,2546.3,636.58,,Idle,0,20,FALSE,5,TRUE,6,Go Home,FALSE,FALSE,FALSE,FALSE,FALSE,FALSE,FALSE,FALSE,FALSE,FALSE,FALSE,FALSE,6.974220681,79.91416539,0.5,94.6,328,TRUE,1,1,FALSE,FALSE,FALSE,FALSE,,TRUE,FALSE,FALSE,Course Lock,49.2,,16.4,Calm,33,,1.12.8,Mavic Mini,1SDCH7G0169R0K,1SFLH6Q0AB03DJ,1SRCH7F014TAHX,1U5X071EXP6C9Y,77.2,0.2,3.2,5.447396,3.131716,0,0,Mavic Mini,1SDCH7G0169R0K,1SFLH6Q0AB03DJ,1SRCH7F014TAHX,1U5X071EXP6C9Y,DJI Fly,,1.12.8,3D33349A-5DC5-69D2-8B2A-2762D611798E,1SDCH7G0169R0K,,,,,6.974143968,79.91413009,5,,
2/22/2024,31:17.8,14m 54.1s,894.1,6.974221943,79.9141665,0,0,0.3,50,0.8,0,0,0,0,0,0,0,0,-0.4,-2.8,30.1,30.1,,Manual Takeoff,Drop Calibration,Takeoff (RC Assisted),14,5,TRUE,,Mavic Mini,TRUE,FALSE,,Smart,RC,TRUE,TRUE,FALSE,,,TRUE,,FALSE,FALSE,FALSE,FALSE,FALSE,FALSE,FALSE,FALSE,FALSE,FALSE,0,Follow Yaw,0,0,48.2,48.2,FALSE,FALSE,FALSE,FALSE,FALSE,FALSE,,TRUE,Normal,,100,1024,1024,1373,1024,2,FALSE,FALSE,FALSE,FALSE,FALSE,0,FALSE,FALSE,FALSE,FALSE,39,7.245,789,2056,7.242,FALSE,3.625,3.62,0.008,FALSE,FALSE,NA,119.8,119.8,119.8,0,0,0,0,5,2765.7,691.43,,Idle,0,20,FALSE,5,TRUE,6,Go Home,FALSE,FALSE,FALSE,FALSE,FALSE,FALSE,FALSE,FALSE,FALSE,FALSE,FALSE,FALSE,6.974220681,79.91416539,0.6,94.6,328,TRUE,1,1,FALSE,FALSE,FALSE,FALSE,,TRUE,FALSE,FALSE,Course Lock,49.2,,16.4,Calm,33,,1.12.8,Mavic Mini,1SDCH7G0169R0K,1SFLH6Q0AB03DJ,1SRCH7F014TAHX,1U5X071EXP6C9Y,77.2,0.2,3.2,5.447396,3.131716,0,0,Mavic Mini,1SDCH7G0169R0K,1SFLH6Q0AB03DJ,1SRCH7F014TAHX,1U5X071EXP6C9Y,DJI Fly,,1.12.8,3D33349A-5DC5-69D2-8B2A-2762D611798E,1SDCH7G0169R0K,,,,,6.974143968,79.91413009,5,,
2/22/2024,31:17.8,14m 54.2s,894.2,6.974222069,79.91416657,0,0,0.3,50,0.9,0.223694,0.223694,0.223694,0.223694,0,0,-0.223694,0,-0.5,-2.4,28.9,28.9,21.6,Manual Takeoff,Drop Calibration,,14,5,TRUE,,Mavic Mini,TRUE,FALSE,,Smart,RC,FALSE,TRUE,FALSE,,,TRUE,,FALSE,FALSE,FALSE,FALSE,FALSE,FALSE,FALSE,FALSE,FALSE,FALSE,0,Follow Yaw,0,0,47,47,FALSE,FALSE,FALSE,FALSE,FALSE,FALSE,,TRUE,Normal,,100,1024,1024,1362,1024,2,FALSE,FALSE,FALSE,FALSE,FALSE,0,FALSE,FALSE,FALSE,FALSE,39,7.245,789,2056,7.242,FALSE,3.625,3.62,0.008,FALSE,FALSE,NA,119.8,119.8,119.8,0,0,0,0,5,2765.7,691.43,,Idle,0,20,FALSE,5,TRUE,6,Go Home,FALSE,FALSE,FALSE,FALSE,FALSE,FALSE,FALSE,FALSE,FALSE,FALSE,FALSE,FALSE,6.974220681,79.91416539,0.6,94.6,328,TRUE,1,1,FALSE,FALSE,FALSE,FALSE,,TRUE,FALSE,FALSE,Course Lock,49.2,,16.4,Calm,33,,1.12.8,Mavic Mini,1SDCH7G0169R0K,1SFLH6Q0AB03DJ,1SRCH7F014TAHX,1U5X071EXP6C9Y,77.2,0.2,3.2,5.447396,3.131716,0,0,Mavic Mini,1SDCH7G0169R0K,1SFLH6Q0AB03DJ,1SRCH7F014TAHX,1U5X071EXP6C9Y,DJI Fly,,1.12.8,3D33349A-5DC5-69D2-8B2A-2762D611798E,1SDCH7G0169R0K,,,,,6.974143968,79.91413009,5,,
2/22/2024,31:18.0,14m 54.3s,894.3,6.974222248,79.91416659,0,0,0.3,50,0.9,0.223694,0.223694,0.223694,0.223694,0,0,-0.671082,0,-0.5,-0.8,28.9,28.9,4.2,Tripod,Drop Calibration,,14,5,TRUE,,Mavic Mini,TRUE,FALSE,,Smart,RC,FALSE,TRUE,FALSE,,,TRUE,,FALSE,FALSE,FALSE,FALSE,FALSE,FALSE,FALSE,FALSE,FALSE,FALSE,0,Follow Yaw,0,0,46.4,46.4,FALSE,FALSE,FALSE,FALSE,FALSE,FALSE,,TRUE,Normal,,100,1024,1024,1362,1024,2,FALSE,FALSE,FALSE,FALSE,FALSE,0,FALSE,FALSE,FALSE,FALSE,39,7.245,789,2056,7.242,FALSE,3.625,3.62,0.008,FALSE,FALSE,NA,119.8,119.8,119.8,0,0,0,0,5,2765.7,691.43,,Idle,0,20,FALSE,5,TRUE,6,Go Home,FALSE,FALSE,FALSE,FALSE,FALSE,FALSE,FALSE,FALSE,TRUE,FALSE,FALSE,FALSE,6.974220681,79.91416539,0.7,94.6,328,TRUE,1,1,FALSE,FALSE,FALSE,FALSE,,TRUE,FALSE,FALSE,Course Lock,49.2,,16.4,Calm,33,,1.12.8,Mavic Mini,1SDCH7G0169R0K,1SFLH6Q0AB03DJ,1SRCH7F014TAHX,1U5X071EXP6C9Y,77.2,0.2,3.2,5.447396,3.131716,0,0,Mavic Mini,1SDCH7G0169R0K,1SFLH6Q0AB03DJ,1SRCH7F014TAHX,1U5X071EXP6C9Y,DJI Fly,,1.12.8,3D33349A-5DC5-69D2-8B2A-2762D611798E,1SDCH7G0169R0K,,,,,6.974143968,79.91413009,5,Flight mode changed to Tripod.,
2/22/2024,31:18.1,14m 54.4s,894.4,6.974222489,79.91416659,0,0,0.6,50,1,0.447388,0.447388,0.447388,0.447388,0,0,-0.894776,0,2,0.5,28.9,28.9,1.3,Tripod,Drop Calibration,,14,5,TRUE,,Mavic Mini,TRUE,FALSE,,Smart,RC,FALSE,TRUE,FALSE,,,TRUE,,FALSE,FALSE,FALSE,FALSE,FALSE,FALSE,FALSE,FALSE,FALSE,FALSE,0,Follow Yaw,0,0,46.4,46.4,FALSE,FALSE,FALSE,FALSE,FALSE,FALSE,,TRUE,Normal,,100,1024,1024,1329,1024,2,FALSE,FALSE,FALSE,FALSE,FALSE,0,FALSE,FALSE,FALSE,FALSE,39,7.245,789,2056,7.242,FALSE,3.625,3.62,0.008,FALSE,FALSE,NA,119.8,119.8,119.8,0,0,0,0,5,2765.7,691.43,,Idle,0,20,FALSE,5,TRUE,6,Go Home,FALSE,FALSE,FALSE,FALSE,FALSE,FALSE,FALSE,FALSE,TRUE,FALSE,FALSE,FALSE,6.974220681,79.91416539,0.7,94.6,328,TRUE,1,1,FALSE,FALSE,FALSE,FALSE,,TRUE,FALSE,FALSE,Course Lock,49.2,,16.4,Calm,33,,1.12.8,Mavic Mini,1SDCH7G0169R0K,1SFLH6Q0AB03DJ,1SRCH7F014TAHX,1U5X071EXP6C9Y,77.2,0.2,3.2,5.447396,3.131716,0,0,Mavic Mini,1SDCH7G0169R0K,1SFLH6Q0AB03DJ,1SRCH7F014TAHX,1U5X071EXP6C9Y,DJI Fly,,1.12.8,3D33349A-5DC5-69D2-8B2A-2762D611798E,1SDCH7G0169R0K,,,,,6.974143968,79.91413009,5,,
2/22/2024,31:18.2,14m 54.5s,894.5,6.974222759,79.91416661,0,0,0.6,50,1.1,0.447388,0.447388,0.447388,0.447388,0,0,-1.11847,0,2.5,0.7,29.1,29.1,3.1,Tripod,Drop Calibration,,14,5,TRUE,,Mavic Mini,TRUE,FALSE,,Smart,RC,FALSE,TRUE,FALSE,,,TRUE,,FALSE,FALSE,FALSE,FALSE,FALSE,FALSE,FALSE,FALSE,FALSE,FALSE,0,Follow Yaw,0,0,46.4,46.4,FALSE,FALSE,FALSE,FALSE,FALSE,FALSE,,TRUE,Normal,,100,1024,1024,1124,1024,2,FALSE,FALSE,FALSE,FALSE,FALSE,0,FALSE,FALSE,FALSE,FALSE,39,7.245,789,2056,7.242,FALSE,3.625,3.62,0.008,FALSE,FALSE,NA,119.8,119.8,119.8,0,0,0,0,5,2765.7,691.43,,Idle,0,20,FALSE,5,TRUE,6,Go Home,FALSE,FALSE,FALSE,FALSE,FALSE,FALSE,FALSE,FALSE,TRUE,FALSE,FALSE,FALSE,6.974220681,79.91416539,0.8,94.6,328,TRUE,1,1,FALSE,FALSE,FALSE,FALSE,,TRUE,FALSE,FALSE,Course Lock,49.2,,16.4,Calm,33,,1.12.8,Mavic Mini,1SDCH7G0169R0K,1SFLH6Q0AB03DJ,1SRCH7F014TAHX,1U5X071EXP6C9Y,77.2,0.2,3.2,5.447396,3.131716,0,0,Mavic Mini,1SDCH7G0169R0K,1SFLH6Q0AB03DJ,1SRCH7F014TAHX,1U5X071EXP6C9Y,DJI Fly,,1.12.8,3D33349A-5DC5-69D2-8B2A-2762D611798E,1SDCH7G0169R0K,,,,,6.974143968,79.91413009,5,,
2/22/2024,31:18.2,14m 54.6s,894.6,6.974223029,79.91416664,0.3,0.3,0.6,50,1.2,0.223694,0.447388,0.223694,0.447388,0,0,-1.11847,0,3,0.8,29.2,29.2,4.6,Tripod,Drop Calibration,,14,5,TRUE,,Mavic Mini,TRUE,FALSE,,Smart,RC,FALSE,TRUE,FALSE,,,TRUE,,FALSE,FALSE,FALSE,FALSE,FALSE,FALSE,FALSE,FALSE,FALSE,FALSE,0,Follow Yaw,0,0,46.4,46.4,FALSE,FALSE,FALSE,FALSE,FALSE,FALSE,,TRUE,Normal,,100,1024,1024,1024,1024,2,FALSE,FALSE,FALSE,FALSE,FALSE,0,FALSE,FALSE,FALSE,FALSE,39,7.245,789,2056,7.242,FALSE,3.625,3.62,0.008,FALSE,FALSE,NA,119.8,119.8,119.8,0,0,0,0,5,2765.7,691.43,,Idle,0,20,FALSE,5,TRUE,6,Go Home,FALSE,FALSE,FALSE,FALSE,FALSE,FALSE,FALSE,FALSE,TRUE,FALSE,FALSE,FALSE,6.974220681,79.91416539,0.9,94.6,328,TRUE,1,1,FALSE,FALSE,FALSE,FALSE,,TRUE,FALSE,FALSE,Course Lock,49.2,,16.4,Calm,33,,1.12.8,Mavic Mini,1SDCH7G0169R0K,1SFLH6Q0AB03DJ,1SRCH7F014TAHX,1U5X071EXP6C9Y,77.2,0.2,3.2,5.447396,3.131716,0,0,Mavic Mini,1SDCH7G0169R0K,1SFLH6Q0AB03DJ,1SRCH7F014TAHX,1U5X071EXP6C9Y,DJI Fly,,1.12.8,3D33349A-5DC5-69D2-8B2A-2762D611798E,1SDCH7G0169R0K,,,,,6.974143968,79.91413009,5,,
2/22/2024,31:18.3,14m 54.7s,894.7,6.974223269,79.9141667,0.3,0.3,0.9,50,1.3,0.223694,0.447388,0.223694,0.447388,0,0,-1.11847,0,3,0.9,29.3,29.3,10.2,Tripod,Drop Calibration,,12,5,TRUE,,Mavic Mini,TRUE,FALSE,,Smart,RC,FALSE,TRUE,FALSE,,,TRUE,,FALSE,FALSE,FALSE,FALSE,FALSE,FALSE,FALSE,FALSE,FALSE,FALSE,0,Follow Yaw,0,0,46.4,46.4,FALSE,FALSE,FALSE,FALSE,FALSE,FALSE,,TRUE,Normal,,100,1024,1024,1024,1024,2,FALSE,FALSE,FALSE,FALSE,FALSE,0,FALSE,FALSE,FALSE,FALSE,39,7.101,789,2056,7.242,FALSE,3.551,3.55,0.008,FALSE,FALSE,NA,119.8,119.8,119.8,0,0,0,0,5,2765.7,691.43,,Idle,0,20,FALSE,5,TRUE,6,Go Home,FALSE,FALSE,FALSE,FALSE,FALSE,FALSE,FALSE,FALSE,TRUE,FALSE,FALSE,FALSE,6.974220681,79.91416539,1,94.6,328,TRUE,1,1,FALSE,FALSE,FALSE,FALSE,,TRUE,FALSE,FALSE,Course Lock,49.2,,16.4,Calm,33,,1.12.8,Mavic Mini,1SDCH7G0169R0K,1SFLH6Q0AB03DJ,1SRCH7F014TAHX,1U5X071EXP6C9Y,77.2,0.2,3.2,5.447396,3.131716,0,0,Mavic Mini,1SDCH7G0169R0K,1SFLH6Q0AB03DJ,1SRCH7F014TAHX,1U5X071EXP6C9Y,DJI Fly,,1.12.8,3D33349A-5DC5-69D2-8B2A-2762D611798E,1SDCH7G0169R0K,,,,,6.974143968,79.91413009,5,,
2/22/2024,31:18.3,14m 54.8s,894.8,6.974223544,79.91416678,0.3,0.3,0.9,50,1.4,0.223694,0.447388,0.223694,0.447388,0,0,-1.11847,0,3.4,0.7,29.3,29.3,12.4,Tripod,Drop Calibration,,12,5,TRUE,,Mavic Mini,TRUE,FALSE,,Smart,RC,FALSE,TRUE,FALSE,,,TRUE,,FALSE,FALSE,FALSE,FALSE,FALSE,FALSE,FALSE,FALSE,FALSE,FALSE,0,Follow Yaw,0,0,46.4,46.4,FALSE,FALSE,FALSE,FALSE,FALSE,FALSE,,TRUE,Normal,,100,1024,1024,1024,1024,2,FALSE,FALSE,FALSE,FALSE,FALSE,0,FALSE,FALSE,FALSE,FALSE,39,7.101,788,2056,7.242,FALSE,3.551,3.55,0.008,FALSE,FALSE,NA,119.8,119.8,119.8,0,0,0,0,5,2765.7,691.43,,Idle,0,20,FALSE,5,TRUE,6,Go Home,FALSE,FALSE,FALSE,FALSE,FALSE,FALSE,FALSE,FALSE,TRUE,FALSE,FALSE,FALSE,6.974220681,79.91416539,1.1,94.6,328,TRUE,1,1,FALSE,FALSE,FALSE,FALSE,,TRUE,FALSE,FALSE,Course Lock,49.2,,16.4,Calm,33,,1.12.8,Mavic Mini,1SDCH7G0169R0K,1SFLH6Q0AB03DJ,1SRCH7F014TAHX,1U5X071EXP6C9Y,77.2,0.2,3.2,5.447396,3.131716,0,0,Mavic Mini,1SDCH7G0169R0K,1SFLH6Q0AB03DJ,1SRCH7F014TAHX,1U5X071EXP6C9Y,DJI Fly,,1.12.8,3D33349A-5DC5-69D2-8B2A-2762D611798E,1SDCH7G0169R0K,,,,,6.974143968,79.91413009,5,,
2/22/2024,31:18.5,14m 54.9s,894.9,6.974223822,79.91416687,0.6,0.6,1.3,50,1.5,0.223694,0.447388,0.223694,0.447388,0,0,-1.11847,0,2.9,0.4,29.4,29.4,14.8,Tripod,Drop Calibration,,12,5,TRUE,,Mavic Mini,TRUE,FALSE,,Smart,RC,FALSE,TRUE,FALSE,,,TRUE,,FALSE,FALSE,FALSE,FALSE,FALSE,FALSE,FALSE,FALSE,FALSE,FALSE,0,Follow Yaw,0,0,46.4,46.4,FALSE,FALSE,FALSE,FALSE,FALSE,FALSE,,TRUE,Normal,,100,1024,1024,1024,1024,2,FALSE,FALSE,FALSE,FALSE,FALSE,0,FALSE,FALSE,FALSE,FALSE,39,7.101,788,2056,7.242,FALSE,3.551,3.55,0.008,FALSE,FALSE,NA,119.8,119.8,119.8,0,0,0,0,5,2765.7,691.43,,Idle,0,20,FALSE,5,TRUE,6,Go Home,FALSE,FALSE,FALSE,FALSE,FALSE,FALSE,FALSE,FALSE,TRUE,FALSE,FALSE,FALSE,6.974220681,79.91416539,1.2,94.6,328,TRUE,1,1,FALSE,FALSE,FALSE,FALSE,,TRUE,FALSE,FALSE,Course Lock,49.2,,16.4,Calm,33,,1.12.8,Mavic Mini,1SDCH7G0169R0K,1SFLH6Q0AB03DJ,1SRCH7F014TAHX,1U5X071EXP6C9Y,77.2,0.2,3.2,5.447396,3.131716,0,0,Mavic Mini,1SDCH7G0169R0K,1SFLH6Q0AB03DJ,1SRCH7F014TAHX,1U5X071EXP6C9Y,DJI Fly,,1.12.8,3D33349A-5DC5-69D2-8B2A-2762D611798E,1SDCH7G0169R0K,,,,,6.974143968,79.91413009,5,,
2/22/2024,31:18.6,14m 55.0s,895,6.974223944,79.91416696,0.6,0.6,1.3,50,1.6,0.223694,0.447388,0.223694,0.447388,0,0,-0.894776,0,3.7,0,29.4,29.4,28.6,Tripod,Drop Calibration,,12,5,TRUE,,Mavic Mini,TRUE,FALSE,,Smart,RC,FALSE,TRUE,FALSE,,,TRUE,,FALSE,FALSE,FALSE,FALSE,FALSE,FALSE,FALSE,FALSE,FALSE,FALSE,0,Follow Yaw,0,0,46.4,46.4,FALSE,FALSE,FALSE,FALSE,FALSE,FALSE,,TRUE,Normal,,100,1024,1024,1024,1024,2,FALSE,FALSE,FALSE,FALSE,FALSE,0,FALSE,FALSE,FALSE,FALSE,39,7.101,788,2056,7.242,FALSE,3.551,3.55,0.008,FALSE,FALSE,NA,119.8,119.8,119.8,0,0,0,0,5,2765.7,691.43,,Idle,0,20,FALSE,5,TRUE,6,Go Home,FALSE,FALSE,FALSE,FALSE,FALSE,FALSE,FALSE,FALSE,TRUE,FALSE,FALSE,FALSE,6.974220681,79.91416539,1.3,94.6,328,TRUE,1,1,FALSE,FALSE,FALSE,FALSE,,TRUE,FALSE,FALSE,Course Lock,49.2,,16.4,Calm,33,,1.12.8,Mavic Mini,1SDCH7G0169R0K,1SFLH6Q0AB03DJ,1SRCH7F014TAHX,1U5X071EXP6C9Y,77.2,0.2,3.2,5.447396,3.131716,0,0,Mavic Mini,1SDCH7G0169R0K,1SFLH6Q0AB03DJ,1SRCH7F014TAHX,1U5X071EXP6C9Y,DJI Fly,,1.12.8,3D33349A-5DC5-69D2-8B2A-2762D611798E,1SDCH7G0169R0K,,,,,6.974143968,79.91413009,5,,
2/22/2024,31:18.8,14m 55.1s,895.1,6.974224006,79.91416705,0.6,0.6,1.6,50,1.6,0,0.447388,0,0.447388,0,0,-0.671082,0,4,-0.5,29.4,29.4,,Tripod,Drop Calibration,,12,5,TRUE,,Mavic Mini,TRUE,FALSE,,Smart,RC,FALSE,TRUE,FALSE,,,TRUE,,FALSE,FALSE,FALSE,FALSE,FALSE,FALSE,FALSE,FALSE,FALSE,FALSE,0,Follow Yaw,0,0,46.4,46.4,FALSE,FALSE,FALSE,FALSE,FALSE,FALSE,,TRUE,Normal,,100,1024,1024,1024,1024,2,FALSE,FALSE,FALSE,FALSE,FALSE,0,FALSE,FALSE,FALSE,FALSE,39,7.101,788,2056,7.188,FALSE,3.551,3.55,0.008,FALSE,FALSE,NA,119.8,119.8,119.8,0,0,6,0,5,3357.7,839.44,,Idle,0,20,FALSE,5,TRUE,6,Go Home,FALSE,FALSE,FALSE,FALSE,FALSE,FALSE,FALSE,FALSE,TRUE,FALSE,FALSE,FALSE,6.974222069,79.91416657,0.7,94.6,328,TRUE,1,1,FALSE,FALSE,FALSE,FALSE,,TRUE,FALSE,FALSE,Course Lock,49.2,,16.4,Calm,33,,1.12.8,Mavic Mini,1SDCH7G0169R0K,1SFLH6Q0AB03DJ,1SRCH7F014TAHX,1U5X071EXP6C9Y,77.2,0.2,3.2,5.447396,3.131716,0,0,Mavic Mini,1SDCH7G0169R0K,1SFLH6Q0AB03DJ,1SRCH7F014TAHX,1U5X071EXP6C9Y,DJI Fly,,1.12.8,3D33349A-5DC5-69D2-8B2A-2762D611798E,1SDCH7G0169R0K,,,,,6.974143968,79.91413009,5,Home Point Updated.,
2/22/2024,31:18.8,14m 55.2s,895.2,6.97422399,79.91416718,0.9,0.9,1.6,51,1.7,0,0.447388,0,0.447388,0,0,-0.447388,0,4.2,-0.5,29.4,29.4,,Tripod,Drop Calibration,,12,5,TRUE,,Mavic Mini,TRUE,FALSE,,Smart,RC,FALSE,TRUE,FALSE,,,TRUE,,FALSE,FALSE,FALSE,FALSE,FALSE,FALSE,FALSE,FALSE,FALSE,FALSE,0,Follow Yaw,0,0,46.4,46.4,FALSE,FALSE,FALSE,FALSE,FALSE,FALSE,,TRUE,Normal,,100,1024,1024,1024,1024,2,FALSE,FALSE,FALSE,FALSE,FALSE,0,FALSE,FALSE,FALSE,FALSE,39,7.101,788,2056,7.188,FALSE,3.551,3.55,0.008,FALSE,FALSE,NA,119.8,119.8,119.8,0,0,6,0,5,3357.7,839.44,,Idle,0,20,FALSE,5,TRUE,6,Go Home,FALSE,FALSE,FALSE,FALSE,FALSE,FALSE,FALSE,FALSE,TRUE,FALSE,FALSE,FALSE,6.974222069,79.91416657,0.7,94.6,328,TRUE,1,1,FALSE,FALSE,FALSE,FALSE,,TRUE,FALSE,FALSE,Course Lock,49.2,,16.4,Calm,33,,1.12.8,Mavic Mini,1SDCH7G0169R0K,1SFLH6Q0AB03DJ,1SRCH7F014TAHX,1U5X071EXP6C9Y,77.2,0.2,3.2,5.447396,3.131716,0,0,Mavic Mini,1SDCH7G0169R0K,1SFLH6Q0AB03DJ,1SRCH7F014TAHX,1U5X071EXP6C9Y,DJI Fly,,1.12.8,3D33349A-5DC5-69D2-8B2A-2762D611798E,1SDCH7G0169R0K,,,,,6.974143968,79.91413009,5,,
2/22/2024,31:18.9,14m 55.3s,895.3,6.974223948,79.91416731,0.9,0.9,1.6,51,1.7,0,0.447388,0,0.447388,0,0,-0.223694,0,3.6,-0.3,29.4,29.4,,Tripod,Drop Calibration,,12,5,TRUE,,Mavic Mini,TRUE,FALSE,,Smart,RC,FALSE,TRUE,FALSE,,,TRUE,,FALSE,FALSE,FALSE,FALSE,FALSE,FALSE,FALSE,FALSE,FALSE,FALSE,0,Follow Yaw,0,0,46.4,46.4,FALSE,FALSE,FALSE,FALSE,FALSE,FALSE,,TRUE,Normal,,100,1024,1024,1024,1024,2,FALSE,FALSE,FALSE,FALSE,FALSE,0,FALSE,FALSE,FALSE,FALSE,39,7.101,788,2056,7.188,FALSE,3.551,3.55,0.008,FALSE,FALSE,NA,119.8,119.8,119.8,0,0,6,0,5,3357.7,839.44,,Idle,0,20,FALSE,5,TRUE,6,Go Home,FALSE,FALSE,FALSE,FALSE,FALSE,FALSE,FALSE,FALSE,TRUE,FALSE,FALSE,FALSE,6.974222069,79.91416657,0.7,94.6,328,TRUE,1,1,FALSE,FALSE,FALSE,FALSE,,TRUE,FALSE,FALSE,Course Lock,49.2,,16.4,Calm,33,,1.12.8,Mavic Mini,1SDCH7G0169R0K,1SFLH6Q0AB03DJ,1SRCH7F014TAHX,1U5X071EXP6C9Y,77.2,0.2,3.2,5.447396,3.131716,0,0,Mavic Mini,1SDCH7G0169R0K,1SFLH6Q0AB03DJ,1SRCH7F014TAHX,1U5X071EXP6C9Y,DJI Fly,,1.12.8,3D33349A-5DC5-69D2-8B2A-2762D611798E,1SDCH7G0169R0K,,,,,6.974143968,79.91413009,5,,
2/22/2024,31:19.0,14m 55.4s,895.4,6.974223905,79.91416737,0.9,0.9,1.6,51,1.8,0,0.447388,0,0.447388,0,0,0,0,3.5,0,29.4,29.4,,Tripod,Drop Calibration,,12,5,TRUE,,Mavic Mini,TRUE,FALSE,,Smart,RC,FALSE,TRUE,FALSE,,,TRUE,,FALSE,FALSE,FALSE,FALSE,FALSE,FALSE,FALSE,FALSE,FALSE,FALSE,0,Follow Yaw,0,0,46.4,46.4,FALSE,FALSE,FALSE,FALSE,FALSE,FALSE,,TRUE,Normal,,100,1024,1024,1024,1024,2,FALSE,FALSE,FALSE,FALSE,FALSE,0,FALSE,FALSE,FALSE,FALSE,39,7.101,788,2056,7.188,FALSE,3.551,3.55,0.008,FALSE,FALSE,NA,119.8,119.8,119.8,0,0,6,0,5,3357.7,839.44,,Idle,0,20,FALSE,5,TRUE,6,Go Home,FALSE,FALSE,FALSE,FALSE,FALSE,FALSE,FALSE,FALSE,TRUE,FALSE,FALSE,FALSE,6.974222069,79.91416657,0.7,94.6,328,TRUE,1,1,FALSE,FALSE,FALSE,FALSE,,TRUE,FALSE,FALSE,Course Lock,49.2,,16.4,Calm,33,,1.12.8,Mavic Mini,1SDCH7G0169R0K,1SFLH6Q0AB03DJ,1SRCH7F014TAHX,1U5X071EXP6C9Y,77.2,0.2,3.2,5.447396,3.131716,0,0,Mavic Mini,1SDCH7G0169R0K,1SFLH6Q0AB03DJ,1SRCH7F014TAHX,1U5X071EXP6C9Y,DJI Fly,,1.12.8,3D33349A-5DC5-69D2-8B2A-2762D611798E,1SDCH7G0169R0K,,,,,6.974143968,79.91413009,5,,
2/22/2024,31:19.1,14m 55.5s,895.5,6.974223461,79.91416745,0.9,0.9,1.6,51,1.9,0,0.447388,0,0.447388,0,0,0,0,2.7,0,29.4,29.4,,Tripod,Drop Calibration,,12,5,TRUE,,Mavic Mini,TRUE,FALSE,,Smart,RC,FALSE,TRUE,FALSE,,,TRUE,,FALSE,FALSE,FALSE,FALSE,FALSE,FALSE,FALSE,FALSE,FALSE,FALSE,0,Follow Yaw,0,0,46.4,46.4,FALSE,FALSE,FALSE,FALSE,FALSE,FALSE,,TRUE,Normal,,100,1024,1024,1024,776,2,FALSE,FALSE,FALSE,FALSE,FALSE,0,FALSE,FALSE,FALSE,FALSE,39,7.101,788,2056,7.188,FALSE,3.551,3.55,0.008,FALSE,FALSE,NA,119.8,119.8,119.8,0,0,6,0,5,3357.7,839.44,,Idle,0,20,FALSE,5,TRUE,6,Go Home,FALSE,FALSE,FALSE,FALSE,FALSE,FALSE,FALSE,FALSE,TRUE,FALSE,FALSE,FALSE,6.974222069,79.91416657,0.5,94.6,328,TRUE,1,1,FALSE,FALSE,FALSE,FALSE,,TRUE,FALSE,FALSE,Course Lock,49.2,,16.4,Calm,33,,1.12.8,Mavic Mini,1SDCH7G0169R0K,1SFLH6Q0AB03DJ,1SRCH7F014TAHX,1U5X071EXP6C9Y,77.2,0.2,3.2,5.447396,3.131716,0,0,Mavic Mini,1SDCH7G0169R0K,1SFLH6Q0AB03DJ,1SRCH7F014TAHX,1U5X071EXP6C9Y,DJI Fly,,1.12.8,3D33349A-5DC5-69D2-8B2A-2762D611798E,1SDCH7G0169R0K,,,,,6.974143968,79.91413009,5,,
2/22/2024,31:19.1,14m 55.6s,895.6,6.974223457,79.91416746,0.9,0.9,1.6,51,1.9,0,0.447388,0,0.447388,0,0,0,0,3.2,0,29.4,29.4,,Tripod,Drop Calibration,,12,5,TRUE,,Mavic Mini,TRUE,FALSE,,Smart,RC,FALSE,TRUE,FALSE,,,TRUE,,FALSE,FALSE,FALSE,FALSE,FALSE,FALSE,FALSE,FALSE,FALSE,FALSE,0,Follow Yaw,0,0,46.4,46.4,FALSE,FALSE,FALSE,FALSE,FALSE,FALSE,,TRUE,Normal,,100,1024,1024,1024,415,2,FALSE,FALSE,FALSE,FALSE,FALSE,0,FALSE,FALSE,FALSE,FALSE,39,7.101,788,2056,7.188,FALSE,3.551,3.55,0.008,FALSE,FALSE,NA,119.8,119.8,119.8,0,0,6,0,5,3357.7,839.44,,Idle,0,20,FALSE,5,TRUE,6,Go Home,FALSE,FALSE,FALSE,FALSE,FALSE,FALSE,FALSE,FALSE,TRUE,FALSE,FALSE,FALSE,6.974222069,79.91416657,0.6,94.6,328,TRUE,1,1,FALSE,FALSE,FALSE,FALSE,,TRUE,FALSE,FALSE,Course Lock,49.2,,16.4,Calm,33,,1.12.8,Mavic Mini,1SDCH7G0169R0K,1SFLH6Q0AB03DJ,1SRCH7F014TAHX,1U5X071EXP6C9Y,77.2,0.2,3.2,5.447396,3.131716,0,0,Mavic Mini,1SDCH7G0169R0K,1SFLH6Q0AB03DJ,1SRCH7F014TAHX,1U5X071EXP6C9Y,DJI Fly,,1.12.8,3D33349A-5DC5-69D2-8B2A-2762D611798E,1SDCH7G0169R0K,,,,,6.974143968,79.91413009,5,,
2/22/2024,31:19.3,14m 55.7s,895.7,6.974223459,79.91416747,0.9,0.9,1.6,51,1.9,0,0.447388,0,0.447388,0,0,0,0,3.6,-0.5,29.4,29.4,,Tripod,Drop Calibration,,12,5,TRUE,,Mavic Mini,TRUE,FALSE,,Smart,RC,FALSE,TRUE,FALSE,,,TRUE,,FALSE,FALSE,FALSE,FALSE,FALSE,FALSE,FALSE,FALSE,FALSE,FALSE,0,Follow Yaw,0,0,46.2,46.2,FALSE,FALSE,FALSE,FALSE,FALSE,FALSE,,TRUE,Normal,,100,1024,1024,1024,364,2,FALSE,FALSE,FALSE,FALSE,FALSE,0,FALSE,FALSE,FALSE,FALSE,39,7.101,788,2056,7.188,FALSE,3.551,3.55,0.008,FALSE,FALSE,NA,119.8,119.8,119.8,0,0,6,0,5,3357.7,839.44,,Idle,0,20,FALSE,5,TRUE,6,Go Home,FALSE,FALSE,FALSE,FALSE,FALSE,FALSE,FALSE,FALSE,TRUE,FALSE,FALSE,FALSE,6.974222069,79.91416657,0.6,94.6,328,TRUE,1,1,FALSE,FALSE,FALSE,FALSE,,TRUE,FALSE,FALSE,Course Lock,49.2,,16.4,Calm,33,,1.12.8,Mavic Mini,1SDCH7G0169R0K,1SFLH6Q0AB03DJ,1SRCH7F014TAHX,1U5X071EXP6C9Y,77.2,0.2,3.2,5.447396,3.131716,0,0,Mavic Mini,1SDCH7G0169R0K,1SFLH6Q0AB03DJ,1SRCH7F014TAHX,1U5X071EXP6C9Y,DJI Fly,,1.12.8,3D33349A-5DC5-69D2-8B2A-2762D611798E,1SDCH7G0169R0K,,,,,6.974143968,79.91413009,5,Home Point updated. RTH altitude adjusted to 15 m! (Code: 120852).,
2/22/2024,31:19.3,14m 55.8s,895.8,6.974223456,79.91416747,0.6,0.9,1.9,50,1.9,0,0.447388,0,0.447388,0,0,0,0,3.9,-0.9,29.2,29.2,,Tripod,Drop Calibration,,12,5,TRUE,,Mavic Mini,TRUE,FALSE,,Smart,RC,FALSE,TRUE,FALSE,,,TRUE,,FALSE,FALSE,FALSE,FALSE,FALSE,FALSE,FALSE,FALSE,FALSE,FALSE,0,Follow Yaw,0,0,45.5,45.5,FALSE,FALSE,FALSE,FALSE,FALSE,FALSE,,TRUE,Normal,,100,1024,1024,1024,364,2,FALSE,FALSE,FALSE,FALSE,FALSE,0,FALSE,FALSE,FALSE,FALSE,39,7.101,788,2056,7.188,FALSE,3.551,3.55,0.008,FALSE,FALSE,NA,119.8,119.8,119.8,0,0,6,0,5,3357.7,839.44,,Idle,0,20,FALSE,5,TRUE,6,Go Home,FALSE,FALSE,FALSE,FALSE,FALSE,FALSE,FALSE,FALSE,TRUE,FALSE,FALSE,FALSE,6.974222069,79.91416657,0.6,94.6,328,TRUE,1,1,FALSE,FALSE,FALSE,FALSE,,TRUE,FALSE,FALSE,Course Lock,49.2,,16.4,Calm,33,,1.12.8,Mavic Mini,1SDCH7G0169R0K,1SFLH6Q0AB03DJ,1SRCH7F014TAHX,1U5X071EXP6C9Y,77.2,0.2,3.2,5.447396,3.131716,0,0,Mavic Mini,1SDCH7G0169R0K,1SFLH6Q0AB03DJ,1SRCH7F014TAHX,1U5X071EXP6C9Y,DJI Fly,,1.12.8,3D33349A-5DC5-69D2-8B2A-2762D611798E,1SDCH7G0169R0K,,,,,6.974143968,79.91413009,5,,
2/22/2024,31:19.4,14m 55.9s,895.9,6.97422345,79.91416732,0.6,0.9,1.9,50,2,0,0.447388,0,0.447388,0,0,0,0,3.6,-1.1,28.8,28.8,,Tripod,Drop Calibration,,12,5,TRUE,,Mavic Mini,TRUE,FALSE,,Smart,RC,FALSE,TRUE,FALSE,,,TRUE,,FALSE,FALSE,FALSE,FALSE,FALSE,FALSE,FALSE,FALSE,FALSE,FALSE,0,Follow Yaw,0,0,43.9,43.9,FALSE,FALSE,FALSE,FALSE,FALSE,FALSE,,TRUE,Normal,,100,1024,1024,1024,364,2,FALSE,FALSE,FALSE,FALSE,FALSE,0,FALSE,FALSE,FALSE,FALSE,39,7.114,787,2056,7.188,FALSE,3.559,3.555,0.008,FALSE,FALSE,NA,119.8,119.8,119.8,0,0,6,0,5,3357.7,839.44,,Idle,0,20,FALSE,5,TRUE,6,Go Home,FALSE,FALSE,FALSE,FALSE,FALSE,FALSE,FALSE,FALSE,TRUE,FALSE,FALSE,FALSE,6.974222069,79.91416657,0.5,94.6,328,TRUE,1,1,FALSE,FALSE,FALSE,FALSE,,TRUE,FALSE,FALSE,Course Lock,49.2,,16.4,Calm,33,,1.12.8,Mavic Mini,1SDCH7G0169R0K,1SFLH6Q0AB03DJ,1SRCH7F014TAHX,1U5X071EXP6C9Y,77.2,0.2,3.2,5.447396,3.131716,0,0,Mavic Mini,1SDCH7G0169R0K,1SFLH6Q0AB03DJ,1SRCH7F014TAHX,1U5X071EXP6C9Y,DJI Fly,,1.12.8,3D33349A-5DC5-69D2-8B2A-2762D611798E,1SDCH7G0169R0K,,,,,6.974143968,79.91413009,5,,
2/22/2024,31:19.6,14m 56.0s,896,6.974223496,79.91416737,0.6,0.9,1.9,50,2,0,0.447388,0,0.447388,0,0,0,0,3.7,-1,27.7,27.7,,Tripod,Drop Calibration,,12,5,TRUE,,Mavic Mini,TRUE,FALSE,,Smart,RC,FALSE,TRUE,FALSE,,,TRUE,,FALSE,FALSE,FALSE,FALSE,FALSE,FALSE,FALSE,FALSE,FALSE,FALSE,0,Follow Yaw,0,0,41.8,41.8,FALSE,FALSE,FALSE,FALSE,FALSE,FALSE,,TRUE,Normal,,100,1024,1024,1024,364,2,FALSE,FALSE,FALSE,FALSE,FALSE,0,FALSE,FALSE,FALSE,FALSE,39,7.114,787,2056,7.188,FALSE,3.559,3.555,0.008,FALSE,FALSE,NA,119.8,119.8,119.8,0,0,6,0,5,3357.7,839.44,,Idle,0,20,FALSE,5,TRUE,6,Go Home,FALSE,FALSE,FALSE,FALSE,FALSE,FALSE,FALSE,FALSE,TRUE,FALSE,FALSE,FALSE,6.974222069,79.91416657,0.5,94.6,328,TRUE,1,1,FALSE,FALSE,FALSE,FALSE,,TRUE,FALSE,FALSE,Course Lock,49.2,,16.4,Calm,33,,1.12.8,Mavic Mini,1SDCH7G0169R0K,1SFLH6Q0AB03DJ,1SRCH7F014TAHX,1U5X071EXP6C9Y,77.2,0.2,3.2,5.447396,3.131716,0,0,Mavic Mini,1SDCH7G0169R0K,1SFLH6Q0AB03DJ,1SRCH7F014TAHX,1U5X071EXP6C9Y,DJI Fly,,1.12.8,3D33349A-5DC5-69D2-8B2A-2762D611798E,1SDCH7G0169R0K,,,,,6.974143968,79.91413009,5,,
2/22/2024,31:19.7,14m 56.1s,896.1,6.974223546,79.91416741,0.6,0.9,1.9,50,2,0,0.447388,0,0.447388,0,0,0,0,3.6,-0.8,26.2,26.2,,Tripod,Drop Calibration,,11,4,TRUE,,Mavic Mini,TRUE,FALSE,,Smart,RC,FALSE,TRUE,FALSE,,,TRUE,,FALSE,FALSE,FALSE,FALSE,FALSE,FALSE,FALSE,FALSE,FALSE,FALSE,0,Follow Yaw,0,0,39.4,39.4,FALSE,FALSE,FALSE,FALSE,FALSE,FALSE,,TRUE,Normal,,100,1024,1024,1024,364,2,FALSE,FALSE,FALSE,FALSE,FALSE,0,FALSE,FALSE,FALSE,FALSE,39,7.114,787,2056,7.097,FALSE,3.559,3.555,0.008,FALSE,FALSE,NA,119.8,119.8,119.8,0,0,6,0,5,4751.3,1187.83,,Idle,0,20,FALSE,5,TRUE,6,Go Home,FALSE,FALSE,FALSE,FALSE,FALSE,FALSE,FALSE,FALSE,TRUE,FALSE,FALSE,FALSE,6.974222069,79.91416657,0.6,94.6,328,TRUE,1,1,FALSE,FALSE,FALSE,FALSE,,TRUE,FALSE,FALSE,Course Lock,49.2,,16.4,Calm,33,,1.12.8,Mavic Mini,1SDCH7G0169R0K,1SFLH6Q0AB03DJ,1SRCH7F014TAHX,1U5X071EXP6C9Y,77.2,0.2,3.2,5.447396,3.131716,0,0,Mavic Mini,1SDCH7G0169R0K,1SFLH6Q0AB03DJ,1SRCH7F014TAHX,1U5X071EXP6C9Y,DJI Fly,,1.12.8,3D33349A-5DC5-69D2-8B2A-2762D611798E,1SDCH7G0169R0K,,,,,6.974143968,79.91413009,5,,
