CUSTOM.date [local],CUSTOM.updateTime [local],OSD.flyTime,OSD.flyTime [s],OSD.latitude,OSD.longitude,OSD.height [ft],OSD.heightMax [ft],OSD.vpsHeight [ft],OSD.altitude [ft],OSD.mileage [ft],OSD.hSpeed [MPH],OSD.hSpeedMax [MPH],OSD.xSpeed [MPH],OSD.xSpeedMax [MPH],OSD.ySpeed [MPH],OSD.ySpeedMax [MPH],OSD.zSpeed [MPH],OSD.zSpeedMax [MPH],OSD.pitch,OSD.roll,OSD.yaw,OSD.yaw [360],OSD.directionOfTravel,OSD.flycState,OSD.flycCommand,OSD.flightAction,OSD.gpsNum,OSD.gpsLevel,OSD.isGPSUsed,OSD.nonGPSCause,OSD.droneType,OSD.isSwaveWork,OSD.waveError,OSD.goHomeStatus,OSD.batteryType,OSD.ctrlDevice,OSD.isOnGround,OSD.isMotorOn,OSD.isMotorBlocked,OSD.motorStartFailedCause,OSD.motorFailReason,OSD.isImuPreheated,OSD.imuInitFailReason,OSD.isAcceletorOverRange,OSD.isBarometerDeadInAir,OSD.isCompassError,OSD.isGoHomeHeightModified,OSD.canIOCWork,OSD.isNotEnoughForce,OSD.isOutOfLimit,OSD.isPropellerCatapult,OSD.isVibrating,OSD.isVisionUsed,OSD.voltageWarning,GIMBAL.mode,GIMBAL.pitch,GIMBAL.roll,GIMBAL.yaw,GIMBAL.yaw [360],GIMBAL.isPitchAtLimit,GIMBAL.isRollAtLimit,GIMBAL.isYawAtLimit,GIMBAL.isStuck,CAMERA.isPhoto,CAMERA.isVideo,CAMERA.filename,CAMERA.sdCardIsInserted,CAMERA.sdCardState,RC.downlinkSignal,RC.uplinkSignal,RC.aileron,RC.elevator,RC.throttle,RC.rudder,RC.mode,RC.goHomeDepressed,RC.recordDepressed,RC.shutterDepressed,RC.playbackDepressed,RC.wheelDepressed,RC.wheelOffset,RC.custom1Depressed,RC.custom2Depressed,RC.custom3Depressed,RC.custom4Depressed,BATTERY.chargeLevel,BATTERY.currentPV [V],BATTERY.currentCapacity [mAh],BATTERY.fullCapacity [mAh],BATTERY.voltage [V],BATTERY.isCellVoltageEstimated,BATTERY.cellVoltage1 [V],BATTERY.cellVoltage2 [V],BATTERY.maxCellVoltageDeviation,BATTERY.isCellVoltageDeviationHigh,BATTERY.isVoltageLow,BATTERY.current [A],BATTERY.temperature [F],BATTERY.minTemperature [F],BATTERY.maxTemperature [F],BATTERY.usefulTime [s],BATTERY.goHomeTime [s],BATTERY.landTime [s],BATTERY.goHomeBattery,BATTERY.landBattery,BATTERY.safeFlyRadius,BATTERY.volumeConsume,BATTERY.status,BATTERY.goHomeStatus,BATTERY.goHomeCountdown,BATTERY.lowWarning,BATTERY.lowWarningGoHome,BATTERY.seriousLowWarning,BATTERY.seriousLowWarningLanding,BATTERY.timesCharged,MC.failSafeAction,MC.isObstacleAvoidanceEnabled,MC.isCollisionAvoidanceEnabled,MC.isRthObstacleAvoidanceEnabled,MC.isBraking,MC.isAvoidingObstacle,MC.isAvoidingActiveObstacle,MC.isAscentLimitedByObstacle,MC.isLandingConfirmationNeeded,MC.atLowAltitudeLimit,MC.atDistanceLimit,MC.atAirportAltitudeLimit,MC.atAirportBoundary,HOME.latitude,HOME.longitude,HOME.distance [ft],HOME.height [ft],HOME.heightLimit [ft],HOME.isHomeRecord,HOME.goHomeMode,HOME.aircraftHeadDirection,HOME.isDynamicHomePointEnabled,HOME.isReachedLimitDistance,HOME.isReachedLimitHeight,HOME.isCompassCalibrating,HOME.compassCalibrationState,HOME.isMultipleFlightModeEnabled,HOME.isBeginnerMode,HOME.isIOCEnabled,HOME.iocMode,HOME.goHomeHeight [ft],HOME.courseLockAngle,HOME.forceLandingHeight [ft],HOME.wind,HOME.dataRecorderFileIndex,RECOVER.appType,RECOVER.appVersion,RECOVER.aircraftName,RECOVER.aircraftSerial,RECOVER.cameraSerial,RECOVER.rcSerial,RECOVER.batterySerial,DETAILS.totalTime [s],DETAILS.totalDistance [ft],DETAILS.maxHeight [ft],DETAILS.maxHorizontalSpeed [MPH],DETAILS.maxVerticalSpeed [MPH],DETAILS.photoNum,DETAILS.videoTime [s],DETAILS.aircraftName,DETAILS.aircraftSerial,DETAILS.cameraSerial,DETAILS.rcSerial,DETAILS.batterySerial,DETAILS.appName,DETAILS.appType,DETAILS.appVersion,DETAILS.guid,SERIAL.flightController,SERIAL.camera,SERIAL.gimbal,SERIAL.rc,SERIAL.battery,APPGPS.latitude,APPGPS.longitude,APPGPS.accuracy,APP.tip,APP.warning
2/27/2024,03:40.3,1m 43.7s,103.7,6.974176796,79.9145273,0,0,,61,0,0,0,0,0,0,0,0,0,7.7,1.2,157.6,157.6,,Starting Motors,Other,Takeoff (RC Assisted),13,5,TRUE,,Mavic Mini,FALSE,FALSE,,Smart,RC,TRUE,TRUE,FALSE,,,TRUE,,FALSE,FALSE,FALSE,FALSE,FALSE,FALSE,FALSE,FALSE,FALSE,FALSE,0,Follow Yaw,-0.3,0,155.9,155.9,FALSE,FALSE,FALSE,FALSE,FALSE,FALSE,,TRUE,Normal,,,1024,1024,1024,1024,1,FALSE,FALSE,FALSE,FALSE,FALSE,0,FALSE,FALSE,FALSE,FALSE,90,7.968,1867,2063,7.968,TRUE,3.984,3.984,,FALSE,FALSE,NA,90.1,90.1,90.1,,,,,,,,,Idle,,,TRUE,,FALSE,6,Go Home,FALSE,FALSE,FALSE,FALSE,FALSE,FALSE,FALSE,FALSE,FALSE,FALSE,FALSE,FALSE,,,,,,FALSE,,,FALSE,FALSE,FALSE,FALSE,,FALSE,FALSE,FALSE,,,,,Calm,,,1.12.8,Mavic Mini,1SDCH7G0169R0K,1SFLH6Q0AB03DJ,1SRCH7F014TAHX,1U5X071EXP6C9Y,88.7,0.2,32.8,9.347053,4.47388,0,102,Mavic Mini,1SDCH7G0169R0K,1SFLH6Q0AB03DJ,1SRCH7F014TAHX,1U5X071EXP6C9Y,DJI Fly,,1.12.8,83AA36EE-5E72-76F5-C421-0CC760FDA018,1SDCH7G0169R0K,,,,,,,,Flight mode changed to Starting Motors.,
2/27/2024,01:56.7,1m 43.8s,103.8,6.974176794,79.91452731,0,0,,61,0,0,0,0,0,0,0,0,0,7.7,1.2,157.6,157.6,,Starting Motors,Other,Takeoff (RC Assisted),13,5,TRUE,,Mavic Mini,FALSE,FALSE,,Smart,RC,TRUE,TRUE,FALSE,,,TRUE,,FALSE,FALSE,FALSE,FALSE,FALSE,FALSE,FALSE,FALSE,FALSE,FALSE,0,Follow Yaw,-0.3,0,155.9,155.9,FALSE,FALSE,FALSE,FALSE,FALSE,FALSE,,TRUE,Normal,,,1024,1024,1024,1024,1,FALSE,FALSE,FALSE,FALSE,FALSE,0,FALSE,FALSE,FALSE,FALSE,90,7.968,1867,2063,7.968,TRUE,3.984,3.984,,FALSE,FALSE,NA,90.1,90.1,90.1,,,,,,,,,Idle,,,TRUE,,FALSE,6,Go Home,FALSE,FALSE,FALSE,FALSE,FALSE,FALSE,FALSE,FALSE,FALSE,FALSE,FALSE,FALSE,,,,,,FALSE,,,FALSE,FALSE,FALSE,FALSE,,FALSE,FALSE,FALSE,,,,,Calm,,,1.12.8,Mavic Mini,1SDCH7G0169R0K,1SFLH6Q0AB03DJ,1SRCH7F014TAHX,1U5X071EXP6C9Y,88.7,0.2,32.8,9.347053,4.47388,0,102,Mavic Mini,1SDCH7G0169R0K,1SFLH6Q0AB03DJ,1SRCH7F014TAHX,1U5X071EXP6C9Y,DJI Fly,,1.12.8,83AA36EE-5E72-76F5-C421-0CC760FDA018,1SDCH7G0169R0K,,,,,,,,,
2/27/2024,01:56.8,1m 43.9s,103.9,6.974176756,79.91452731,0,0,0.3,61,0,0,0,0,0,0,0,0,0,7.7,1.2,157.7,157.7,,Starting Motors,Other,Takeoff (RC Assisted),13,5,TRUE,,Mavic Mini,TRUE,FALSE,,Smart,RC,TRUE,TRUE,FALSE,,,TRUE,,FALSE,FALSE,FALSE,FALSE,FALSE,FALSE,FALSE,FALSE,FALSE,FALSE,0,Follow Yaw,-0.3,0,155.9,155.9,FALSE,FALSE,FALSE,FALSE,FALSE,FALSE,,TRUE,Normal,,100,1024,1024,1024,1024,1,FALSE,FALSE,FALSE,FALSE,FALSE,0,FALSE,FALSE,FALSE,FALSE,90,7.968,1867,2063,7.963,TRUE,3.982,3.982,,FALSE,FALSE,NA,90.1,90.1,90.1,0,1,0,0,5,2012.7,503.19,,Idle,0,20,FALSE,5,TRUE,6,Go Home,FALSE,FALSE,FALSE,FALSE,FALSE,FALSE,FALSE,FALSE,FALSE,FALSE,FALSE,FALSE,6.974171863,79.91452031,3.1,183.7,328,TRUE,1,1,FALSE,FALSE,FALSE,FALSE,,TRUE,FALSE,FALSE,Course Lock,49.2,254.5,16.4,Calm,39,,1.12.8,Mavic Mini,1SDCH7G0169R0K,1SFLH6Q0AB03DJ,1SRCH7F014TAHX,1U5X071EXP6C9Y,88.7,0.2,32.8,9.347053,4.47388,0,102,Mavic Mini,1SDCH7G0169R0K,1SFLH6Q0AB03DJ,1SRCH7F014TAHX,1U5X071EXP6C9Y,DJI Fly,,1.12.8,83AA36EE-5E72-76F5-C421-0CC760FDA018,1SDCH7G0169R0K,,,,,,,,Data Recorder File Index is 39.; Set Return to Home (RTH) altitude to 15 m (49 ft).; Set maximum flight altitude to 100 m (328 ft).,
2/27/2024,01:56.9,1m 44.0s,104,6.974176709,79.91452731,0,0,0.3,61,0,0,0,0,0,0,0,0,0,7.7,1.2,157.6,157.6,,Starting Motors,Other,Takeoff (RC Assisted),13,5,TRUE,,Mavic Mini,TRUE,FALSE,,Smart,RC,TRUE,TRUE,FALSE,,,TRUE,,FALSE,FALSE,FALSE,FALSE,FALSE,FALSE,FALSE,FALSE,FALSE,FALSE,0,Follow Yaw,-0.3,0,155.9,155.9,FALSE,FALSE,FALSE,FALSE,FALSE,FALSE,,TRUE,Normal,,100,1024,1024,1024,1024,1,FALSE,FALSE,FALSE,FALSE,FALSE,0,FALSE,FALSE,FALSE,FALSE,90,7.968,1867,2063,7.963,TRUE,3.982,3.982,,FALSE,FALSE,NA,90.1,90.1,90.1,0,1,0,0,5,2012.7,503.19,,Idle,0,20,FALSE,5,TRUE,6,Go Home,FALSE,FALSE,FALSE,FALSE,FALSE,FALSE,FALSE,FALSE,FALSE,FALSE,FALSE,FALSE,6.974171863,79.91452031,3,183.7,328,TRUE,1,1,FALSE,FALSE,FALSE,FALSE,,TRUE,FALSE,FALSE,Course Lock,49.2,254.5,16.4,Calm,39,,1.12.8,Mavic Mini,1SDCH7G0169R0K,1SFLH6Q0AB03DJ,1SRCH7F014TAHX,1U5X071EXP6C9Y,88.7,0.2,32.8,9.347053,4.47388,0,102,Mavic Mini,1SDCH7G0169R0K,1SFLH6Q0AB03DJ,1SRCH7F014TAHX,1U5X071EXP6C9Y,DJI Fly,,1.12.8,83AA36EE-5E72-76F5-C421-0CC760FDA018,1SDCH7G0169R0K,,,,,,,,,
2/27/2024,01:57.1,1m 44.1s,104.1,6.974176691,79.9145273,0,0,0.3,61,0,0,0,0,0,0,0,0,0,7.7,1.2,157.5,157.5,,Starting Motors,Other,Takeoff (RC Assisted),13,5,TRUE,,Mavic Mini,TRUE,FALSE,,Smart,RC,TRUE,TRUE,FALSE,,,TRUE,,FALSE,FALSE,FALSE,FALSE,FALSE,FALSE,FALSE,FALSE,FALSE,FALSE,0,Follow Yaw,-0.3,0,155.9,155.9,FALSE,FALSE,FALSE,FALSE,FALSE,FALSE,,TRUE,Normal,,100,1024,1024,1024,1024,1,FALSE,FALSE,FALSE,FALSE,FALSE,0,FALSE,FALSE,FALSE,FALSE,90,7.964,1866,2063,7.963,FALSE,3.986,3.978,0.008,FALSE,FALSE,NA,90.1,90.1,90.1,0,1,0,0,5,2012.7,503.19,,Idle,0,20,FALSE,5,TRUE,6,Go Home,FALSE,FALSE,FALSE,FALSE,FALSE,FALSE,FALSE,FALSE,FALSE,FALSE,FALSE,FALSE,6.974171863,79.91452031,3,183.7,328,TRUE,1,1,FALSE,FALSE,FALSE,FALSE,,TRUE,FALSE,FALSE,Course Lock,49.2,254.5,16.4,Calm,39,,1.12.8,Mavic Mini,1SDCH7G0169R0K,1SFLH6Q0AB03DJ,1SRCH7F014TAHX,1U5X071EXP6C9Y,88.7,0.2,32.8,9.347053,4.47388,0,102,Mavic Mini,1SDCH7G0169R0K,1SFLH6Q0AB03DJ,1SRCH7F014TAHX,1U5X071EXP6C9Y,DJI Fly,,1.12.8,83AA36EE-5E72-76F5-C421-0CC760FDA018,1SDCH7G0169R0K,,,,,,,,,
2/27/2024,01:57.1,1m 44.2s,104.2,6.974176651,79.91452721,0,0,0.3,61,0,0,0,0,0,0,0,0,0,7.7,1.1,157.6,157.6,,Starting Motors,Other,Takeoff (RC Assisted),13,5,TRUE,,Mavic Mini,TRUE,FALSE,,Smart,RC,TRUE,TRUE,FALSE,,,TRUE,,FALSE,FALSE,FALSE,FALSE,FALSE,FALSE,FALSE,FALSE,FALSE,FALSE,0,Follow Yaw,-0.3,0,155.8,155.8,FALSE,FALSE,FALSE,FALSE,FALSE,FALSE,,TRUE,Normal,,100,1024,1024,1024,1024,1,FALSE,FALSE,FALSE,FALSE,FALSE,0,FALSE,FALSE,FALSE,FALSE,90,7.964,1866,2063,7.963,FALSE,3.986,3.978,0.008,FALSE,FALSE,NA,90.1,90.1,90.1,0,1,0,0,5,2012.7,503.19,,Idle,0,20,FALSE,5,TRUE,6,Go Home,FALSE,FALSE,FALSE,FALSE,FALSE,FALSE,FALSE,FALSE,FALSE,FALSE,FALSE,FALSE,6.974171863,79.91452031,3,183.7,328,TRUE,1,1,FALSE,FALSE,FALSE,FALSE,,TRUE,FALSE,FALSE,Course Lock,49.2,254.5,16.4,Calm,39,,1.12.8,Mavic Mini,1SDCH7G0169R0K,1SFLH6Q0AB03DJ,1SRCH7F014TAHX,1U5X071EXP6C9Y,88.7,0.2,32.8,9.347053,4.47388,0,102,Mavic Mini,1SDCH7G0169R0K,1SFLH6Q0AB03DJ,1SRCH7F014TAHX,1U5X071EXP6C9Y,DJI Fly,,1.12.8,83AA36EE-5E72-76F5-C421-0CC760FDA018,1SDCH7G0169R0K,,,,,,,,,
2/27/2024,01:57.3,1m 44.3s,104.3,6.974176652,79.91452725,0,0,0.3,61,0,0,0,0,0,0,0,0,0,7.7,1.2,157.5,157.5,,Starting Motors,Other,Takeoff (RC Assisted),13,5,TRUE,,Mavic Mini,TRUE,FALSE,,Smart,RC,TRUE,TRUE,FALSE,,,TRUE,,FALSE,FALSE,FALSE,FALSE,FALSE,FALSE,FALSE,FALSE,FALSE,FALSE,0,Follow Yaw,-0.3,0,155.8,155.8,FALSE,FALSE,FALSE,FALSE,FALSE,FALSE,,TRUE,Normal,,100,1024,1024,1024,1024,1,FALSE,FALSE,FALSE,FALSE,FALSE,0,FALSE,FALSE,FALSE,FALSE,90,7.964,1866,2063,7.963,FALSE,3.986,3.978,0.008,FALSE,FALSE,NA,90.1,90.1,90.1,0,1,0,0,5,2012.7,503.19,,Idle,0,20,FALSE,5,TRUE,6,Go Home,FALSE,FALSE,FALSE,FALSE,FALSE,FALSE,FALSE,FALSE,FALSE,FALSE,FALSE,FALSE,6.974171863,79.91452031,3,183.7,328,TRUE,1,1,FALSE,FALSE,FALSE,FALSE,,TRUE,FALSE,FALSE,Course Lock,49.2,254.5,16.4,Calm,39,,1.12.8,Mavic Mini,1SDCH7G0169R0K,1SFLH6Q0AB03DJ,1SRCH7F014TAHX,1U5X071EXP6C9Y,88.7,0.2,32.8,9.347053,4.47388,0,102,Mavic Mini,1SDCH7G0169R0K,1SFLH6Q0AB03DJ,1SRCH7F014TAHX,1U5X071EXP6C9Y,DJI Fly,,1.12.8,83AA36EE-5E72-76F5-C421-0CC760FDA018,1SDCH7G0169R0K,,,,,,,,,
2/27/2024,01:57.3,1m 44.4s,104.4,6.974176654,79.9145273,0,0,0.3,61,0.1,0,0,0,0,0,0,0,0,7.8,1.1,157.5,157.5,,Starting Motors,Other,Takeoff (RC Assisted),13,5,TRUE,,Mavic Mini,TRUE,FALSE,,Smart,RC,TRUE,TRUE,FALSE,,,TRUE,,FALSE,FALSE,FALSE,FALSE,FALSE,FALSE,FALSE,FALSE,FALSE,FALSE,0,Follow Yaw,-0.3,0,155.8,155.8,FALSE,FALSE,FALSE,FALSE,FALSE,FALSE,,TRUE,Normal,,100,1024,1024,1024,1024,1,FALSE,FALSE,FALSE,FALSE,FALSE,0,FALSE,FALSE,FALSE,FALSE,90,7.964,1866,2063,7.963,FALSE,3.986,3.978,0.008,FALSE,FALSE,NA,90.1,90.1,90.1,0,1,0,0,5,2012.7,503.19,,Idle,0,20,FALSE,5,TRUE,6,Go Home,FALSE,FALSE,FALSE,FALSE,FALSE,FALSE,FALSE,FALSE,FALSE,FALSE,FALSE,FALSE,6.974171863,79.91452031,3,183.7,328,TRUE,1,1,FALSE,FALSE,FALSE,FALSE,,TRUE,FALSE,FALSE,Course Lock,49.2,254.5,16.4,Calm,39,,1.12.8,Mavic Mini,1SDCH7G0169R0K,1SFLH6Q0AB03DJ,1SRCH7F014TAHX,1U5X071EXP6C9Y,88.7,0.2,32.8,9.347053,4.47388,0,102,Mavic Mini,1SDCH7G0169R0K,1SFLH6Q0AB03DJ,1SRCH7F014TAHX,1U5X071EXP6C9Y,DJI Fly,,1.12.8,83AA36EE-5E72-76F5-C421-0CC760FDA018,1SDCH7G0169R0K,,,,,,,,,
2/27/2024,01:57.4,1m 44.5s,104.5,6.974176619,79.91452733,0,0,0.3,61,0.1,0,0,0,0,0,0,0,0,7.8,1.1,157.5,157.5,,Starting Motors,Other,Takeoff (RC Assisted),13,5,TRUE,,Mavic Mini,TRUE,FALSE,,Smart,RC,TRUE,TRUE,FALSE,,,TRUE,,FALSE,FALSE,FALSE,FALSE,FALSE,FALSE,FALSE,FALSE,FALSE,FALSE,0,Follow Yaw,-0.3,0,155.8,155.8,FALSE,FALSE,FALSE,FALSE,FALSE,FALSE,,TRUE,Normal,,100,1024,1024,1024,1024,1,FALSE,FALSE,FALSE,FALSE,FALSE,0,FALSE,FALSE,FALSE,FALSE,90,7.964,1866,2063,7.963,FALSE,3.986,3.978,0.008,FALSE,FALSE,NA,90.1,90.1,90.1,0,1,0,0,5,2012.7,503.19,,Idle,0,20,FALSE,5,TRUE,6,Go Home,FALSE,FALSE,FALSE,FALSE,FALSE,FALSE,FALSE,FALSE,FALSE,FALSE,FALSE,FALSE,6.974171863,79.91452031,3,183.7,328,TRUE,1,1,FALSE,FALSE,FALSE,FALSE,,TRUE,FALSE,FALSE,Course Lock,49.2,254.5,16.4,Calm,39,,1.12.8,Mavic Mini,1SDCH7G0169R0K,1SFLH6Q0AB03DJ,1SRCH7F014TAHX,1U5X071EXP6C9Y,88.7,0.2,32.8,9.347053,4.47388,0,102,Mavic Mini,1SDCH7G0169R0K,1SFLH6Q0AB03DJ,1SRCH7F014TAHX,1U5X071EXP6C9Y,DJI Fly,,1.12.8,83AA36EE-5E72-76F5-C421-0CC760FDA018,1SDCH7G0169R0K,,,,,,,,,
2/27/2024,01:57.5,1m 44.6s,104.6,6.974176568,79.91452738,0,0,0.3,61,0.1,0,0,0,0,0,0,0,0,7.9,1.1,157.5,157.5,,Starting Motors,Other,Takeoff (RC Assisted),13,5,TRUE,,Mavic Mini,TRUE,FALSE,,Smart,RC,TRUE,TRUE,FALSE,,,TRUE,,FALSE,FALSE,FALSE,FALSE,FALSE,FALSE,FALSE,FALSE,FALSE,FALSE,0,Follow Yaw,-0.3,0,155.8,155.8,FALSE,FALSE,FALSE,FALSE,FALSE,FALSE,,TRUE,Normal,,100,1024,1024,1024,1024,1,FALSE,FALSE,FALSE,FALSE,FALSE,0,FALSE,FALSE,FALSE,FALSE,90,7.964,1866,2063,7.963,FALSE,3.986,3.978,0.008,FALSE,FALSE,NA,90.1,90.1,90.1,0,1,0,0,5,2012.7,503.19,,Idle,0,20,FALSE,5,TRUE,6,Go Home,FALSE,FALSE,FALSE,FALSE,FALSE,FALSE,FALSE,FALSE,FALSE,FALSE,FALSE,FALSE,6.974171863,79.91452031,3,183.7,328,TRUE,1,1,FALSE,FALSE,FALSE,FALSE,,TRUE,FALSE,FALSE,Course Lock,49.2,254.5,16.4,Calm,39,,1.12.8,Mavic Mini,1SDCH7G0169R0K,1SFLH6Q0AB03DJ,1SRCH7F014TAHX,1U5X071EXP6C9Y,88.7,0.2,32.8,9.347053,4.47388,0,102,Mavic Mini,1SDCH7G0169R0K,1SFLH6Q0AB03DJ,1SRCH7F014TAHX,1U5X071EXP6C9Y,DJI Fly,,1.12.8,83AA36EE-5E72-76F5-C421-0CC760FDA018,1SDCH7G0169R0K,,,,,,,,,
2/27/2024,01:57.6,1m 44.7s,104.7,6.974176553,79.91452739,0,0,0.3,61,0.1,0,0,0,0,0,0,0,0,7.9,1.2,157.5,157.5,,Starting Motors,Other,Takeoff (RC Assisted),13,5,TRUE,,Mavic Mini,TRUE,FALSE,,Smart,RC,TRUE,TRUE,FALSE,,,TRUE,,FALSE,FALSE,FALSE,FALSE,FALSE,FALSE,FALSE,FALSE,FALSE,FALSE,0,Follow Yaw,-0.3,0,155.8,155.8,FALSE,FALSE,FALSE,FALSE,FALSE,FALSE,,TRUE,Normal,,100,1024,1024,1024,1024,1,FALSE,FALSE,FALSE,FALSE,FALSE,0,FALSE,FALSE,FALSE,FALSE,90,7.964,1866,2063,7.963,FALSE,3.986,3.978,0.008,FALSE,FALSE,NA,90.1,90.1,90.1,0,1,0,0,5,2012.7,503.19,,Idle,0,20,FALSE,5,TRUE,6,Go Home,FALSE,FALSE,FALSE,FALSE,FALSE,FALSE,FALSE,FALSE,FALSE,FALSE,FALSE,FALSE,6.974171863,79.91452031,3,183.7,328,TRUE,1,1,FALSE,FALSE,FALSE,FALSE,,TRUE,FALSE,FALSE,Course Lock,49.2,254.5,16.4,Calm,39,,1.12.8,Mavic Mini,1SDCH7G0169R0K,1SFLH6Q0AB03DJ,1SRCH7F014TAHX,1U5X071EXP6C9Y,88.7,0.2,32.8,9.347053,4.47388,0,102,Mavic Mini,1SDCH7G0169R0K,1SFLH6Q0AB03DJ,1SRCH7F014TAHX,1U5X071EXP6C9Y,DJI Fly,,1.12.8,83AA36EE-5E72-76F5-C421-0CC760FDA018,1SDCH7G0169R0K,,,,,,,,,
2/27/2024,01:57.7,1m 44.8s,104.8,6.974176543,79.9145274,0,0,0.3,61,0.1,0,0,0,0,0,0,0,0,7.8,1.2,157.5,157.5,,Manual Takeoff,Other,Takeoff (RC Assisted),13,5,TRUE,,Mavic Mini,TRUE,FALSE,,Smart,RC,TRUE,TRUE,FALSE,,,TRUE,,FALSE,FALSE,FALSE,FALSE,FALSE,FALSE,FALSE,FALSE,FALSE,FALSE,0,Follow Yaw,-0.3,0,155.8,155.8,FALSE,FALSE,FALSE,FALSE,FALSE,FALSE,,TRUE,Normal,,100,1024,1024,1024,1024,1,FALSE,FALSE,FALSE,FALSE,FALSE,0,FALSE,FALSE,FALSE,FALSE,90,7.964,1866,2063,7.963,FALSE,3.986,3.978,0.008,FALSE,FALSE,NA,90.1,90.1,90.1,0,1,0,0,5,2012.7,503.19,,Idle,0,20,FALSE,5,TRUE,6,Go Home,FALSE,FALSE,FALSE,FALSE,FALSE,FALSE,FALSE,FALSE,FALSE,FALSE,FALSE,FALSE,6.974171863,79.91452031,3,183.7,328,TRUE,1,1,FALSE,FALSE,FALSE,FALSE,,TRUE,FALSE,FALSE,Course Lock,49.2,254.5,16.4,Calm,39,,1.12.8,Mavic Mini,1SDCH7G0169R0K,1SFLH6Q0AB03DJ,1SRCH7F014TAHX,1U5X071EXP6C9Y,88.7,0.2,32.8,9.347053,4.47388,0,102,Mavic Mini,1SDCH7G0169R0K,1SFLH6Q0AB03DJ,1SRCH7F014TAHX,1U5X071EXP6C9Y,DJI Fly,,1.12.8,83AA36EE-5E72-76F5-C421-0CC760FDA018,1SDCH7G0169R0K,,,,,,,,Flight mode changed to Manual Takeoff.,
2/27/2024,01:57.8,1m 44.9s,104.9,6.974176545,79.9145274,0,0,0.3,61,0.1,0,0,0,0,0,0,0,0,7.8,1.2,157.4,157.4,,Manual Takeoff,Other,Takeoff (RC Assisted),13,5,TRUE,,Mavic Mini,TRUE,FALSE,,Smart,RC,TRUE,TRUE,FALSE,,,TRUE,,FALSE,FALSE,FALSE,FALSE,FALSE,FALSE,FALSE,FALSE,FALSE,FALSE,0,Follow Yaw,-0.3,0,155.7,155.7,FALSE,FALSE,FALSE,FALSE,FALSE,FALSE,,TRUE,Normal,,100,1024,1024,1024,1024,1,FALSE,FALSE,FALSE,FALSE,FALSE,0,FALSE,FALSE,FALSE,FALSE,90,7.964,1866,2063,7.97,FALSE,3.986,3.978,0.008,FALSE,FALSE,NA,90.1,90.1,90.1,0,1,0,0,5,2135.4,533.86,,Idle,0,20,FALSE,5,TRUE,6,Go Home,FALSE,FALSE,FALSE,FALSE,FALSE,FALSE,FALSE,FALSE,FALSE,FALSE,FALSE,FALSE,6.974171863,79.91452031,3,183.7,328,TRUE,1,1,FALSE,FALSE,FALSE,FALSE,,TRUE,FALSE,FALSE,Course Lock,49.2,254.5,16.4,Calm,39,,1.12.8,Mavic Mini,1SDCH7G0169R0K,1SFLH6Q0AB03DJ,1SRCH7F014TAHX,1U5X071EXP6C9Y,88.7,0.2,32.8,9.347053,4.47388,0,102,Mavic Mini,1SDCH7G0169R0K,1SFLH6Q0AB03DJ,1SRCH7F014TAHX,1U5X071EXP6C9Y,DJI Fly,,1.12.8,83AA36EE-5E72-76F5-C421-0CC760FDA018,1SDCH7G0169R0K,,,,,,,,,
2/27/2024,01:57.9,1m 45.0s,105,6.974176594,79.91452731,0,0,0.3,61,0.1,0,0,0,0,0,0,0,0,7.8,1.1,157.4,157.4,,Manual Takeoff,Other,Takeoff (RC Assisted),13,5,TRUE,,Mavic Mini,TRUE,FALSE,,Smart,RC,TRUE,TRUE,FALSE,,,TRUE,,FALSE,FALSE,FALSE,FALSE,FALSE,FALSE,FALSE,FALSE,FALSE,FALSE,0,Follow Yaw,-0.3,0,155.7,155.7,FALSE,FALSE,FALSE,FALSE,FALSE,FALSE,,TRUE,Normal,,100,1024,1024,1024,1024,1,FALSE,FALSE,FALSE,FALSE,FALSE,0,FALSE,FALSE,FALSE,FALSE,90,7.964,1866,2063,7.97,FALSE,3.986,3.978,0.008,FALSE,FALSE,NA,90.1,90.1,90.1,0,1,0,0,5,2135.4,533.86,,Idle,0,20,FALSE,5,TRUE,6,Go Home,FALSE,FALSE,FALSE,FALSE,FALSE,FALSE,FALSE,FALSE,FALSE,FALSE,FALSE,FALSE,6.974171863,79.91452031,3,183.7,328,TRUE,1,1,FALSE,FALSE,FALSE,FALSE,,TRUE,FALSE,FALSE,Course Lock,49.2,254.5,16.4,Calm,39,,1.12.8,Mavic Mini,1SDCH7G0169R0K,1SFLH6Q0AB03DJ,1SRCH7F014TAHX,1U5X071EXP6C9Y,88.7,0.2,32.8,9.347053,4.47388,0,102,Mavic Mini,1SDCH7G0169R0K,1SFLH6Q0AB03DJ,1SRCH7F014TAHX,1U5X071EXP6C9Y,DJI Fly,,1.12.8,83AA36EE-5E72-76F5-C421-0CC760FDA018,1SDCH7G0169R0K,,,,,,,,,
2/27/2024,01:58.0,1m 45.1s,105.1,6.974176556,79.91452731,0,0,0.3,61,0.2,0,0,0,0,0,0,0,0,7.8,1.1,157.4,157.4,,Manual Takeoff,Other,Takeoff (RC Assisted),13,5,TRUE,,Mavic Mini,TRUE,FALSE,,Smart,RC,TRUE,TRUE,FALSE,,,TRUE,,FALSE,FALSE,FALSE,FALSE,FALSE,FALSE,FALSE,FALSE,FALSE,FALSE,0,Follow Yaw,-0.3,0,155.7,155.7,FALSE,FALSE,FALSE,FALSE,FALSE,FALSE,,TRUE,Normal,,100,1024,1024,1024,1024,1,FALSE,FALSE,FALSE,FALSE,FALSE,0,FALSE,FALSE,FALSE,FALSE,90,7.964,1866,2063,7.97,FALSE,3.986,3.978,0.008,FALSE,FALSE,NA,90.1,90.1,90.1,0,1,0,0,5,2135.4,533.86,,Idle,0,20,FALSE,5,TRUE,6,Go Home,FALSE,FALSE,FALSE,FALSE,FALSE,FALSE,FALSE,FALSE,FALSE,FALSE,FALSE,FALSE,6.974171863,79.91452031,3,183.7,328,TRUE,1,1,FALSE,FALSE,FALSE,FALSE,,TRUE,FALSE,FALSE,Course Lock,49.2,254.5,16.4,Calm,39,,1.12.8,Mavic Mini,1SDCH7G0169R0K,1SFLH6Q0AB03DJ,1SRCH7F014TAHX,1U5X071EXP6C9Y,88.7,0.2,32.8,9.347053,4.47388,0,102,Mavic Mini,1SDCH7G0169R0K,1SFLH6Q0AB03DJ,1SRCH7F014TAHX,1U5X071EXP6C9Y,DJI Fly,,1.12.8,83AA36EE-5E72-76F5-C421-0CC760FDA018,1SDCH7G0169R0K,,,,,,,,,
2/27/2024,01:58.1,1m 45.2s,105.2,6.974176507,79.91452731,0,0,0.3,61,0.2,0,0,0,0,0,0,0,0,7.8,1.1,157.5,157.5,,Manual Takeoff,Other,Takeoff (RC Assisted),13,5,TRUE,,Mavic Mini,TRUE,FALSE,,Smart,RC,TRUE,TRUE,FALSE,,,TRUE,,FALSE,FALSE,FALSE,FALSE,FALSE,FALSE,FALSE,FALSE,FALSE,FALSE,0,Follow Yaw,-0.3,0,155.7,155.7,FALSE,FALSE,FALSE,FALSE,FALSE,FALSE,,TRUE,Normal,,100,1024,1024,1024,1024,1,FALSE,FALSE,FALSE,FALSE,FALSE,0,FALSE,FALSE,FALSE,FALSE,90,7.948,1866,2063,7.97,FALSE,3.978,3.97,0.008,FALSE,FALSE,NA,90.3,90.1,90.3,0,1,0,0,5,2135.4,533.86,,Idle,0,20,FALSE,5,TRUE,6,Go Home,FALSE,FALSE,FALSE,FALSE,FALSE,FALSE,FALSE,FALSE,FALSE,FALSE,FALSE,FALSE,6.974171863,79.91452031,3,183.7,328,TRUE,1,1,FALSE,FALSE,FALSE,FALSE,,TRUE,FALSE,FALSE,Course Lock,49.2,254.5,16.4,Calm,39,,1.12.8,Mavic Mini,1SDCH7G0169R0K,1SFLH6Q0AB03DJ,1SRCH7F014TAHX,1U5X071EXP6C9Y,88.7,0.2,32.8,9.347053,4.47388,0,102,Mavic Mini,1SDCH7G0169R0K,1SFLH6Q0AB03DJ,1SRCH7F014TAHX,1U5X071EXP6C9Y,DJI Fly,,1.12.8,83AA36EE-5E72-76F5-C421-0CC760FDA018,1SDCH7G0169R0K,,,,,,,,,
2/27/2024,01:58.3,1m 45.3s,105.3,6.974176487,79.91452731,0,0,0.3,61,0.2,0,0,0,0,0,0,0,0,7.8,1.1,157.5,157.5,,Manual Takeoff,Other,Takeoff (RC Assisted),13,5,TRUE,,Mavic Mini,TRUE,FALSE,,Smart,RC,TRUE,TRUE,FALSE,,,TRUE,,FALSE,FALSE,FALSE,FALSE,FALSE,FALSE,FALSE,FALSE,FALSE,FALSE,0,Follow Yaw,-0.3,0,155.7,155.7,FALSE,FALSE,FALSE,FALSE,FALSE,FALSE,,TRUE,Normal,,100,1024,1024,1024,1024,1,FALSE,FALSE,FALSE,FALSE,FALSE,0,FALSE,FALSE,FALSE,FALSE,90,7.948,1866,2063,7.97,FALSE,3.978,3.97,0.008,FALSE,FALSE,NA,90.3,90.1,90.3,0,1,0,0,5,2135.4,533.86,,Idle,0,20,FALSE,5,TRUE,6,Go Home,FALSE,FALSE,FALSE,FALSE,FALSE,FALSE,FALSE,FALSE,FALSE,FALSE,FALSE,FALSE,6.974171863,79.91452031,3,183.7,328,TRUE,1,1,FALSE,FALSE,FALSE,FALSE,,TRUE,FALSE,FALSE,Course Lock,49.2,254.5,16.4,Calm,39,,1.12.8,Mavic Mini,1SDCH7G0169R0K,1SFLH6Q0AB03DJ,1SRCH7F014TAHX,1U5X071EXP6C9Y,88.7,0.2,32.8,9.347053,4.47388,0,102,Mavic Mini,1SDCH7G0169R0K,1SFLH6Q0AB03DJ,1SRCH7F014TAHX,1U5X071EXP6C9Y,DJI Fly,,1.12.8,83AA36EE-5E72-76F5-C421-0CC760FDA018,1SDCH7G0169R0K,,,,,,,,,
2/27/2024,01:58.4,1m 45.4s,105.4,6.974176447,79.91452727,0,0,0.3,61,0.2,0,0,0,0,0,0,0,0,7.8,1.1,157.5,157.5,,Manual Takeoff,Other,Takeoff (RC Assisted),13,5,TRUE,,Mavic Mini,TRUE,FALSE,,Smart,RC,TRUE,TRUE,FALSE,,,TRUE,,FALSE,FALSE,FALSE,FALSE,FALSE,FALSE,FALSE,FALSE,FALSE,FALSE,0,Follow Yaw,-0.3,0,155.7,155.7,FALSE,FALSE,FALSE,FALSE,FALSE,FALSE,,TRUE,Normal,,100,1024,1024,1024,1024,1,FALSE,FALSE,FALSE,FALSE,FALSE,0,FALSE,FALSE,FALSE,FALSE,90,7.948,1866,2063,7.97,FALSE,3.978,3.97,0.008,FALSE,FALSE,NA,90.3,90.1,90.3,0,1,0,0,5,2135.4,533.86,,Idle,0,20,FALSE,5,TRUE,6,Go Home,FALSE,FALSE,FALSE,FALSE,FALSE,FALSE,FALSE,FALSE,FALSE,FALSE,FALSE,FALSE,6.974171863,79.91452031,3,183.7,328,TRUE,1,1,FALSE,FALSE,FALSE,FALSE,,TRUE,FALSE,FALSE,Course Lock,49.2,254.5,16.4,Calm,39,,1.12.8,Mavic Mini,1SDCH7G0169R0K,1SFLH6Q0AB03DJ,1SRCH7F014TAHX,1U5X071EXP6C9Y,88.7,0.2,32.8,9.347053,4.47388,0,102,Mavic Mini,1SDCH7G0169R0K,1SFLH6Q0AB03DJ,1SRCH7F014TAHX,1U5X071EXP6C9Y,DJI Fly,,1.12.8,83AA36EE-5E72-76F5-C421-0CC760FDA018,1SDCH7G0169R0K,,,,,,,,,
2/27/2024,01:58.5,1m 45.5s,105.5,6.974176406,79.91452727,0,0,0.3,61,0.2,0,0,0,0,0,0,0,0,7.8,1.1,157.5,157.5,,Manual Takeoff,Other,Takeoff (RC Assisted),13,5,TRUE,,Mavic Mini,TRUE,FALSE,,Smart,RC,TRUE,TRUE,FALSE,,,TRUE,,FALSE,FALSE,FALSE,FALSE,FALSE,FALSE,FALSE,FALSE,FALSE,FALSE,0,Follow Yaw,-0.3,0,155.7,155.7,FALSE,FALSE,FALSE,FALSE,FALSE,FALSE,,TRUE,Normal,,100,1024,1024,1024,1024,1,FALSE,FALSE,FALSE,FALSE,FALSE,0,FALSE,FALSE,FALSE,FALSE,90,7.948,1866,2063,7.97,FALSE,3.978,3.97,0.008,FALSE,FALSE,NA,90.3,90.1,90.3,0,1,0,0,5,2135.4,533.86,,Idle,0,20,FALSE,5,TRUE,6,Go Home,FALSE,FALSE,FALSE,FALSE,FALSE,FALSE,FALSE,FALSE,FALSE,FALSE,FALSE,FALSE,6.974171863,79.91452031,3,183.7,328,TRUE,1,1,FALSE,FALSE,FALSE,FALSE,,TRUE,FALSE,FALSE,Course Lock,49.2,254.5,16.4,Calm,39,,1.12.8,Mavic Mini,1SDCH7G0169R0K,1SFLH6Q0AB03DJ,1SRCH7F014TAHX,1U5X071EXP6C9Y,88.7,0.2,32.8,9.347053,4.47388,0,102,Mavic Mini,1SDCH7G0169R0K,1SFLH6Q0AB03DJ,1SRCH7F014TAHX,1U5X071EXP6C9Y,DJI Fly,,1.12.8,83AA36EE-5E72-76F5-C421-0CC760FDA018,1SDCH7G0169R0K,,,,,,,,,
2/27/2024,01:58.5,1m 45.6s,105.6,6.974176357,79.91452727,0,0,0.3,61,0.2,0,0,0,0,0,0,0,0,7.8,1.1,157.5,157.5,,Manual Takeoff,Other,Takeoff (RC Assisted),13,5,TRUE,,Mavic Mini,TRUE,FALSE,,Smart,RC,TRUE,TRUE,FALSE,,,TRUE,,FALSE,FALSE,FALSE,FALSE,FALSE,FALSE,FALSE,FALSE,FALSE,FALSE,0,Follow Yaw,-0.3,0,155.7,155.7,FALSE,FALSE,FALSE,FALSE,FALSE,FALSE,,TRUE,Normal,,100,1024,1024,1024,1024,1,FALSE,FALSE,FALSE,FALSE,FALSE,0,FALSE,FALSE,FALSE,FALSE,90,7.948,1866,2063,7.97,FALSE,3.978,3.97,0.008,FALSE,FALSE,NA,90.3,90.1,90.3,0,1,0,0,5,2135.4,533.86,,Idle,0,20,FALSE,5,TRUE,6,Go Home,FALSE,FALSE,FALSE,FALSE,FALSE,FALSE,FALSE,FALSE,FALSE,FALSE,FALSE,FALSE,6.974171863,79.91452031,3,183.7,328,TRUE,1,1,FALSE,FALSE,FALSE,FALSE,,TRUE,FALSE,FALSE,Course Lock,49.2,254.5,16.4,Calm,39,,1.12.8,Mavic Mini,1SDCH7G0169R0K,1SFLH6Q0AB03DJ,1SRCH7F014TAHX,1U5X071EXP6C9Y,88.7,0.2,32.8,9.347053,4.47388,0,102,Mavic Mini,1SDCH7G0169R0K,1SFLH6Q0AB03DJ,1SRCH7F014TAHX,1U5X071EXP6C9Y,DJI Fly,,1.12.8,83AA36EE-5E72-76F5-C421-0CC760FDA018,1SDCH7G0169R0K,,,,,,,,,
2/27/2024,01:58.6,1m 45.7s,105.7,6.97417634,79.91452728,0,0,0.3,61,0.2,0,0,0,0,0,0,0,0,7.8,1.2,157.5,157.5,,Manual Takeoff,Other,Takeoff (RC Assisted),13,5,TRUE,,Mavic Mini,TRUE,FALSE,,Smart,RC,TRUE,TRUE,FALSE,,,TRUE,,FALSE,FALSE,FALSE,FALSE,FALSE,FALSE,FALSE,FALSE,FALSE,FALSE,0,Follow Yaw,-0.3,0,155.7,155.7,FALSE,FALSE,FALSE,FALSE,FALSE,FALSE,,TRUE,Normal,,100,1024,1024,1212,1024,1,FALSE,FALSE,FALSE,FALSE,FALSE,0,FALSE,FALSE,FALSE,FALSE,90,7.948,1866,2063,7.97,FALSE,3.978,3.97,0.008,FALSE,FALSE,NA,90.3,90.1,90.3,0,1,0,0,5,2135.4,533.86,,Idle,0,20,FALSE,5,TRUE,6,Go Home,FALSE,FALSE,FALSE,FALSE,FALSE,FALSE,FALSE,FALSE,FALSE,FALSE,FALSE,FALSE,6.974171863,79.91452031,3,183.7,328,TRUE,1,1,FALSE,FALSE,FALSE,FALSE,,TRUE,FALSE,FALSE,Course Lock,49.2,254.5,16.4,Calm,39,,1.12.8,Mavic Mini,1SDCH7G0169R0K,1SFLH6Q0AB03DJ,1SRCH7F014TAHX,1U5X071EXP6C9Y,88.7,0.2,32.8,9.347053,4.47388,0,102,Mavic Mini,1SDCH7G0169R0K,1SFLH6Q0AB03DJ,1SRCH7F014TAHX,1U5X071EXP6C9Y,DJI Fly,,1.12.8,83AA36EE-5E72-76F5-C421-0CC760FDA018,1SDCH7G0169R0K,,,,,6.974091036,79.91456604,5,,
2/27/2024,01:58.7,1m 45.8s,105.8,6.97417633,79.91452728,0,0,0.3,61,0.3,0,0,0,0,0,0,0,0,7.8,1.2,157.5,157.5,,Manual Takeoff,Other,Takeoff (RC Assisted),13,5,TRUE,,Mavic Mini,TRUE,FALSE,,Smart,RC,TRUE,TRUE,FALSE,,,TRUE,,FALSE,FALSE,FALSE,FALSE,FALSE,FALSE,FALSE,FALSE,FALSE,FALSE,0,Follow Yaw,-0.3,0,155.7,155.7,FALSE,FALSE,FALSE,FALSE,FALSE,FALSE,,TRUE,Normal,,100,1024,1024,1504,1024,1,FALSE,FALSE,FALSE,FALSE,FALSE,0,FALSE,FALSE,FALSE,FALSE,90,7.948,1866,2063,7.97,FALSE,3.978,3.97,0.008,FALSE,FALSE,NA,90.3,90.1,90.3,0,1,0,0,5,2135.4,533.86,,Idle,0,20,FALSE,5,TRUE,6,Go Home,FALSE,FALSE,FALSE,FALSE,FALSE,FALSE,FALSE,FALSE,FALSE,FALSE,FALSE,FALSE,6.974171863,79.91452031,3,183.7,328,TRUE,1,1,FALSE,FALSE,FALSE,FALSE,,TRUE,FALSE,FALSE,Course Lock,49.2,254.5,16.4,Calm,39,,1.12.8,Mavic Mini,1SDCH7G0169R0K,1SFLH6Q0AB03DJ,1SRCH7F014TAHX,1U5X071EXP6C9Y,88.7,0.2,32.8,9.347053,4.47388,0,102,Mavic Mini,1SDCH7G0169R0K,1SFLH6Q0AB03DJ,1SRCH7F014TAHX,1U5X071EXP6C9Y,DJI Fly,,1.12.8,83AA36EE-5E72-76F5-C421-0CC760FDA018,1SDCH7G0169R0K,,,,,6.974091036,79.91456604,5,,
2/27/2024,01:58.8,1m 45.9s,105.9,6.974176287,79.91452727,0,0,0.3,61,0.3,0,0,0,0,0,0,0,0,7.8,1.2,157.5,157.5,,Manual Takeoff,Other,Takeoff (RC Assisted),13,5,TRUE,,Mavic Mini,TRUE,FALSE,,Smart,RC,TRUE,TRUE,FALSE,,,TRUE,,FALSE,FALSE,FALSE,FALSE,FALSE,FALSE,FALSE,FALSE,FALSE,FALSE,0,Follow Yaw,-0.3,0,155.7,155.7,FALSE,FALSE,FALSE,FALSE,FALSE,FALSE,,TRUE,Normal,,100,1024,1024,1684,1024,1,FALSE,FALSE,FALSE,FALSE,FALSE,0,FALSE,FALSE,FALSE,FALSE,90,7.948,1866,2063,7.947,FALSE,3.978,3.97,0.008,FALSE,FALSE,NA,90.3,90.1,90.3,0,1,0,0,5,2318.3,579.58,,Idle,0,20,FALSE,5,TRUE,6,Go Home,FALSE,FALSE,FALSE,FALSE,FALSE,FALSE,FALSE,FALSE,FALSE,FALSE,FALSE,FALSE,6.974171863,79.91452031,2.9,183.7,328,TRUE,1,1,FALSE,FALSE,FALSE,FALSE,,TRUE,FALSE,FALSE,Course Lock,49.2,254.5,16.4,Calm,39,,1.12.8,Mavic Mini,1SDCH7G0169R0K,1SFLH6Q0AB03DJ,1SRCH7F014TAHX,1U5X071EXP6C9Y,88.7,0.2,32.8,9.347053,4.47388,0,102,Mavic Mini,1SDCH7G0169R0K,1SFLH6Q0AB03DJ,1SRCH7F014TAHX,1U5X071EXP6C9Y,DJI Fly,,1.12.8,83AA36EE-5E72-76F5-C421-0CC760FDA018,1SDCH7G0169R0K,,,,,6.974091036,79.91456604,5,,
2/27/2024,01:58.9,1m 46.0s,106,6.97417624,79.91452727,0,0,0.3,61,0.3,0,0,0,0,0,0,0,0,7.8,1.1,157.5,157.5,,Manual Takeoff,Other,Takeoff (RC Assisted),12,5,TRUE,,Mavic Mini,TRUE,FALSE,,Smart,RC,TRUE,TRUE,FALSE,,,TRUE,,FALSE,FALSE,FALSE,FALSE,FALSE,FALSE,FALSE,FALSE,FALSE,FALSE,0,Follow Yaw,-0.3,0,155.7,155.7,FALSE,FALSE,FALSE,FALSE,FALSE,FALSE,,TRUE,Normal,,100,1024,1024,1684,1024,1,FALSE,FALSE,FALSE,FALSE,FALSE,0,FALSE,FALSE,FALSE,FALSE,90,7.948,1866,2063,7.947,FALSE,3.978,3.97,0.008,FALSE,FALSE,NA,90.3,90.1,90.3,0,1,0,0,5,2318.3,579.58,,Idle,0,20,FALSE,5,TRUE,6,Go Home,FALSE,FALSE,FALSE,FALSE,FALSE,FALSE,FALSE,FALSE,FALSE,FALSE,FALSE,FALSE,6.974171863,79.91452031,2.9,183.7,328,TRUE,1,1,FALSE,FALSE,FALSE,FALSE,,TRUE,FALSE,FALSE,Course Lock,49.2,254.5,16.4,Calm,39,,1.12.8,Mavic Mini,1SDCH7G0169R0K,1SFLH6Q0AB03DJ,1SRCH7F014TAHX,1U5X071EXP6C9Y,88.7,0.2,32.8,9.347053,4.47388,0,102,Mavic Mini,1SDCH7G0169R0K,1SFLH6Q0AB03DJ,1SRCH7F014TAHX,1U5X071EXP6C9Y,DJI Fly,,1.12.8,83AA36EE-5E72-76F5-C421-0CC760FDA018,1SDCH7G0169R0K,,,,,6.974091036,79.91456604,5,,
2/27/2024,01:59.0,1m 46.1s,106.1,6.974176225,79.91452732,0,0,0.3,61,0.3,0,0,0,0,0,0,0,0,7.7,0.7,157.4,157.4,,Manual Takeoff,Other,Takeoff (RC Assisted),12,5,TRUE,,Mavic Mini,TRUE,FALSE,,Smart,RC,TRUE,TRUE,FALSE,,,TRUE,,FALSE,FALSE,FALSE,FALSE,FALSE,FALSE,FALSE,FALSE,FALSE,FALSE,0,Follow Yaw,-0.3,0,155.7,155.7,FALSE,FALSE,FALSE,FALSE,FALSE,FALSE,,TRUE,Normal,,100,1024,1024,1684,1024,1,FALSE,FALSE,FALSE,FALSE,FALSE,0,FALSE,FALSE,FALSE,FALSE,90,7.948,1866,2063,7.947,FALSE,3.978,3.97,0.008,FALSE,FALSE,NA,90.3,90.1,90.3,0,1,0,0,5,2318.3,579.58,,Idle,0,20,FALSE,5,TRUE,6,Go Home,FALSE,FALSE,FALSE,FALSE,FALSE,FALSE,FALSE,FALSE,FALSE,FALSE,FALSE,FALSE,6.974171863,79.91452031,2.9,183.7,328,TRUE,1,1,FALSE,FALSE,FALSE,FALSE,,TRUE,FALSE,FALSE,Course Lock,49.2,254.5,16.4,Calm,39,,1.12.8,Mavic Mini,1SDCH7G0169R0K,1SFLH6Q0AB03DJ,1SRCH7F014TAHX,1U5X071EXP6C9Y,88.7,0.2,32.8,9.347053,4.47388,0,102,Mavic Mini,1SDCH7G0169R0K,1SFLH6Q0AB03DJ,1SRCH7F014TAHX,1U5X071EXP6C9Y,DJI Fly,,1.12.8,83AA36EE-5E72-76F5-C421-0CC760FDA018,1SDCH7G0169R0K,,,,,6.974091036,79.91456604,5,,
2/27/2024,01:59.1,1m 46.2s,106.2,6.974176215,79.91452738,0,0,0.3,61,0.3,0,0,0,0,0,0,0,0,7.6,0.7,157.3,157.3,,Manual Takeoff,Other,Takeoff (RC Assisted),12,5,TRUE,,Mavic Mini,TRUE,FALSE,,Smart,RC,TRUE,TRUE,FALSE,,,TRUE,,FALSE,FALSE,FALSE,FALSE,FALSE,FALSE,FALSE,FALSE,FALSE,FALSE,0,Follow Yaw,-0.3,0,155.7,155.7,FALSE,FALSE,FALSE,FALSE,FALSE,FALSE,,TRUE,Normal,,100,1024,1024,1684,1024,1,FALSE,FALSE,FALSE,FALSE,FALSE,0,FALSE,FALSE,FALSE,FALSE,90,7.948,1866,2063,7.947,FALSE,3.978,3.97,0.008,FALSE,FALSE,NA,90.3,90.1,90.3,0,1,0,0,5,2318.3,579.58,,Idle,0,20,FALSE,5,TRUE,6,Go Home,FALSE,FALSE,FALSE,FALSE,FALSE,FALSE,FALSE,FALSE,FALSE,FALSE,FALSE,FALSE,6.974171863,79.91452031,3,183.7,328,TRUE,1,1,FALSE,FALSE,FALSE,FALSE,,TRUE,FALSE,FALSE,Course Lock,49.2,254.5,16.4,Calm,39,,1.12.8,Mavic Mini,1SDCH7G0169R0K,1SFLH6Q0AB03DJ,1SRCH7F014TAHX,1U5X071EXP6C9Y,88.7,0.2,32.8,9.347053,4.47388,0,102,Mavic Mini,1SDCH7G0169R0K,1SFLH6Q0AB03DJ,1SRCH7F014TAHX,1U5X071EXP6C9Y,DJI Fly,,1.12.8,83AA36EE-5E72-76F5-C421-0CC760FDA018,1SDCH7G0169R0K,,,,,6.974091036,79.91456604,5,,
2/27/2024,01:59.2,1m 46.3s,106.3,6.974176272,79.91452746,0,0,0.3,61,0.4,0,0,0,0,0,0,0,0,6.5,1,157.1,157.1,,Manual Takeoff,Other,Takeoff (RC Assisted),12,5,TRUE,,Mavic Mini,TRUE,FALSE,,Smart,RC,TRUE,TRUE,FALSE,,,TRUE,,FALSE,FALSE,FALSE,FALSE,FALSE,FALSE,FALSE,FALSE,FALSE,FALSE,0,Follow Yaw,-0.3,0,155.7,155.7,FALSE,FALSE,FALSE,FALSE,FALSE,FALSE,,TRUE,Normal,,100,1024,1024,1684,1024,1,FALSE,FALSE,FALSE,FALSE,FALSE,0,FALSE,FALSE,FALSE,FALSE,90,7.917,1866,2063,7.947,FALSE,3.964,3.953,0.011,FALSE,FALSE,NA,90.3,90.1,90.3,0,1,0,0,5,2318.3,579.58,,Idle,0,20,FALSE,5,TRUE,6,Go Home,FALSE,FALSE,FALSE,FALSE,FALSE,FALSE,FALSE,FALSE,FALSE,FALSE,FALSE,FALSE,6.974171863,79.91452031,3,183.7,328,TRUE,1,1,FALSE,FALSE,FALSE,FALSE,,TRUE,FALSE,FALSE,Course Lock,49.2,254.5,16.4,Calm,39,,1.12.8,Mavic Mini,1SDCH7G0169R0K,1SFLH6Q0AB03DJ,1SRCH7F014TAHX,1U5X071EXP6C9Y,88.7,0.2,32.8,9.347053,4.47388,0,102,Mavic Mini,1SDCH7G0169R0K,1SFLH6Q0AB03DJ,1SRCH7F014TAHX,1U5X071EXP6C9Y,DJI Fly,,1.12.8,83AA36EE-5E72-76F5-C421-0CC760FDA018,1SDCH7G0169R0K,,,,,6.974091036,79.91456604,5,,
2/27/2024,01:59.3,1m 46.4s,106.4,6.974176267,79.91452748,0,0,0.3,61,0.4,0,0,0,0,0,0,0,0,5.7,1.3,156.6,156.6,,Manual Takeoff,Other,Takeoff (RC Assisted),12,5,TRUE,,Mavic Mini,TRUE,FALSE,,Smart,RC,TRUE,TRUE,FALSE,,,TRUE,,FALSE,FALSE,FALSE,FALSE,FALSE,FALSE,FALSE,FALSE,FALSE,FALSE,0,Follow Yaw,-0.3,0,155.5,155.5,FALSE,FALSE,FALSE,FALSE,FALSE,FALSE,,TRUE,Normal,,100,1024,1024,1684,1024,1,FALSE,FALSE,FALSE,FALSE,FALSE,0,FALSE,FALSE,FALSE,FALSE,90,7.917,1866,2063,7.947,FALSE,3.964,3.953,0.011,FALSE,FALSE,NA,90.3,90.1,90.3,0,1,0,0,5,2318.3,579.58,,Idle,0,20,FALSE,5,TRUE,6,Go Home,FALSE,FALSE,FALSE,FALSE,FALSE,FALSE,FALSE,FALSE,FALSE,FALSE,FALSE,FALSE,6.974171863,79.91452031,3,183.7,328,TRUE,1,1,FALSE,FALSE,FALSE,FALSE,,TRUE,FALSE,FALSE,Course Lock,49.2,254.5,16.4,Calm,39,,1.12.8,Mavic Mini,1SDCH7G0169R0K,1SFLH6Q0AB03DJ,1SRCH7F014TAHX,1U5X071EXP6C9Y,88.7,0.2,32.8,9.347053,4.47388,0,102,Mavic Mini,1SDCH7G0169R0K,1SFLH6Q0AB03DJ,1SRCH7F014TAHX,1U5X071EXP6C9Y,DJI Fly,,1.12.8,83AA36EE-5E72-76F5-C421-0CC760FDA018,1SDCH7G0169R0K,,,,,6.974091036,79.91456604,5,,
2/27/2024,01:59.4,1m 46.5s,106.5,6.974176231,79.91452748,0,0,0.3,61,0.4,0,0,0,0,0,0,0,0,4.8,1.2,156,156,,Manual Takeoff,Other,Takeoff (RC Assisted),12,5,TRUE,,Mavic Mini,TRUE,FALSE,,Smart,RC,TRUE,TRUE,FALSE,,,TRUE,,FALSE,FALSE,FALSE,FALSE,FALSE,FALSE,FALSE,FALSE,FALSE,FALSE,0,Follow Yaw,-0.3,0,155,155,FALSE,FALSE,FALSE,FALSE,FALSE,FALSE,,TRUE,Normal,,100,1024,1024,1684,1024,1,FALSE,FALSE,FALSE,FALSE,FALSE,0,FALSE,FALSE,FALSE,FALSE,90,7.917,1866,2063,7.947,FALSE,3.964,3.953,0.011,FALSE,FALSE,NA,90.3,90.1,90.3,0,1,0,0,5,2318.3,579.58,,Idle,0,20,FALSE,5,TRUE,6,Go Home,FALSE,FALSE,FALSE,FALSE,FALSE,FALSE,FALSE,FALSE,FALSE,FALSE,FALSE,FALSE,6.974171863,79.91452031,3,183.7,328,TRUE,1,1,FALSE,FALSE,FALSE,FALSE,,TRUE,FALSE,FALSE,Course Lock,49.2,254.5,16.4,Calm,39,,1.12.8,Mavic Mini,1SDCH7G0169R0K,1SFLH6Q0AB03DJ,1SRCH7F014TAHX,1U5X071EXP6C9Y,88.7,0.2,32.8,9.347053,4.47388,0,102,Mavic Mini,1SDCH7G0169R0K,1SFLH6Q0AB03DJ,1SRCH7F014TAHX,1U5X071EXP6C9Y,DJI Fly,,1.12.8,83AA36EE-5E72-76F5-C421-0CC760FDA018,1SDCH7G0169R0K,,,,,6.974091036,79.91456604,5,,
2/27/2024,01:59.5,1m 46.6s,106.6,6.974176198,79.91452746,0,0,0.3,61,0.4,0,0,0,0,0,0,0,0,1.8,0,155.7,155.7,,Manual Takeoff,Other,Takeoff (RC Assisted),12,5,TRUE,,Mavic Mini,TRUE,FALSE,,Smart,RC,TRUE,TRUE,FALSE,,,TRUE,,FALSE,FALSE,FALSE,FALSE,FALSE,FALSE,FALSE,FALSE,FALSE,FALSE,0,Follow Yaw,-0.3,0,154.7,154.7,FALSE,FALSE,FALSE,FALSE,FALSE,FALSE,,TRUE,Normal,,100,1024,1024,1684,1024,1,FALSE,FALSE,FALSE,FALSE,FALSE,0,FALSE,FALSE,FALSE,FALSE,90,7.917,1866,2063,7.947,FALSE,3.964,3.953,0.011,FALSE,FALSE,NA,90.3,90.1,90.3,0,1,0,0,5,2318.3,579.58,,Idle,0,20,FALSE,5,TRUE,6,Go Home,FALSE,FALSE,FALSE,FALSE,FALSE,FALSE,FALSE,FALSE,FALSE,FALSE,FALSE,FALSE,6.974171863,79.91452031,3,183.7,328,TRUE,1,1,FALSE,FALSE,FALSE,FALSE,,TRUE,FALSE,FALSE,Course Lock,49.2,254.5,16.4,Calm,39,,1.12.8,Mavic Mini,1SDCH7G0169R0K,1SFLH6Q0AB03DJ,1SRCH7F014TAHX,1U5X071EXP6C9Y,88.7,0.2,32.8,9.347053,4.47388,0,102,Mavic Mini,1SDCH7G0169R0K,1SFLH6Q0AB03DJ,1SRCH7F014TAHX,1U5X071EXP6C9Y,DJI Fly,,1.12.8,83AA36EE-5E72-76F5-C421-0CC760FDA018,1SDCH7G0169R0K,,,,,6.974091036,79.91456604,5,,
2/27/2024,01:59.6,1m 46.7s,106.7,6.974176063,79.91452735,0,0,0.3,61,0.5,0,0,0,0,0,0,-0.223694,0,0.3,-1.6,154.8,154.8,,Manual Takeoff,Other,,12,5,TRUE,,Mavic Mini,TRUE,FALSE,,Smart,RC,FALSE,TRUE,FALSE,,,TRUE,,FALSE,FALSE,FALSE,FALSE,FALSE,FALSE,FALSE,FALSE,FALSE,FALSE,0,Follow Yaw,-0.3,0,154.2,154.2,FALSE,FALSE,FALSE,FALSE,FALSE,FALSE,,TRUE,Normal,,100,1024,1024,1684,1024,1,FALSE,FALSE,FALSE,FALSE,FALSE,0,FALSE,FALSE,FALSE,FALSE,90,7.917,1866,2063,7.947,FALSE,3.964,3.953,0.011,FALSE,FALSE,NA,90.3,90.1,90.3,0,1,0,0,5,2318.3,579.58,,Idle,0,20,FALSE,5,TRUE,6,Go Home,FALSE,FALSE,FALSE,FALSE,FALSE,FALSE,FALSE,FALSE,FALSE,FALSE,FALSE,FALSE,6.974171863,79.91452031,2.9,183.7,328,TRUE,1,1,FALSE,FALSE,FALSE,FALSE,,TRUE,FALSE,FALSE,Course Lock,49.2,254.5,16.4,Calm,39,,1.12.8,Mavic Mini,1SDCH7G0169R0K,1SFLH6Q0AB03DJ,1SRCH7F014TAHX,1U5X071EXP6C9Y,88.7,0.2,32.8,9.347053,4.47388,0,102,Mavic Mini,1SDCH7G0169R0K,1SFLH6Q0AB03DJ,1SRCH7F014TAHX,1U5X071EXP6C9Y,DJI Fly,,1.12.8,83AA36EE-5E72-76F5-C421-0CC760FDA018,1SDCH7G0169R0K,,,,,6.974091036,79.91456604,5,,
2/27/2024,01:59.7,1m 46.8s,106.8,6.974176028,79.91452734,0,0,0.3,61,0.5,0,0,0,0,0,0,-0.447388,0,-0.5,-1,154.6,154.6,,P-GPS,Other,,12,5,TRUE,,Mavic Mini,TRUE,FALSE,,Smart,RC,FALSE,TRUE,FALSE,,,TRUE,,FALSE,FALSE,FALSE,FALSE,FALSE,FALSE,FALSE,FALSE,FALSE,FALSE,0,Follow Yaw,-0.3,0,154,154,FALSE,FALSE,FALSE,FALSE,FALSE,FALSE,,TRUE,Normal,,100,1024,1024,1684,1024,1,FALSE,FALSE,FALSE,FALSE,FALSE,0,FALSE,FALSE,FALSE,FALSE,90,7.917,1866,2063,7.947,FALSE,3.964,3.953,0.011,FALSE,FALSE,NA,90.3,90.1,90.3,0,1,0,0,5,2318.3,579.58,,Idle,0,20,FALSE,5,TRUE,6,Go Home,FALSE,FALSE,FALSE,FALSE,FALSE,FALSE,FALSE,FALSE,FALSE,FALSE,FALSE,FALSE,6.974171863,79.91452031,2.9,183.7,328,TRUE,1,1,FALSE,FALSE,FALSE,FALSE,,TRUE,FALSE,FALSE,Course Lock,49.2,254.5,16.4,Calm,39,,1.12.8,Mavic Mini,1SDCH7G0169R0K,1SFLH6Q0AB03DJ,1SRCH7F014TAHX,1U5X071EXP6C9Y,88.7,0.2,32.8,9.347053,4.47388,0,102,Mavic Mini,1SDCH7G0169R0K,1SFLH6Q0AB03DJ,1SRCH7F014TAHX,1U5X071EXP6C9Y,DJI Fly,,1.12.8,83AA36EE-5E72-76F5-C421-0CC760FDA018,1SDCH7G0169R0K,,,,,6.974091036,79.91456604,5,Flight mode changed to P-GPS.,
2/27/2024,01:59.8,1m 46.9s,106.9,6.974176016,79.91452735,0,0,0.6,61,0.5,0,0,0,0,0,0,-0.894776,0,0.5,-0.2,154.9,154.9,,P-GPS,Other,,12,5,TRUE,,Mavic Mini,TRUE,FALSE,,Smart,RC,FALSE,TRUE,FALSE,,,TRUE,,FALSE,FALSE,FALSE,FALSE,FALSE,FALSE,FALSE,FALSE,FALSE,FALSE,0,Follow Yaw,-0.3,0,154,154,FALSE,FALSE,FALSE,FALSE,FALSE,FALSE,,TRUE,Normal,,100,1024,1024,1684,1024,1,FALSE,FALSE,FALSE,FALSE,FALSE,0,FALSE,FALSE,FALSE,FALSE,90,7.917,1866,2063,7.869,FALSE,3.964,3.953,0.011,FALSE,FALSE,NA,90.3,90.1,90.3,0,0,0,0,5,2628.1,657.04,,Idle,0,20,FALSE,5,TRUE,6,Go Home,FALSE,FALSE,FALSE,FALSE,FALSE,FALSE,FALSE,FALSE,FALSE,FALSE,FALSE,FALSE,6.974176063,79.91452735,0,183.7,328,TRUE,1,1,FALSE,FALSE,FALSE,FALSE,,TRUE,FALSE,FALSE,Course Lock,49.2,254.5,16.4,Calm,39,,1.12.8,Mavic Mini,1SDCH7G0169R0K,1SFLH6Q0AB03DJ,1SRCH7F014TAHX,1U5X071EXP6C9Y,88.7,0.2,32.8,9.347053,4.47388,0,102,Mavic Mini,1SDCH7G0169R0K,1SFLH6Q0AB03DJ,1SRCH7F014TAHX,1U5X071EXP6C9Y,DJI Fly,,1.12.8,83AA36EE-5E72-76F5-C421-0CC760FDA018,1SDCH7G0169R0K,,,,,6.974091036,79.91456604,5,Home Point Updated.,
2/27/2024,01:59.9,1m 47.0s,107,6.974175983,79.91452739,0.3,0.3,0.6,61,0.5,0,0,0,0,0,0,-1.565858,0,1.3,0.1,155.2,155.2,,P-GPS,Other,,13,5,TRUE,,Mavic Mini,TRUE,FALSE,,Smart,RC,FALSE,TRUE,FALSE,,,TRUE,,FALSE,FALSE,FALSE,FALSE,FALSE,FALSE,FALSE,FALSE,FALSE,FALSE,0,Follow Yaw,-0.3,0,154,154,FALSE,FALSE,FALSE,FALSE,FALSE,FALSE,,TRUE,Normal,,100,1024,1024,1684,1024,1,FALSE,FALSE,FALSE,FALSE,FALSE,0,FALSE,FALSE,FALSE,FALSE,90,7.917,1866,2063,7.869,FALSE,3.964,3.953,0.011,FALSE,FALSE,NA,90.3,90.1,90.3,0,0,0,0,5,2628.1,657.04,,Idle,0,20,FALSE,5,TRUE,6,Go Home,FALSE,FALSE,FALSE,FALSE,FALSE,FALSE,FALSE,FALSE,FALSE,FALSE,FALSE,FALSE,6.974176063,79.91452735,0,183.7,328,TRUE,1,1,FALSE,FALSE,FALSE,FALSE,,TRUE,FALSE,FALSE,Course Lock,49.2,254.5,16.4,Calm,39,,1.12.8,Mavic Mini,1SDCH7G0169R0K,1SFLH6Q0AB03DJ,1SRCH7F014TAHX,1U5X071EXP6C9Y,88.7,0.2,32.8,9.347053,4.47388,0,102,Mavic Mini,1SDCH7G0169R0K,1SFLH6Q0AB03DJ,1SRCH7F014TAHX,1U5X071EXP6C9Y,DJI Fly,,1.12.8,83AA36EE-5E72-76F5-C421-0CC760FDA018,1SDCH7G0169R0K,,,,,6.974091036,79.91456604,5,,
2/27/2024,02:00.1,1m 47.1s,107.1,6.974176049,79.91452741,0.6,0.6,0.9,62,0.5,0,0,0,0,0,0,-2.013246,0,1.6,0.1,155.2,155.2,,P-GPS,Other,,13,5,TRUE,,Mavic Mini,TRUE,FALSE,,Smart,RC,FALSE,TRUE,FALSE,,,TRUE,,FALSE,FALSE,FALSE,FALSE,FALSE,FALSE,FALSE,FALSE,FALSE,FALSE,0,Follow Yaw,-0.3,0,153.9,153.9,FALSE,FALSE,FALSE,FALSE,FALSE,FALSE,,TRUE,Normal,,100,1024,1024,1411,1024,1,FALSE,FALSE,FALSE,FALSE,FALSE,0,FALSE,FALSE,FALSE,FALSE,90,7.917,1866,2063,7.869,FALSE,3.964,3.953,0.011,FALSE,FALSE,NA,90.3,90.1,90.3,0,0,0,0,5,2628.1,657.04,,Idle,0,20,FALSE,5,TRUE,6,Go Home,FALSE,FALSE,FALSE,FALSE,FALSE,FALSE,FALSE,FALSE,FALSE,FALSE,FALSE,FALSE,6.974176063,79.91452735,0,183.7,328,TRUE,1,1,FALSE,FALSE,FALSE,FALSE,,TRUE,FALSE,FALSE,Course Lock,49.2,254.5,16.4,Calm,39,,1.12.8,Mavic Mini,1SDCH7G0169R0K,1SFLH6Q0AB03DJ,1SRCH7F014TAHX,1U5X071EXP6C9Y,88.7,0.2,32.8,9.347053,4.47388,0,102,Mavic Mini,1SDCH7G0169R0K,1SFLH6Q0AB03DJ,1SRCH7F014TAHX,1U5X071EXP6C9Y,DJI Fly,,1.12.8,83AA36EE-5E72-76F5-C421-0CC760FDA018,1SDCH7G0169R0K,,,,,6.974091036,79.91456604,5,Home Point updated. RTH altitude adjusted to 15 m! (Code: 120852).,
2/27/2024,02:00.2,1m 47.2s,107.2,6.974175991,79.91452744,0.9,0.9,1.3,62,0.5,0,0,0,0,0,0,-2.684328,0,1.8,-0.1,155.3,155.3,,P-GPS,Other,,13,5,TRUE,,Mavic Mini,TRUE,FALSE,,Smart,RC,FALSE,TRUE,FALSE,,,TRUE,,FALSE,FALSE,FALSE,FALSE,FALSE,FALSE,FALSE,FALSE,FALSE,FALSE,0,Follow Yaw,-0.3,0,154,154,FALSE,FALSE,FALSE,FALSE,FALSE,FALSE,,TRUE,Normal,,100,1024,1024,1024,1024,1,FALSE,FALSE,FALSE,FALSE,FALSE,0,FALSE,FALSE,FALSE,FALSE,90,7.917,1866,2063,7.869,FALSE,3.964,3.953,0.011,FALSE,FALSE,NA,90.3,90.1,90.3,0,0,0,0,5,2628.1,657.04,,Idle,0,20,FALSE,5,TRUE,6,Go Home,FALSE,FALSE,FALSE,FALSE,FALSE,FALSE,FALSE,FALSE,FALSE,FALSE,FALSE,FALSE,6.974176063,79.91452735,0,183.7,328,TRUE,1,1,FALSE,FALSE,FALSE,FALSE,,TRUE,FALSE,FALSE,Course Lock,49.2,254.5,16.4,Calm,39,,1.12.8,Mavic Mini,1SDCH7G0169R0K,1SFLH6Q0AB03DJ,1SRCH7F014TAHX,1U5X071EXP6C9Y,88.7,0.2,32.8,9.347053,4.47388,0,102,Mavic Mini,1SDCH7G0169R0K,1SFLH6Q0AB03DJ,1SRCH7F014TAHX,1U5X071EXP6C9Y,DJI Fly,,1.12.8,83AA36EE-5E72-76F5-C421-0CC760FDA018,1SDCH7G0169R0K,,,,,6.974091036,79.91456604,5,,
2/27/2024,02:00.3,1m 47.3s,107.3,6.974175914,79.91452743,1.3,1.3,1.6,62,0.6,0,0,0,0,0,0,-3.35541,0,1.9,-0.1,155.3,155.3,,P-GPS,Other,,13,5,TRUE,,Mavic Mini,TRUE,FALSE,,Smart,RC,FALSE,TRUE,FALSE,,,TRUE,,FALSE,FALSE,FALSE,FALSE,FALSE,FALSE,FALSE,FALSE,FALSE,FALSE,0,Follow Yaw,-0.3,0,154,154,FALSE,FALSE,FALSE,FALSE,FALSE,FALSE,,TRUE,Normal,,100,1024,1024,1024,1024,1,FALSE,FALSE,FALSE,FALSE,FALSE,0,FALSE,FALSE,FALSE,FALSE,90,7.917,1866,2063,7.869,FALSE,3.964,3.953,0.011,FALSE,FALSE,NA,90.3,90.1,90.3,0,0,0,0,5,2628.1,657.04,,Idle,0,20,FALSE,5,TRUE,6,Go Home,FALSE,FALSE,FALSE,FALSE,FALSE,FALSE,FALSE,FALSE,FALSE,FALSE,FALSE,FALSE,6.974176063,79.91452735,0,183.7,328,TRUE,1,1,FALSE,FALSE,FALSE,FALSE,,TRUE,FALSE,FALSE,Course Lock,49.2,254.5,16.4,Calm,39,,1.12.8,Mavic Mini,1SDCH7G0169R0K,1SFLH6Q0AB03DJ,1SRCH7F014TAHX,1U5X071EXP6C9Y,88.7,0.2,32.8,9.347053,4.47388,0,102,Mavic Mini,1SDCH7G0169R0K,1SFLH6Q0AB03DJ,1SRCH7F014TAHX,1U5X071EXP6C9Y,DJI Fly,,1.12.8,83AA36EE-5E72-76F5-C421-0CC760FDA018,1SDCH7G0169R0K,,,,,6.974091036,79.91456604,5,,
2/27/2024,02:00.3,1m 47.4s,107.4,6.974175825,79.91452741,1.9,1.9,2.2,63,0.6,0,0,0,0,0,0,-3.802798,0,2.1,-0.3,155.3,155.3,,P-GPS,Other,,12,5,TRUE,,Mavic Mini,TRUE,FALSE,,Smart,RC,FALSE,TRUE,FALSE,,,TRUE,,FALSE,FALSE,FALSE,FALSE,FALSE,FALSE,FALSE,FALSE,FALSE,FALSE,0,Follow Yaw,-0.3,0,153.9,153.9,FALSE,FALSE,FALSE,FALSE,FALSE,FALSE,,TRUE,Normal,,100,1024,1024,1024,1024,1,FALSE,FALSE,FALSE,FALSE,FALSE,0,FALSE,FALSE,FALSE,FALSE,90,7.917,1866,2063,7.869,FALSE,3.964,3.953,0.011,FALSE,FALSE,NA,90.3,90.1,90.3,0,0,0,0,5,2628.1,657.04,,Idle,0,20,FALSE,5,TRUE,6,Go Home,FALSE,FALSE,FALSE,FALSE,FALSE,FALSE,FALSE,FALSE,FALSE,FALSE,FALSE,FALSE,6.974176063,79.91452735,0,183.7,328,TRUE,1,1,FALSE,FALSE,FALSE,FALSE,,TRUE,FALSE,FALSE,Course Lock,49.2,254.5,16.4,Calm,39,,1.12.8,Mavic Mini,1SDCH7G0169R0K,1SFLH6Q0AB03DJ,1SRCH7F014TAHX,1U5X071EXP6C9Y,88.7,0.2,32.8,9.347053,4.47388,0,102,Mavic Mini,1SDCH7G0169R0K,1SFLH6Q0AB03DJ,1SRCH7F014TAHX,1U5X071EXP6C9Y,DJI Fly,,1.12.8,83AA36EE-5E72-76F5-C421-0CC760FDA018,1SDCH7G0169R0K,,,,,6.974091036,79.91456604,5,,
2/27/2024,02:00.5,1m 47.5s,107.5,6.974175756,79.91452745,2.2,2.2,2.6,63,0.6,0,0,0,0,0,0,-3.802798,0,2.3,-0.4,155.3,155.3,,P-GPS,Other,,12,5,TRUE,,Mavic Mini,TRUE,FALSE,,Smart,RC,FALSE,TRUE,FALSE,,,TRUE,,FALSE,FALSE,FALSE,FALSE,FALSE,FALSE,FALSE,FALSE,FALSE,FALSE,0,Follow Yaw,-0.3,0,153.9,153.9,FALSE,FALSE,FALSE,FALSE,FALSE,FALSE,,TRUE,Normal,,100,1024,1024,1024,1024,1,FALSE,FALSE,FALSE,FALSE,FALSE,0,FALSE,FALSE,FALSE,FALSE,90,7.672,1864,2063,7.869,FALSE,3.841,3.831,0.011,FALSE,FALSE,NA,90.3,90.1,90.3,0,0,0,0,5,2628.1,657.04,,Idle,0,20,FALSE,5,TRUE,6,Go Home,FALSE,FALSE,FALSE,FALSE,FALSE,FALSE,FALSE,FALSE,FALSE,FALSE,FALSE,FALSE,6.974176063,79.91452735,0.1,183.7,328,TRUE,1,1,FALSE,FALSE,FALSE,FALSE,,TRUE,FALSE,FALSE,Course Lock,49.2,254.5,16.4,Calm,39,,1.12.8,Mavic Mini,1SDCH7G0169R0K,1SFLH6Q0AB03DJ,1SRCH7F014TAHX,1U5X071EXP6C9Y,88.7,0.2,32.8,9.347053,4.47388,0,102,Mavic Mini,1SDCH7G0169R0K,1SFLH6Q0AB03DJ,1SRCH7F014TAHX,1U5X071EXP6C9Y,DJI Fly,,1.12.8,83AA36EE-5E72-76F5-C421-0CC760FDA018,1SDCH7G0169R0K,,,,,6.974091036,79.91456604,5,,
2/27/2024,02:00.6,1m 47.6s,107.6,6.974175723,79.91452755,2.9,2.9,3.2,64,0.7,0,0,0,0,0,0,-3.35541,0,2.3,-0.5,155.3,155.3,,P-GPS,Other,,12,5,TRUE,,Mavic Mini,TRUE,FALSE,,Smart,RC,FALSE,TRUE,FALSE,,,TRUE,,FALSE,FALSE,FALSE,FALSE,FALSE,FALSE,FALSE,FALSE,FALSE,FALSE,0,Follow Yaw,-0.3,0,153.9,153.9,FALSE,FALSE,FALSE,FALSE,FALSE,FALSE,,TRUE,Normal,,100,1024,1024,1024,1024,1,FALSE,FALSE,FALSE,FALSE,FALSE,0,FALSE,FALSE,FALSE,FALSE,90,7.672,1864,2063,7.869,FALSE,3.841,3.831,0.011,FALSE,FALSE,NA,90.3,90.1,90.3,0,0,0,0,5,2628.1,657.04,,Idle,0,20,FALSE,5,TRUE,6,Go Home,FALSE,FALSE,FALSE,FALSE,FALSE,FALSE,FALSE,FALSE,FALSE,FALSE,FALSE,FALSE,6.974176063,79.91452735,0.1,183.7,328,TRUE,1,1,FALSE,FALSE,FALSE,FALSE,,TRUE,FALSE,FALSE,Course Lock,49.2,254.5,16.4,Calm,39,,1.12.8,Mavic Mini,1SDCH7G0169R0K,1SFLH6Q0AB03DJ,1SRCH7F014TAHX,1U5X071EXP6C9Y,88.7,0.2,32.8,9.347053,4.47388,0,102,Mavic Mini,1SDCH7G0169R0K,1SFLH6Q0AB03DJ,1SRCH7F014TAHX,1U5X071EXP6C9Y,DJI Fly,,1.12.8,83AA36EE-5E72-76F5-C421-0CC760FDA018,1SDCH7G0169R0K,,,,,6.974083534,79.91456009,5,,
2/27/2024,02:00.7,1m 47.7s,107.7,6.974175543,79.91452755,3.2,3.2,3.9,64,0.7,0,0,0,0,0,0,-2.908022,0,2.1,-0.7,155.3,155.3,,P-GPS,Other,,12,5,TRUE,,Mavic Mini,TRUE,FALSE,,Smart,RC,FALSE,TRUE,FALSE,,,TRUE,,FALSE,FALSE,FALSE,FALSE,FALSE,FALSE,FALSE,FALSE,FALSE,FALSE,0,Follow Yaw,-0.3,0,154,154,FALSE,FALSE,FALSE,FALSE,FALSE,FALSE,,TRUE,Normal,,100,1024,1024,1024,1024,1,FALSE,FALSE,FALSE,FALSE,FALSE,0,FALSE,FALSE,FALSE,FALSE,90,7.672,1864,2063,7.869,FALSE,3.841,3.831,0.011,FALSE,FALSE,NA,90.3,90.1,90.3,0,0,0,0,5,2628.1,657.04,,Idle,0,20,FALSE,5,TRUE,6,Go Home,FALSE,FALSE,FALSE,FALSE,FALSE,FALSE,FALSE,FALSE,FALSE,FALSE,FALSE,FALSE,6.974176063,79.91452735,0.2,183.7,328,TRUE,1,1,FALSE,FALSE,FALSE,FALSE,,TRUE,FALSE,FALSE,Course Lock,49.2,254.5,16.4,Calm,39,,1.12.8,Mavic Mini,1SDCH7G0169R0K,1SFLH6Q0AB03DJ,1SRCH7F014TAHX,1U5X071EXP6C9Y,88.7,0.2,32.8,9.347053,4.47388,0,102,Mavic Mini,1SDCH7G0169R0K,1SFLH6Q0AB03DJ,1SRCH7F014TAHX,1U5X071EXP6C9Y,DJI Fly,,1.12.8,83AA36EE-5E72-76F5-C421-0CC760FDA018,1SDCH7G0169R0K,,,,,6.974083534,79.91456009,5,,
2/27/2024,02:00.7,1m 47.8s,107.8,6.974175329,79.91452753,3.6,3.6,4.2,65,0.8,0,0,0,0,0,0,-2.23694,0,1.9,-0.7,155.3,155.3,,P-GPS,Other,,13,5,TRUE,,Mavic Mini,TRUE,FALSE,,Smart,RC,FALSE,TRUE,FALSE,,,TRUE,,FALSE,FALSE,FALSE,FALSE,FALSE,FALSE,FALSE,FALSE,FALSE,FALSE,0,Follow Yaw,-0.3,0,154,154,FALSE,FALSE,FALSE,FALSE,FALSE,FALSE,,TRUE,Normal,,100,1024,1024,1024,1024,1,FALSE,FALSE,FALSE,FALSE,FALSE,0,FALSE,FALSE,FALSE,FALSE,90,7.672,1864,2063,7.869,FALSE,3.841,3.831,0.011,FALSE,FALSE,NA,90.3,90.1,90.3,0,0,0,0,5,2628.1,657.04,,Idle,0,20,FALSE,5,TRUE,6,Go Home,FALSE,FALSE,FALSE,FALSE,FALSE,FALSE,FALSE,FALSE,FALSE,FALSE,FALSE,FALSE,6.974176063,79.91452735,0.2,183.7,328,TRUE,1,1,FALSE,FALSE,FALSE,FALSE,,TRUE,FALSE,FALSE,Course Lock,49.2,254.5,16.4,Calm,39,,1.12.8,Mavic Mini,1SDCH7G0169R0K,1SFLH6Q0AB03DJ,1SRCH7F014TAHX,1U5X071EXP6C9Y,88.7,0.2,32.8,9.347053,4.47388,0,102,Mavic Mini,1SDCH7G0169R0K,1SFLH6Q0AB03DJ,1SRCH7F014TAHX,1U5X071EXP6C9Y,DJI Fly,,1.12.8,83AA36EE-5E72-76F5-C421-0CC760FDA018,1SDCH7G0169R0K,,,,,6.974083534,79.91456009,5,,
2/27/2024,02:00.8,1m 47.9s,107.9,6.974175132,79.91452746,3.9,3.9,4.5,65,0.9,0,0,0,0,0,0,-1.565858,0,1.7,-0.8,155.3,155.3,,P-GPS,Other,,13,5,TRUE,,Mavic Mini,TRUE,FALSE,,Smart,RC,FALSE,TRUE,FALSE,,,TRUE,,FALSE,FALSE,FALSE,FALSE,FALSE,FALSE,FALSE,FALSE,FALSE,FALSE,0,Follow Yaw,-0.3,0,153.9,153.9,FALSE,FALSE,FALSE,FALSE,FALSE,FALSE,,TRUE,Normal,,100,1024,1024,1024,1024,1,FALSE,FALSE,FALSE,FALSE,FALSE,0,FALSE,FALSE,FALSE,FALSE,90,7.672,1864,2063,7.8,FALSE,3.841,3.831,0.011,FALSE,FALSE,NA,90.3,90.1,90.3,0,0,0,0,5,3428,857,,Idle,0,20,FALSE,5,TRUE,6,Go Home,FALSE,FALSE,FALSE,FALSE,FALSE,FALSE,FALSE,FALSE,FALSE,FALSE,FALSE,FALSE,6.974176063,79.91452735,0.3,183.7,328,TRUE,1,1,FALSE,FALSE,FALSE,FALSE,,TRUE,FALSE,FALSE,Course Lock,49.2,254.5,16.4,Calm,39,,1.12.8,Mavic Mini,1SDCH7G0169R0K,1SFLH6Q0AB03DJ,1SRCH7F014TAHX,1U5X071EXP6C9Y,88.7,0.2,32.8,9.347053,4.47388,0,102,Mavic Mini,1SDCH7G0169R0K,1SFLH6Q0AB03DJ,1SRCH7F014TAHX,1U5X071EXP6C9Y,DJI Fly,,1.12.8,83AA36EE-5E72-76F5-C421-0CC760FDA018,1SDCH7G0169R0K,,,,,6.974083534,79.91456009,5,,
2/27/2024,02:00.9,1m 48.0s,108,6.974174633,79.91452722,3.9,3.9,4.5,65,1.1,0,0,0,0,0,0,-1.11847,0,0.6,-0.9,155.3,155.3,,P-GPS,Other,,13,5,TRUE,,Mavic Mini,TRUE,FALSE,,Smart,RC,FALSE,TRUE,FALSE,,,TRUE,,FALSE,FALSE,FALSE,FALSE,FALSE,FALSE,FALSE,FALSE,FALSE,FALSE,0,Follow Yaw,-0.3,0,154,154,FALSE,FALSE,FALSE,FALSE,FALSE,FALSE,,TRUE,Normal,,100,1024,1024,1024,1024,1,FALSE,FALSE,FALSE,FALSE,FALSE,0,FALSE,FALSE,FALSE,FALSE,90,7.672,1864,2063,7.8,FALSE,3.841,3.831,0.011,FALSE,FALSE,NA,90.3,90.1,90.3,0,0,0,0,5,3428,857,,Idle,0,20,FALSE,5,TRUE,6,Go Home,FALSE,FALSE,FALSE,FALSE,FALSE,FALSE,FALSE,FALSE,FALSE,FALSE,FALSE,FALSE,6.974176063,79.91452735,0.5,183.7,328,TRUE,1,1,FALSE,FALSE,FALSE,FALSE,,TRUE,FALSE,FALSE,Course Lock,49.2,254.5,16.4,Calm,39,,1.12.8,Mavic Mini,1SDCH7G0169R0K,1SFLH6Q0AB03DJ,1SRCH7F014TAHX,1U5X071EXP6C9Y,88.7,0.2,32.8,9.347053,4.47388,0,102,Mavic Mini,1SDCH7G0169R0K,1SFLH6Q0AB03DJ,1SRCH7F014TAHX,1U5X071EXP6C9Y,DJI Fly,,1.12.8,83AA36EE-5E72-76F5-C421-0CC760FDA018,1SDCH7G0169R0K,,,,,6.974083534,79.91456009,5,,
2/27/2024,02:01.0,1m 48.1s,108.1,6.974174574,79.91452719,3.9,3.9,4.9,65,1.1,0,0,0,0,0,0,-0.447388,0,0.7,-0.9,155.3,155.3,,P-GPS,Other,,13,5,TRUE,,Mavic Mini,TRUE,FALSE,,Smart,RC,FALSE,TRUE,FALSE,,,TRUE,,FALSE,FALSE,FALSE,FALSE,FALSE,FALSE,FALSE,FALSE,FALSE,FALSE,0,Follow Yaw,-0.3,0,154,154,FALSE,FALSE,FALSE,FALSE,FALSE,FALSE,,TRUE,Normal,,100,1024,1024,1024,1024,1,FALSE,FALSE,FALSE,FALSE,FALSE,0,FALSE,FALSE,FALSE,FALSE,90,7.672,1864,2063,7.8,FALSE,3.841,3.831,0.011,FALSE,FALSE,NA,90.3,90.1,90.3,0,0,0,0,5,3428,857,,Idle,0,20,FALSE,5,TRUE,6,Go Home,FALSE,FALSE,FALSE,FALSE,FALSE,FALSE,FALSE,FALSE,FALSE,FALSE,FALSE,FALSE,6.974176063,79.91452735,0.5,183.7,328,TRUE,1,1,FALSE,FALSE,FALSE,FALSE,,TRUE,FALSE,FALSE,Course Lock,49.2,254.5,16.4,Calm,39,,1.12.8,Mavic Mini,1SDCH7G0169R0K,1SFLH6Q0AB03DJ,1SRCH7F014TAHX,1U5X071EXP6C9Y,88.7,0.2,32.8,9.347053,4.47388,0,102,Mavic Mini,1SDCH7G0169R0K,1SFLH6Q0AB03DJ,1SRCH7F014TAHX,1U5X071EXP6C9Y,DJI Fly,,1.12.8,83AA36EE-5E72-76F5-C421-0CC760FDA018,1SDCH7G0169R0K,,,,,6.974083534,79.91456009,5,,
2/27/2024,02:01.1,1m 48.2s,108.2,6.974174531,79.91452717,3.9,3.9,4.9,65,1.1,0,0,0,0,0,0,-0.223694,0,0.9,-0.9,155.3,155.3,,P-GPS,Other,,13,5,TRUE,,Mavic Mini,TRUE,FALSE,,Smart,RC,FALSE,TRUE,FALSE,,,TRUE,,FALSE,FALSE,FALSE,FALSE,FALSE,FALSE,FALSE,FALSE,FALSE,FALSE,0,Follow Yaw,-0.3,0,154,154,FALSE,FALSE,FALSE,FALSE,FALSE,FALSE,,TRUE,Normal,,100,1024,1024,1024,1024,1,FALSE,FALSE,FALSE,FALSE,FALSE,0,FALSE,FALSE,FALSE,FALSE,90,7.672,1864,2063,7.8,FALSE,3.841,3.831,0.011,FALSE,FALSE,NA,90.3,90.1,90.3,0,0,0,0,5,3428,857,,Idle,0,20,FALSE,5,TRUE,6,Go Home,FALSE,FALSE,FALSE,FALSE,FALSE,FALSE,FALSE,FALSE,FALSE,FALSE,FALSE,FALSE,6.974176063,79.91452735,0.5,183.7,328,TRUE,1,1,FALSE,FALSE,FALSE,FALSE,,TRUE,FALSE,FALSE,Course Lock,49.2,254.5,16.4,Calm,39,,1.12.8,Mavic Mini,1SDCH7G0169R0K,1SFLH6Q0AB03DJ,1SRCH7F014TAHX,1U5X071EXP6C9Y,88.7,0.2,32.8,9.347053,4.47388,0,102,Mavic Mini,1SDCH7G0169R0K,1SFLH6Q0AB03DJ,1SRCH7F014TAHX,1U5X071EXP6C9Y,DJI Fly,,1.12.8,83AA36EE-5E72-76F5-C421-0CC760FDA018,1SDCH7G0169R0K,,,,,6.974083534,79.91456009,5,,
2/27/2024,02:01.2,1m 48.3s,108.3,6.97417445,79.91452715,3.9,3.9,4.9,65,1.2,0,0,0,0,0,0,0,0,1.1,-0.9,155.3,155.3,,P-GPS,Other,,13,5,TRUE,,Mavic Mini,TRUE,FALSE,,Smart,RC,FALSE,TRUE,FALSE,,,TRUE,,FALSE,FALSE,FALSE,FALSE,FALSE,FALSE,FALSE,FALSE,FALSE,FALSE,0,Follow Yaw,-0.3,0,154,154,FALSE,FALSE,FALSE,FALSE,FALSE,FALSE,,TRUE,Normal,,100,1024,1024,1024,1024,1,FALSE,FALSE,FALSE,FALSE,FALSE,0,FALSE,FALSE,FALSE,FALSE,90,7.672,1864,2063,7.8,FALSE,3.841,3.831,0.011,FALSE,FALSE,NA,90.3,90.1,90.3,0,0,0,0,5,3428,857,,Idle,0,20,FALSE,5,TRUE,6,Go Home,FALSE,FALSE,FALSE,FALSE,FALSE,FALSE,FALSE,FALSE,FALSE,FALSE,FALSE,FALSE,6.974176063,79.91452735,0.5,183.7,328,TRUE,1,1,FALSE,FALSE,FALSE,FALSE,,TRUE,FALSE,FALSE,Course Lock,49.2,254.5,16.4,Calm,39,,1.12.8,Mavic Mini,1SDCH7G0169R0K,1SFLH6Q0AB03DJ,1SRCH7F014TAHX,1U5X071EXP6C9Y,88.7,0.2,32.8,9.347053,4.47388,0,102,Mavic Mini,1SDCH7G0169R0K,1SFLH6Q0AB03DJ,1SRCH7F014TAHX,1U5X071EXP6C9Y,DJI Fly,,1.12.8,83AA36EE-5E72-76F5-C421-0CC760FDA018,1SDCH7G0169R0K,,,,,6.974083534,79.91456009,5,,
2/27/2024,02:01.3,1m 48.4s,108.4,6.974174605,79.91452709,3.9,3.9,4.9,65,1.2,0,0,0,0,0,0,0,0,1.3,-1.1,155.3,155.3,,P-GPS,Other,,13,5,TRUE,,Mavic Mini,TRUE,FALSE,,Smart,RC,FALSE,TRUE,FALSE,,,TRUE,,FALSE,FALSE,FALSE,FALSE,FALSE,FALSE,FALSE,FALSE,FALSE,FALSE,0,Follow Yaw,-0.3,0,154,154,FALSE,FALSE,FALSE,FALSE,FALSE,FALSE,,TRUE,Normal,,100,1024,1024,1024,1024,1,FALSE,FALSE,FALSE,FALSE,FALSE,0,FALSE,FALSE,FALSE,FALSE,90,7.672,1864,2063,7.8,FALSE,3.841,3.831,0.011,FALSE,FALSE,NA,90.3,90.1,90.3,0,0,0,0,5,3428,857,,Idle,0,20,FALSE,5,TRUE,6,Go Home,FALSE,FALSE,FALSE,FALSE,FALSE,FALSE,FALSE,FALSE,FALSE,FALSE,FALSE,FALSE,6.974176063,79.91452735,0.5,183.7,328,TRUE,1,1,FALSE,FALSE,FALSE,FALSE,,TRUE,FALSE,FALSE,Course Lock,49.2,254.5,16.4,Calm,39,,1.12.8,Mavic Mini,1SDCH7G0169R0K,1SFLH6Q0AB03DJ,1SRCH7F014TAHX,1U5X071EXP6C9Y,88.7,0.2,32.8,9.347053,4.47388,0,102,Mavic Mini,1SDCH7G0169R0K,1SFLH6Q0AB03DJ,1SRCH7F014TAHX,1U5X071EXP6C9Y,DJI Fly,,1.12.8,83AA36EE-5E72-76F5-C421-0CC760FDA018,1SDCH7G0169R0K,,,,,6.974083534,79.91456009,5,,
2/27/2024,02:01.4,1m 48.5s,108.5,6.974174518,79.91452707,3.9,3.9,4.9,65,1.3,0,0,0,0,0,0,0,0,1.6,-1.1,155.3,155.3,,P-GPS,Other,,13,5,TRUE,,Mavic Mini,TRUE,FALSE,,Smart,RC,FALSE,TRUE,FALSE,,,TRUE,,FALSE,FALSE,FALSE,FALSE,FALSE,FALSE,FALSE,FALSE,FALSE,FALSE,0,Follow Yaw,-0.3,0,154,154,FALSE,FALSE,FALSE,FALSE,FALSE,FALSE,,TRUE,Normal,,100,1024,1024,1024,1024,1,FALSE,FALSE,FALSE,FALSE,FALSE,0,FALSE,FALSE,FALSE,FALSE,90,7.672,1864,2063,7.8,FALSE,3.841,3.831,0.011,FALSE,FALSE,NA,90.3,90.1,90.3,0,0,0,0,5,3428,857,,Idle,0,20,FALSE,5,TRUE,6,Go Home,FALSE,FALSE,FALSE,FALSE,FALSE,FALSE,FALSE,FALSE,FALSE,FALSE,FALSE,FALSE,6.974176063,79.91452735,0.5,183.7,328,TRUE,1,1,FALSE,FALSE,FALSE,FALSE,,TRUE,FALSE,FALSE,Course Lock,49.2,254.5,16.4,Calm,39,,1.12.8,Mavic Mini,1SDCH7G0169R0K,1SFLH6Q0AB03DJ,1SRCH7F014TAHX,1U5X071EXP6C9Y,88.7,0.2,32.8,9.347053,4.47388,0,102,Mavic Mini,1SDCH7G0169R0K,1SFLH6Q0AB03DJ,1SRCH7F014TAHX,1U5X071EXP6C9Y,DJI Fly,,1.12.8,83AA36EE-5E72-76F5-C421-0CC760FDA018,1SDCH7G0169R0K,,,,,6.974083534,79.91456009,5,,
2/27/2024,02:01.5,1m 48.6s,108.6,6.974174425,79.91452706,3.9,3.9,4.9,65,1.3,0,0,0,0,0,0,0,0,1.8,-1.1,155.3,155.3,,P-GPS,Other,,13,5,TRUE,,Mavic Mini,TRUE,FALSE,,Smart,RC,FALSE,TRUE,FALSE,,,TRUE,,FALSE,FALSE,FALSE,FALSE,FALSE,FALSE,FALSE,FALSE,FALSE,FALSE,0,Follow Yaw,-0.3,0,154,154,FALSE,FALSE,FALSE,FALSE,FALSE,FALSE,,TRUE,Normal,,100,1024,1024,1024,1024,1,FALSE,FALSE,FALSE,FALSE,FALSE,0,FALSE,FALSE,FALSE,FALSE,90,7.771,1863,2063,7.8,FALSE,3.891,3.88,0.011,FALSE,FALSE,NA,90.3,90.1,90.3,0,0,0,0,5,3428,857,,Idle,0,20,FALSE,5,TRUE,6,Go Home,FALSE,FALSE,FALSE,FALSE,FALSE,FALSE,FALSE,FALSE,FALSE,FALSE,FALSE,FALSE,6.974176063,79.91452735,0.6,183.7,328,TRUE,1,1,FALSE,FALSE,FALSE,FALSE,,TRUE,FALSE,FALSE,Course Lock,49.2,254.5,16.4,Calm,39,,1.12.8,Mavic Mini,1SDCH7G0169R0K,1SFLH6Q0AB03DJ,1SRCH7F014TAHX,1U5X071EXP6C9Y,88.7,0.2,32.8,9.347053,4.47388,0,102,Mavic Mini,1SDCH7G0169R0K,1SFLH6Q0AB03DJ,1SRCH7F014TAHX,1U5X071EXP6C9Y,DJI Fly,,1.12.8,83AA36EE-5E72-76F5-C421-0CC760FDA018,1SDCH7G0169R0K,,,,,6.974083534,79.91456009,5,,
2/27/2024,02:01.6,1m 48.7s,108.7,6.974174353,79.91452717,3.9,3.9,4.9,65,1.3,0,0,0,0,0,0,0,0,2.1,-1,155.3,155.3,,P-GPS,Other,,13,5,TRUE,,Mavic Mini,TRUE,FALSE,,Smart,RC,FALSE,TRUE,FALSE,,,TRUE,,FALSE,FALSE,FALSE,FALSE,FALSE,FALSE,FALSE,FALSE,FALSE,FALSE,0,Follow Yaw,-0.3,0,154,154,FALSE,FALSE,FALSE,FALSE,FALSE,FALSE,,TRUE,Normal,,100,1024,1024,1024,1024,1,FALSE,FALSE,FALSE,FALSE,FALSE,0,FALSE,FALSE,FALSE,FALSE,90,7.771,1863,2063,7.8,FALSE,3.891,3.88,0.011,FALSE,FALSE,NA,90.3,90.1,90.3,0,0,0,0,5,3428,857,,Idle,0,20,FALSE,5,TRUE,6,Go Home,FALSE,FALSE,FALSE,FALSE,FALSE,FALSE,FALSE,FALSE,FALSE,FALSE,FALSE,FALSE,6.974176063,79.91452735,0.6,183.7,328,TRUE,1,1,FALSE,FALSE,FALSE,FALSE,,TRUE,FALSE,FALSE,Course Lock,49.2,254.5,16.4,Calm,39,,1.12.8,Mavic Mini,1SDCH7G0169R0K,1SFLH6Q0AB03DJ,1SRCH7F014TAHX,1U5X071EXP6C9Y,88.7,0.2,32.8,9.347053,4.47388,0,102,Mavic Mini,1SDCH7G0169R0K,1SFLH6Q0AB03DJ,1SRCH7F014TAHX,1U5X071EXP6C9Y,DJI Fly,,1.12.8,83AA36EE-5E72-76F5-C421-0CC760FDA018,1SDCH7G0169R0K,,,,,6.974083534,79.91456009,5,,
2/27/2024,02:01.7,1m 48.8s,108.8,6.97417444,79.91452748,3.9,3.9,4.9,65,1.5,0,0,0,0,0,0,0,0,2.3,-1,155.3,155.3,,P-GPS,Other,,13,5,TRUE,,Mavic Mini,TRUE,FALSE,,Smart,RC,FALSE,TRUE,FALSE,,,TRUE,,FALSE,FALSE,FALSE,FALSE,FALSE,FALSE,FALSE,FALSE,FALSE,FALSE,0,Follow Yaw,-0.3,0,154,154,FALSE,FALSE,FALSE,FALSE,FALSE,FALSE,,TRUE,Normal,,100,1024,1024,1024,1024,1,FALSE,FALSE,FALSE,FALSE,FALSE,0,FALSE,FALSE,FALSE,FALSE,90,7.771,1863,2063,7.8,FALSE,3.891,3.88,0.011,FALSE,FALSE,NA,90.3,90.1,90.3,0,0,0,0,5,3428,857,,Idle,0,20,FALSE,5,TRUE,6,Go Home,FALSE,FALSE,FALSE,FALSE,FALSE,FALSE,FALSE,FALSE,FALSE,FALSE,FALSE,FALSE,6.974176063,79.91452735,0.5,183.7,328,TRUE,1,1,FALSE,FALSE,FALSE,FALSE,,TRUE,FALSE,FALSE,Course Lock,49.2,254.5,16.4,Calm,39,,1.12.8,Mavic Mini,1SDCH7G0169R0K,1SFLH6Q0AB03DJ,1SRCH7F014TAHX,1U5X071EXP6C9Y,88.7,0.2,32.8,9.347053,4.47388,0,102,Mavic Mini,1SDCH7G0169R0K,1SFLH6Q0AB03DJ,1SRCH7F014TAHX,1U5X071EXP6C9Y,DJI Fly,,1.12.8,83AA36EE-5E72-76F5-C421-0CC760FDA018,1SDCH7G0169R0K,,,,,6.974083534,79.91456009,5,,
2/27/2024,02:01.9,1m 48.9s,108.9,6.974174314,79.91452756,3.9,3.9,4.9,65,1.5,0,0,0,0,0,0,0,0,2.6,-1,155.3,155.3,,P-GPS,Other,,13,5,TRUE,,Mavic Mini,TRUE,FALSE,,Smart,RC,FALSE,TRUE,FALSE,,,TRUE,,FALSE,FALSE,FALSE,FALSE,FALSE,FALSE,FALSE,FALSE,FALSE,FALSE,0,Follow Yaw,-0.3,0,154,154,FALSE,FALSE,FALSE,FALSE,FALSE,FALSE,,TRUE,Normal,,100,1024,1024,1024,1024,1,FALSE,FALSE,FALSE,FALSE,FALSE,0,FALSE,FALSE,FALSE,FALSE,90,7.771,1863,2063,7.701,FALSE,3.891,3.88,0.011,FALSE,FALSE,NA,90.3,90.1,90.3,0,0,0,0,5,5061.4,1265.35,,Idle,0,20,FALSE,5,TRUE,6,Go Home,FALSE,FALSE,FALSE,FALSE,FALSE,FALSE,FALSE,FALSE,FALSE,FALSE,FALSE,FALSE,6.974176063,79.91452735,0.6,183.7,328,TRUE,1,1,FALSE,FALSE,FALSE,FALSE,,TRUE,FALSE,FALSE,Course Lock,49.2,254.5,16.4,Calm,39,,1.12.8,Mavic Mini,1SDCH7G0169R0K,1SFLH6Q0AB03DJ,1SRCH7F014TAHX,1U5X071EXP6C9Y,88.7,0.2,32.8,9.347053,4.47388,0,102,Mavic Mini,1SDCH7G0169R0K,1SFLH6Q0AB03DJ,1SRCH7F014TAHX,1U5X071EXP6C9Y,DJI Fly,,1.12.8,83AA36EE-5E72-76F5-C421-0CC760FDA018,1SDCH7G0169R0K,,,,,6.974083534,79.91456009,5,,
