CUSTOM.date [local],CUSTOM.updateTime [local],OSD.flyTime,OSD.flyTime [s],OSD.latitude,OSD.longitude,OSD.height [ft],OSD.heightMax [ft],OSD.vpsHeight [ft],OSD.altitude [ft],OSD.mileage [ft],OSD.hSpeed [MPH],OSD.hSpeedMax [MPH],OSD.xSpeed [MPH],OSD.xSpeedMax [MPH],OSD.ySpeed [MPH],OSD.ySpeedMax [MPH],OSD.zSpeed [MPH],OSD.zSpeedMax [MPH],OSD.pitch,OSD.roll,OSD.yaw,OSD.yaw [360],OSD.directionOfTravel,OSD.flycState,OSD.flycCommand,OSD.flightAction,OSD.gpsNum,OSD.gpsLevel,OSD.isGPSUsed,OSD.nonGPSCause,OSD.droneType,OSD.isSwaveWork,OSD.waveError,OSD.goHomeStatus,OSD.batteryType,OSD.ctrlDevice,OSD.isOnGround,OSD.isMotorOn,OSD.isMotorBlocked,OSD.motorStartFailedCause,OSD.motorFailReason,OSD.isImuPreheated,OSD.imuInitFailReason,OSD.isAcceletorOverRange,OSD.isBarometerDeadInAir,OSD.isCompassError,OSD.isGoHomeHeightModified,OSD.canIOCWork,OSD.isNotEnoughForce,OSD.isOutOfLimit,OSD.isPropellerCatapult,OSD.isVibrating,OSD.isVisionUsed,OSD.voltageWarning,GIMBAL.mode,GIMBAL.pitch,GIMBAL.roll,GIMBAL.yaw,GIMBAL.yaw [360],GIMBAL.isPitchAtLimit,GIMBAL.isRollAtLimit,GIMBAL.isYawAtLimit,GIMBAL.isStuck,CAMERA.isPhoto,CAMERA.isVideo,CAMERA.filename,CAMERA.sdCardIsInserted,CAMERA.sdCardState,RC.downlinkSignal,RC.uplinkSignal,RC.aileron,RC.elevator,RC.throttle,RC.rudder,RC.mode,RC.goHomeDepressed,RC.recordDepressed,RC.shutterDepressed,RC.playbackDepressed,RC.wheelDepressed,RC.wheelOffset,RC.custom1Depressed,RC.custom2Depressed,RC.custom3Depressed,RC.custom4Depressed,BATTERY.chargeLevel,BATTERY.currentPV [V],BATTERY.currentCapacity [mAh],BATTERY.fullCapacity [mAh],BATTERY.voltage [V],BATTERY.isCellVoltageEstimated,BATTERY.cellVoltage1 [V],BATTERY.cellVoltage2 [V],BATTERY.maxCellVoltageDeviation,BATTERY.isCellVoltageDeviationHigh,BATTERY.isVoltageLow,BATTERY.current [A],BATTERY.temperature [F],BATTERY.minTemperature [F],BATTERY.maxTemperature [F],BATTERY.usefulTime [s],BATTERY.goHomeTime [s],BATTERY.landTime [s],BATTERY.goHomeBattery,BATTERY.landBattery,BATTERY.safeFlyRadius,BATTERY.volumeConsume,BATTERY.status,BATTERY.goHomeStatus,BATTERY.goHomeCountdown,BATTERY.lowWarning,BATTERY.lowWarningGoHome,BATTERY.seriousLowWarning,BATTERY.seriousLowWarningLanding,BATTERY.timesCharged,MC.failSafeAction,MC.isObstacleAvoidanceEnabled,MC.isCollisionAvoidanceEnabled,MC.isRthObstacleAvoidanceEnabled,MC.isBraking,MC.isAvoidingObstacle,MC.isAvoidingActiveObstacle,MC.isAscentLimitedByObstacle,MC.isLandingConfirmationNeeded,MC.atLowAltitudeLimit,MC.atDistanceLimit,MC.atAirportAltitudeLimit,MC.atAirportBoundary,HOME.latitude,HOME.longitude,HOME.distance [ft],HOME.height [ft],HOME.heightLimit [ft],HOME.isHomeRecord,HOME.goHomeMode,HOME.aircraftHeadDirection,HOME.isDynamicHomePointEnabled,HOME.isReachedLimitDistance,HOME.isReachedLimitHeight,HOME.isCompassCalibrating,HOME.compassCalibrationState,HOME.isMultipleFlightModeEnabled,HOME.isBeginnerMode,HOME.isIOCEnabled,HOME.iocMode,HOME.goHomeHeight [ft],HOME.courseLockAngle,HOME.forceLandingHeight [ft],HOME.wind,HOME.dataRecorderFileIndex,RECOVER.appType,RECOVER.appVersion,RECOVER.aircraftName,RECOVER.aircraftSerial,RECOVER.cameraSerial,RECOVER.rcSerial,RECOVER.batterySerial,DETAILS.totalTime [s],DETAILS.totalDistance [ft],DETAILS.maxHeight [ft],DETAILS.maxHorizontalSpeed [MPH],DETAILS.maxVerticalSpeed [MPH],DETAILS.photoNum,DETAILS.videoTime [s],DETAILS.aircraftName,DETAILS.aircraftSerial,DETAILS.cameraSerial,DETAILS.rcSerial,DETAILS.batterySerial,DETAILS.appName,DETAILS.appType,DETAILS.appVersion,DETAILS.guid,SERIAL.flightController,SERIAL.camera,SERIAL.gimbal,SERIAL.rc,SERIAL.battery,APPGPS.latitude,APPGPS.longitude,APPGPS.accuracy,APP.tip,APP.warning
2/14/2024,24:48.0,5m 56.1s,356.1,6.974260381,79.91402617,0,0,,50,0,0,0,0,0,0,0,0,0,-2.8,-0.4,-48.9,311.1,,Starting Motors,Other,Takeoff (RC Assisted),14,4,TRUE,,Mavic Mini,FALSE,FALSE,,Smart,RC,TRUE,TRUE,FALSE,,,TRUE,,FALSE,FALSE,FALSE,FALSE,FALSE,FALSE,FALSE,FALSE,FALSE,FALSE,0,Follow Yaw,0,0,-37.7,322.3,FALSE,FALSE,FALSE,FALSE,FALSE,FALSE,,TRUE,Normal,,,1024,1024,1024,1024,,FALSE,FALSE,FALSE,FALSE,FALSE,0,FALSE,FALSE,FALSE,FALSE,72,7.796,1533,2138,7.796,TRUE,3.898,3.898,,FALSE,FALSE,NA,111.7,111.7,111.7,,,,,,,,,Idle,,,TRUE,,FALSE,5,Go Home,FALSE,FALSE,FALSE,FALSE,FALSE,FALSE,FALSE,FALSE,FALSE,FALSE,FALSE,FALSE,,,,,,FALSE,,,FALSE,FALSE,FALSE,FALSE,,FALSE,FALSE,FALSE,,,,,Calm,,,1.12.8,Mavic Mini,1SDCH7G0169R0K,1SFLH6Q0AB03DJ,1SRCH7F014TAHX,1U5X071EXP6C9Y,94.9,0.3,9.8,6.487126,2.908022,0,0,Mavic Mini,1SDCH7G0169R0K,1SFLH6Q0AB03DJ,1SRCH7F014TAHX,1U5X071EXP6C9Y,DJI Fly,,1.12.8,6AF2A7B6-42BF-DC87-EC9E-DA67D17F2D77,1SDCH7G0169R0K,,,,,,,,Flight mode changed to Starting Motors.,
2/14/2024,18:52.0,5m 56.2s,356.2,6.974260386,79.91402612,0,0,,50,0,0,0,0,0,0,0,0,0,-2.8,-0.4,-48.9,311.1,,Starting Motors,Other,Takeoff (RC Assisted),14,4,TRUE,,Mavic Mini,FALSE,FALSE,,Smart,RC,TRUE,TRUE,FALSE,,,TRUE,,FALSE,FALSE,FALSE,FALSE,FALSE,FALSE,FALSE,FALSE,FALSE,FALSE,0,Follow Yaw,0,0,-37.8,322.2,FALSE,FALSE,FALSE,FALSE,FALSE,FALSE,,TRUE,Normal,,,1024,1024,1024,1024,2,FALSE,FALSE,FALSE,FALSE,FALSE,0,FALSE,FALSE,FALSE,FALSE,72,7.796,1533,2138,7.795,TRUE,3.898,3.898,,FALSE,FALSE,NA,111.7,111.7,111.7,0,1,0,0,5,2665.9,666.47,,Idle,0,20,FALSE,5,TRUE,5,Go Home,FALSE,FALSE,FALSE,FALSE,FALSE,FALSE,FALSE,FALSE,FALSE,FALSE,FALSE,FALSE,6.974262977,79.9140296,1.5,139.3,328,TRUE,1,1,FALSE,FALSE,FALSE,FALSE,,TRUE,FALSE,FALSE,Course Lock,246,,16.4,Calm,25,,1.12.8,Mavic Mini,1SDCH7G0169R0K,1SFLH6Q0AB03DJ,1SRCH7F014TAHX,1U5X071EXP6C9Y,94.9,0.3,9.8,6.487126,2.908022,0,0,Mavic Mini,1SDCH7G0169R0K,1SFLH6Q0AB03DJ,1SRCH7F014TAHX,1U5X071EXP6C9Y,DJI Fly,,1.12.8,6AF2A7B6-42BF-DC87-EC9E-DA67D17F2D77,1SDCH7G0169R0K,,,,,,,,Data Recorder File Index is 25.; Set Return to Home (RTH) altitude to 75 m (246 ft).; Set maximum flight altitude to 100 m (328 ft).,
2/14/2024,18:52.2,5m 56.3s,356.3,6.974260515,79.91402608,0,0,0.3,50,0,0,0,0,0,0,0,0,0,-2.8,-0.4,-48.9,311.1,,Starting Motors,Other,Takeoff (RC Assisted),14,4,TRUE,,Mavic Mini,TRUE,FALSE,,Smart,RC,TRUE,TRUE,FALSE,,,TRUE,,FALSE,FALSE,FALSE,FALSE,FALSE,FALSE,FALSE,FALSE,FALSE,FALSE,0,Follow Yaw,0,0,-37.8,322.2,FALSE,FALSE,FALSE,FALSE,FALSE,FALSE,,TRUE,Normal,,,1024,1024,1024,1024,2,FALSE,FALSE,FALSE,FALSE,FALSE,0,FALSE,FALSE,FALSE,FALSE,72,7.81,1533,2138,7.795,FALSE,3.907,3.903,0.004,FALSE,FALSE,NA,111.7,111.7,111.7,0,1,0,0,5,2665.9,666.47,,Idle,0,20,FALSE,5,TRUE,5,Go Home,FALSE,FALSE,FALSE,FALSE,FALSE,FALSE,FALSE,FALSE,FALSE,FALSE,FALSE,FALSE,6.974262977,79.9140296,1.5,139.3,328,TRUE,1,1,FALSE,FALSE,FALSE,FALSE,,TRUE,FALSE,FALSE,Course Lock,246,,16.4,Calm,25,,1.12.8,Mavic Mini,1SDCH7G0169R0K,1SFLH6Q0AB03DJ,1SRCH7F014TAHX,1U5X071EXP6C9Y,94.9,0.3,9.8,6.487126,2.908022,0,0,Mavic Mini,1SDCH7G0169R0K,1SFLH6Q0AB03DJ,1SRCH7F014TAHX,1U5X071EXP6C9Y,DJI Fly,,1.12.8,6AF2A7B6-42BF-DC87-EC9E-DA67D17F2D77,1SDCH7G0169R0K,,,,,,,,,
2/14/2024,18:52.2,5m 56.4s,356.4,6.974260572,79.91402605,0,0,0.3,50,0,0,0,0,0,0,0,0,0,-2.8,-0.4,-48.9,311.1,,Starting Motors,Other,Takeoff (RC Assisted),14,4,TRUE,,Mavic Mini,TRUE,FALSE,,Smart,RC,TRUE,TRUE,FALSE,,,TRUE,,FALSE,FALSE,FALSE,FALSE,FALSE,FALSE,FALSE,FALSE,FALSE,FALSE,0,Follow Yaw,0,0,-37.8,322.2,FALSE,FALSE,FALSE,FALSE,FALSE,FALSE,,TRUE,Normal,,,1024,1024,1024,1024,2,FALSE,FALSE,FALSE,FALSE,FALSE,0,FALSE,FALSE,FALSE,FALSE,72,7.81,1533,2138,7.795,FALSE,3.907,3.903,0.004,FALSE,FALSE,NA,111.7,111.7,111.7,0,1,0,0,5,2665.9,666.47,,Idle,0,20,FALSE,5,TRUE,5,Go Home,FALSE,FALSE,FALSE,FALSE,FALSE,FALSE,FALSE,FALSE,FALSE,FALSE,FALSE,FALSE,6.974262977,79.9140296,1.5,139.3,328,TRUE,1,1,FALSE,FALSE,FALSE,FALSE,,TRUE,FALSE,FALSE,Course Lock,246,,16.4,Calm,25,,1.12.8,Mavic Mini,1SDCH7G0169R0K,1SFLH6Q0AB03DJ,1SRCH7F014TAHX,1U5X071EXP6C9Y,94.9,0.3,9.8,6.487126,2.908022,0,0,Mavic Mini,1SDCH7G0169R0K,1SFLH6Q0AB03DJ,1SRCH7F014TAHX,1U5X071EXP6C9Y,DJI Fly,,1.12.8,6AF2A7B6-42BF-DC87-EC9E-DA67D17F2D77,1SDCH7G0169R0K,,,,,,,,,
2/14/2024,18:52.4,5m 56.5s,356.5,6.974260596,79.91402603,0,0,0.3,50,0,0,0,0,0,0,0,0,0,-2.7,-0.3,-49,311,,Starting Motors,Other,Takeoff (RC Assisted),14,4,TRUE,,Mavic Mini,TRUE,FALSE,,Smart,RC,TRUE,TRUE,FALSE,,,TRUE,,FALSE,FALSE,FALSE,FALSE,FALSE,FALSE,FALSE,FALSE,FALSE,FALSE,0,Follow Yaw,0,0,-37.8,322.2,FALSE,FALSE,FALSE,FALSE,FALSE,FALSE,,TRUE,Normal,,100,1024,1024,1024,1024,2,FALSE,FALSE,FALSE,FALSE,FALSE,0,FALSE,FALSE,FALSE,FALSE,72,7.81,1533,2138,7.795,FALSE,3.907,3.903,0.004,FALSE,FALSE,NA,111.7,111.7,111.7,0,1,0,0,5,2665.9,666.47,,Idle,0,20,FALSE,5,TRUE,5,Go Home,FALSE,FALSE,FALSE,FALSE,FALSE,FALSE,FALSE,FALSE,FALSE,FALSE,FALSE,FALSE,6.974262977,79.9140296,1.5,139.3,328,TRUE,1,1,FALSE,FALSE,FALSE,FALSE,,TRUE,FALSE,FALSE,Course Lock,246,,16.4,Calm,25,,1.12.8,Mavic Mini,1SDCH7G0169R0K,1SFLH6Q0AB03DJ,1SRCH7F014TAHX,1U5X071EXP6C9Y,94.9,0.3,9.8,6.487126,2.908022,0,0,Mavic Mini,1SDCH7G0169R0K,1SFLH6Q0AB03DJ,1SRCH7F014TAHX,1U5X071EXP6C9Y,DJI Fly,,1.12.8,6AF2A7B6-42BF-DC87-EC9E-DA67D17F2D77,1SDCH7G0169R0K,,,,,,,,,
2/14/2024,18:52.5,5m 56.6s,356.6,6.974260617,79.91402601,0,0,0.3,50,0,0,0,0,0,0,0,0,0,-2.7,-0.4,-49,311,,Starting Motors,Other,Takeoff (RC Assisted),14,4,TRUE,,Mavic Mini,TRUE,FALSE,,Smart,RC,TRUE,TRUE,FALSE,,,TRUE,,FALSE,FALSE,FALSE,FALSE,FALSE,FALSE,FALSE,FALSE,FALSE,FALSE,0,Follow Yaw,0,0,-37.8,322.2,FALSE,FALSE,FALSE,FALSE,FALSE,FALSE,,TRUE,Normal,,100,1024,1024,1024,1024,2,FALSE,FALSE,FALSE,FALSE,FALSE,0,FALSE,FALSE,FALSE,FALSE,72,7.81,1533,2138,7.795,FALSE,3.907,3.903,0.004,FALSE,FALSE,NA,111.7,111.7,111.7,0,1,0,0,5,2665.9,666.47,,Idle,0,20,FALSE,5,TRUE,5,Go Home,FALSE,FALSE,FALSE,FALSE,FALSE,FALSE,FALSE,FALSE,FALSE,FALSE,FALSE,FALSE,6.974262977,79.9140296,1.5,139.3,328,TRUE,1,1,FALSE,FALSE,FALSE,FALSE,,TRUE,FALSE,FALSE,Course Lock,246,,16.4,Calm,25,,1.12.8,Mavic Mini,1SDCH7G0169R0K,1SFLH6Q0AB03DJ,1SRCH7F014TAHX,1U5X071EXP6C9Y,94.9,0.3,9.8,6.487126,2.908022,0,0,Mavic Mini,1SDCH7G0169R0K,1SFLH6Q0AB03DJ,1SRCH7F014TAHX,1U5X071EXP6C9Y,DJI Fly,,1.12.8,6AF2A7B6-42BF-DC87-EC9E-DA67D17F2D77,1SDCH7G0169R0K,,,,,,,,,
2/14/2024,18:52.6,5m 56.7s,356.7,6.974260562,79.91402609,0,0,0.3,50,0.1,0,0,0,0,0,0,0,0,-2.7,-0.5,-48.7,311.3,,Starting Motors,Other,Takeoff (RC Assisted),14,4,TRUE,,Mavic Mini,TRUE,FALSE,,Smart,RC,TRUE,TRUE,FALSE,,,TRUE,,FALSE,FALSE,FALSE,FALSE,FALSE,FALSE,FALSE,FALSE,FALSE,FALSE,0,Follow Yaw,0,0,-37.8,322.2,FALSE,FALSE,FALSE,FALSE,FALSE,FALSE,,TRUE,Normal,,100,1024,1024,1024,1024,2,FALSE,FALSE,FALSE,FALSE,FALSE,0,FALSE,FALSE,FALSE,FALSE,72,7.81,1533,2138,7.795,FALSE,3.907,3.903,0.004,FALSE,FALSE,NA,111.7,111.7,111.7,0,1,0,0,5,2665.9,666.47,,Idle,0,20,FALSE,5,TRUE,5,Go Home,FALSE,FALSE,FALSE,FALSE,FALSE,FALSE,FALSE,FALSE,FALSE,FALSE,FALSE,FALSE,6.974262977,79.9140296,1.5,139.3,328,TRUE,1,1,FALSE,FALSE,FALSE,FALSE,,TRUE,FALSE,FALSE,Course Lock,246,,16.4,Calm,25,,1.12.8,Mavic Mini,1SDCH7G0169R0K,1SFLH6Q0AB03DJ,1SRCH7F014TAHX,1U5X071EXP6C9Y,94.9,0.3,9.8,6.487126,2.908022,0,0,Mavic Mini,1SDCH7G0169R0K,1SFLH6Q0AB03DJ,1SRCH7F014TAHX,1U5X071EXP6C9Y,DJI Fly,,1.12.8,6AF2A7B6-42BF-DC87-EC9E-DA67D17F2D77,1SDCH7G0169R0K,,,,,,,,,
2/14/2024,18:52.7,5m 56.8s,356.8,6.974260561,79.91402607,0,0,0.3,50,0.1,0,0,0,0,0,0,0,0,-2.7,-0.5,-48.8,311.2,,Starting Motors,Other,Takeoff (RC Assisted),14,4,TRUE,,Mavic Mini,TRUE,FALSE,,Smart,RC,TRUE,TRUE,FALSE,,,TRUE,,FALSE,FALSE,FALSE,FALSE,FALSE,FALSE,FALSE,FALSE,FALSE,FALSE,0,Follow Yaw,0,0,-37.7,322.3,FALSE,FALSE,FALSE,FALSE,FALSE,FALSE,,TRUE,Normal,,100,1024,1024,1024,1024,2,FALSE,FALSE,FALSE,FALSE,FALSE,0,FALSE,FALSE,FALSE,FALSE,72,7.81,1533,2138,7.795,FALSE,3.907,3.903,0.004,FALSE,FALSE,NA,111.7,111.7,111.7,0,1,0,0,5,2665.9,666.47,,Idle,0,20,FALSE,5,TRUE,5,Go Home,FALSE,FALSE,FALSE,FALSE,FALSE,FALSE,FALSE,FALSE,FALSE,FALSE,FALSE,FALSE,6.974262977,79.9140296,1.5,139.3,328,TRUE,1,1,FALSE,FALSE,FALSE,FALSE,,TRUE,FALSE,FALSE,Course Lock,246,,16.4,Calm,25,,1.12.8,Mavic Mini,1SDCH7G0169R0K,1SFLH6Q0AB03DJ,1SRCH7F014TAHX,1U5X071EXP6C9Y,94.9,0.3,9.8,6.487126,2.908022,0,0,Mavic Mini,1SDCH7G0169R0K,1SFLH6Q0AB03DJ,1SRCH7F014TAHX,1U5X071EXP6C9Y,DJI Fly,,1.12.8,6AF2A7B6-42BF-DC87-EC9E-DA67D17F2D77,1SDCH7G0169R0K,,,,,,,,,
2/14/2024,18:52.8,5m 56.9s,356.9,6.974260506,79.91402602,0,0,0.3,50,0.1,0,0,0,0,0,0,0,0,-2.7,-0.4,-48.7,311.3,,Starting Motors,Other,Takeoff (RC Assisted),14,4,TRUE,,Mavic Mini,TRUE,FALSE,,Smart,RC,TRUE,TRUE,FALSE,,,TRUE,,FALSE,FALSE,FALSE,FALSE,FALSE,FALSE,FALSE,FALSE,FALSE,FALSE,0,Follow Yaw,0,0,-37.7,322.3,FALSE,FALSE,FALSE,FALSE,FALSE,FALSE,,TRUE,Normal,,100,1024,1024,1024,1024,2,FALSE,FALSE,FALSE,FALSE,FALSE,0,FALSE,FALSE,FALSE,FALSE,72,7.81,1533,2138,7.795,FALSE,3.907,3.903,0.004,FALSE,FALSE,NA,111.7,111.7,111.7,0,1,0,0,5,2665.9,666.47,,Idle,0,20,FALSE,5,TRUE,5,Go Home,FALSE,FALSE,FALSE,FALSE,FALSE,FALSE,FALSE,FALSE,FALSE,FALSE,FALSE,FALSE,6.974262977,79.9140296,1.5,139.3,328,TRUE,1,1,FALSE,FALSE,FALSE,FALSE,,TRUE,FALSE,FALSE,Course Lock,246,,16.4,Calm,25,,1.12.8,Mavic Mini,1SDCH7G0169R0K,1SFLH6Q0AB03DJ,1SRCH7F014TAHX,1U5X071EXP6C9Y,94.9,0.3,9.8,6.487126,2.908022,0,0,Mavic Mini,1SDCH7G0169R0K,1SFLH6Q0AB03DJ,1SRCH7F014TAHX,1U5X071EXP6C9Y,DJI Fly,,1.12.8,6AF2A7B6-42BF-DC87-EC9E-DA67D17F2D77,1SDCH7G0169R0K,,,,,,,,,
2/14/2024,18:52.9,5m 57.0s,357,6.974260447,79.91402595,0,0,0.3,50,0.1,0,0,0,0,0,0,0,0,-2.8,-0.5,-48.7,311.3,,Starting Motors,Other,Takeoff (RC Assisted),14,4,TRUE,,Mavic Mini,TRUE,FALSE,,Smart,RC,TRUE,TRUE,FALSE,,,TRUE,,FALSE,FALSE,FALSE,FALSE,FALSE,FALSE,FALSE,FALSE,FALSE,FALSE,0,Follow Yaw,0,0,-37.7,322.3,FALSE,FALSE,FALSE,FALSE,FALSE,FALSE,,TRUE,Normal,,100,1024,1024,1024,1024,2,FALSE,FALSE,FALSE,FALSE,FALSE,0,FALSE,FALSE,FALSE,FALSE,72,7.81,1533,2138,7.795,FALSE,3.907,3.903,0.004,FALSE,FALSE,NA,111.7,111.7,111.7,0,1,0,0,5,2665.9,666.47,,Idle,0,20,FALSE,5,TRUE,5,Go Home,FALSE,FALSE,FALSE,FALSE,FALSE,FALSE,FALSE,FALSE,FALSE,FALSE,FALSE,FALSE,6.974262977,79.9140296,1.6,139.3,328,TRUE,1,1,FALSE,FALSE,FALSE,FALSE,,TRUE,FALSE,FALSE,Course Lock,246,,16.4,Calm,25,,1.12.8,Mavic Mini,1SDCH7G0169R0K,1SFLH6Q0AB03DJ,1SRCH7F014TAHX,1U5X071EXP6C9Y,94.9,0.3,9.8,6.487126,2.908022,0,0,Mavic Mini,1SDCH7G0169R0K,1SFLH6Q0AB03DJ,1SRCH7F014TAHX,1U5X071EXP6C9Y,DJI Fly,,1.12.8,6AF2A7B6-42BF-DC87-EC9E-DA67D17F2D77,1SDCH7G0169R0K,,,,,,,,,
2/14/2024,18:53.0,5m 57.1s,357.1,6.974260418,79.91402594,0,0,0.3,50,0.2,0,0,0,0,0,0,0,0,-2.7,-0.4,-48.7,311.3,,Starting Motors,Other,Takeoff (RC Assisted),14,4,TRUE,,Mavic Mini,TRUE,FALSE,,Smart,RC,TRUE,TRUE,FALSE,,,TRUE,,FALSE,FALSE,FALSE,FALSE,FALSE,FALSE,FALSE,FALSE,FALSE,FALSE,0,Follow Yaw,0,0,-37.7,322.3,FALSE,FALSE,FALSE,FALSE,FALSE,FALSE,,TRUE,Normal,,100,1024,1024,1024,1024,2,FALSE,FALSE,FALSE,FALSE,FALSE,0,FALSE,FALSE,FALSE,FALSE,72,7.81,1533,2138,7.795,FALSE,3.907,3.903,0.004,FALSE,FALSE,NA,111.7,111.7,111.7,0,1,0,0,5,2665.9,666.47,,Idle,0,20,FALSE,5,TRUE,5,Go Home,FALSE,FALSE,FALSE,FALSE,FALSE,FALSE,FALSE,FALSE,FALSE,FALSE,FALSE,FALSE,6.974262977,79.9140296,1.6,139.3,328,TRUE,1,1,FALSE,FALSE,FALSE,FALSE,,TRUE,FALSE,FALSE,Course Lock,246,,16.4,Calm,25,,1.12.8,Mavic Mini,1SDCH7G0169R0K,1SFLH6Q0AB03DJ,1SRCH7F014TAHX,1U5X071EXP6C9Y,94.9,0.3,9.8,6.487126,2.908022,0,0,Mavic Mini,1SDCH7G0169R0K,1SFLH6Q0AB03DJ,1SRCH7F014TAHX,1U5X071EXP6C9Y,DJI Fly,,1.12.8,6AF2A7B6-42BF-DC87-EC9E-DA67D17F2D77,1SDCH7G0169R0K,,,,,,,,,
2/14/2024,18:53.2,5m 57.2s,357.2,6.974260445,79.91402591,0,0,0.3,50,0.2,0,0,0,0,0,0,0,0,-2.7,-0.4,-48.7,311.3,,Manual Takeoff,Other,Takeoff (RC Assisted),14,4,TRUE,,Mavic Mini,TRUE,FALSE,,Smart,RC,TRUE,TRUE,FALSE,,,TRUE,,FALSE,FALSE,FALSE,FALSE,FALSE,FALSE,FALSE,FALSE,FALSE,FALSE,0,Follow Yaw,0,0,-37.7,322.3,FALSE,FALSE,FALSE,FALSE,FALSE,FALSE,,TRUE,Normal,,100,1024,1024,1024,1024,2,FALSE,FALSE,FALSE,FALSE,FALSE,0,FALSE,FALSE,FALSE,FALSE,72,7.81,1533,2138,7.796,FALSE,3.907,3.903,0.004,FALSE,FALSE,NA,111.7,111.7,111.7,0,1,0,0,5,2660.3,665.09,,Idle,0,20,FALSE,5,TRUE,5,Go Home,FALSE,FALSE,FALSE,FALSE,FALSE,FALSE,FALSE,FALSE,FALSE,FALSE,FALSE,FALSE,6.974262977,79.9140296,1.6,139.3,328,TRUE,1,1,FALSE,FALSE,FALSE,FALSE,,TRUE,FALSE,FALSE,Course Lock,246,,16.4,Calm,25,,1.12.8,Mavic Mini,1SDCH7G0169R0K,1SFLH6Q0AB03DJ,1SRCH7F014TAHX,1U5X071EXP6C9Y,94.9,0.3,9.8,6.487126,2.908022,0,0,Mavic Mini,1SDCH7G0169R0K,1SFLH6Q0AB03DJ,1SRCH7F014TAHX,1U5X071EXP6C9Y,DJI Fly,,1.12.8,6AF2A7B6-42BF-DC87-EC9E-DA67D17F2D77,1SDCH7G0169R0K,,,,,,,,Flight mode changed to Manual Takeoff.,
2/14/2024,18:53.2,5m 57.3s,357.3,6.974260458,79.9140259,0,0,0.3,50,0.2,0,0,0,0,0,0,0,0,-2.7,-0.4,-48.8,311.2,,Manual Takeoff,Other,Takeoff (RC Assisted),14,4,TRUE,,Mavic Mini,TRUE,FALSE,,Smart,RC,TRUE,TRUE,FALSE,,,TRUE,,FALSE,FALSE,FALSE,FALSE,FALSE,FALSE,FALSE,FALSE,FALSE,FALSE,0,Follow Yaw,0,0,-37.7,322.3,FALSE,FALSE,FALSE,FALSE,FALSE,FALSE,,TRUE,Normal,,100,1024,1024,1024,1024,2,FALSE,FALSE,FALSE,FALSE,FALSE,0,FALSE,FALSE,FALSE,FALSE,72,7.81,1533,2138,7.796,FALSE,3.907,3.903,0.004,FALSE,FALSE,NA,111.7,111.7,111.7,0,1,0,0,5,2660.3,665.09,,Idle,0,20,FALSE,5,TRUE,5,Go Home,FALSE,FALSE,FALSE,FALSE,FALSE,FALSE,FALSE,FALSE,FALSE,FALSE,FALSE,FALSE,6.974262977,79.9140296,1.6,139.3,328,TRUE,1,1,FALSE,FALSE,FALSE,FALSE,,TRUE,FALSE,FALSE,Course Lock,246,,16.4,Calm,25,,1.12.8,Mavic Mini,1SDCH7G0169R0K,1SFLH6Q0AB03DJ,1SRCH7F014TAHX,1U5X071EXP6C9Y,94.9,0.3,9.8,6.487126,2.908022,0,0,Mavic Mini,1SDCH7G0169R0K,1SFLH6Q0AB03DJ,1SRCH7F014TAHX,1U5X071EXP6C9Y,DJI Fly,,1.12.8,6AF2A7B6-42BF-DC87-EC9E-DA67D17F2D77,1SDCH7G0169R0K,,,,,,,,,
2/14/2024,18:53.3,5m 57.4s,357.4,6.974260469,79.91402588,0,0,0.3,50,0.2,0,0,0,0,0,0,0,0,-2.7,-0.4,-48.7,311.3,,Manual Takeoff,Other,Takeoff (RC Assisted),14,4,TRUE,,Mavic Mini,TRUE,FALSE,,Smart,RC,TRUE,TRUE,FALSE,,,TRUE,,FALSE,FALSE,FALSE,FALSE,FALSE,FALSE,FALSE,FALSE,FALSE,FALSE,0,Follow Yaw,0,0,-37.7,322.3,FALSE,FALSE,FALSE,FALSE,FALSE,FALSE,,TRUE,Normal,,100,1024,1024,1024,1024,2,FALSE,FALSE,FALSE,FALSE,FALSE,0,FALSE,FALSE,FALSE,FALSE,72,7.81,1533,2138,7.796,FALSE,3.907,3.903,0.004,FALSE,FALSE,NA,111.7,111.7,111.7,0,1,0,0,5,2660.3,665.09,,Idle,0,20,FALSE,5,TRUE,5,Go Home,FALSE,FALSE,FALSE,FALSE,FALSE,FALSE,FALSE,FALSE,FALSE,FALSE,FALSE,FALSE,6.974262977,79.9140296,1.6,139.3,328,TRUE,1,1,FALSE,FALSE,FALSE,FALSE,,TRUE,FALSE,FALSE,Course Lock,246,,16.4,Calm,25,,1.12.8,Mavic Mini,1SDCH7G0169R0K,1SFLH6Q0AB03DJ,1SRCH7F014TAHX,1U5X071EXP6C9Y,94.9,0.3,9.8,6.487126,2.908022,0,0,Mavic Mini,1SDCH7G0169R0K,1SFLH6Q0AB03DJ,1SRCH7F014TAHX,1U5X071EXP6C9Y,DJI Fly,,1.12.8,6AF2A7B6-42BF-DC87-EC9E-DA67D17F2D77,1SDCH7G0169R0K,,,,,,,,,
2/14/2024,18:53.4,5m 57.5s,357.5,6.974260471,79.91402588,0,0,0.3,50,0.2,0,0,0,0,0,0,0,0,-2.7,-0.4,-48.7,311.3,,Manual Takeoff,Other,Takeoff (RC Assisted),14,4,TRUE,,Mavic Mini,TRUE,FALSE,,Smart,RC,TRUE,TRUE,FALSE,,,TRUE,,FALSE,FALSE,FALSE,FALSE,FALSE,FALSE,FALSE,FALSE,FALSE,FALSE,0,Follow Yaw,0,0,-37.7,322.3,FALSE,FALSE,FALSE,FALSE,FALSE,FALSE,,TRUE,Normal,,100,1024,1024,1024,1024,2,FALSE,FALSE,FALSE,FALSE,FALSE,0,FALSE,FALSE,FALSE,FALSE,72,7.782,1532,2138,7.796,FALSE,3.896,3.887,0.009,FALSE,FALSE,NA,111.7,111.7,111.7,0,1,0,0,5,2660.3,665.09,,Idle,0,20,FALSE,5,TRUE,5,Go Home,FALSE,FALSE,FALSE,FALSE,FALSE,FALSE,FALSE,FALSE,FALSE,FALSE,FALSE,FALSE,6.974262977,79.9140296,1.6,139.3,328,TRUE,1,1,FALSE,FALSE,FALSE,FALSE,,TRUE,FALSE,FALSE,Course Lock,246,,16.4,Calm,25,,1.12.8,Mavic Mini,1SDCH7G0169R0K,1SFLH6Q0AB03DJ,1SRCH7F014TAHX,1U5X071EXP6C9Y,94.9,0.3,9.8,6.487126,2.908022,0,0,Mavic Mini,1SDCH7G0169R0K,1SFLH6Q0AB03DJ,1SRCH7F014TAHX,1U5X071EXP6C9Y,DJI Fly,,1.12.8,6AF2A7B6-42BF-DC87-EC9E-DA67D17F2D77,1SDCH7G0169R0K,,,,,,,,,
2/14/2024,18:53.4,5m 57.6s,357.6,6.974260482,79.914026,0,0,0.3,50,0.2,0,0,0,0,0,0,0,0,-2.7,-0.4,-48.7,311.3,,Manual Takeoff,Other,Takeoff (RC Assisted),14,4,TRUE,,Mavic Mini,TRUE,FALSE,,Smart,RC,TRUE,TRUE,FALSE,,,TRUE,,FALSE,FALSE,FALSE,FALSE,FALSE,FALSE,FALSE,FALSE,FALSE,FALSE,0,Follow Yaw,0,0,-37.7,322.3,FALSE,FALSE,FALSE,FALSE,FALSE,FALSE,,TRUE,Normal,,100,1024,1024,1024,1024,2,FALSE,FALSE,FALSE,FALSE,FALSE,0,FALSE,FALSE,FALSE,FALSE,72,7.782,1532,2138,7.796,FALSE,3.896,3.887,0.009,FALSE,FALSE,NA,111.7,111.7,111.7,0,1,0,0,5,2660.3,665.09,,Idle,0,20,FALSE,5,TRUE,5,Go Home,FALSE,FALSE,FALSE,FALSE,FALSE,FALSE,FALSE,FALSE,FALSE,FALSE,FALSE,FALSE,6.974262977,79.9140296,1.5,139.3,328,TRUE,1,1,FALSE,FALSE,FALSE,FALSE,,TRUE,FALSE,FALSE,Course Lock,246,,16.4,Calm,25,,1.12.8,Mavic Mini,1SDCH7G0169R0K,1SFLH6Q0AB03DJ,1SRCH7F014TAHX,1U5X071EXP6C9Y,94.9,0.3,9.8,6.487126,2.908022,0,0,Mavic Mini,1SDCH7G0169R0K,1SFLH6Q0AB03DJ,1SRCH7F014TAHX,1U5X071EXP6C9Y,DJI Fly,,1.12.8,6AF2A7B6-42BF-DC87-EC9E-DA67D17F2D77,1SDCH7G0169R0K,,,,,,,,,
2/14/2024,18:53.6,5m 57.7s,357.7,6.974260434,79.914026,0,0,0.3,50,0.2,0,0,0,0,0,0,0,0,-2.7,-0.4,-48.8,311.2,,Manual Takeoff,Other,Takeoff (RC Assisted),14,4,TRUE,,Mavic Mini,TRUE,FALSE,,Smart,RC,TRUE,TRUE,FALSE,,,TRUE,,FALSE,FALSE,FALSE,FALSE,FALSE,FALSE,FALSE,FALSE,FALSE,FALSE,0,Follow Yaw,0,0,-37.7,322.3,FALSE,FALSE,FALSE,FALSE,FALSE,FALSE,,TRUE,Normal,,100,1024,1024,1024,1024,2,FALSE,FALSE,FALSE,FALSE,FALSE,0,FALSE,FALSE,FALSE,FALSE,72,7.782,1532,2138,7.796,FALSE,3.896,3.887,0.009,FALSE,FALSE,NA,111.7,111.7,111.7,0,1,0,0,5,2660.3,665.09,,Idle,0,20,FALSE,5,TRUE,5,Go Home,FALSE,FALSE,FALSE,FALSE,FALSE,FALSE,FALSE,FALSE,FALSE,FALSE,FALSE,FALSE,6.974262977,79.9140296,1.6,139.3,328,TRUE,1,1,FALSE,FALSE,FALSE,FALSE,,TRUE,FALSE,FALSE,Course Lock,246,,16.4,Calm,25,,1.12.8,Mavic Mini,1SDCH7G0169R0K,1SFLH6Q0AB03DJ,1SRCH7F014TAHX,1U5X071EXP6C9Y,94.9,0.3,9.8,6.487126,2.908022,0,0,Mavic Mini,1SDCH7G0169R0K,1SFLH6Q0AB03DJ,1SRCH7F014TAHX,1U5X071EXP6C9Y,DJI Fly,,1.12.8,6AF2A7B6-42BF-DC87-EC9E-DA67D17F2D77,1SDCH7G0169R0K,,,,,,,,,
2/14/2024,18:53.6,5m 57.8s,357.8,6.97426038,79.91402599,0,0,0.3,50,0.3,0,0,0,0,0,0,0,0,-2.7,-0.4,-48.7,311.3,,Manual Takeoff,Other,Takeoff (RC Assisted),14,4,TRUE,,Mavic Mini,TRUE,FALSE,,Smart,RC,TRUE,TRUE,FALSE,,,TRUE,,FALSE,FALSE,FALSE,FALSE,FALSE,FALSE,FALSE,FALSE,FALSE,FALSE,0,Follow Yaw,0,0,-37.7,322.3,FALSE,FALSE,FALSE,FALSE,FALSE,FALSE,,TRUE,Normal,,100,1024,1024,1024,1024,2,FALSE,FALSE,FALSE,FALSE,FALSE,0,FALSE,FALSE,FALSE,FALSE,72,7.782,1532,2138,7.796,FALSE,3.896,3.887,0.009,FALSE,FALSE,NA,111.7,111.7,111.7,0,1,0,0,5,2660.3,665.09,,Idle,0,20,FALSE,5,TRUE,5,Go Home,FALSE,FALSE,FALSE,FALSE,FALSE,FALSE,FALSE,FALSE,FALSE,FALSE,FALSE,FALSE,6.974262977,79.9140296,1.6,139.3,328,TRUE,1,1,FALSE,FALSE,FALSE,FALSE,,TRUE,FALSE,FALSE,Course Lock,246,,16.4,Calm,25,,1.12.8,Mavic Mini,1SDCH7G0169R0K,1SFLH6Q0AB03DJ,1SRCH7F014TAHX,1U5X071EXP6C9Y,94.9,0.3,9.8,6.487126,2.908022,0,0,Mavic Mini,1SDCH7G0169R0K,1SFLH6Q0AB03DJ,1SRCH7F014TAHX,1U5X071EXP6C9Y,DJI Fly,,1.12.8,6AF2A7B6-42BF-DC87-EC9E-DA67D17F2D77,1SDCH7G0169R0K,,,,,,,,,
2/14/2024,18:53.9,5m 57.9s,357.9,6.97426036,79.91402599,0,0,0.3,50,0.3,0,0,0,0,0,0,0,0,-2.7,-0.4,-48.7,311.3,,Manual Takeoff,Other,Takeoff (RC Assisted),14,4,TRUE,,Mavic Mini,TRUE,FALSE,,Smart,RC,TRUE,TRUE,FALSE,,,TRUE,,FALSE,FALSE,FALSE,FALSE,FALSE,FALSE,FALSE,FALSE,FALSE,FALSE,0,Follow Yaw,0,0,-37.7,322.3,FALSE,FALSE,FALSE,FALSE,FALSE,FALSE,,TRUE,Normal,,100,1024,1024,1024,1024,2,FALSE,FALSE,FALSE,FALSE,FALSE,0,FALSE,FALSE,FALSE,FALSE,72,7.782,1532,2138,7.796,FALSE,3.896,3.887,0.009,FALSE,FALSE,NA,111.7,111.7,111.7,0,1,0,0,5,2660.3,665.09,,Idle,0,20,FALSE,5,TRUE,5,Go Home,FALSE,FALSE,FALSE,FALSE,FALSE,FALSE,FALSE,FALSE,FALSE,FALSE,FALSE,FALSE,6.974262977,79.9140296,1.6,139.3,328,TRUE,1,1,FALSE,FALSE,FALSE,FALSE,,TRUE,FALSE,FALSE,Course Lock,246,,16.4,Calm,25,,1.12.8,Mavic Mini,1SDCH7G0169R0K,1SFLH6Q0AB03DJ,1SRCH7F014TAHX,1U5X071EXP6C9Y,94.9,0.3,9.8,6.487126,2.908022,0,0,Mavic Mini,1SDCH7G0169R0K,1SFLH6Q0AB03DJ,1SRCH7F014TAHX,1U5X071EXP6C9Y,DJI Fly,,1.12.8,6AF2A7B6-42BF-DC87-EC9E-DA67D17F2D77,1SDCH7G0169R0K,,,,,,,,,
2/14/2024,18:53.9,5m 58.0s,358,6.974260259,79.91402605,0,0,0.3,50,0.3,0,0,0,0,0,0,0,0,-2.7,-0.3,-48.8,311.2,,Manual Takeoff,Other,Takeoff (RC Assisted),14,4,TRUE,,Mavic Mini,TRUE,FALSE,,Smart,RC,TRUE,TRUE,FALSE,,,TRUE,,FALSE,FALSE,FALSE,FALSE,FALSE,FALSE,FALSE,FALSE,FALSE,FALSE,0,Follow Yaw,0,0,-37.7,322.3,FALSE,FALSE,FALSE,FALSE,FALSE,FALSE,,TRUE,Normal,,100,1024,1024,1024,1024,2,FALSE,FALSE,FALSE,FALSE,FALSE,0,FALSE,FALSE,FALSE,FALSE,72,7.782,1532,2138,7.796,FALSE,3.896,3.887,0.009,FALSE,FALSE,NA,111.7,111.7,111.7,0,1,0,0,5,2660.3,665.09,,Idle,0,20,FALSE,5,TRUE,5,Go Home,FALSE,FALSE,FALSE,FALSE,FALSE,FALSE,FALSE,FALSE,FALSE,FALSE,FALSE,FALSE,6.974262977,79.9140296,1.6,139.3,328,TRUE,1,1,FALSE,FALSE,FALSE,FALSE,,TRUE,FALSE,FALSE,Course Lock,246,,16.4,Calm,25,,1.12.8,Mavic Mini,1SDCH7G0169R0K,1SFLH6Q0AB03DJ,1SRCH7F014TAHX,1U5X071EXP6C9Y,94.9,0.3,9.8,6.487126,2.908022,0,0,Mavic Mini,1SDCH7G0169R0K,1SFLH6Q0AB03DJ,1SRCH7F014TAHX,1U5X071EXP6C9Y,DJI Fly,,1.12.8,6AF2A7B6-42BF-DC87-EC9E-DA67D17F2D77,1SDCH7G0169R0K,,,,,,,,,
2/14/2024,18:54.0,5m 58.1s,358.1,6.974260305,79.91402604,0,0,0.3,50,0.3,0,0,0,0,0,0,0,0,-2.6,-0.4,-48.7,311.3,,Manual Takeoff,Other,Takeoff (RC Assisted),14,4,TRUE,,Mavic Mini,TRUE,FALSE,,Smart,RC,TRUE,TRUE,FALSE,,,TRUE,,FALSE,FALSE,FALSE,FALSE,FALSE,FALSE,FALSE,FALSE,FALSE,FALSE,0,Follow Yaw,0,0,-37.7,322.3,FALSE,FALSE,FALSE,FALSE,FALSE,FALSE,,TRUE,Normal,,100,1024,1024,1024,1024,2,FALSE,FALSE,FALSE,FALSE,FALSE,0,FALSE,FALSE,FALSE,FALSE,72,7.782,1532,2138,7.796,FALSE,3.896,3.887,0.009,FALSE,FALSE,NA,111.7,111.7,111.7,0,1,0,0,5,2660.3,665.09,,Idle,0,20,FALSE,5,TRUE,5,Go Home,FALSE,FALSE,FALSE,FALSE,FALSE,FALSE,FALSE,FALSE,FALSE,FALSE,FALSE,FALSE,6.974262977,79.9140296,1.6,139.3,328,TRUE,1,1,FALSE,FALSE,FALSE,FALSE,,TRUE,FALSE,FALSE,Course Lock,246,,16.4,Calm,25,,1.12.8,Mavic Mini,1SDCH7G0169R0K,1SFLH6Q0AB03DJ,1SRCH7F014TAHX,1U5X071EXP6C9Y,94.9,0.3,9.8,6.487126,2.908022,0,0,Mavic Mini,1SDCH7G0169R0K,1SFLH6Q0AB03DJ,1SRCH7F014TAHX,1U5X071EXP6C9Y,DJI Fly,,1.12.8,6AF2A7B6-42BF-DC87-EC9E-DA67D17F2D77,1SDCH7G0169R0K,,,,,6.97422829,79.91399439,5,,
2/14/2024,18:54.2,5m 58.2s,358.2,6.974260357,79.91402603,0,0,0.3,50,0.4,0,0,0,0,0,0,0,0,-2.7,-0.4,-48.7,311.3,,Manual Takeoff,Other,Takeoff (RC Assisted),14,4,TRUE,,Mavic Mini,TRUE,FALSE,,Smart,RC,TRUE,TRUE,FALSE,,,TRUE,,FALSE,FALSE,FALSE,FALSE,FALSE,FALSE,FALSE,FALSE,FALSE,FALSE,0,Follow Yaw,0,0,-37.7,322.3,FALSE,FALSE,FALSE,FALSE,FALSE,FALSE,,TRUE,Normal,,100,1024,1024,1024,1024,2,FALSE,FALSE,FALSE,FALSE,FALSE,0,FALSE,FALSE,FALSE,FALSE,72,7.782,1532,2138,7.788,FALSE,3.896,3.887,0.009,FALSE,FALSE,NA,111.7,111.7,111.7,0,1,0,0,5,2696.1,674.02,,Idle,0,20,FALSE,5,TRUE,5,Go Home,FALSE,FALSE,FALSE,FALSE,FALSE,FALSE,FALSE,FALSE,FALSE,FALSE,FALSE,FALSE,6.974262977,79.9140296,1.6,139.3,328,TRUE,1,1,FALSE,FALSE,FALSE,FALSE,,TRUE,FALSE,FALSE,Course Lock,246,,16.4,Calm,25,,1.12.8,Mavic Mini,1SDCH7G0169R0K,1SFLH6Q0AB03DJ,1SRCH7F014TAHX,1U5X071EXP6C9Y,94.9,0.3,9.8,6.487126,2.908022,0,0,Mavic Mini,1SDCH7G0169R0K,1SFLH6Q0AB03DJ,1SRCH7F014TAHX,1U5X071EXP6C9Y,DJI Fly,,1.12.8,6AF2A7B6-42BF-DC87-EC9E-DA67D17F2D77,1SDCH7G0169R0K,,,,,6.97422829,79.91399439,5,,
2/14/2024,18:54.2,5m 58.3s,358.3,6.974260335,79.91402602,0,0,0.3,50,0.4,0,0,0,0,0,0,0,0,-2.7,-0.4,-48.7,311.3,,Manual Takeoff,Other,Takeoff (RC Assisted),14,4,TRUE,,Mavic Mini,TRUE,FALSE,,Smart,RC,TRUE,TRUE,FALSE,,,TRUE,,FALSE,FALSE,FALSE,FALSE,FALSE,FALSE,FALSE,FALSE,FALSE,FALSE,0,Follow Yaw,0,0,-37.7,322.3,FALSE,FALSE,FALSE,FALSE,FALSE,FALSE,,TRUE,Normal,,100,1024,1024,1024,1024,2,FALSE,FALSE,FALSE,FALSE,FALSE,0,FALSE,FALSE,FALSE,FALSE,72,7.782,1532,2138,7.788,FALSE,3.896,3.887,0.009,FALSE,FALSE,NA,111.7,111.7,111.7,0,1,0,0,5,2696.1,674.02,,Idle,0,20,FALSE,5,TRUE,5,Go Home,FALSE,FALSE,FALSE,FALSE,FALSE,FALSE,FALSE,FALSE,FALSE,FALSE,FALSE,FALSE,6.974262977,79.9140296,1.6,139.3,328,TRUE,1,1,FALSE,FALSE,FALSE,FALSE,,TRUE,FALSE,FALSE,Course Lock,246,,16.4,Calm,25,,1.12.8,Mavic Mini,1SDCH7G0169R0K,1SFLH6Q0AB03DJ,1SRCH7F014TAHX,1U5X071EXP6C9Y,94.9,0.3,9.8,6.487126,2.908022,0,0,Mavic Mini,1SDCH7G0169R0K,1SFLH6Q0AB03DJ,1SRCH7F014TAHX,1U5X071EXP6C9Y,DJI Fly,,1.12.8,6AF2A7B6-42BF-DC87-EC9E-DA67D17F2D77,1SDCH7G0169R0K,,,,,6.97422829,79.91399439,5,,
2/14/2024,18:54.3,5m 58.4s,358.4,6.974260346,79.91402606,0,0,0.3,50,0.4,0,0,0,0,0,0,0,0,-2.7,-0.4,-48.7,311.3,,Manual Takeoff,Other,Takeoff (RC Assisted),14,4,TRUE,,Mavic Mini,TRUE,FALSE,,Smart,RC,TRUE,TRUE,FALSE,,,TRUE,,FALSE,FALSE,FALSE,FALSE,FALSE,FALSE,FALSE,FALSE,FALSE,FALSE,0,Follow Yaw,0,0,-37.7,322.3,FALSE,FALSE,FALSE,FALSE,FALSE,FALSE,,TRUE,Normal,,100,1024,1024,1024,1024,2,FALSE,FALSE,FALSE,FALSE,FALSE,0,FALSE,FALSE,FALSE,FALSE,72,7.782,1532,2138,7.788,FALSE,3.896,3.887,0.009,FALSE,FALSE,NA,111.7,111.7,111.7,0,1,0,0,5,2696.1,674.02,,Idle,0,20,FALSE,5,TRUE,5,Go Home,FALSE,FALSE,FALSE,FALSE,FALSE,FALSE,FALSE,FALSE,FALSE,FALSE,FALSE,FALSE,6.974262977,79.9140296,1.5,139.3,328,TRUE,1,1,FALSE,FALSE,FALSE,FALSE,,TRUE,FALSE,FALSE,Course Lock,246,,16.4,Calm,25,,1.12.8,Mavic Mini,1SDCH7G0169R0K,1SFLH6Q0AB03DJ,1SRCH7F014TAHX,1U5X071EXP6C9Y,94.9,0.3,9.8,6.487126,2.908022,0,0,Mavic Mini,1SDCH7G0169R0K,1SFLH6Q0AB03DJ,1SRCH7F014TAHX,1U5X071EXP6C9Y,DJI Fly,,1.12.8,6AF2A7B6-42BF-DC87-EC9E-DA67D17F2D77,1SDCH7G0169R0K,,,,,6.97422829,79.91399439,5,,
2/14/2024,18:54.4,5m 58.5s,358.5,6.974260332,79.91402606,0,0,0.3,50,0.4,0,0,0,0,0,0,0,0,-2.6,-0.4,-48.8,311.2,,Manual Takeoff,Other,Takeoff (RC Assisted),14,4,TRUE,,Mavic Mini,TRUE,FALSE,,Smart,RC,TRUE,TRUE,FALSE,,,TRUE,,FALSE,FALSE,FALSE,FALSE,FALSE,FALSE,FALSE,FALSE,FALSE,FALSE,0,Follow Yaw,0,0,-37.7,322.3,FALSE,FALSE,FALSE,FALSE,FALSE,FALSE,,TRUE,Normal,,100,1024,1024,1024,1024,2,FALSE,FALSE,FALSE,FALSE,FALSE,0,FALSE,FALSE,FALSE,FALSE,72,7.782,1532,2138,7.788,FALSE,3.896,3.887,0.009,FALSE,FALSE,NA,111.7,111.7,111.7,0,1,0,0,5,2696.1,674.02,,Idle,0,20,FALSE,5,TRUE,5,Go Home,FALSE,FALSE,FALSE,FALSE,FALSE,FALSE,FALSE,FALSE,FALSE,FALSE,FALSE,FALSE,6.974262977,79.9140296,1.6,139.3,328,TRUE,1,1,FALSE,FALSE,FALSE,FALSE,,TRUE,FALSE,FALSE,Course Lock,246,,16.4,Calm,25,,1.12.8,Mavic Mini,1SDCH7G0169R0K,1SFLH6Q0AB03DJ,1SRCH7F014TAHX,1U5X071EXP6C9Y,94.9,0.3,9.8,6.487126,2.908022,0,0,Mavic Mini,1SDCH7G0169R0K,1SFLH6Q0AB03DJ,1SRCH7F014TAHX,1U5X071EXP6C9Y,DJI Fly,,1.12.8,6AF2A7B6-42BF-DC87-EC9E-DA67D17F2D77,1SDCH7G0169R0K,,,,,6.97422829,79.91399439,5,,
2/14/2024,18:54.5,5m 58.6s,358.6,6.974260319,79.91402604,0,0,0.3,50,0.4,0,0,0,0,0,0,0,0,-2.6,-0.4,-48.7,311.3,,Manual Takeoff,Other,Takeoff (RC Assisted),14,4,TRUE,,Mavic Mini,TRUE,FALSE,,Smart,RC,TRUE,TRUE,FALSE,,,TRUE,,FALSE,FALSE,FALSE,FALSE,FALSE,FALSE,FALSE,FALSE,FALSE,FALSE,0,Follow Yaw,0,0,-37.7,322.3,FALSE,FALSE,FALSE,FALSE,FALSE,FALSE,,TRUE,Normal,,100,1024,1024,1024,1024,2,FALSE,FALSE,FALSE,FALSE,FALSE,0,FALSE,FALSE,FALSE,FALSE,72,7.788,1532,2138,7.788,FALSE,3.897,3.891,0.009,FALSE,FALSE,NA,111.7,111.7,111.7,0,1,0,0,5,2696.1,674.02,,Idle,0,20,FALSE,5,TRUE,5,Go Home,FALSE,FALSE,FALSE,FALSE,FALSE,FALSE,FALSE,FALSE,FALSE,FALSE,FALSE,FALSE,6.974262977,79.9140296,1.6,139.3,328,TRUE,1,1,FALSE,FALSE,FALSE,FALSE,,TRUE,FALSE,FALSE,Course Lock,246,,16.4,Calm,25,,1.12.8,Mavic Mini,1SDCH7G0169R0K,1SFLH6Q0AB03DJ,1SRCH7F014TAHX,1U5X071EXP6C9Y,94.9,0.3,9.8,6.487126,2.908022,0,0,Mavic Mini,1SDCH7G0169R0K,1SFLH6Q0AB03DJ,1SRCH7F014TAHX,1U5X071EXP6C9Y,DJI Fly,,1.12.8,6AF2A7B6-42BF-DC87-EC9E-DA67D17F2D77,1SDCH7G0169R0K,,,,,6.97422829,79.91399439,5,,
2/14/2024,18:54.6,5m 58.7s,358.7,6.974260316,79.91402599,0,0,0.3,50,0.4,0,0,0,0,0,0,0,0,-2.6,-0.4,-48.7,311.3,,Manual Takeoff,Other,Takeoff (RC Assisted),14,4,TRUE,,Mavic Mini,TRUE,FALSE,,Smart,RC,TRUE,TRUE,FALSE,,,TRUE,,FALSE,FALSE,FALSE,FALSE,FALSE,FALSE,FALSE,FALSE,FALSE,FALSE,0,Follow Yaw,0,0,-37.7,322.3,FALSE,FALSE,FALSE,FALSE,FALSE,FALSE,,TRUE,Normal,,100,1024,1024,1024,1024,2,FALSE,FALSE,FALSE,FALSE,FALSE,0,FALSE,FALSE,FALSE,FALSE,72,7.788,1532,2138,7.788,FALSE,3.897,3.891,0.009,FALSE,FALSE,NA,111.7,111.7,111.7,0,1,0,0,5,2696.1,674.02,,Idle,0,20,FALSE,5,TRUE,5,Go Home,FALSE,FALSE,FALSE,FALSE,FALSE,FALSE,FALSE,FALSE,FALSE,FALSE,FALSE,FALSE,6.974262977,79.9140296,1.6,139.3,328,TRUE,1,1,FALSE,FALSE,FALSE,FALSE,,TRUE,FALSE,FALSE,Course Lock,246,,16.4,Calm,25,,1.12.8,Mavic Mini,1SDCH7G0169R0K,1SFLH6Q0AB03DJ,1SRCH7F014TAHX,1U5X071EXP6C9Y,94.9,0.3,9.8,6.487126,2.908022,0,0,Mavic Mini,1SDCH7G0169R0K,1SFLH6Q0AB03DJ,1SRCH7F014TAHX,1U5X071EXP6C9Y,DJI Fly,,1.12.8,6AF2A7B6-42BF-DC87-EC9E-DA67D17F2D77,1SDCH7G0169R0K,,,,,6.97422829,79.91399439,5,,
2/14/2024,18:54.7,5m 58.8s,358.8,6.974260314,79.9140259,0,0,0.3,50,0.4,0,0,0,0,0,0,0,0,-2.6,-0.3,-48.8,311.2,,Manual Takeoff,Other,Takeoff (RC Assisted),14,4,TRUE,,Mavic Mini,TRUE,FALSE,,Smart,RC,TRUE,TRUE,FALSE,,,TRUE,,FALSE,FALSE,FALSE,FALSE,FALSE,FALSE,FALSE,FALSE,FALSE,FALSE,0,Follow Yaw,0,0,-37.7,322.3,FALSE,FALSE,FALSE,FALSE,FALSE,FALSE,,TRUE,Normal,,100,1024,1024,1024,1024,2,FALSE,FALSE,FALSE,FALSE,FALSE,0,FALSE,FALSE,FALSE,FALSE,72,7.788,1532,2138,7.788,FALSE,3.897,3.891,0.009,FALSE,FALSE,NA,111.7,111.7,111.7,0,1,0,0,5,2696.1,674.02,,Idle,0,20,FALSE,5,TRUE,5,Go Home,FALSE,FALSE,FALSE,FALSE,FALSE,FALSE,FALSE,FALSE,FALSE,FALSE,FALSE,FALSE,6.974262977,79.9140296,1.6,139.3,328,TRUE,1,1,FALSE,FALSE,FALSE,FALSE,,TRUE,FALSE,FALSE,Course Lock,246,,16.4,Calm,25,,1.12.8,Mavic Mini,1SDCH7G0169R0K,1SFLH6Q0AB03DJ,1SRCH7F014TAHX,1U5X071EXP6C9Y,94.9,0.3,9.8,6.487126,2.908022,0,0,Mavic Mini,1SDCH7G0169R0K,1SFLH6Q0AB03DJ,1SRCH7F014TAHX,1U5X071EXP6C9Y,DJI Fly,,1.12.8,6AF2A7B6-42BF-DC87-EC9E-DA67D17F2D77,1SDCH7G0169R0K,,,,,6.97422829,79.91399439,5,,
2/14/2024,18:54.8,5m 58.9s,358.9,6.974260315,79.91402587,0,0,0.3,50,0.5,0,0,0,0,0,0,0,0,-2.6,-0.4,-48.8,311.2,,Manual Takeoff,Other,Takeoff (RC Assisted),14,4,TRUE,,Mavic Mini,TRUE,FALSE,,Smart,RC,TRUE,TRUE,FALSE,,,TRUE,,FALSE,FALSE,FALSE,FALSE,FALSE,FALSE,FALSE,FALSE,FALSE,FALSE,0,Follow Yaw,0,0,-37.7,322.3,FALSE,FALSE,FALSE,FALSE,FALSE,FALSE,,TRUE,Normal,,100,1024,1024,1024,1024,2,FALSE,FALSE,FALSE,FALSE,FALSE,0,FALSE,FALSE,FALSE,FALSE,72,7.788,1532,2138,7.788,FALSE,3.897,3.891,0.009,FALSE,FALSE,NA,111.7,111.7,111.7,0,1,0,0,5,2696.1,674.02,,Idle,0,20,FALSE,5,TRUE,5,Go Home,FALSE,FALSE,FALSE,FALSE,FALSE,FALSE,FALSE,FALSE,FALSE,FALSE,FALSE,FALSE,6.974262977,79.9140296,1.6,139.3,328,TRUE,1,1,FALSE,FALSE,FALSE,FALSE,,TRUE,FALSE,FALSE,Course Lock,246,,16.4,Calm,25,,1.12.8,Mavic Mini,1SDCH7G0169R0K,1SFLH6Q0AB03DJ,1SRCH7F014TAHX,1U5X071EXP6C9Y,94.9,0.3,9.8,6.487126,2.908022,0,0,Mavic Mini,1SDCH7G0169R0K,1SFLH6Q0AB03DJ,1SRCH7F014TAHX,1U5X071EXP6C9Y,DJI Fly,,1.12.8,6AF2A7B6-42BF-DC87-EC9E-DA67D17F2D77,1SDCH7G0169R0K,,,,,6.97422829,79.91399439,5,,
2/14/2024,18:54.8,5m 59.0s,359,6.974260315,79.91402584,0,0,0.3,50,0.5,0,0,0,0,0,0,0,0,-2.6,-0.4,-48.7,311.3,,Manual Takeoff,Other,Takeoff (RC Assisted),14,4,TRUE,,Mavic Mini,TRUE,FALSE,,Smart,RC,TRUE,TRUE,FALSE,,,TRUE,,FALSE,FALSE,FALSE,FALSE,FALSE,FALSE,FALSE,FALSE,FALSE,FALSE,0,Follow Yaw,0,0,-37.7,322.3,FALSE,FALSE,FALSE,FALSE,FALSE,FALSE,,TRUE,Normal,,100,1024,1024,1024,1024,2,FALSE,FALSE,FALSE,FALSE,FALSE,0,FALSE,FALSE,FALSE,FALSE,72,7.788,1532,2138,7.788,FALSE,3.897,3.891,0.009,FALSE,FALSE,NA,111.7,111.7,111.7,0,1,0,0,5,2696.1,674.02,,Idle,0,20,FALSE,5,TRUE,5,Go Home,FALSE,FALSE,FALSE,FALSE,FALSE,FALSE,FALSE,FALSE,FALSE,FALSE,FALSE,FALSE,6.974262977,79.9140296,1.6,139.3,328,TRUE,1,1,FALSE,FALSE,FALSE,FALSE,,TRUE,FALSE,FALSE,Course Lock,246,,16.4,Calm,25,,1.12.8,Mavic Mini,1SDCH7G0169R0K,1SFLH6Q0AB03DJ,1SRCH7F014TAHX,1U5X071EXP6C9Y,94.9,0.3,9.8,6.487126,2.908022,0,0,Mavic Mini,1SDCH7G0169R0K,1SFLH6Q0AB03DJ,1SRCH7F014TAHX,1U5X071EXP6C9Y,DJI Fly,,1.12.8,6AF2A7B6-42BF-DC87-EC9E-DA67D17F2D77,1SDCH7G0169R0K,,,,,6.97422829,79.91399439,5,,
2/14/2024,18:54.9,5m 59.1s,359.1,6.974260317,79.91402584,0,0,0.3,50,0.5,0,0,0,0,0,0,0,0,-2.6,-0.3,-48.7,311.3,,Manual Takeoff,Other,Takeoff (RC Assisted),14,4,TRUE,,Mavic Mini,TRUE,FALSE,,Smart,RC,TRUE,TRUE,FALSE,,,TRUE,,FALSE,FALSE,FALSE,FALSE,FALSE,FALSE,FALSE,FALSE,FALSE,FALSE,0,Follow Yaw,0,0,-37.7,322.3,FALSE,FALSE,FALSE,FALSE,FALSE,FALSE,,TRUE,Normal,,100,1024,1024,1024,1024,2,FALSE,FALSE,FALSE,FALSE,FALSE,0,FALSE,FALSE,FALSE,FALSE,72,7.788,1532,2138,7.788,FALSE,3.897,3.891,0.009,FALSE,FALSE,NA,111.7,111.7,111.7,0,1,0,0,5,2696.1,674.02,,Idle,0,20,FALSE,5,TRUE,5,Go Home,FALSE,FALSE,FALSE,FALSE,FALSE,FALSE,FALSE,FALSE,FALSE,FALSE,FALSE,FALSE,6.974262977,79.9140296,1.6,139.3,328,TRUE,1,1,FALSE,FALSE,FALSE,FALSE,,TRUE,FALSE,FALSE,Course Lock,246,,16.4,Calm,25,,1.12.8,Mavic Mini,1SDCH7G0169R0K,1SFLH6Q0AB03DJ,1SRCH7F014TAHX,1U5X071EXP6C9Y,94.9,0.3,9.8,6.487126,2.908022,0,0,Mavic Mini,1SDCH7G0169R0K,1SFLH6Q0AB03DJ,1SRCH7F014TAHX,1U5X071EXP6C9Y,DJI Fly,,1.12.8,6AF2A7B6-42BF-DC87-EC9E-DA67D17F2D77,1SDCH7G0169R0K,,,,,6.97422829,79.91399439,5,,
2/14/2024,18:55.2,5m 59.2s,359.2,6.974260319,79.91402583,0,0,0.3,50,0.5,0,0,0,0,0,0,0,0,-2.6,-0.3,-48.8,311.2,,Manual Takeoff,Other,Takeoff (RC Assisted),14,4,TRUE,,Mavic Mini,TRUE,FALSE,,Smart,RC,TRUE,TRUE,FALSE,,,TRUE,,FALSE,FALSE,FALSE,FALSE,FALSE,FALSE,FALSE,FALSE,FALSE,FALSE,0,Follow Yaw,0,0,-37.7,322.3,FALSE,FALSE,FALSE,FALSE,FALSE,FALSE,,TRUE,Normal,,100,1024,1024,1024,1024,2,FALSE,FALSE,FALSE,FALSE,FALSE,0,FALSE,FALSE,FALSE,FALSE,72,7.788,1532,2138,7.791,FALSE,3.897,3.891,0.009,FALSE,FALSE,NA,111.7,111.7,111.7,0,1,0,0,5,2817.1,704.29,,Idle,0,20,FALSE,5,TRUE,5,Go Home,FALSE,FALSE,FALSE,FALSE,FALSE,FALSE,FALSE,FALSE,FALSE,FALSE,FALSE,FALSE,6.974262977,79.9140296,1.6,139.3,328,TRUE,1,1,FALSE,FALSE,FALSE,FALSE,,TRUE,FALSE,FALSE,Course Lock,246,,16.4,Calm,25,,1.12.8,Mavic Mini,1SDCH7G0169R0K,1SFLH6Q0AB03DJ,1SRCH7F014TAHX,1U5X071EXP6C9Y,94.9,0.3,9.8,6.487126,2.908022,0,0,Mavic Mini,1SDCH7G0169R0K,1SFLH6Q0AB03DJ,1SRCH7F014TAHX,1U5X071EXP6C9Y,DJI Fly,,1.12.8,6AF2A7B6-42BF-DC87-EC9E-DA67D17F2D77,1SDCH7G0169R0K,,,,,6.97422829,79.91399439,5,,
2/14/2024,18:55.2,5m 59.3s,359.3,6.974260357,79.91402594,0,0,0.3,50,0.5,0,0,0,0,0,0,0,0,-2.6,-0.3,-48.8,311.2,,Manual Takeoff,Other,Takeoff (RC Assisted),14,4,TRUE,,Mavic Mini,TRUE,FALSE,,Smart,RC,TRUE,TRUE,FALSE,,,TRUE,,FALSE,FALSE,FALSE,FALSE,FALSE,FALSE,FALSE,FALSE,FALSE,FALSE,0,Follow Yaw,0,0,-37.7,322.3,FALSE,FALSE,FALSE,FALSE,FALSE,FALSE,,TRUE,Normal,,100,1024,1024,1152,1024,2,FALSE,FALSE,FALSE,FALSE,FALSE,0,FALSE,FALSE,FALSE,FALSE,72,7.788,1532,2138,7.791,FALSE,3.897,3.891,0.009,FALSE,FALSE,NA,111.7,111.7,111.7,0,1,0,0,5,2817.1,704.29,,Idle,0,20,FALSE,5,TRUE,5,Go Home,FALSE,FALSE,FALSE,FALSE,FALSE,FALSE,FALSE,FALSE,FALSE,FALSE,FALSE,FALSE,6.974262977,79.9140296,1.6,139.3,328,TRUE,1,1,FALSE,FALSE,FALSE,FALSE,,TRUE,FALSE,FALSE,Course Lock,246,,16.4,Calm,25,,1.12.8,Mavic Mini,1SDCH7G0169R0K,1SFLH6Q0AB03DJ,1SRCH7F014TAHX,1U5X071EXP6C9Y,94.9,0.3,9.8,6.487126,2.908022,0,0,Mavic Mini,1SDCH7G0169R0K,1SFLH6Q0AB03DJ,1SRCH7F014TAHX,1U5X071EXP6C9Y,DJI Fly,,1.12.8,6AF2A7B6-42BF-DC87-EC9E-DA67D17F2D77,1SDCH7G0169R0K,,,,,6.97422829,79.91399439,5,,
2/14/2024,18:55.3,5m 59.4s,359.4,6.974260361,79.91402594,0,0,0.3,50,0.5,0,0,0,0,0,0,0,0,-2.6,-0.4,-48.7,311.3,,Manual Takeoff,Other,Takeoff (RC Assisted),14,5,TRUE,,Mavic Mini,TRUE,FALSE,,Smart,RC,TRUE,TRUE,FALSE,,,TRUE,,FALSE,FALSE,FALSE,FALSE,FALSE,FALSE,FALSE,FALSE,FALSE,FALSE,0,Follow Yaw,0,0,-37.7,322.3,FALSE,FALSE,FALSE,FALSE,FALSE,FALSE,,TRUE,Normal,,100,1024,1024,1284,1024,2,FALSE,FALSE,FALSE,FALSE,FALSE,0,FALSE,FALSE,FALSE,FALSE,72,7.788,1532,2138,7.791,FALSE,3.897,3.891,0.009,FALSE,FALSE,NA,111.7,111.7,111.7,0,1,0,0,5,2817.1,704.29,,Idle,0,20,FALSE,5,TRUE,5,Go Home,FALSE,FALSE,FALSE,FALSE,FALSE,FALSE,FALSE,FALSE,FALSE,FALSE,FALSE,FALSE,6.974262977,79.9140296,1.6,139.3,328,TRUE,1,1,FALSE,FALSE,FALSE,FALSE,,TRUE,FALSE,FALSE,Course Lock,246,,16.4,Calm,25,,1.12.8,Mavic Mini,1SDCH7G0169R0K,1SFLH6Q0AB03DJ,1SRCH7F014TAHX,1U5X071EXP6C9Y,94.9,0.3,9.8,6.487126,2.908022,0,0,Mavic Mini,1SDCH7G0169R0K,1SFLH6Q0AB03DJ,1SRCH7F014TAHX,1U5X071EXP6C9Y,DJI Fly,,1.12.8,6AF2A7B6-42BF-DC87-EC9E-DA67D17F2D77,1SDCH7G0169R0K,,,,,6.97422829,79.91399439,5,,
2/14/2024,18:55.4,5m 59.5s,359.5,6.974260364,79.91402594,0,0,0.3,50,0.5,0,0,0,0,0,0,0,0,-2.6,-0.4,-48.7,311.3,,Manual Takeoff,Other,Takeoff (RC Assisted),14,5,TRUE,,Mavic Mini,TRUE,FALSE,,Smart,RC,TRUE,TRUE,FALSE,,,TRUE,,FALSE,FALSE,FALSE,FALSE,FALSE,FALSE,FALSE,FALSE,FALSE,FALSE,0,Follow Yaw,0,0,-37.7,322.3,FALSE,FALSE,FALSE,FALSE,FALSE,FALSE,,TRUE,Normal,,100,1024,1024,1284,1024,2,FALSE,FALSE,FALSE,FALSE,FALSE,0,FALSE,FALSE,FALSE,FALSE,72,7.788,1532,2138,7.791,FALSE,3.897,3.891,0.009,FALSE,FALSE,NA,111.7,111.7,111.7,0,1,0,0,5,2817.1,704.29,,Idle,0,20,FALSE,5,TRUE,5,Go Home,FALSE,FALSE,FALSE,FALSE,FALSE,FALSE,FALSE,FALSE,FALSE,FALSE,FALSE,FALSE,6.974262977,79.9140296,1.6,139.3,328,TRUE,1,1,FALSE,FALSE,FALSE,FALSE,,TRUE,FALSE,FALSE,Course Lock,246,,16.4,Calm,25,,1.12.8,Mavic Mini,1SDCH7G0169R0K,1SFLH6Q0AB03DJ,1SRCH7F014TAHX,1U5X071EXP6C9Y,94.9,0.3,9.8,6.487126,2.908022,0,0,Mavic Mini,1SDCH7G0169R0K,1SFLH6Q0AB03DJ,1SRCH7F014TAHX,1U5X071EXP6C9Y,DJI Fly,,1.12.8,6AF2A7B6-42BF-DC87-EC9E-DA67D17F2D77,1SDCH7G0169R0K,,,,,6.97422829,79.91399439,5,,
2/14/2024,18:55.5,5m 59.6s,359.6,6.974260367,79.91402593,0,0,0.3,50,0.5,0,0,0,0,0,0,0,0,-2.6,-0.4,-48.7,311.3,,Manual Takeoff,Other,Takeoff (RC Assisted),14,5,TRUE,,Mavic Mini,TRUE,FALSE,,Smart,RC,TRUE,TRUE,FALSE,,,TRUE,,FALSE,FALSE,FALSE,FALSE,FALSE,FALSE,FALSE,FALSE,FALSE,FALSE,0,Follow Yaw,0,0,-37.7,322.3,FALSE,FALSE,FALSE,FALSE,FALSE,FALSE,,TRUE,Normal,,100,1024,1024,1315,1024,2,FALSE,FALSE,FALSE,FALSE,FALSE,0,FALSE,FALSE,FALSE,FALSE,72,7.788,1532,2138,7.791,FALSE,3.897,3.891,0.009,FALSE,FALSE,NA,111.7,111.7,111.7,0,1,0,0,5,2817.1,704.29,,Idle,0,20,FALSE,5,TRUE,5,Go Home,FALSE,FALSE,FALSE,FALSE,FALSE,FALSE,FALSE,FALSE,FALSE,FALSE,FALSE,FALSE,6.974262977,79.9140296,1.6,139.3,328,TRUE,1,1,FALSE,FALSE,FALSE,FALSE,,TRUE,FALSE,FALSE,Course Lock,246,,16.4,Calm,25,,1.12.8,Mavic Mini,1SDCH7G0169R0K,1SFLH6Q0AB03DJ,1SRCH7F014TAHX,1U5X071EXP6C9Y,94.9,0.3,9.8,6.487126,2.908022,0,0,Mavic Mini,1SDCH7G0169R0K,1SFLH6Q0AB03DJ,1SRCH7F014TAHX,1U5X071EXP6C9Y,DJI Fly,,1.12.8,6AF2A7B6-42BF-DC87-EC9E-DA67D17F2D77,1SDCH7G0169R0K,,,,,6.97422829,79.91399439,5,,
2/14/2024,18:55.6,5m 59.7s,359.7,6.974260358,79.91402599,0,0,0.3,50,0.5,0,0,0,0,0,0,0,0,-2.5,-0.5,-48.7,311.3,,Manual Takeoff,Other,Takeoff (RC Assisted),14,5,TRUE,,Mavic Mini,TRUE,FALSE,,Smart,RC,TRUE,TRUE,FALSE,,,TRUE,,FALSE,FALSE,FALSE,FALSE,FALSE,FALSE,FALSE,FALSE,FALSE,FALSE,0,Follow Yaw,0,0,-37.7,322.3,FALSE,FALSE,FALSE,FALSE,FALSE,FALSE,,TRUE,Normal,,100,1024,1024,1364,1024,2,FALSE,FALSE,FALSE,FALSE,FALSE,0,FALSE,FALSE,FALSE,FALSE,72,7.788,1532,2138,7.791,FALSE,3.897,3.891,0.009,FALSE,FALSE,NA,111.7,111.7,111.7,0,1,0,0,5,2817.1,704.29,,Idle,0,20,FALSE,5,TRUE,5,Go Home,FALSE,FALSE,FALSE,FALSE,FALSE,FALSE,FALSE,FALSE,FALSE,FALSE,FALSE,FALSE,6.974262977,79.9140296,1.6,139.3,328,TRUE,1,1,FALSE,FALSE,FALSE,FALSE,,TRUE,FALSE,FALSE,Course Lock,246,,16.4,Calm,25,,1.12.8,Mavic Mini,1SDCH7G0169R0K,1SFLH6Q0AB03DJ,1SRCH7F014TAHX,1U5X071EXP6C9Y,94.9,0.3,9.8,6.487126,2.908022,0,0,Mavic Mini,1SDCH7G0169R0K,1SFLH6Q0AB03DJ,1SRCH7F014TAHX,1U5X071EXP6C9Y,DJI Fly,,1.12.8,6AF2A7B6-42BF-DC87-EC9E-DA67D17F2D77,1SDCH7G0169R0K,,,,,6.97422829,79.91399439,5,,
2/14/2024,18:55.7,5m 59.8s,359.8,6.974260356,79.91402598,0,0,0.3,50,0.5,0,0,0,0,0,0,0,0,-2.6,-0.5,-48.7,311.3,,Manual Takeoff,Other,Takeoff (RC Assisted),15,5,TRUE,,Mavic Mini,TRUE,FALSE,,Smart,RC,TRUE,TRUE,FALSE,,,TRUE,,FALSE,FALSE,FALSE,FALSE,FALSE,FALSE,FALSE,FALSE,FALSE,FALSE,0,Follow Yaw,0,0,-37.7,322.3,FALSE,FALSE,FALSE,FALSE,FALSE,FALSE,,TRUE,Normal,,100,1024,1024,1464,1024,2,FALSE,FALSE,FALSE,FALSE,FALSE,0,FALSE,FALSE,FALSE,FALSE,72,7.787,1532,2138,7.791,FALSE,3.896,3.891,0.009,FALSE,FALSE,NA,111.7,111.7,111.7,0,1,0,0,5,2817.1,704.29,,Idle,0,20,FALSE,5,TRUE,5,Go Home,FALSE,FALSE,FALSE,FALSE,FALSE,FALSE,FALSE,FALSE,FALSE,FALSE,FALSE,FALSE,6.974262977,79.9140296,1.6,139.3,328,TRUE,1,1,FALSE,FALSE,FALSE,FALSE,,TRUE,FALSE,FALSE,Course Lock,246,,16.4,Calm,25,,1.12.8,Mavic Mini,1SDCH7G0169R0K,1SFLH6Q0AB03DJ,1SRCH7F014TAHX,1U5X071EXP6C9Y,94.9,0.3,9.8,6.487126,2.908022,0,0,Mavic Mini,1SDCH7G0169R0K,1SFLH6Q0AB03DJ,1SRCH7F014TAHX,1U5X071EXP6C9Y,DJI Fly,,1.12.8,6AF2A7B6-42BF-DC87-EC9E-DA67D17F2D77,1SDCH7G0169R0K,,,,,6.97422829,79.91399439,5,,
2/14/2024,18:55.8,5m 59.9s,359.9,6.974260405,79.91402598,0,0,0.3,50,0.6,0,0,0,0,0,0,0,0,-2.5,-0.6,-48.8,311.2,,Manual Takeoff,Other,Takeoff (RC Assisted),15,5,TRUE,,Mavic Mini,TRUE,FALSE,,Smart,RC,TRUE,TRUE,FALSE,,,TRUE,,FALSE,FALSE,FALSE,FALSE,FALSE,FALSE,FALSE,FALSE,FALSE,FALSE,0,Follow Yaw,0,0,-37.7,322.3,FALSE,FALSE,FALSE,FALSE,FALSE,FALSE,,TRUE,Normal,,100,1024,1024,1481,1024,2,FALSE,FALSE,FALSE,FALSE,FALSE,0,FALSE,FALSE,FALSE,FALSE,72,7.787,1532,2138,7.791,FALSE,3.896,3.891,0.009,FALSE,FALSE,NA,111.7,111.7,111.7,0,1,0,0,5,2817.1,704.29,,Idle,0,20,FALSE,5,TRUE,5,Go Home,FALSE,FALSE,FALSE,FALSE,FALSE,FALSE,FALSE,FALSE,FALSE,FALSE,FALSE,FALSE,6.974262977,79.9140296,1.6,139.3,328,TRUE,1,1,FALSE,FALSE,FALSE,FALSE,,TRUE,FALSE,FALSE,Course Lock,246,,16.4,Calm,25,,1.12.8,Mavic Mini,1SDCH7G0169R0K,1SFLH6Q0AB03DJ,1SRCH7F014TAHX,1U5X071EXP6C9Y,94.9,0.3,9.8,6.487126,2.908022,0,0,Mavic Mini,1SDCH7G0169R0K,1SFLH6Q0AB03DJ,1SRCH7F014TAHX,1U5X071EXP6C9Y,DJI Fly,,1.12.8,6AF2A7B6-42BF-DC87-EC9E-DA67D17F2D77,1SDCH7G0169R0K,,,,,6.97422829,79.91399439,5,,
2/14/2024,18:55.9,6m 0.0s,360,6.974260455,79.91402597,0,0,0.3,50,0.6,0,0,0,0,0,0,0,0,-2.6,-0.6,-49,311,,Manual Takeoff,Other,Takeoff (RC Assisted),15,5,TRUE,,Mavic Mini,TRUE,FALSE,,Smart,RC,TRUE,TRUE,FALSE,,,TRUE,,FALSE,FALSE,FALSE,FALSE,FALSE,FALSE,FALSE,FALSE,FALSE,FALSE,0,Follow Yaw,0,0,-37.7,322.3,FALSE,FALSE,FALSE,FALSE,FALSE,FALSE,,TRUE,Normal,,100,1024,1024,1550,1024,2,FALSE,FALSE,FALSE,FALSE,FALSE,0,FALSE,FALSE,FALSE,FALSE,72,7.787,1532,2138,7.791,FALSE,3.896,3.891,0.009,FALSE,FALSE,NA,111.7,111.7,111.7,0,1,0,0,5,2817.1,704.29,,Idle,0,20,FALSE,5,TRUE,5,Go Home,FALSE,FALSE,FALSE,FALSE,FALSE,FALSE,FALSE,FALSE,FALSE,FALSE,FALSE,FALSE,6.974262977,79.9140296,1.6,139.3,328,TRUE,1,1,FALSE,FALSE,FALSE,FALSE,,TRUE,FALSE,FALSE,Course Lock,246,,16.4,Calm,25,,1.12.8,Mavic Mini,1SDCH7G0169R0K,1SFLH6Q0AB03DJ,1SRCH7F014TAHX,1U5X071EXP6C9Y,94.9,0.3,9.8,6.487126,2.908022,0,0,Mavic Mini,1SDCH7G0169R0K,1SFLH6Q0AB03DJ,1SRCH7F014TAHX,1U5X071EXP6C9Y,DJI Fly,,1.12.8,6AF2A7B6-42BF-DC87-EC9E-DA67D17F2D77,1SDCH7G0169R0K,,,,,6.97422829,79.91399439,5,,
2/14/2024,18:56.0,6m 0.1s,360.1,6.974260432,79.91402588,0,0,0.3,50,0.6,0,0,0,0,0,0,0,0,-2.6,-0.6,-49,311,,Manual Takeoff,Other,Takeoff (RC Assisted),15,5,TRUE,,Mavic Mini,TRUE,FALSE,,Smart,RC,TRUE,TRUE,FALSE,,,TRUE,,FALSE,FALSE,FALSE,FALSE,FALSE,FALSE,FALSE,FALSE,FALSE,FALSE,0,Follow Yaw,0,0,-37.7,322.3,FALSE,FALSE,FALSE,FALSE,FALSE,FALSE,,TRUE,Normal,,100,1024,1024,1572,1024,2,FALSE,FALSE,FALSE,FALSE,FALSE,0,FALSE,FALSE,FALSE,FALSE,72,7.787,1532,2138,7.791,FALSE,3.896,3.891,0.009,FALSE,FALSE,NA,111.7,111.7,111.7,0,1,0,0,5,2817.1,704.29,,Idle,0,20,FALSE,5,TRUE,5,Go Home,FALSE,FALSE,FALSE,FALSE,FALSE,FALSE,FALSE,FALSE,FALSE,FALSE,FALSE,FALSE,6.974262977,79.9140296,1.6,139.3,328,TRUE,1,1,FALSE,FALSE,FALSE,FALSE,,TRUE,FALSE,FALSE,Course Lock,246,,16.4,Calm,25,,1.12.8,Mavic Mini,1SDCH7G0169R0K,1SFLH6Q0AB03DJ,1SRCH7F014TAHX,1U5X071EXP6C9Y,94.9,0.3,9.8,6.487126,2.908022,0,0,Mavic Mini,1SDCH7G0169R0K,1SFLH6Q0AB03DJ,1SRCH7F014TAHX,1U5X071EXP6C9Y,DJI Fly,,1.12.8,6AF2A7B6-42BF-DC87-EC9E-DA67D17F2D77,1SDCH7G0169R0K,,,,,6.974226614,79.9140011,5,,
2/14/2024,18:56.1,6m 0.2s,360.2,6.974260434,79.91402581,0,0,0.3,50,0.6,0,0,0,0,0,0,0,0,-3.1,-0.1,-49,311,,Manual Takeoff,Other,Takeoff (RC Assisted),15,5,TRUE,,Mavic Mini,TRUE,FALSE,,Smart,RC,TRUE,TRUE,FALSE,,,TRUE,,FALSE,FALSE,FALSE,FALSE,FALSE,FALSE,FALSE,FALSE,FALSE,FALSE,0,Follow Yaw,0,0,-37.7,322.3,FALSE,FALSE,FALSE,FALSE,FALSE,FALSE,,TRUE,Normal,,100,1024,1024,1584,1024,2,FALSE,FALSE,FALSE,FALSE,FALSE,0,FALSE,FALSE,FALSE,FALSE,72,7.787,1532,2138,7.755,FALSE,3.896,3.891,0.009,FALSE,FALSE,NA,111.7,111.7,111.7,0,1,0,0,5,2988.3,747.09,,Idle,0,20,FALSE,5,TRUE,5,Go Home,FALSE,FALSE,FALSE,FALSE,FALSE,FALSE,FALSE,FALSE,FALSE,FALSE,FALSE,FALSE,6.974262977,79.9140296,1.6,139.3,328,TRUE,1,1,FALSE,FALSE,FALSE,FALSE,,TRUE,FALSE,FALSE,Course Lock,246,,16.4,Calm,25,,1.12.8,Mavic Mini,1SDCH7G0169R0K,1SFLH6Q0AB03DJ,1SRCH7F014TAHX,1U5X071EXP6C9Y,94.9,0.3,9.8,6.487126,2.908022,0,0,Mavic Mini,1SDCH7G0169R0K,1SFLH6Q0AB03DJ,1SRCH7F014TAHX,1U5X071EXP6C9Y,DJI Fly,,1.12.8,6AF2A7B6-42BF-DC87-EC9E-DA67D17F2D77,1SDCH7G0169R0K,,,,,6.974226614,79.9140011,5,,
2/14/2024,18:56.2,6m 0.3s,360.3,6.97426052,79.91402574,0,0,0.3,50,0.7,0.223694,0.223694,0.223694,0.223694,0,0,0,0,-3.6,-1,-48.9,311.1,326.7,Manual Takeoff,Other,Takeoff (RC Assisted),15,5,TRUE,,Mavic Mini,TRUE,FALSE,,Smart,RC,TRUE,TRUE,FALSE,,,TRUE,,FALSE,FALSE,FALSE,FALSE,FALSE,FALSE,FALSE,FALSE,FALSE,FALSE,0,Follow Yaw,0,0,-37.7,322.3,FALSE,FALSE,FALSE,FALSE,FALSE,FALSE,,TRUE,Normal,,100,1024,1024,1584,1024,2,FALSE,FALSE,FALSE,FALSE,FALSE,0,FALSE,FALSE,FALSE,FALSE,72,7.787,1532,2138,7.755,FALSE,3.896,3.891,0.009,FALSE,FALSE,NA,111.7,111.7,111.7,0,1,0,0,5,2988.3,747.09,,Idle,0,20,FALSE,5,TRUE,5,Go Home,FALSE,FALSE,FALSE,FALSE,FALSE,FALSE,FALSE,FALSE,FALSE,FALSE,FALSE,FALSE,6.974262977,79.9140296,1.6,139.3,328,TRUE,1,1,FALSE,FALSE,FALSE,FALSE,,TRUE,FALSE,FALSE,Course Lock,246,,16.4,Calm,25,,1.12.8,Mavic Mini,1SDCH7G0169R0K,1SFLH6Q0AB03DJ,1SRCH7F014TAHX,1U5X071EXP6C9Y,94.9,0.3,9.8,6.487126,2.908022,0,0,Mavic Mini,1SDCH7G0169R0K,1SFLH6Q0AB03DJ,1SRCH7F014TAHX,1U5X071EXP6C9Y,DJI Fly,,1.12.8,6AF2A7B6-42BF-DC87-EC9E-DA67D17F2D77,1SDCH7G0169R0K,,,,,6.974226614,79.9140011,5,,
2/14/2024,18:56.3,6m 0.4s,360.4,6.974260691,79.9140256,0,0,0.3,50,0.8,0.500194,0.500194,0.447388,0.447388,-0.223694,0,-0.223694,0,-3,0,-49.3,310.7,328.3,Tripod,Other,,15,5,TRUE,,Mavic Mini,TRUE,FALSE,,Smart,RC,FALSE,TRUE,FALSE,,,TRUE,,FALSE,FALSE,FALSE,FALSE,FALSE,FALSE,FALSE,FALSE,FALSE,FALSE,0,Follow Yaw,0,0,-37.7,322.3,FALSE,FALSE,FALSE,FALSE,FALSE,FALSE,,TRUE,Normal,,100,1024,1024,1576,1024,2,FALSE,FALSE,FALSE,FALSE,FALSE,0,FALSE,FALSE,FALSE,FALSE,72,7.787,1532,2138,7.755,FALSE,3.896,3.891,0.009,FALSE,FALSE,NA,111.7,111.7,111.7,0,1,0,0,5,2988.3,747.09,,Idle,0,20,FALSE,5,TRUE,5,Go Home,FALSE,FALSE,FALSE,FALSE,FALSE,FALSE,FALSE,FALSE,FALSE,FALSE,FALSE,FALSE,6.974262977,79.9140296,1.6,139.3,328,TRUE,1,1,FALSE,FALSE,FALSE,FALSE,,TRUE,FALSE,FALSE,Course Lock,246,,16.4,Calm,25,,1.12.8,Mavic Mini,1SDCH7G0169R0K,1SFLH6Q0AB03DJ,1SRCH7F014TAHX,1U5X071EXP6C9Y,94.9,0.3,9.8,6.487126,2.908022,0,0,Mavic Mini,1SDCH7G0169R0K,1SFLH6Q0AB03DJ,1SRCH7F014TAHX,1U5X071EXP6C9Y,DJI Fly,,1.12.8,6AF2A7B6-42BF-DC87-EC9E-DA67D17F2D77,1SDCH7G0169R0K,,,,,6.974226614,79.9140011,5,Flight mode changed to Tripod.,
2/14/2024,18:56.4,6m 0.5s,360.5,6.974260803,79.91402549,0,0,0.3,50,0.8,0.707382,0.707382,0.671082,0.671082,-0.223694,0,-0.671082,0,2.2,-0.9,-49.4,310.6,322.7,Tripod,Other,,15,5,TRUE,,Mavic Mini,TRUE,FALSE,,Smart,RC,FALSE,TRUE,FALSE,,,TRUE,,FALSE,FALSE,FALSE,FALSE,FALSE,FALSE,FALSE,FALSE,FALSE,FALSE,0,Follow Yaw,0,0,-37.7,322.3,FALSE,FALSE,FALSE,FALSE,FALSE,FALSE,,TRUE,Normal,,100,1024,1024,1576,1024,2,FALSE,FALSE,FALSE,FALSE,FALSE,0,FALSE,FALSE,FALSE,FALSE,72,7.787,1532,2138,7.755,FALSE,3.896,3.891,0.009,FALSE,FALSE,NA,111.7,111.7,111.7,0,1,0,0,5,2988.3,747.09,,Idle,0,20,FALSE,5,TRUE,5,Go Home,FALSE,FALSE,FALSE,FALSE,FALSE,FALSE,FALSE,FALSE,FALSE,FALSE,FALSE,FALSE,6.974262977,79.9140296,1.6,139.3,328,TRUE,1,1,FALSE,FALSE,FALSE,FALSE,,TRUE,FALSE,FALSE,Course Lock,246,,16.4,Calm,25,,1.12.8,Mavic Mini,1SDCH7G0169R0K,1SFLH6Q0AB03DJ,1SRCH7F014TAHX,1U5X071EXP6C9Y,94.9,0.3,9.8,6.487126,2.908022,0,0,Mavic Mini,1SDCH7G0169R0K,1SFLH6Q0AB03DJ,1SRCH7F014TAHX,1U5X071EXP6C9Y,DJI Fly,,1.12.8,6AF2A7B6-42BF-DC87-EC9E-DA67D17F2D77,1SDCH7G0169R0K,,,,,6.974226614,79.9140011,5,,
2/14/2024,18:56.4,6m 0.6s,360.6,6.974261056,79.91402531,0.3,0.3,0.6,50,0.9,0.707382,0.707382,0.671082,0.671082,-0.223694,0,-1.11847,0,3.9,-1.7,-49.1,310.9,331.2,Tripod,Other,,15,5,TRUE,,Mavic Mini,TRUE,FALSE,,Smart,RC,FALSE,TRUE,FALSE,,,TRUE,,FALSE,FALSE,FALSE,FALSE,FALSE,FALSE,FALSE,FALSE,FALSE,FALSE,0,Follow Yaw,0,0,-37.7,322.3,FALSE,FALSE,FALSE,FALSE,FALSE,FALSE,,TRUE,Normal,,100,1024,1024,1578,1024,2,FALSE,FALSE,FALSE,FALSE,FALSE,0,FALSE,FALSE,FALSE,FALSE,72,7.787,1532,2138,7.755,FALSE,3.896,3.891,0.009,FALSE,FALSE,NA,111.7,111.7,111.7,0,1,0,0,5,2988.3,747.09,,Idle,0,20,FALSE,5,TRUE,5,Go Home,FALSE,FALSE,FALSE,FALSE,FALSE,FALSE,FALSE,FALSE,FALSE,FALSE,FALSE,FALSE,6.974262977,79.9140296,1.7,139.3,328,TRUE,1,1,FALSE,FALSE,FALSE,FALSE,,TRUE,FALSE,FALSE,Course Lock,246,,16.4,Calm,25,,1.12.8,Mavic Mini,1SDCH7G0169R0K,1SFLH6Q0AB03DJ,1SRCH7F014TAHX,1U5X071EXP6C9Y,94.9,0.3,9.8,6.487126,2.908022,0,0,Mavic Mini,1SDCH7G0169R0K,1SFLH6Q0AB03DJ,1SRCH7F014TAHX,1U5X071EXP6C9Y,DJI Fly,,1.12.8,6AF2A7B6-42BF-DC87-EC9E-DA67D17F2D77,1SDCH7G0169R0K,,,,,6.974226614,79.9140011,5,,
2/14/2024,18:56.6,6m 0.7s,360.7,6.974261359,79.91402513,0.3,0.3,0.6,50,1.1,0.707382,0.707382,0.671082,0.671082,-0.223694,0,-1.565858,0,4.3,-2,-49,311,335.1,Tripod,Other,,15,5,TRUE,,Mavic Mini,TRUE,FALSE,,Smart,RC,FALSE,TRUE,FALSE,,,TRUE,,FALSE,FALSE,FALSE,FALSE,FALSE,FALSE,FALSE,FALSE,FALSE,FALSE,0,Follow Yaw,0,0,-37.7,322.3,FALSE,FALSE,FALSE,FALSE,FALSE,FALSE,,TRUE,Normal,,100,1024,1024,1578,1024,2,FALSE,FALSE,FALSE,FALSE,FALSE,0,FALSE,FALSE,FALSE,FALSE,72,7.787,1532,2138,7.755,FALSE,3.896,3.891,0.009,FALSE,FALSE,NA,111.7,111.7,111.7,0,1,0,0,5,2988.3,747.09,,Idle,0,20,FALSE,5,TRUE,5,Go Home,FALSE,FALSE,FALSE,FALSE,FALSE,FALSE,FALSE,FALSE,FALSE,FALSE,FALSE,FALSE,6.974262977,79.9140296,1.7,139.3,328,TRUE,1,1,FALSE,FALSE,FALSE,FALSE,,TRUE,FALSE,FALSE,Course Lock,246,,16.4,Calm,25,,1.12.8,Mavic Mini,1SDCH7G0169R0K,1SFLH6Q0AB03DJ,1SRCH7F014TAHX,1U5X071EXP6C9Y,94.9,0.3,9.8,6.487126,2.908022,0,0,Mavic Mini,1SDCH7G0169R0K,1SFLH6Q0AB03DJ,1SRCH7F014TAHX,1U5X071EXP6C9Y,DJI Fly,,1.12.8,6AF2A7B6-42BF-DC87-EC9E-DA67D17F2D77,1SDCH7G0169R0K,,,,,6.974226614,79.9140011,5,,
2/14/2024,18:56.6,6m 0.8s,360.8,6.974261663,79.91402496,0.6,0.6,0.9,50,1.2,0.707382,0.707382,0.671082,0.671082,-0.223694,0,-2.013246,0,4.4,-2.7,-49,311,337.1,Tripod,Other,,14,5,TRUE,,Mavic Mini,TRUE,FALSE,,Smart,RC,FALSE,TRUE,FALSE,,,TRUE,,FALSE,FALSE,FALSE,FALSE,FALSE,FALSE,FALSE,FALSE,FALSE,FALSE,0,Follow Yaw,0,0,-37.7,322.3,FALSE,FALSE,FALSE,FALSE,FALSE,FALSE,,TRUE,Normal,,100,1024,1024,1578,1024,2,FALSE,FALSE,FALSE,FALSE,FALSE,0,FALSE,FALSE,FALSE,FALSE,72,7.787,1532,2138,7.755,FALSE,3.896,3.891,0.009,FALSE,FALSE,NA,111.7,111.7,111.7,0,1,0,0,5,2988.3,747.09,,Idle,0,20,FALSE,5,TRUE,5,Go Home,FALSE,FALSE,FALSE,FALSE,FALSE,FALSE,FALSE,FALSE,FALSE,FALSE,FALSE,FALSE,6.974262977,79.9140296,1.7,139.3,328,TRUE,1,1,FALSE,FALSE,FALSE,FALSE,,TRUE,FALSE,FALSE,Course Lock,246,,16.4,Calm,25,,1.12.8,Mavic Mini,1SDCH7G0169R0K,1SFLH6Q0AB03DJ,1SRCH7F014TAHX,1U5X071EXP6C9Y,94.9,0.3,9.8,6.487126,2.908022,0,0,Mavic Mini,1SDCH7G0169R0K,1SFLH6Q0AB03DJ,1SRCH7F014TAHX,1U5X071EXP6C9Y,DJI Fly,,1.12.8,6AF2A7B6-42BF-DC87-EC9E-DA67D17F2D77,1SDCH7G0169R0K,,,,,6.974226614,79.9140011,5,,
2/14/2024,18:56.9,6m 0.9s,360.9,6.97426199,79.91402478,0.9,0.9,1.3,51,1.3,0.500194,0.707382,0.447388,0.671082,-0.223694,0,-2.23694,0,4.6,-3,-48.9,311.1,336.4,Tripod,Other,,14,5,TRUE,,Mavic Mini,TRUE,FALSE,,Smart,RC,FALSE,TRUE,FALSE,,,TRUE,,FALSE,FALSE,FALSE,FALSE,FALSE,FALSE,FALSE,FALSE,FALSE,FALSE,0,Follow Yaw,0,0,-37.7,322.3,FALSE,FALSE,FALSE,FALSE,FALSE,FALSE,,TRUE,Normal,,100,1024,1024,1607,1024,2,FALSE,FALSE,FALSE,FALSE,FALSE,0,FALSE,FALSE,FALSE,FALSE,72,7.577,1531,2138,7.755,FALSE,3.79,3.787,0.009,FALSE,FALSE,NA,111.7,111.7,111.7,0,1,0,0,5,2988.3,747.09,,Idle,0,20,FALSE,5,TRUE,5,Go Home,FALSE,FALSE,FALSE,FALSE,FALSE,FALSE,FALSE,FALSE,FALSE,FALSE,FALSE,FALSE,6.974262977,79.9140296,1.7,139.3,328,TRUE,1,1,FALSE,FALSE,FALSE,FALSE,,TRUE,FALSE,FALSE,Course Lock,246,,16.4,Calm,25,,1.12.8,Mavic Mini,1SDCH7G0169R0K,1SFLH6Q0AB03DJ,1SRCH7F014TAHX,1U5X071EXP6C9Y,94.9,0.3,9.8,6.487126,2.908022,0,0,Mavic Mini,1SDCH7G0169R0K,1SFLH6Q0AB03DJ,1SRCH7F014TAHX,1U5X071EXP6C9Y,DJI Fly,,1.12.8,6AF2A7B6-42BF-DC87-EC9E-DA67D17F2D77,1SDCH7G0169R0K,,,,,6.974226614,79.9140011,5,,
2/14/2024,18:57.0,6m 1.0s,361,6.974262518,79.91402446,1.3,1.3,1.6,51,1.5,0.500194,0.707382,0.447388,0.671082,-0.223694,0,-2.460634,0,4.5,-2.8,-48.9,311.1,335.3,Tripod,Other,,14,5,TRUE,,Mavic Mini,TRUE,FALSE,,Smart,RC,FALSE,TRUE,FALSE,,,TRUE,,FALSE,FALSE,FALSE,FALSE,FALSE,FALSE,FALSE,FALSE,FALSE,FALSE,0,Follow Yaw,0,0,-37.7,322.3,FALSE,FALSE,FALSE,FALSE,FALSE,FALSE,,TRUE,Normal,,100,1024,1024,1605,1024,2,FALSE,FALSE,FALSE,FALSE,FALSE,0,FALSE,FALSE,FALSE,FALSE,72,7.577,1531,2138,7.755,FALSE,3.79,3.787,0.009,FALSE,FALSE,NA,111.7,111.7,111.7,0,1,0,0,5,2988.3,747.09,,Idle,0,20,FALSE,5,TRUE,5,Go Home,FALSE,FALSE,FALSE,FALSE,FALSE,FALSE,FALSE,FALSE,FALSE,FALSE,FALSE,FALSE,6.974262977,79.9140296,1.8,139.3,328,TRUE,1,1,FALSE,FALSE,FALSE,FALSE,,TRUE,FALSE,FALSE,Course Lock,246,,16.4,Calm,25,,1.12.8,Mavic Mini,1SDCH7G0169R0K,1SFLH6Q0AB03DJ,1SRCH7F014TAHX,1U5X071EXP6C9Y,94.9,0.3,9.8,6.487126,2.908022,0,0,Mavic Mini,1SDCH7G0169R0K,1SFLH6Q0AB03DJ,1SRCH7F014TAHX,1U5X071EXP6C9Y,DJI Fly,,1.12.8,6AF2A7B6-42BF-DC87-EC9E-DA67D17F2D77,1SDCH7G0169R0K,,,,,6.974226614,79.9140011,5,,
2/14/2024,18:57.1,6m 1.1s,361.1,6.97426282,79.91402426,1.6,1.6,2.2,51,1.7,0.500194,0.707382,0.447388,0.671082,-0.223694,0,-2.684328,0,4.7,-2.3,-48.9,311.1,332.9,Tripod,Other,,14,5,TRUE,,Mavic Mini,TRUE,FALSE,,Smart,RC,FALSE,TRUE,FALSE,,,TRUE,,FALSE,FALSE,FALSE,FALSE,FALSE,FALSE,FALSE,FALSE,FALSE,FALSE,0,Follow Yaw,0,0,-37.7,322.3,FALSE,FALSE,FALSE,FALSE,FALSE,FALSE,,TRUE,Normal,,100,1024,1024,1604,1024,2,FALSE,FALSE,FALSE,FALSE,FALSE,0,FALSE,FALSE,FALSE,FALSE,72,7.577,1531,2138,7.755,FALSE,3.79,3.787,0.009,FALSE,FALSE,NA,111.7,111.7,111.7,0,1,0,0,5,2988.3,747.09,,Idle,0,20,FALSE,5,TRUE,5,Go Home,FALSE,FALSE,FALSE,FALSE,FALSE,FALSE,FALSE,FALSE,FALSE,FALSE,FALSE,FALSE,6.974262977,79.9140296,1.9,139.3,328,TRUE,1,1,FALSE,FALSE,FALSE,FALSE,,TRUE,FALSE,FALSE,Course Lock,246,,16.4,Calm,25,,1.12.8,Mavic Mini,1SDCH7G0169R0K,1SFLH6Q0AB03DJ,1SRCH7F014TAHX,1U5X071EXP6C9Y,94.9,0.3,9.8,6.487126,2.908022,0,0,Mavic Mini,1SDCH7G0169R0K,1SFLH6Q0AB03DJ,1SRCH7F014TAHX,1U5X071EXP6C9Y,DJI Fly,,1.12.8,6AF2A7B6-42BF-DC87-EC9E-DA67D17F2D77,1SDCH7G0169R0K,,,,,6.974226614,79.9140011,5,,
2/14/2024,18:57.1,6m 1.2s,361.2,6.974263116,79.91402406,2.2,2.2,2.6,52,1.8,0.316351,0.707382,0.223694,0.671082,-0.223694,0,-2.908022,0,4.7,-2.3,-48.8,311.2,331.9,Tripod,Other,,14,5,TRUE,,Mavic Mini,TRUE,FALSE,,Smart,RC,FALSE,TRUE,FALSE,,,TRUE,,FALSE,FALSE,FALSE,FALSE,FALSE,FALSE,FALSE,FALSE,FALSE,FALSE,0,Follow Yaw,0,0,-37.7,322.3,FALSE,FALSE,FALSE,FALSE,FALSE,FALSE,,TRUE,Normal,,100,1024,1024,1604,1024,2,FALSE,FALSE,FALSE,FALSE,FALSE,0,FALSE,FALSE,FALSE,FALSE,72,7.577,1531,2138,7.69,FALSE,3.79,3.787,0.009,FALSE,FALSE,NA,111.7,111.7,111.7,0,1,2,0,5,3449.1,862.28,,Idle,0,20,FALSE,5,TRUE,5,Go Home,FALSE,FALSE,FALSE,FALSE,FALSE,FALSE,FALSE,FALSE,FALSE,FALSE,FALSE,FALSE,6.97426065,79.91402563,1,139.3,328,TRUE,1,1,FALSE,FALSE,FALSE,FALSE,,TRUE,FALSE,FALSE,Course Lock,246,,16.4,Calm,25,,1.12.8,Mavic Mini,1SDCH7G0169R0K,1SFLH6Q0AB03DJ,1SRCH7F014TAHX,1U5X071EXP6C9Y,94.9,0.3,9.8,6.487126,2.908022,0,0,Mavic Mini,1SDCH7G0169R0K,1SFLH6Q0AB03DJ,1SRCH7F014TAHX,1U5X071EXP6C9Y,DJI Fly,,1.12.8,6AF2A7B6-42BF-DC87-EC9E-DA67D17F2D77,1SDCH7G0169R0K,,,,,6.974226614,79.9140011,5,Home Point Updated.,
2/14/2024,18:57.2,6m 1.3s,361.3,6.974263317,79.91402389,2.6,2.6,2.9,52,1.9,0.316351,0.707382,0.223694,0.671082,-0.223694,0,-2.908022,0,4.2,-1.8,-48.9,311.1,327.6,Tripod,Other,,14,5,TRUE,,Mavic Mini,TRUE,FALSE,,Smart,RC,FALSE,TRUE,FALSE,,,TRUE,,FALSE,FALSE,FALSE,FALSE,FALSE,FALSE,FALSE,FALSE,FALSE,FALSE,0,Follow Yaw,0,0,-37.7,322.3,FALSE,FALSE,FALSE,FALSE,FALSE,FALSE,,TRUE,Normal,,100,1024,1024,1599,1024,2,FALSE,FALSE,FALSE,FALSE,FALSE,0,FALSE,FALSE,FALSE,FALSE,72,7.577,1531,2138,7.69,FALSE,3.79,3.787,0.009,FALSE,FALSE,NA,111.7,111.7,111.7,0,1,2,0,5,3449.1,862.28,,Idle,0,20,FALSE,5,TRUE,5,Go Home,FALSE,FALSE,FALSE,FALSE,FALSE,FALSE,FALSE,FALSE,FALSE,FALSE,FALSE,FALSE,6.97426065,79.91402563,1.1,139.3,328,TRUE,1,1,FALSE,FALSE,FALSE,FALSE,,TRUE,FALSE,FALSE,Course Lock,246,,16.4,Calm,25,,1.12.8,Mavic Mini,1SDCH7G0169R0K,1SFLH6Q0AB03DJ,1SRCH7F014TAHX,1U5X071EXP6C9Y,94.9,0.3,9.8,6.487126,2.908022,0,0,Mavic Mini,1SDCH7G0169R0K,1SFLH6Q0AB03DJ,1SRCH7F014TAHX,1U5X071EXP6C9Y,DJI Fly,,1.12.8,6AF2A7B6-42BF-DC87-EC9E-DA67D17F2D77,1SDCH7G0169R0K,,,,,6.974226614,79.9140011,5,,
