CUSTOM.date [local],CUSTOM.updateTime [local],OSD.flyTime,OSD.flyTime [s],OSD.latitude,OSD.longitude,OSD.height [ft],OSD.heightMax [ft],OSD.vpsHeight [ft],OSD.altitude [ft],OSD.mileage [ft],OSD.hSpeed [MPH],OSD.hSpeedMax [MPH],OSD.xSpeed [MPH],OSD.xSpeedMax [MPH],OSD.ySpeed [MPH],OSD.ySpeedMax [MPH],OSD.zSpeed [MPH],OSD.zSpeedMax [MPH],OSD.pitch,OSD.roll,OSD.yaw,OSD.yaw [360],OSD.directionOfTravel,OSD.flycState,OSD.flycCommand,OSD.flightAction,OSD.gpsNum,OSD.gpsLevel,OSD.isGPSUsed,OSD.nonGPSCause,OSD.droneType,OSD.isSwaveWork,OSD.waveError,OSD.goHomeStatus,OSD.batteryType,OSD.ctrlDevice,OSD.isOnGround,OSD.isMotorOn,OSD.isMotorBlocked,OSD.motorStartFailedCause,OSD.motorFailReason,OSD.isImuPreheated,OSD.imuInitFailReason,OSD.isAcceletorOverRange,OSD.isBarometerDeadInAir,OSD.isCompassError,OSD.isGoHomeHeightModified,OSD.canIOCWork,OSD.isNotEnoughForce,OSD.isOutOfLimit,OSD.isPropellerCatapult,OSD.isVibrating,OSD.isVisionUsed,OSD.voltageWarning,GIMBAL.mode,GIMBAL.pitch,GIMBAL.roll,GIMBAL.yaw,GIMBAL.yaw [360],GIMBAL.isPitchAtLimit,GIMBAL.isRollAtLimit,GIMBAL.isYawAtLimit,GIMBAL.isStuck,CAMERA.isPhoto,CAMERA.isVideo,CAMERA.filename,CAMERA.sdCardIsInserted,CAMERA.sdCardState,RC.downlinkSignal,RC.uplinkSignal,RC.aileron,RC.elevator,RC.throttle,RC.rudder,RC.mode,RC.goHomeDepressed,RC.recordDepressed,RC.shutterDepressed,RC.playbackDepressed,RC.wheelDepressed,RC.wheelOffset,RC.custom1Depressed,RC.custom2Depressed,RC.custom3Depressed,RC.custom4Depressed,BATTERY.chargeLevel,BATTERY.currentPV [V],BATTERY.currentCapacity [mAh],BATTERY.fullCapacity [mAh],BATTERY.voltage [V],BATTERY.isCellVoltageEstimated,BATTERY.cellVoltage1 [V],BATTERY.cellVoltage2 [V],BATTERY.maxCellVoltageDeviation,BATTERY.isCellVoltageDeviationHigh,BATTERY.isVoltageLow,BATTERY.current [A],BATTERY.temperature [F],BATTERY.minTemperature [F],BATTERY.maxTemperature [F],BATTERY.usefulTime [s],BATTERY.goHomeTime [s],BATTERY.landTime [s],BATTERY.goHomeBattery,BATTERY.landBattery,BATTERY.safeFlyRadius,BATTERY.volumeConsume,BATTERY.status,BATTERY.goHomeStatus,BATTERY.goHomeCountdown,BATTERY.lowWarning,BATTERY.lowWarningGoHome,BATTERY.seriousLowWarning,BATTERY.seriousLowWarningLanding,BATTERY.timesCharged,MC.failSafeAction,MC.isObstacleAvoidanceEnabled,MC.isCollisionAvoidanceEnabled,MC.isRthObstacleAvoidanceEnabled,MC.isBraking,MC.isAvoidingObstacle,MC.isAvoidingActiveObstacle,MC.isAscentLimitedByObstacle,MC.isLandingConfirmationNeeded,MC.atLowAltitudeLimit,MC.atDistanceLimit,MC.atAirportAltitudeLimit,MC.atAirportBoundary,HOME.latitude,HOME.longitude,HOME.distance [ft],HOME.height [ft],HOME.heightLimit [ft],HOME.isHomeRecord,HOME.goHomeMode,HOME.aircraftHeadDirection,HOME.isDynamicHomePointEnabled,HOME.isReachedLimitDistance,HOME.isReachedLimitHeight,HOME.isCompassCalibrating,HOME.compassCalibrationState,HOME.isMultipleFlightModeEnabled,HOME.isBeginnerMode,HOME.isIOCEnabled,HOME.iocMode,HOME.goHomeHeight [ft],HOME.courseLockAngle,HOME.forceLandingHeight [ft],HOME.wind,HOME.dataRecorderFileIndex,RECOVER.appType,RECOVER.appVersion,RECOVER.aircraftName,RECOVER.aircraftSerial,RECOVER.cameraSerial,RECOVER.rcSerial,RECOVER.batterySerial,DETAILS.totalTime [s],DETAILS.totalDistance [ft],DETAILS.maxHeight [ft],DETAILS.maxHorizontalSpeed [MPH],DETAILS.maxVerticalSpeed [MPH],DETAILS.photoNum,DETAILS.videoTime [s],DETAILS.aircraftName,DETAILS.aircraftSerial,DETAILS.cameraSerial,DETAILS.rcSerial,DETAILS.batterySerial,DETAILS.appName,DETAILS.appType,DETAILS.appVersion,DETAILS.guid,SERIAL.flightController,SERIAL.camera,SERIAL.gimbal,SERIAL.rc,SERIAL.battery,APPGPS.latitude,APPGPS.longitude,APPGPS.accuracy,APP.tip,APP.warning
1/26/2024,52:06.9,17m 39.4s,1059.4,6.972922802,79.91589131,0,0,0.3,58,0,0,0,0,0,0,0,0,0,4.1,-0.5,30.5,30.5,,Starting Motors,Auto Fly,Takeoff (RC Assisted),14,5,TRUE,,Mavic Mini,FALSE,FALSE,,Smart,RC,TRUE,TRUE,FALSE,,,TRUE,,FALSE,FALSE,FALSE,FALSE,FALSE,FALSE,FALSE,FALSE,FALSE,FALSE,0,Follow Yaw,0,0,28.2,28.2,FALSE,FALSE,FALSE,FALSE,FALSE,FALSE,,TRUE,Normal,,,364,364,364,1684,1,FALSE,FALSE,FALSE,FALSE,FALSE,0,FALSE,FALSE,FALSE,FALSE,25,7.151,555,2230,7.151,FALSE,3.577,3.574,0.003,FALSE,FALSE,NA,118.2,118.2,118.2,,,,,,,,,Idle,,,TRUE,,FALSE,7,Go Home,FALSE,FALSE,FALSE,FALSE,FALSE,FALSE,FALSE,FALSE,FALSE,FALSE,FALSE,FALSE,,,,,,FALSE,,,FALSE,FALSE,FALSE,FALSE,,FALSE,FALSE,FALSE,,,,,Calm,,,1.12.6,Mavic Mini,1SDCH7G0169R0K,1SFLH6Q0AB03DJ,1SRCH7F014TAHX,1U5X071EXP5ZJG,116.8,0.1,0,1.84458,1.11847,0,0,Mavic Mini,1SDCH7G0169R0K,1SFLH6Q0AB03DJ,1SRCH7F014TAHX,1U5X071EXP5ZJG,DJI Fly,,1.12.6,7B6739DB-07BF-A90C-59EF-B17AB6C54449,1SDCH7G0169R0K,,,,,,,,Flight mode changed to Starting Motors.,
1/26/2024,34:27.6,17m 39.5s,1059.5,6.972922803,79.91589132,0,0,0.3,58,0,0,0,0,0,0,0,0,0,4.1,-0.5,30.5,30.5,,Starting Motors,Auto Fly,Takeoff (RC Assisted),14,5,TRUE,,Mavic Mini,FALSE,FALSE,,Smart,RC,TRUE,TRUE,FALSE,,,TRUE,,FALSE,FALSE,FALSE,FALSE,FALSE,FALSE,FALSE,FALSE,FALSE,FALSE,0,Follow Yaw,0,0,28.2,28.2,FALSE,FALSE,FALSE,FALSE,FALSE,FALSE,,TRUE,Normal,,100,364,364,364,1684,1,FALSE,FALSE,FALSE,FALSE,FALSE,0,FALSE,FALSE,FALSE,FALSE,25,7.151,555,2230,7.143,FALSE,3.577,3.574,0.003,FALSE,FALSE,NA,118.2,118.2,118.2,0,3,0,0,5,2872,718,,Idle,0,20,FALSE,5,TRUE,7,Go Home,FALSE,FALSE,FALSE,FALSE,FALSE,FALSE,FALSE,FALSE,FALSE,FALSE,FALSE,FALSE,6.972913644,79.91590455,5.8,,459.3,TRUE,1,1,FALSE,FALSE,FALSE,FALSE,,TRUE,FALSE,FALSE,Course Lock,131.2,52,16.4,Calm,85,,1.12.6,Mavic Mini,1SDCH7G0169R0K,1SFLH6Q0AB03DJ,1SRCH7F014TAHX,1U5X071EXP5ZJG,116.8,0.1,0,1.84458,1.11847,0,0,Mavic Mini,1SDCH7G0169R0K,1SFLH6Q0AB03DJ,1SRCH7F014TAHX,1U5X071EXP5ZJG,DJI Fly,,1.12.6,7B6739DB-07BF-A90C-59EF-B17AB6C54449,1SDCH7G0169R0K,,,,,,,,Data Recorder File Index is 85.; Set Return to Home (RTH) altitude to 40 m (131 ft).; Set maximum flight altitude to 140 m (459 ft).,
1/26/2024,34:27.6,17m 39.6s,1059.6,6.972922855,79.91589136,0,0,0.3,58,0,0,0,0,0,0,0,0,0,4.2,-0.5,30.5,30.5,,Starting Motors,Auto Fly,Takeoff (RC Assisted),14,5,TRUE,,Mavic Mini,TRUE,FALSE,,Smart,RC,TRUE,TRUE,FALSE,,,TRUE,,FALSE,FALSE,FALSE,FALSE,FALSE,FALSE,FALSE,FALSE,FALSE,FALSE,0,Follow Yaw,0,0,28.2,28.2,FALSE,FALSE,FALSE,FALSE,FALSE,FALSE,,TRUE,Normal,,100,364,364,364,1684,1,FALSE,FALSE,FALSE,FALSE,FALSE,0,FALSE,FALSE,FALSE,FALSE,25,7.151,555,2230,7.143,FALSE,3.577,3.574,0.003,FALSE,FALSE,NA,118.2,118.2,118.2,0,3,0,0,5,2872,718,,Idle,0,20,FALSE,5,TRUE,7,Go Home,FALSE,FALSE,FALSE,FALSE,FALSE,FALSE,FALSE,FALSE,FALSE,FALSE,FALSE,FALSE,6.972913644,79.91590455,5.8,,459.3,TRUE,1,1,FALSE,FALSE,FALSE,FALSE,,TRUE,FALSE,FALSE,Course Lock,131.2,52,16.4,Calm,85,,1.12.6,Mavic Mini,1SDCH7G0169R0K,1SFLH6Q0AB03DJ,1SRCH7F014TAHX,1U5X071EXP5ZJG,116.8,0.1,0,1.84458,1.11847,0,0,Mavic Mini,1SDCH7G0169R0K,1SFLH6Q0AB03DJ,1SRCH7F014TAHX,1U5X071EXP5ZJG,DJI Fly,,1.12.6,7B6739DB-07BF-A90C-59EF-B17AB6C54449,1SDCH7G0169R0K,,,,,,,,,
1/26/2024,34:27.7,17m 39.7s,1059.7,6.9729229,79.9158914,0,0,0.3,58,0,0,0,0,0,0,0,0,0,4.2,-0.5,30.5,30.5,,Starting Motors,Auto Fly,Takeoff (RC Assisted),14,5,TRUE,,Mavic Mini,TRUE,FALSE,,Smart,RC,TRUE,TRUE,FALSE,,,TRUE,,FALSE,FALSE,FALSE,FALSE,FALSE,FALSE,FALSE,FALSE,FALSE,FALSE,0,Follow Yaw,0,0,28.2,28.2,FALSE,FALSE,FALSE,FALSE,FALSE,FALSE,,TRUE,Normal,,100,364,364,364,1684,1,FALSE,FALSE,FALSE,FALSE,FALSE,0,FALSE,FALSE,FALSE,FALSE,25,7.151,555,2230,7.143,FALSE,3.577,3.574,0.003,FALSE,FALSE,NA,118.2,118.2,118.2,0,3,0,0,5,2872,718,,Idle,0,20,FALSE,5,TRUE,7,Go Home,FALSE,FALSE,FALSE,FALSE,FALSE,FALSE,FALSE,FALSE,FALSE,FALSE,FALSE,FALSE,6.972913644,79.91590455,5.8,,459.3,TRUE,1,1,FALSE,FALSE,FALSE,FALSE,,TRUE,FALSE,FALSE,Course Lock,131.2,52,16.4,Calm,85,,1.12.6,Mavic Mini,1SDCH7G0169R0K,1SFLH6Q0AB03DJ,1SRCH7F014TAHX,1U5X071EXP5ZJG,116.8,0.1,0,1.84458,1.11847,0,0,Mavic Mini,1SDCH7G0169R0K,1SFLH6Q0AB03DJ,1SRCH7F014TAHX,1U5X071EXP5ZJG,DJI Fly,,1.12.6,7B6739DB-07BF-A90C-59EF-B17AB6C54449,1SDCH7G0169R0K,,,,,,,,,
1/26/2024,34:27.8,17m 39.8s,1059.8,6.972922867,79.9158914,0,0,0.3,58,0,0,0,0,0,0,0,0,0,4.1,-0.5,30.5,30.5,,Starting Motors,Auto Fly,Takeoff (RC Assisted),14,5,TRUE,,Mavic Mini,TRUE,FALSE,,Smart,RC,TRUE,TRUE,FALSE,,,TRUE,,FALSE,FALSE,FALSE,FALSE,FALSE,FALSE,FALSE,FALSE,FALSE,FALSE,0,Follow Yaw,0,0,28.2,28.2,FALSE,FALSE,FALSE,FALSE,FALSE,FALSE,,TRUE,Normal,,100,364,364,364,1684,1,FALSE,FALSE,FALSE,FALSE,FALSE,0,FALSE,FALSE,FALSE,FALSE,25,7.151,555,2230,7.143,FALSE,3.577,3.574,0.003,FALSE,FALSE,NA,118.2,118.2,118.2,0,3,0,0,5,2872,718,,Idle,0,20,FALSE,5,TRUE,7,Go Home,FALSE,FALSE,FALSE,FALSE,FALSE,FALSE,FALSE,FALSE,FALSE,FALSE,FALSE,FALSE,6.972913644,79.91590455,5.8,,459.3,TRUE,1,1,FALSE,FALSE,FALSE,FALSE,,TRUE,FALSE,FALSE,Course Lock,131.2,52,16.4,Calm,85,,1.12.6,Mavic Mini,1SDCH7G0169R0K,1SFLH6Q0AB03DJ,1SRCH7F014TAHX,1U5X071EXP5ZJG,116.8,0.1,0,1.84458,1.11847,0,0,Mavic Mini,1SDCH7G0169R0K,1SFLH6Q0AB03DJ,1SRCH7F014TAHX,1U5X071EXP5ZJG,DJI Fly,,1.12.6,7B6739DB-07BF-A90C-59EF-B17AB6C54449,1SDCH7G0169R0K,,,,,,,,,
1/26/2024,34:27.9,17m 39.9s,1059.9,6.972922833,79.9158914,0,0,0.3,58,0,0,0,0,0,0,0,0,0,4.1,-0.5,30.5,30.5,,Starting Motors,Auto Fly,Takeoff (RC Assisted),14,5,TRUE,,Mavic Mini,TRUE,FALSE,,Smart,RC,TRUE,TRUE,FALSE,,,TRUE,,FALSE,FALSE,FALSE,FALSE,FALSE,FALSE,FALSE,FALSE,FALSE,FALSE,0,Follow Yaw,0,0,28.2,28.2,FALSE,FALSE,FALSE,FALSE,FALSE,FALSE,,TRUE,Normal,,100,364,364,364,1684,1,FALSE,FALSE,FALSE,FALSE,FALSE,0,FALSE,FALSE,FALSE,FALSE,25,7.151,555,2230,7.143,FALSE,3.577,3.574,0.003,FALSE,FALSE,NA,118.2,118.2,118.2,0,3,0,0,5,2872,718,,Idle,0,20,FALSE,5,TRUE,7,Go Home,FALSE,FALSE,FALSE,FALSE,FALSE,FALSE,FALSE,FALSE,FALSE,FALSE,FALSE,FALSE,6.972913644,79.91590455,5.8,,459.3,TRUE,1,1,FALSE,FALSE,FALSE,FALSE,,TRUE,FALSE,FALSE,Course Lock,131.2,52,16.4,Calm,85,,1.12.6,Mavic Mini,1SDCH7G0169R0K,1SFLH6Q0AB03DJ,1SRCH7F014TAHX,1U5X071EXP5ZJG,116.8,0.1,0,1.84458,1.11847,0,0,Mavic Mini,1SDCH7G0169R0K,1SFLH6Q0AB03DJ,1SRCH7F014TAHX,1U5X071EXP5ZJG,DJI Fly,,1.12.6,7B6739DB-07BF-A90C-59EF-B17AB6C54449,1SDCH7G0169R0K,,,,,,,,,
1/26/2024,34:28.0,17m 40.0s,1060,6.972922866,79.91589139,0,0,0.3,58,0,0,0,0,0,0,0,0,0,4.1,-0.4,30.5,30.5,,Starting Motors,Auto Fly,Takeoff (RC Assisted),14,5,TRUE,,Mavic Mini,TRUE,FALSE,,Smart,RC,TRUE,TRUE,FALSE,,,TRUE,,FALSE,FALSE,FALSE,FALSE,FALSE,FALSE,FALSE,FALSE,FALSE,FALSE,0,Follow Yaw,0,0,28.2,28.2,FALSE,FALSE,FALSE,FALSE,FALSE,FALSE,,TRUE,Normal,,100,364,364,364,1684,1,FALSE,FALSE,FALSE,FALSE,FALSE,0,FALSE,FALSE,FALSE,FALSE,25,7.151,555,2230,7.143,FALSE,3.577,3.574,0.003,FALSE,FALSE,NA,118.2,118.2,118.2,0,3,0,0,5,2872,718,,Idle,0,20,FALSE,5,TRUE,7,Go Home,FALSE,FALSE,FALSE,FALSE,FALSE,FALSE,FALSE,FALSE,FALSE,FALSE,FALSE,FALSE,6.972913644,79.91590455,5.8,,459.3,TRUE,1,1,FALSE,FALSE,FALSE,FALSE,,TRUE,FALSE,FALSE,Course Lock,131.2,52,16.4,Calm,85,,1.12.6,Mavic Mini,1SDCH7G0169R0K,1SFLH6Q0AB03DJ,1SRCH7F014TAHX,1U5X071EXP5ZJG,116.8,0.1,0,1.84458,1.11847,0,0,Mavic Mini,1SDCH7G0169R0K,1SFLH6Q0AB03DJ,1SRCH7F014TAHX,1U5X071EXP5ZJG,DJI Fly,,1.12.6,7B6739DB-07BF-A90C-59EF-B17AB6C54449,1SDCH7G0169R0K,,,,,,,,,
1/26/2024,34:28.1,17m 40.1s,1060.1,6.972922897,79.91589138,0,0,0.3,58,0,0,0,0,0,0,0,0,0,4.2,-0.5,30.5,30.5,,Starting Motors,Auto Fly,Takeoff (RC Assisted),14,5,TRUE,,Mavic Mini,TRUE,FALSE,,Smart,RC,TRUE,TRUE,FALSE,,,TRUE,,FALSE,FALSE,FALSE,FALSE,FALSE,FALSE,FALSE,FALSE,FALSE,FALSE,0,Follow Yaw,0,0,28.2,28.2,FALSE,FALSE,FALSE,FALSE,FALSE,FALSE,,TRUE,Normal,,100,547,687,364,1684,1,FALSE,FALSE,FALSE,FALSE,FALSE,0,FALSE,FALSE,FALSE,FALSE,25,7.151,555,2230,7.143,FALSE,3.577,3.574,0.003,FALSE,FALSE,NA,118.2,118.2,118.2,0,3,0,0,5,2872,718,,Idle,0,20,FALSE,5,TRUE,7,Go Home,FALSE,FALSE,FALSE,FALSE,FALSE,FALSE,FALSE,FALSE,FALSE,FALSE,FALSE,FALSE,6.972913644,79.91590455,5.8,,459.3,TRUE,1,1,FALSE,FALSE,FALSE,FALSE,,TRUE,FALSE,FALSE,Course Lock,131.2,52,16.4,Calm,85,,1.12.6,Mavic Mini,1SDCH7G0169R0K,1SFLH6Q0AB03DJ,1SRCH7F014TAHX,1U5X071EXP5ZJG,116.8,0.1,0,1.84458,1.11847,0,0,Mavic Mini,1SDCH7G0169R0K,1SFLH6Q0AB03DJ,1SRCH7F014TAHX,1U5X071EXP5ZJG,DJI Fly,,1.12.6,7B6739DB-07BF-A90C-59EF-B17AB6C54449,1SDCH7G0169R0K,,,,,,,,,
1/26/2024,34:28.2,17m 40.2s,1060.2,6.972922907,79.91589142,0,0,0.3,58,0.1,0,0,0,0,0,0,0,0,4.2,-0.5,30.5,30.5,,Starting Motors,Auto Fly,Takeoff (RC Assisted),14,5,TRUE,,Mavic Mini,TRUE,FALSE,,Smart,RC,TRUE,TRUE,FALSE,,,TRUE,,FALSE,FALSE,FALSE,FALSE,FALSE,FALSE,FALSE,FALSE,FALSE,FALSE,0,Follow Yaw,0,0,28.2,28.2,FALSE,FALSE,FALSE,FALSE,FALSE,FALSE,,TRUE,Normal,,100,547,687,364,1684,1,FALSE,FALSE,FALSE,FALSE,FALSE,0,FALSE,FALSE,FALSE,FALSE,25,7.151,555,2230,7.143,FALSE,3.577,3.574,0.003,FALSE,FALSE,NA,118.2,118.2,118.2,0,3,0,0,5,2872,718,,Idle,0,20,FALSE,5,TRUE,7,Go Home,FALSE,FALSE,FALSE,FALSE,FALSE,FALSE,FALSE,FALSE,FALSE,FALSE,FALSE,FALSE,6.972913644,79.91590455,5.8,,459.3,TRUE,1,1,FALSE,FALSE,FALSE,FALSE,,TRUE,FALSE,FALSE,Course Lock,131.2,52,16.4,Calm,85,,1.12.6,Mavic Mini,1SDCH7G0169R0K,1SFLH6Q0AB03DJ,1SRCH7F014TAHX,1U5X071EXP5ZJG,116.8,0.1,0,1.84458,1.11847,0,0,Mavic Mini,1SDCH7G0169R0K,1SFLH6Q0AB03DJ,1SRCH7F014TAHX,1U5X071EXP5ZJG,DJI Fly,,1.12.6,7B6739DB-07BF-A90C-59EF-B17AB6C54449,1SDCH7G0169R0K,,,,,,,,,
1/26/2024,34:28.3,17m 40.3s,1060.3,6.972922971,79.91589147,0,0,0.3,58,0.1,0,0,0,0,0,0,0,0,4.2,-0.5,30.5,30.5,,Starting Motors,Auto Fly,Takeoff (RC Assisted),14,5,TRUE,,Mavic Mini,TRUE,FALSE,,Smart,RC,TRUE,TRUE,FALSE,,,TRUE,,FALSE,FALSE,FALSE,FALSE,FALSE,FALSE,FALSE,FALSE,FALSE,FALSE,0,Follow Yaw,0,0,28.2,28.2,FALSE,FALSE,FALSE,FALSE,FALSE,FALSE,,TRUE,Normal,,100,1024,1024,1024,1024,1,FALSE,FALSE,FALSE,FALSE,FALSE,0,FALSE,FALSE,FALSE,FALSE,25,7.151,555,2230,7.143,FALSE,3.577,3.574,0.003,FALSE,FALSE,NA,118.2,118.2,118.2,0,3,0,0,5,2872,718,,Idle,0,20,FALSE,5,TRUE,7,Go Home,FALSE,FALSE,FALSE,FALSE,FALSE,FALSE,FALSE,FALSE,FALSE,FALSE,FALSE,FALSE,6.972913644,79.91590455,5.8,,459.3,TRUE,1,1,FALSE,FALSE,FALSE,FALSE,,TRUE,FALSE,FALSE,Course Lock,131.2,52,16.4,Calm,85,,1.12.6,Mavic Mini,1SDCH7G0169R0K,1SFLH6Q0AB03DJ,1SRCH7F014TAHX,1U5X071EXP5ZJG,116.8,0.1,0,1.84458,1.11847,0,0,Mavic Mini,1SDCH7G0169R0K,1SFLH6Q0AB03DJ,1SRCH7F014TAHX,1U5X071EXP5ZJG,DJI Fly,,1.12.6,7B6739DB-07BF-A90C-59EF-B17AB6C54449,1SDCH7G0169R0K,,,,,,,,,
1/26/2024,34:28.4,17m 40.4s,1060.4,6.972922968,79.91589148,0,0,0.3,58,0.1,0,0,0,0,0,0,0,0,4.2,-0.5,30.6,30.6,,Starting Motors,Auto Fly,Takeoff (RC Assisted),14,5,TRUE,,Mavic Mini,TRUE,FALSE,,Smart,RC,TRUE,TRUE,FALSE,,,TRUE,,FALSE,FALSE,FALSE,FALSE,FALSE,FALSE,FALSE,FALSE,FALSE,FALSE,0,Follow Yaw,0,0,28.2,28.2,FALSE,FALSE,FALSE,FALSE,FALSE,FALSE,,TRUE,Normal,,100,1024,1024,1024,1024,1,FALSE,FALSE,FALSE,FALSE,FALSE,0,FALSE,FALSE,FALSE,FALSE,25,7.151,555,2230,7.143,FALSE,3.577,3.574,0.003,FALSE,FALSE,NA,118.2,118.2,118.2,0,3,0,0,5,2872,718,,Idle,0,20,FALSE,5,TRUE,7,Go Home,FALSE,FALSE,FALSE,FALSE,FALSE,FALSE,FALSE,FALSE,FALSE,FALSE,FALSE,FALSE,6.972913644,79.91590455,5.8,,459.3,TRUE,1,1,FALSE,FALSE,FALSE,FALSE,,TRUE,FALSE,FALSE,Course Lock,131.2,52,16.4,Calm,85,,1.12.6,Mavic Mini,1SDCH7G0169R0K,1SFLH6Q0AB03DJ,1SRCH7F014TAHX,1U5X071EXP5ZJG,116.8,0.1,0,1.84458,1.11847,0,0,Mavic Mini,1SDCH7G0169R0K,1SFLH6Q0AB03DJ,1SRCH7F014TAHX,1U5X071EXP5ZJG,DJI Fly,,1.12.6,7B6739DB-07BF-A90C-59EF-B17AB6C54449,1SDCH7G0169R0K,,,,,,,,,
1/26/2024,34:28.6,17m 40.5s,1060.5,6.972922963,79.91589149,0,0,0.3,58,0.1,0,0,0,0,0,0,0,0,4.1,-0.5,30.5,30.5,,Manual Takeoff,Auto Fly,Takeoff (RC Assisted),14,5,TRUE,,Mavic Mini,TRUE,FALSE,,Smart,RC,TRUE,TRUE,FALSE,,,TRUE,,FALSE,FALSE,FALSE,FALSE,FALSE,FALSE,FALSE,FALSE,FALSE,FALSE,0,Follow Yaw,0,0,28.2,28.2,FALSE,FALSE,FALSE,FALSE,FALSE,FALSE,,TRUE,Normal,,100,1024,1024,1024,1024,1,FALSE,FALSE,FALSE,FALSE,FALSE,0,FALSE,FALSE,FALSE,FALSE,25,7.122,555,2230,7.148,FALSE,3.559,3.563,0.004,FALSE,FALSE,NA,118.2,118.2,118.2,0,3,0,0,5,2872,718,,Idle,0,20,FALSE,5,TRUE,7,Go Home,FALSE,FALSE,FALSE,FALSE,FALSE,FALSE,FALSE,FALSE,FALSE,FALSE,FALSE,FALSE,6.972913644,79.91590455,5.8,,459.3,TRUE,1,1,FALSE,FALSE,FALSE,FALSE,,TRUE,FALSE,FALSE,Course Lock,131.2,52,16.4,Calm,85,,1.12.6,Mavic Mini,1SDCH7G0169R0K,1SFLH6Q0AB03DJ,1SRCH7F014TAHX,1U5X071EXP5ZJG,116.8,0.1,0,1.84458,1.11847,0,0,Mavic Mini,1SDCH7G0169R0K,1SFLH6Q0AB03DJ,1SRCH7F014TAHX,1U5X071EXP5ZJG,DJI Fly,,1.12.6,7B6739DB-07BF-A90C-59EF-B17AB6C54449,1SDCH7G0169R0K,,,,,,,,Flight mode changed to Manual Takeoff.,
1/26/2024,34:28.7,17m 40.6s,1060.6,6.972922956,79.91589153,0,0,0.3,58,0.1,0,0,0,0,0,0,0,0,4.2,-0.5,30.6,30.6,,Manual Takeoff,Auto Fly,Takeoff (RC Assisted),14,5,TRUE,,Mavic Mini,TRUE,FALSE,,Smart,RC,TRUE,TRUE,FALSE,,,TRUE,,FALSE,FALSE,FALSE,FALSE,FALSE,FALSE,FALSE,FALSE,FALSE,FALSE,0,Follow Yaw,0,0,28.2,28.2,FALSE,FALSE,FALSE,FALSE,FALSE,FALSE,,TRUE,Normal,,100,1024,1024,1024,1024,1,FALSE,FALSE,FALSE,FALSE,FALSE,0,FALSE,FALSE,FALSE,FALSE,25,7.122,555,2230,7.148,FALSE,3.559,3.563,0.004,FALSE,FALSE,NA,118.2,118.2,118.2,0,3,0,0,5,2872,718,,Idle,0,20,FALSE,5,TRUE,7,Go Home,FALSE,FALSE,FALSE,FALSE,FALSE,FALSE,FALSE,FALSE,FALSE,FALSE,FALSE,FALSE,6.972913644,79.91590455,5.8,,459.3,TRUE,1,1,FALSE,FALSE,FALSE,FALSE,,TRUE,FALSE,FALSE,Course Lock,131.2,52,16.4,Calm,85,,1.12.6,Mavic Mini,1SDCH7G0169R0K,1SFLH6Q0AB03DJ,1SRCH7F014TAHX,1U5X071EXP5ZJG,116.8,0.1,0,1.84458,1.11847,0,0,Mavic Mini,1SDCH7G0169R0K,1SFLH6Q0AB03DJ,1SRCH7F014TAHX,1U5X071EXP5ZJG,DJI Fly,,1.12.6,7B6739DB-07BF-A90C-59EF-B17AB6C54449,1SDCH7G0169R0K,,,,,,,,,
1/26/2024,34:28.8,17m 40.7s,1060.7,6.97292291,79.91589162,0,0,0.3,58,0.1,0,0,0,0,0,0,0,0,4.2,-0.5,30.6,30.6,,Manual Takeoff,Auto Fly,Takeoff (RC Assisted),14,5,TRUE,,Mavic Mini,TRUE,FALSE,,Smart,RC,TRUE,TRUE,FALSE,,,TRUE,,FALSE,FALSE,FALSE,FALSE,FALSE,FALSE,FALSE,FALSE,FALSE,FALSE,0,Follow Yaw,0,0,28.2,28.2,FALSE,FALSE,FALSE,FALSE,FALSE,FALSE,,TRUE,Normal,,100,1024,1024,1024,1024,1,FALSE,FALSE,FALSE,FALSE,FALSE,0,FALSE,FALSE,FALSE,FALSE,25,7.122,555,2230,7.148,FALSE,3.559,3.563,0.004,FALSE,FALSE,NA,118.2,118.2,118.2,0,3,0,0,5,2872,718,,Idle,0,20,FALSE,5,TRUE,7,Go Home,FALSE,FALSE,FALSE,FALSE,FALSE,FALSE,FALSE,FALSE,FALSE,FALSE,FALSE,FALSE,6.972913644,79.91590455,5.7,,459.3,TRUE,1,1,FALSE,FALSE,FALSE,FALSE,,TRUE,FALSE,FALSE,Course Lock,131.2,52,16.4,Calm,85,,1.12.6,Mavic Mini,1SDCH7G0169R0K,1SFLH6Q0AB03DJ,1SRCH7F014TAHX,1U5X071EXP5ZJG,116.8,0.1,0,1.84458,1.11847,0,0,Mavic Mini,1SDCH7G0169R0K,1SFLH6Q0AB03DJ,1SRCH7F014TAHX,1U5X071EXP5ZJG,DJI Fly,,1.12.6,7B6739DB-07BF-A90C-59EF-B17AB6C54449,1SDCH7G0169R0K,,,,,,,,,
1/26/2024,34:28.9,17m 40.8s,1060.8,6.972922846,79.91589162,0,0,0.3,58,0.2,0,0,0,0,0,0,0,0,4.2,-0.5,30.6,30.6,,Manual Takeoff,Auto Fly,Takeoff (RC Assisted),14,5,TRUE,,Mavic Mini,TRUE,FALSE,,Smart,RC,TRUE,TRUE,FALSE,,,TRUE,,FALSE,FALSE,FALSE,FALSE,FALSE,FALSE,FALSE,FALSE,FALSE,FALSE,0,Follow Yaw,0,0,28.2,28.2,FALSE,FALSE,FALSE,FALSE,FALSE,FALSE,,TRUE,Normal,,100,1024,1024,1024,1024,1,FALSE,FALSE,FALSE,FALSE,FALSE,0,FALSE,FALSE,FALSE,FALSE,25,7.122,555,2230,7.148,FALSE,3.559,3.563,0.004,FALSE,FALSE,NA,118.2,118.2,118.2,0,3,0,0,5,2872,718,,Idle,0,20,FALSE,5,TRUE,7,Go Home,FALSE,FALSE,FALSE,FALSE,FALSE,FALSE,FALSE,FALSE,FALSE,FALSE,FALSE,FALSE,6.972913644,79.91590455,5.7,,459.3,TRUE,1,1,FALSE,FALSE,FALSE,FALSE,,TRUE,FALSE,FALSE,Course Lock,131.2,52,16.4,Calm,85,,1.12.6,Mavic Mini,1SDCH7G0169R0K,1SFLH6Q0AB03DJ,1SRCH7F014TAHX,1U5X071EXP5ZJG,116.8,0.1,0,1.84458,1.11847,0,0,Mavic Mini,1SDCH7G0169R0K,1SFLH6Q0AB03DJ,1SRCH7F014TAHX,1U5X071EXP5ZJG,DJI Fly,,1.12.6,7B6739DB-07BF-A90C-59EF-B17AB6C54449,1SDCH7G0169R0K,,,,,,,,,
1/26/2024,34:29.0,17m 40.9s,1060.9,6.972922787,79.91589163,0,0,0.3,58,0.2,0,0,0,0,0,0,0,0,4.2,-0.5,30.6,30.6,,Manual Takeoff,Auto Fly,Takeoff (RC Assisted),14,5,TRUE,,Mavic Mini,TRUE,FALSE,,Smart,RC,TRUE,TRUE,FALSE,,,TRUE,,FALSE,FALSE,FALSE,FALSE,FALSE,FALSE,FALSE,FALSE,FALSE,FALSE,0,Follow Yaw,0,0,28.2,28.2,FALSE,FALSE,FALSE,FALSE,FALSE,FALSE,,TRUE,Normal,,100,1024,1024,1024,1024,1,FALSE,FALSE,FALSE,FALSE,FALSE,0,FALSE,FALSE,FALSE,FALSE,25,7.122,555,2230,7.148,FALSE,3.559,3.563,0.004,FALSE,FALSE,NA,118.2,118.2,118.2,0,3,0,0,5,2872,718,,Idle,0,20,FALSE,5,TRUE,7,Go Home,FALSE,FALSE,FALSE,FALSE,FALSE,FALSE,FALSE,FALSE,FALSE,FALSE,FALSE,FALSE,6.972913644,79.91590455,5.7,,459.3,TRUE,1,1,FALSE,FALSE,FALSE,FALSE,,TRUE,FALSE,FALSE,Course Lock,131.2,52,16.4,Calm,85,,1.12.6,Mavic Mini,1SDCH7G0169R0K,1SFLH6Q0AB03DJ,1SRCH7F014TAHX,1U5X071EXP5ZJG,116.8,0.1,0,1.84458,1.11847,0,0,Mavic Mini,1SDCH7G0169R0K,1SFLH6Q0AB03DJ,1SRCH7F014TAHX,1U5X071EXP5ZJG,DJI Fly,,1.12.6,7B6739DB-07BF-A90C-59EF-B17AB6C54449,1SDCH7G0169R0K,,,,,,,,,
1/26/2024,34:29.1,17m 41.0s,1061,6.972922812,79.91589167,0,0,0.3,58,0.2,0,0,0,0,0,0,0,0,4.1,-0.5,30.6,30.6,,Manual Takeoff,Auto Fly,Takeoff (RC Assisted),14,5,TRUE,,Mavic Mini,TRUE,FALSE,,Smart,RC,TRUE,TRUE,FALSE,,,TRUE,,FALSE,FALSE,FALSE,FALSE,FALSE,FALSE,FALSE,FALSE,FALSE,FALSE,0,Follow Yaw,0,0,28.2,28.2,FALSE,FALSE,FALSE,FALSE,FALSE,FALSE,,TRUE,Normal,,100,1024,1024,1024,1024,1,FALSE,FALSE,FALSE,FALSE,FALSE,0,FALSE,FALSE,FALSE,FALSE,25,7.122,555,2230,7.148,FALSE,3.559,3.563,0.004,FALSE,FALSE,NA,118.2,118.2,118.2,0,3,0,0,5,2872,718,,Idle,0,20,FALSE,5,TRUE,7,Go Home,FALSE,FALSE,FALSE,FALSE,FALSE,FALSE,FALSE,FALSE,FALSE,FALSE,FALSE,FALSE,6.972913644,79.91590455,5.7,,459.3,TRUE,1,1,FALSE,FALSE,FALSE,FALSE,,TRUE,FALSE,FALSE,Course Lock,131.2,52,16.4,Calm,85,,1.12.6,Mavic Mini,1SDCH7G0169R0K,1SFLH6Q0AB03DJ,1SRCH7F014TAHX,1U5X071EXP5ZJG,116.8,0.1,0,1.84458,1.11847,0,0,Mavic Mini,1SDCH7G0169R0K,1SFLH6Q0AB03DJ,1SRCH7F014TAHX,1U5X071EXP5ZJG,DJI Fly,,1.12.6,7B6739DB-07BF-A90C-59EF-B17AB6C54449,1SDCH7G0169R0K,,,,,,,,,
1/26/2024,34:29.2,17m 41.1s,1061.1,6.972922848,79.91589173,0,0,0.3,58,0.2,0,0,0,0,0,0,0,0,4.2,-0.5,30.6,30.6,,Manual Takeoff,Auto Fly,Takeoff (RC Assisted),14,5,TRUE,,Mavic Mini,TRUE,FALSE,,Smart,RC,TRUE,TRUE,FALSE,,,TRUE,,FALSE,FALSE,FALSE,FALSE,FALSE,FALSE,FALSE,FALSE,FALSE,FALSE,0,Follow Yaw,0,0,28.2,28.2,FALSE,FALSE,FALSE,FALSE,FALSE,FALSE,,TRUE,Normal,,100,1024,1024,1047,1024,1,FALSE,FALSE,FALSE,FALSE,FALSE,0,FALSE,FALSE,FALSE,FALSE,25,7.122,555,2230,7.148,FALSE,3.559,3.563,0.004,FALSE,FALSE,NA,118.2,118.2,118.2,0,3,0,0,5,2872,718,,Idle,0,20,FALSE,5,TRUE,7,Go Home,FALSE,FALSE,FALSE,FALSE,FALSE,FALSE,FALSE,FALSE,FALSE,FALSE,FALSE,FALSE,6.972913644,79.91590455,5.7,,459.3,TRUE,1,1,FALSE,FALSE,FALSE,FALSE,,TRUE,FALSE,FALSE,Course Lock,131.2,52,16.4,Calm,85,,1.12.6,Mavic Mini,1SDCH7G0169R0K,1SFLH6Q0AB03DJ,1SRCH7F014TAHX,1U5X071EXP5ZJG,116.8,0.1,0,1.84458,1.11847,0,0,Mavic Mini,1SDCH7G0169R0K,1SFLH6Q0AB03DJ,1SRCH7F014TAHX,1U5X071EXP5ZJG,DJI Fly,,1.12.6,7B6739DB-07BF-A90C-59EF-B17AB6C54449,1SDCH7G0169R0K,,,,,,,,,
1/26/2024,34:29.3,17m 41.2s,1061.2,6.97292281,79.91589174,0,0,0.3,58,0.3,0,0,0,0,0,0,0,0,4.1,-0.5,30.6,30.6,,Manual Takeoff,Auto Fly,Takeoff (RC Assisted),14,5,TRUE,,Mavic Mini,TRUE,FALSE,,Smart,RC,TRUE,TRUE,FALSE,,,TRUE,,FALSE,FALSE,FALSE,FALSE,FALSE,FALSE,FALSE,FALSE,FALSE,FALSE,0,Follow Yaw,0,0,28.2,28.2,FALSE,FALSE,FALSE,FALSE,FALSE,FALSE,,TRUE,Normal,,100,1024,1024,1135,1024,1,FALSE,FALSE,FALSE,FALSE,FALSE,0,FALSE,FALSE,FALSE,FALSE,25,7.122,555,2230,7.148,FALSE,3.559,3.563,0.004,FALSE,FALSE,NA,118.2,118.2,118.2,0,3,0,0,5,2872,718,,Idle,0,20,FALSE,5,TRUE,7,Go Home,FALSE,FALSE,FALSE,FALSE,FALSE,FALSE,FALSE,FALSE,FALSE,FALSE,FALSE,FALSE,6.972913644,79.91590455,5.7,,459.3,TRUE,1,1,FALSE,FALSE,FALSE,FALSE,,TRUE,FALSE,FALSE,Course Lock,131.2,52,16.4,Calm,85,,1.12.6,Mavic Mini,1SDCH7G0169R0K,1SFLH6Q0AB03DJ,1SRCH7F014TAHX,1U5X071EXP5ZJG,116.8,0.1,0,1.84458,1.11847,0,0,Mavic Mini,1SDCH7G0169R0K,1SFLH6Q0AB03DJ,1SRCH7F014TAHX,1U5X071EXP5ZJG,DJI Fly,,1.12.6,7B6739DB-07BF-A90C-59EF-B17AB6C54449,1SDCH7G0169R0K,,,,,,,,,
1/26/2024,34:29.3,17m 41.3s,1061.3,6.972922776,79.91589174,0,0,0.3,58,0.3,0,0,0,0,0,0,0,0,4.1,-0.5,30.6,30.6,,Manual Takeoff,Auto Fly,Takeoff (RC Assisted),14,5,TRUE,,Mavic Mini,TRUE,FALSE,,Smart,RC,TRUE,TRUE,FALSE,,,TRUE,,FALSE,FALSE,FALSE,FALSE,FALSE,FALSE,FALSE,FALSE,FALSE,FALSE,0,Follow Yaw,0,0,28.2,28.2,FALSE,FALSE,FALSE,FALSE,FALSE,FALSE,,TRUE,Normal,,100,1024,1024,1135,1024,1,FALSE,FALSE,FALSE,FALSE,FALSE,0,FALSE,FALSE,FALSE,FALSE,25,7.122,555,2230,7.148,FALSE,3.559,3.563,0.004,FALSE,FALSE,NA,118.2,118.2,118.2,0,3,0,0,5,2872,718,,Idle,0,20,FALSE,5,TRUE,7,Go Home,FALSE,FALSE,FALSE,FALSE,FALSE,FALSE,FALSE,FALSE,FALSE,FALSE,FALSE,FALSE,6.972913644,79.91590455,5.7,,459.3,TRUE,1,1,FALSE,FALSE,FALSE,FALSE,,TRUE,FALSE,FALSE,Course Lock,131.2,52,16.4,Calm,85,,1.12.6,Mavic Mini,1SDCH7G0169R0K,1SFLH6Q0AB03DJ,1SRCH7F014TAHX,1U5X071EXP5ZJG,116.8,0.1,0,1.84458,1.11847,0,0,Mavic Mini,1SDCH7G0169R0K,1SFLH6Q0AB03DJ,1SRCH7F014TAHX,1U5X071EXP5ZJG,DJI Fly,,1.12.6,7B6739DB-07BF-A90C-59EF-B17AB6C54449,1SDCH7G0169R0K,,,,,,,,,
1/26/2024,34:29.4,17m 41.4s,1061.4,6.972922815,79.91589173,0,0,0.3,58,0.3,0,0,0,0,0,0,0,0,4.1,-0.5,30.6,30.6,,Manual Takeoff,Auto Fly,Takeoff (RC Assisted),14,5,TRUE,,Mavic Mini,TRUE,FALSE,,Smart,RC,TRUE,TRUE,FALSE,,,TRUE,,FALSE,FALSE,FALSE,FALSE,FALSE,FALSE,FALSE,FALSE,FALSE,FALSE,0,Follow Yaw,0,0,28.2,28.2,FALSE,FALSE,FALSE,FALSE,FALSE,FALSE,,TRUE,Normal,,100,1024,1024,1183,1024,1,FALSE,FALSE,FALSE,FALSE,FALSE,0,FALSE,FALSE,FALSE,FALSE,25,7.122,555,2230,7.148,FALSE,3.559,3.563,0.004,FALSE,FALSE,NA,118.2,118.2,118.2,0,3,0,0,5,2872,718,,Idle,0,20,FALSE,5,TRUE,7,Go Home,FALSE,FALSE,FALSE,FALSE,FALSE,FALSE,FALSE,FALSE,FALSE,FALSE,FALSE,FALSE,6.972913644,79.91590455,5.7,,459.3,TRUE,1,1,FALSE,FALSE,FALSE,FALSE,,TRUE,FALSE,FALSE,Course Lock,131.2,52,16.4,Calm,85,,1.12.6,Mavic Mini,1SDCH7G0169R0K,1SFLH6Q0AB03DJ,1SRCH7F014TAHX,1U5X071EXP5ZJG,116.8,0.1,0,1.84458,1.11847,0,0,Mavic Mini,1SDCH7G0169R0K,1SFLH6Q0AB03DJ,1SRCH7F014TAHX,1U5X071EXP5ZJG,DJI Fly,,1.12.6,7B6739DB-07BF-A90C-59EF-B17AB6C54449,1SDCH7G0169R0K,,,,,,,,,
1/26/2024,34:29.6,17m 41.5s,1061.5,6.972922914,79.91589166,0,0,0.3,58,0.3,0,0,0,0,0,0,0,0,4.1,-0.5,30.5,30.5,,Manual Takeoff,Auto Fly,Takeoff (RC Assisted),14,5,TRUE,,Mavic Mini,TRUE,FALSE,,Smart,RC,TRUE,TRUE,FALSE,,,TRUE,,FALSE,FALSE,FALSE,FALSE,FALSE,FALSE,FALSE,FALSE,FALSE,FALSE,0,Follow Yaw,0,0,28.2,28.2,FALSE,FALSE,FALSE,FALSE,FALSE,FALSE,,TRUE,Normal,,100,1024,1024,1215,1024,1,FALSE,FALSE,FALSE,FALSE,FALSE,0,FALSE,FALSE,FALSE,FALSE,25,7.141,555,2230,7.122,FALSE,3.572,3.569,0.004,FALSE,FALSE,NA,118.2,118.2,118.2,0,3,0,0,5,2914.6,728.65,,Idle,0,20,FALSE,5,TRUE,7,Go Home,FALSE,FALSE,FALSE,FALSE,FALSE,FALSE,FALSE,FALSE,FALSE,FALSE,FALSE,FALSE,6.972913644,79.91590455,5.7,,459.3,TRUE,1,1,FALSE,FALSE,FALSE,FALSE,,TRUE,FALSE,FALSE,Course Lock,131.2,52,16.4,Calm,85,,1.12.6,Mavic Mini,1SDCH7G0169R0K,1SFLH6Q0AB03DJ,1SRCH7F014TAHX,1U5X071EXP5ZJG,116.8,0.1,0,1.84458,1.11847,0,0,Mavic Mini,1SDCH7G0169R0K,1SFLH6Q0AB03DJ,1SRCH7F014TAHX,1U5X071EXP5ZJG,DJI Fly,,1.12.6,7B6739DB-07BF-A90C-59EF-B17AB6C54449,1SDCH7G0169R0K,,,,,6.972909775,79.9158923,5,,
1/26/2024,34:29.7,17m 41.6s,1061.6,6.972922931,79.9158917,0,0,0.3,58,0.3,0,0,0,0,0,0,0,0,4.2,-0.5,30.6,30.6,,Manual Takeoff,Auto Fly,Takeoff (RC Assisted),14,5,TRUE,,Mavic Mini,TRUE,FALSE,,Smart,RC,TRUE,TRUE,FALSE,,,TRUE,,FALSE,FALSE,FALSE,FALSE,FALSE,FALSE,FALSE,FALSE,FALSE,FALSE,0,Follow Yaw,0,0,28.2,28.2,FALSE,FALSE,FALSE,FALSE,FALSE,FALSE,,TRUE,Normal,,100,1024,1024,1217,1024,1,FALSE,FALSE,FALSE,FALSE,FALSE,0,FALSE,FALSE,FALSE,FALSE,25,7.141,554,2230,7.122,FALSE,3.572,3.569,0.004,FALSE,FALSE,NA,118.2,118.2,118.2,0,3,0,0,5,2914.6,728.65,,Idle,0,20,FALSE,5,TRUE,7,Go Home,FALSE,FALSE,FALSE,FALSE,FALSE,FALSE,FALSE,FALSE,FALSE,FALSE,FALSE,FALSE,6.972913644,79.91590455,5.7,,459.3,TRUE,1,1,FALSE,FALSE,FALSE,FALSE,,TRUE,FALSE,FALSE,Course Lock,131.2,52,16.4,Calm,85,,1.12.6,Mavic Mini,1SDCH7G0169R0K,1SFLH6Q0AB03DJ,1SRCH7F014TAHX,1U5X071EXP5ZJG,116.8,0.1,0,1.84458,1.11847,0,0,Mavic Mini,1SDCH7G0169R0K,1SFLH6Q0AB03DJ,1SRCH7F014TAHX,1U5X071EXP5ZJG,DJI Fly,,1.12.6,7B6739DB-07BF-A90C-59EF-B17AB6C54449,1SDCH7G0169R0K,,,,,6.972909775,79.9158923,5,,
1/26/2024,34:29.7,17m 41.7s,1061.7,6.972922944,79.91589174,0,0,0.3,58,0.4,0,0,0,0,0,0,0,0,4.2,-0.5,30.6,30.6,,Manual Takeoff,Auto Fly,Takeoff (RC Assisted),14,5,TRUE,,Mavic Mini,TRUE,FALSE,,Smart,RC,TRUE,TRUE,FALSE,,,TRUE,,FALSE,FALSE,FALSE,FALSE,FALSE,FALSE,FALSE,FALSE,FALSE,FALSE,0,Follow Yaw,0,0,28.2,28.2,FALSE,FALSE,FALSE,FALSE,FALSE,FALSE,,TRUE,Normal,,100,1024,1024,1209,1024,1,FALSE,FALSE,FALSE,FALSE,FALSE,0,FALSE,FALSE,FALSE,FALSE,25,7.141,554,2230,7.122,FALSE,3.572,3.569,0.004,FALSE,FALSE,NA,118.2,118.2,118.2,0,3,0,0,5,2914.6,728.65,,Idle,0,20,FALSE,5,TRUE,7,Go Home,FALSE,FALSE,FALSE,FALSE,FALSE,FALSE,FALSE,FALSE,FALSE,FALSE,FALSE,FALSE,6.972913644,79.91590455,5.7,,459.3,TRUE,1,1,FALSE,FALSE,FALSE,FALSE,,TRUE,FALSE,FALSE,Course Lock,131.2,52,16.4,Calm,85,,1.12.6,Mavic Mini,1SDCH7G0169R0K,1SFLH6Q0AB03DJ,1SRCH7F014TAHX,1U5X071EXP5ZJG,116.8,0.1,0,1.84458,1.11847,0,0,Mavic Mini,1SDCH7G0169R0K,1SFLH6Q0AB03DJ,1SRCH7F014TAHX,1U5X071EXP5ZJG,DJI Fly,,1.12.6,7B6739DB-07BF-A90C-59EF-B17AB6C54449,1SDCH7G0169R0K,,,,,6.972909775,79.9158923,5,,
1/26/2024,34:29.8,17m 41.8s,1061.8,6.972922893,79.91589175,0,0,0.3,58,0.4,0,0,0,0,0,0,0,0,4.1,-0.5,30.6,30.6,,Manual Takeoff,Auto Fly,Takeoff (RC Assisted),14,5,TRUE,,Mavic Mini,TRUE,FALSE,,Smart,RC,TRUE,TRUE,FALSE,,,TRUE,,FALSE,FALSE,FALSE,FALSE,FALSE,FALSE,FALSE,FALSE,FALSE,FALSE,0,Follow Yaw,0,0,28.2,28.2,FALSE,FALSE,FALSE,FALSE,FALSE,FALSE,,TRUE,Normal,,100,1024,1024,1191,1024,1,FALSE,FALSE,FALSE,FALSE,FALSE,0,FALSE,FALSE,FALSE,FALSE,25,7.141,554,2230,7.122,FALSE,3.572,3.569,0.004,FALSE,FALSE,NA,118.2,118.2,118.2,0,3,0,0,5,2914.6,728.65,,Idle,0,20,FALSE,5,TRUE,7,Go Home,FALSE,FALSE,FALSE,FALSE,FALSE,FALSE,FALSE,FALSE,FALSE,FALSE,FALSE,FALSE,6.972913644,79.91590455,5.7,,459.3,TRUE,1,1,FALSE,FALSE,FALSE,FALSE,,TRUE,FALSE,FALSE,Course Lock,131.2,52,16.4,Calm,85,,1.12.6,Mavic Mini,1SDCH7G0169R0K,1SFLH6Q0AB03DJ,1SRCH7F014TAHX,1U5X071EXP5ZJG,116.8,0.1,0,1.84458,1.11847,0,0,Mavic Mini,1SDCH7G0169R0K,1SFLH6Q0AB03DJ,1SRCH7F014TAHX,1U5X071EXP5ZJG,DJI Fly,,1.12.6,7B6739DB-07BF-A90C-59EF-B17AB6C54449,1SDCH7G0169R0K,,,,,6.972909775,79.9158923,5,,
1/26/2024,34:29.9,17m 41.9s,1061.9,6.972922843,79.91589176,0,0,0.3,58,0.4,0,0,0,0,0,0,0,0,4.1,-0.4,30.6,30.6,,Manual Takeoff,Auto Fly,Takeoff (RC Assisted),14,5,TRUE,,Mavic Mini,TRUE,FALSE,,Smart,RC,TRUE,TRUE,FALSE,,,TRUE,,FALSE,FALSE,FALSE,FALSE,FALSE,FALSE,FALSE,FALSE,FALSE,FALSE,0,Follow Yaw,0,0,28.2,28.2,FALSE,FALSE,FALSE,FALSE,FALSE,FALSE,,TRUE,Normal,,100,1024,1024,1178,1024,1,FALSE,FALSE,FALSE,FALSE,FALSE,0,FALSE,FALSE,FALSE,FALSE,25,7.141,554,2230,7.122,FALSE,3.572,3.569,0.004,FALSE,FALSE,NA,118.2,118.2,118.2,0,3,0,0,5,2914.6,728.65,,Idle,0,20,FALSE,5,TRUE,7,Go Home,FALSE,FALSE,FALSE,FALSE,FALSE,FALSE,FALSE,FALSE,FALSE,FALSE,FALSE,FALSE,6.972913644,79.91590455,5.7,,459.3,TRUE,1,1,FALSE,FALSE,FALSE,FALSE,,TRUE,FALSE,FALSE,Course Lock,131.2,52,16.4,Calm,85,,1.12.6,Mavic Mini,1SDCH7G0169R0K,1SFLH6Q0AB03DJ,1SRCH7F014TAHX,1U5X071EXP5ZJG,116.8,0.1,0,1.84458,1.11847,0,0,Mavic Mini,1SDCH7G0169R0K,1SFLH6Q0AB03DJ,1SRCH7F014TAHX,1U5X071EXP5ZJG,DJI Fly,,1.12.6,7B6739DB-07BF-A90C-59EF-B17AB6C54449,1SDCH7G0169R0K,,,,,6.972909775,79.9158923,5,,
1/26/2024,34:30.0,17m 42.0s,1062,6.972922735,79.91589189,0,0,0.3,58,0.5,0,0,0,0,0,0,0,0,4.1,-0.4,30.6,30.6,,Manual Takeoff,Auto Fly,Takeoff (RC Assisted),14,5,TRUE,,Mavic Mini,TRUE,FALSE,,Smart,RC,TRUE,TRUE,FALSE,,,TRUE,,FALSE,FALSE,FALSE,FALSE,FALSE,FALSE,FALSE,FALSE,FALSE,FALSE,0,Follow Yaw,0,0,28.2,28.2,FALSE,FALSE,FALSE,FALSE,FALSE,FALSE,,TRUE,Normal,,100,1024,1024,1177,1024,1,FALSE,FALSE,FALSE,FALSE,FALSE,0,FALSE,FALSE,FALSE,FALSE,25,7.141,554,2230,7.122,FALSE,3.572,3.569,0.004,FALSE,FALSE,NA,118.2,118.2,118.2,0,3,0,0,5,2914.6,728.65,,Idle,0,20,FALSE,5,TRUE,7,Go Home,FALSE,FALSE,FALSE,FALSE,FALSE,FALSE,FALSE,FALSE,FALSE,FALSE,FALSE,FALSE,6.972913644,79.91590455,5.6,,459.3,TRUE,1,1,FALSE,FALSE,FALSE,FALSE,,TRUE,FALSE,FALSE,Course Lock,131.2,52,16.4,Calm,85,,1.12.6,Mavic Mini,1SDCH7G0169R0K,1SFLH6Q0AB03DJ,1SRCH7F014TAHX,1U5X071EXP5ZJG,116.8,0.1,0,1.84458,1.11847,0,0,Mavic Mini,1SDCH7G0169R0K,1SFLH6Q0AB03DJ,1SRCH7F014TAHX,1U5X071EXP5ZJG,DJI Fly,,1.12.6,7B6739DB-07BF-A90C-59EF-B17AB6C54449,1SDCH7G0169R0K,,,,,6.972909775,79.9158923,5,,
1/26/2024,34:30.1,17m 42.1s,1062.1,6.972922715,79.91589193,0,0,0.3,58,0.5,0,0,0,0,0,0,0,0,4,-0.5,30.6,30.6,,Manual Takeoff,Auto Fly,Takeoff (RC Assisted),14,5,TRUE,,Mavic Mini,TRUE,FALSE,,Smart,RC,TRUE,TRUE,FALSE,,,TRUE,,FALSE,FALSE,FALSE,FALSE,FALSE,FALSE,FALSE,FALSE,FALSE,FALSE,0,Follow Yaw,0,0,28.2,28.2,FALSE,FALSE,FALSE,FALSE,FALSE,FALSE,,TRUE,Normal,,100,1024,1024,1174,1024,1,FALSE,FALSE,FALSE,FALSE,FALSE,0,FALSE,FALSE,FALSE,FALSE,25,7.141,554,2230,7.122,FALSE,3.572,3.569,0.004,FALSE,FALSE,NA,118.2,118.2,118.2,0,3,0,0,5,2914.6,728.65,,Idle,0,20,FALSE,5,TRUE,7,Go Home,FALSE,FALSE,FALSE,FALSE,FALSE,FALSE,FALSE,FALSE,FALSE,FALSE,FALSE,FALSE,6.972913644,79.91590455,5.6,,459.3,TRUE,1,1,FALSE,FALSE,FALSE,FALSE,,TRUE,FALSE,FALSE,Course Lock,131.2,52,16.4,Calm,85,,1.12.6,Mavic Mini,1SDCH7G0169R0K,1SFLH6Q0AB03DJ,1SRCH7F014TAHX,1U5X071EXP5ZJG,116.8,0.1,0,1.84458,1.11847,0,0,Mavic Mini,1SDCH7G0169R0K,1SFLH6Q0AB03DJ,1SRCH7F014TAHX,1U5X071EXP5ZJG,DJI Fly,,1.12.6,7B6739DB-07BF-A90C-59EF-B17AB6C54449,1SDCH7G0169R0K,,,,,6.972909775,79.9158923,5,,
1/26/2024,34:30.2,17m 42.2s,1062.2,6.972922763,79.91589194,0,0,0.3,58,0.5,0,0,0,0,0,0,0,0,2.3,-0.7,30.9,30.9,,Manual Takeoff,Auto Fly,Takeoff (RC Assisted),14,5,TRUE,,Mavic Mini,TRUE,FALSE,,Smart,RC,TRUE,TRUE,FALSE,,,TRUE,,FALSE,FALSE,FALSE,FALSE,FALSE,FALSE,FALSE,FALSE,FALSE,FALSE,0,Follow Yaw,0,0,28.3,28.3,FALSE,FALSE,FALSE,FALSE,FALSE,FALSE,,TRUE,Normal,,100,1024,1024,1174,1024,1,FALSE,FALSE,FALSE,FALSE,FALSE,0,FALSE,FALSE,FALSE,FALSE,25,7.141,554,2230,7.122,FALSE,3.572,3.569,0.004,FALSE,FALSE,NA,118.2,118.2,118.2,0,3,0,0,5,2914.6,728.65,,Idle,0,20,FALSE,5,TRUE,7,Go Home,FALSE,FALSE,FALSE,FALSE,FALSE,FALSE,FALSE,FALSE,FALSE,FALSE,FALSE,FALSE,6.972913644,79.91590455,5.6,,459.3,TRUE,1,1,FALSE,FALSE,FALSE,FALSE,,TRUE,FALSE,FALSE,Course Lock,131.2,52,16.4,Calm,85,,1.12.6,Mavic Mini,1SDCH7G0169R0K,1SFLH6Q0AB03DJ,1SRCH7F014TAHX,1U5X071EXP5ZJG,116.8,0.1,0,1.84458,1.11847,0,0,Mavic Mini,1SDCH7G0169R0K,1SFLH6Q0AB03DJ,1SRCH7F014TAHX,1U5X071EXP5ZJG,DJI Fly,,1.12.6,7B6739DB-07BF-A90C-59EF-B17AB6C54449,1SDCH7G0169R0K,,,,,6.972909775,79.9158923,5,,
1/26/2024,34:30.4,17m 42.3s,1062.3,6.97292282,79.91589194,0,0,0.3,58,0.5,0,0,0,0,0,0,0,0,-0.1,-1.2,30.3,30.3,,Manual Takeoff,Auto Fly,Takeoff (RC Assisted),14,5,TRUE,,Mavic Mini,TRUE,FALSE,,Smart,RC,TRUE,TRUE,FALSE,,,TRUE,,FALSE,FALSE,FALSE,FALSE,FALSE,FALSE,FALSE,FALSE,FALSE,FALSE,0,Follow Yaw,0,0,28.3,28.3,FALSE,FALSE,FALSE,FALSE,FALSE,FALSE,,TRUE,Normal,,100,1024,1024,1147,1024,1,FALSE,FALSE,FALSE,FALSE,FALSE,0,FALSE,FALSE,FALSE,FALSE,25,7.141,554,2230,7.122,FALSE,3.572,3.569,0.004,FALSE,FALSE,NA,118.2,118.2,118.2,0,3,0,0,5,2914.6,728.65,,Idle,0,20,FALSE,5,TRUE,7,Go Home,FALSE,FALSE,FALSE,FALSE,FALSE,FALSE,FALSE,FALSE,FALSE,FALSE,FALSE,FALSE,6.972913644,79.91590455,5.6,,459.3,TRUE,1,1,FALSE,FALSE,FALSE,FALSE,,TRUE,FALSE,FALSE,Course Lock,131.2,52,16.4,Calm,85,,1.12.6,Mavic Mini,1SDCH7G0169R0K,1SFLH6Q0AB03DJ,1SRCH7F014TAHX,1U5X071EXP5ZJG,116.8,0.1,0,1.84458,1.11847,0,0,Mavic Mini,1SDCH7G0169R0K,1SFLH6Q0AB03DJ,1SRCH7F014TAHX,1U5X071EXP5ZJG,DJI Fly,,1.12.6,7B6739DB-07BF-A90C-59EF-B17AB6C54449,1SDCH7G0169R0K,,,,,6.972909775,79.9158923,5,,
1/26/2024,34:30.5,17m 42.4s,1062.4,6.972922861,79.91589183,0,0,0.3,58,0.6,0,0,0,0,0,0,-0.223694,0,0,-2.2,28.6,28.6,,Manual Takeoff,Auto Fly,Takeoff (RC Assisted),14,5,TRUE,,Mavic Mini,TRUE,FALSE,,Smart,RC,TRUE,TRUE,FALSE,,,TRUE,,FALSE,FALSE,FALSE,FALSE,FALSE,FALSE,FALSE,FALSE,FALSE,FALSE,0,Follow Yaw,0,0,27.3,27.3,FALSE,FALSE,FALSE,FALSE,FALSE,FALSE,,TRUE,Normal,,100,1024,1024,1043,1024,1,FALSE,FALSE,FALSE,FALSE,FALSE,0,FALSE,FALSE,FALSE,FALSE,25,7.141,554,2230,7.122,FALSE,3.572,3.569,0.004,FALSE,FALSE,NA,118.2,118.2,118.2,0,3,0,0,5,2914.6,728.65,,Idle,0,20,FALSE,5,TRUE,7,Go Home,FALSE,FALSE,FALSE,FALSE,FALSE,FALSE,FALSE,FALSE,FALSE,FALSE,FALSE,FALSE,6.972913644,79.91590455,5.7,,459.3,TRUE,1,1,FALSE,FALSE,FALSE,FALSE,,TRUE,FALSE,FALSE,Course Lock,131.2,52,16.4,Calm,85,,1.12.6,Mavic Mini,1SDCH7G0169R0K,1SFLH6Q0AB03DJ,1SRCH7F014TAHX,1U5X071EXP5ZJG,116.8,0.1,0,1.84458,1.11847,0,0,Mavic Mini,1SDCH7G0169R0K,1SFLH6Q0AB03DJ,1SRCH7F014TAHX,1U5X071EXP5ZJG,DJI Fly,,1.12.6,7B6739DB-07BF-A90C-59EF-B17AB6C54449,1SDCH7G0169R0K,,,,,6.972909775,79.9158923,5,,
1/26/2024,34:30.6,17m 42.5s,1062.5,6.972922888,79.91589176,0,0,0.3,58,0.6,0.223694,0.223694,0,0,-0.223694,0,-0.447388,0,0.2,-1.7,27.5,27.5,298,P-GPS,Auto Fly,,14,5,TRUE,,Mavic Mini,TRUE,FALSE,,Smart,RC,FALSE,TRUE,FALSE,,,TRUE,,FALSE,FALSE,FALSE,FALSE,FALSE,FALSE,FALSE,FALSE,FALSE,FALSE,0,Follow Yaw,0,0,25.9,25.9,FALSE,FALSE,FALSE,FALSE,FALSE,FALSE,,TRUE,Normal,,100,1024,1024,1024,1024,1,FALSE,FALSE,FALSE,FALSE,FALSE,0,FALSE,FALSE,FALSE,FALSE,25,7.141,554,2230,7.105,FALSE,3.572,3.569,0.004,FALSE,FALSE,NA,118.2,118.2,118.2,0,0,0,0,5,3036.4,759.1,,Idle,0,20,FALSE,5,TRUE,7,Go Home,FALSE,FALSE,FALSE,FALSE,FALSE,FALSE,FALSE,FALSE,FALSE,FALSE,FALSE,FALSE,6.972922873,79.91589179,0,,459.3,TRUE,1,1,FALSE,FALSE,FALSE,FALSE,,TRUE,FALSE,FALSE,Course Lock,131.2,52,16.4,Calm,85,,1.12.6,Mavic Mini,1SDCH7G0169R0K,1SFLH6Q0AB03DJ,1SRCH7F014TAHX,1U5X071EXP5ZJG,116.8,0.1,0,1.84458,1.11847,0,0,Mavic Mini,1SDCH7G0169R0K,1SFLH6Q0AB03DJ,1SRCH7F014TAHX,1U5X071EXP5ZJG,DJI Fly,,1.12.6,7B6739DB-07BF-A90C-59EF-B17AB6C54449,1SDCH7G0169R0K,,,,,6.972909775,79.9158923,5,Home Point Updated.; Flight mode changed to P-GPS.,
1/26/2024,34:30.7,17m 42.6s,1062.6,6.972923015,79.9158917,0,0,0.3,58,0.6,0.316351,0.316351,0.223694,0.223694,-0.223694,0,-0.447388,0,-0.1,0.2,27.6,27.6,340.6,P-GPS,Auto Fly,,14,5,TRUE,,Mavic Mini,TRUE,FALSE,,Smart,RC,FALSE,TRUE,FALSE,,,TRUE,,FALSE,FALSE,FALSE,FALSE,FALSE,FALSE,FALSE,FALSE,FALSE,FALSE,0,Follow Yaw,0,0,25.8,25.8,FALSE,FALSE,FALSE,FALSE,FALSE,FALSE,,TRUE,Normal,,100,1024,1024,1024,1024,1,FALSE,FALSE,FALSE,FALSE,FALSE,0,FALSE,FALSE,FALSE,FALSE,25,7.141,554,2230,7.105,FALSE,3.572,3.569,0.004,FALSE,FALSE,NA,118.2,118.2,118.2,0,0,0,0,5,3036.4,759.1,,Idle,0,20,FALSE,5,TRUE,7,Go Home,FALSE,FALSE,FALSE,FALSE,FALSE,FALSE,FALSE,FALSE,FALSE,FALSE,FALSE,FALSE,6.972922873,79.91589179,0,,459.3,TRUE,1,1,FALSE,FALSE,FALSE,FALSE,,TRUE,FALSE,FALSE,Course Lock,131.2,52,16.4,Calm,85,,1.12.6,Mavic Mini,1SDCH7G0169R0K,1SFLH6Q0AB03DJ,1SRCH7F014TAHX,1U5X071EXP5ZJG,116.8,0.1,0,1.84458,1.11847,0,0,Mavic Mini,1SDCH7G0169R0K,1SFLH6Q0AB03DJ,1SRCH7F014TAHX,1U5X071EXP5ZJG,DJI Fly,,1.12.6,7B6739DB-07BF-A90C-59EF-B17AB6C54449,1SDCH7G0169R0K,,,,,6.972909775,79.9158923,5,,
1/26/2024,34:30.7,17m 42.7s,1062.7,6.972923151,79.91589164,0,0,0.6,58,0.7,0.223694,0.316351,0,0.223694,-0.223694,0,-0.671082,0,0.7,0.8,27.6,27.6,341.6,P-GPS,Auto Fly,,14,5,TRUE,,Mavic Mini,TRUE,FALSE,,Smart,RC,FALSE,TRUE,FALSE,,,TRUE,,FALSE,FALSE,FALSE,FALSE,FALSE,FALSE,FALSE,FALSE,FALSE,FALSE,0,Follow Yaw,0,0,25.8,25.8,FALSE,FALSE,FALSE,FALSE,FALSE,FALSE,,TRUE,Normal,,100,1024,1024,1024,1024,1,FALSE,FALSE,FALSE,FALSE,FALSE,0,FALSE,FALSE,FALSE,FALSE,25,6.999,554,2230,7.105,FALSE,3.502,3.497,0.005,FALSE,TRUE,NA,118.2,118.2,118.2,0,0,0,0,5,3036.4,759.1,,Idle,0,20,FALSE,5,TRUE,7,Go Home,FALSE,FALSE,FALSE,FALSE,FALSE,FALSE,FALSE,FALSE,FALSE,FALSE,FALSE,FALSE,6.972922873,79.91589179,0.1,,459.3,TRUE,1,1,FALSE,FALSE,FALSE,FALSE,,TRUE,FALSE,FALSE,Course Lock,131.2,52,16.4,Calm,85,,1.12.6,Mavic Mini,1SDCH7G0169R0K,1SFLH6Q0AB03DJ,1SRCH7F014TAHX,1U5X071EXP5ZJG,116.8,0.1,0,1.84458,1.11847,0,0,Mavic Mini,1SDCH7G0169R0K,1SFLH6Q0AB03DJ,1SRCH7F014TAHX,1U5X071EXP5ZJG,DJI Fly,,1.12.6,7B6739DB-07BF-A90C-59EF-B17AB6C54449,1SDCH7G0169R0K,,,,,6.972909775,79.9158923,5,,
1/26/2024,34:30.8,17m 42.8s,1062.8,6.972923206,79.91589133,0,0,0.6,58,0.8,0.223694,0.316351,0,0.223694,-0.223694,0,-0.894776,0,0.8,1.2,27.7,27.7,282.7,P-GPS,Auto Fly,,14,5,TRUE,,Mavic Mini,TRUE,FALSE,,Smart,RC,FALSE,TRUE,FALSE,,,TRUE,,FALSE,FALSE,FALSE,FALSE,FALSE,FALSE,FALSE,FALSE,FALSE,FALSE,0,Follow Yaw,0,0,25.8,25.8,FALSE,FALSE,FALSE,FALSE,FALSE,FALSE,,TRUE,Normal,,100,1024,1024,1024,1024,1,FALSE,FALSE,FALSE,FALSE,FALSE,0,FALSE,FALSE,FALSE,FALSE,25,6.999,554,2230,7.105,FALSE,3.502,3.497,0.005,FALSE,TRUE,NA,118.2,118.2,118.2,0,0,0,0,5,3036.4,759.1,,Idle,0,20,FALSE,5,TRUE,7,Go Home,FALSE,FALSE,FALSE,FALSE,FALSE,FALSE,FALSE,FALSE,FALSE,FALSE,FALSE,FALSE,6.972922873,79.91589179,0.2,,459.3,TRUE,1,1,FALSE,FALSE,FALSE,FALSE,,TRUE,FALSE,FALSE,Course Lock,131.2,52,16.4,Calm,85,,1.12.6,Mavic Mini,1SDCH7G0169R0K,1SFLH6Q0AB03DJ,1SRCH7F014TAHX,1U5X071EXP5ZJG,116.8,0.1,0,1.84458,1.11847,0,0,Mavic Mini,1SDCH7G0169R0K,1SFLH6Q0AB03DJ,1SRCH7F014TAHX,1U5X071EXP5ZJG,DJI Fly,,1.12.6,7B6739DB-07BF-A90C-59EF-B17AB6C54449,1SDCH7G0169R0K,,,,,6.972909775,79.9158923,5,,
1/26/2024,34:31.0,17m 42.9s,1062.9,6.972923264,79.91589117,0.3,0.3,0.6,58,0.9,0.223694,0.316351,0,0.223694,-0.223694,0,-0.894776,0,0.9,1.4,27.8,27.8,296.2,P-GPS,Auto Fly,,14,5,TRUE,,Mavic Mini,TRUE,FALSE,,Smart,RC,FALSE,TRUE,FALSE,,,TRUE,,FALSE,FALSE,FALSE,FALSE,FALSE,FALSE,FALSE,FALSE,FALSE,FALSE,0,Follow Yaw,0,0,25.8,25.8,FALSE,FALSE,FALSE,FALSE,FALSE,FALSE,,TRUE,Normal,,100,1024,1024,1024,1024,1,FALSE,FALSE,FALSE,FALSE,FALSE,0,FALSE,FALSE,FALSE,FALSE,25,6.999,554,2230,7.105,FALSE,3.502,3.497,0.005,FALSE,TRUE,NA,118.2,118.2,118.2,0,0,0,0,5,3036.4,759.1,,Idle,0,20,FALSE,5,TRUE,7,Go Home,FALSE,FALSE,FALSE,FALSE,FALSE,FALSE,FALSE,FALSE,FALSE,FALSE,FALSE,FALSE,6.972922873,79.91589179,0.2,,459.3,TRUE,1,1,FALSE,FALSE,FALSE,FALSE,,TRUE,FALSE,FALSE,Course Lock,131.2,52,16.4,Calm,85,,1.12.6,Mavic Mini,1SDCH7G0169R0K,1SFLH6Q0AB03DJ,1SRCH7F014TAHX,1U5X071EXP5ZJG,116.8,0.1,0,1.84458,1.11847,0,0,Mavic Mini,1SDCH7G0169R0K,1SFLH6Q0AB03DJ,1SRCH7F014TAHX,1U5X071EXP5ZJG,DJI Fly,,1.12.6,7B6739DB-07BF-A90C-59EF-B17AB6C54449,1SDCH7G0169R0K,,,,,6.972909775,79.9158923,5,,
1/26/2024,34:31.1,17m 43.0s,1063,6.972923405,79.91589103,0.3,0.3,0.9,58,0.9,0.223694,0.316351,0,0.223694,-0.223694,0,-1.11847,0,0.8,1.7,27.9,27.9,321.9,P-GPS,Auto Fly,,14,5,TRUE,,Mavic Mini,TRUE,FALSE,,Smart,RC,FALSE,TRUE,FALSE,,,TRUE,,FALSE,FALSE,FALSE,FALSE,FALSE,FALSE,FALSE,FALSE,FALSE,FALSE,0,Follow Yaw,0,0,25.8,25.8,FALSE,FALSE,FALSE,FALSE,FALSE,FALSE,,TRUE,Normal,,100,1024,1024,1024,1024,1,FALSE,FALSE,FALSE,FALSE,FALSE,0,FALSE,FALSE,FALSE,FALSE,25,6.999,554,2230,7.105,FALSE,3.502,3.497,0.005,FALSE,TRUE,NA,118.2,118.2,118.2,0,0,0,0,5,3036.4,759.1,,Idle,0,20,FALSE,5,TRUE,7,Go Home,FALSE,FALSE,FALSE,FALSE,FALSE,FALSE,FALSE,FALSE,FALSE,FALSE,FALSE,FALSE,6.972922873,79.91589179,0.3,,459.3,TRUE,1,1,FALSE,FALSE,FALSE,FALSE,,TRUE,FALSE,FALSE,Course Lock,131.2,52,16.4,Calm,85,,1.12.6,Mavic Mini,1SDCH7G0169R0K,1SFLH6Q0AB03DJ,1SRCH7F014TAHX,1U5X071EXP5ZJG,116.8,0.1,0,1.84458,1.11847,0,0,Mavic Mini,1SDCH7G0169R0K,1SFLH6Q0AB03DJ,1SRCH7F014TAHX,1U5X071EXP5ZJG,DJI Fly,,1.12.6,7B6739DB-07BF-A90C-59EF-B17AB6C54449,1SDCH7G0169R0K,,,,,6.972909775,79.9158923,5,,
1/26/2024,34:31.1,17m 43.1s,1063.1,6.972923536,79.91589091,0.6,0.6,0.9,58,1,0,0.316351,0,0.223694,0,0,-1.11847,0,1.4,1.5,27.9,27.9,,P-GPS,Auto Fly,,14,5,TRUE,,Mavic Mini,TRUE,FALSE,,Smart,RC,FALSE,TRUE,FALSE,,,TRUE,,FALSE,FALSE,FALSE,FALSE,FALSE,FALSE,FALSE,FALSE,FALSE,FALSE,0,Follow Yaw,0,0,25.8,25.8,FALSE,FALSE,FALSE,FALSE,FALSE,FALSE,,TRUE,Normal,,100,1024,1024,1024,1024,1,FALSE,FALSE,FALSE,FALSE,FALSE,0,FALSE,FALSE,FALSE,FALSE,25,6.999,554,2230,7.105,FALSE,3.502,3.497,0.005,FALSE,TRUE,NA,118.2,118.2,118.2,0,0,0,0,5,3036.4,759.1,,Idle,0,20,FALSE,5,TRUE,7,Go Home,FALSE,FALSE,FALSE,FALSE,FALSE,FALSE,FALSE,FALSE,FALSE,FALSE,FALSE,FALSE,6.972922873,79.91589179,0.3,,459.3,TRUE,1,1,FALSE,FALSE,FALSE,FALSE,,TRUE,FALSE,FALSE,Course Lock,131.2,52,16.4,Calm,85,,1.12.6,Mavic Mini,1SDCH7G0169R0K,1SFLH6Q0AB03DJ,1SRCH7F014TAHX,1U5X071EXP5ZJG,116.8,0.1,0,1.84458,1.11847,0,0,Mavic Mini,1SDCH7G0169R0K,1SFLH6Q0AB03DJ,1SRCH7F014TAHX,1U5X071EXP5ZJG,DJI Fly,,1.12.6,7B6739DB-07BF-A90C-59EF-B17AB6C54449,1SDCH7G0169R0K,,,,,6.972909775,79.9158923,5,,
1/26/2024,34:31.2,17m 43.2s,1063.2,6.972923902,79.91589093,0.9,0.9,0.9,59,1.1,0,0.316351,0,0.223694,0,0,-1.11847,0,1.3,1.1,27.9,27.9,,P-GPS,Auto Fly,,14,5,TRUE,,Mavic Mini,TRUE,FALSE,,Smart,RC,FALSE,TRUE,FALSE,,,TRUE,,FALSE,FALSE,FALSE,FALSE,FALSE,FALSE,FALSE,FALSE,FALSE,FALSE,0,Follow Yaw,0,0,25.8,25.8,FALSE,FALSE,FALSE,FALSE,FALSE,FALSE,,TRUE,Normal,,100,1024,1024,1024,1024,1,FALSE,FALSE,FALSE,FALSE,FALSE,0,FALSE,FALSE,FALSE,FALSE,25,6.999,554,2230,7.105,FALSE,3.502,3.497,0.005,FALSE,TRUE,NA,118.2,118.2,118.2,0,0,0,0,5,3036.4,759.1,,Idle,0,20,FALSE,5,TRUE,7,Go Home,FALSE,FALSE,FALSE,FALSE,FALSE,FALSE,FALSE,FALSE,FALSE,FALSE,FALSE,FALSE,6.972922873,79.91589179,0.4,,459.3,TRUE,1,1,FALSE,FALSE,FALSE,FALSE,,TRUE,FALSE,FALSE,Course Lock,131.2,52,16.4,Calm,85,,1.12.6,Mavic Mini,1SDCH7G0169R0K,1SFLH6Q0AB03DJ,1SRCH7F014TAHX,1U5X071EXP5ZJG,116.8,0.1,0,1.84458,1.11847,0,0,Mavic Mini,1SDCH7G0169R0K,1SFLH6Q0AB03DJ,1SRCH7F014TAHX,1U5X071EXP5ZJG,DJI Fly,,1.12.6,7B6739DB-07BF-A90C-59EF-B17AB6C54449,1SDCH7G0169R0K,,,,,6.972909775,79.9158923,5,Home Point updated. RTH altitude adjusted to 40 m!Xe (Code: 120852).,
1/26/2024,34:31.3,17m 43.3s,1063.3,6.97292404,79.91589095,0.9,0.9,1.3,59,1.2,0,0.316351,0,0.223694,0,0,-0.894776,0,1.2,1.3,27.9,27.9,,P-GPS,Auto Fly,,14,5,TRUE,,Mavic Mini,TRUE,FALSE,,Smart,RC,FALSE,TRUE,FALSE,,,TRUE,,FALSE,FALSE,FALSE,FALSE,FALSE,FALSE,FALSE,FALSE,FALSE,FALSE,0,Follow Yaw,0,0,25.8,25.8,FALSE,FALSE,FALSE,FALSE,FALSE,FALSE,,TRUE,Normal,,100,1024,1024,1024,1024,1,FALSE,FALSE,FALSE,FALSE,FALSE,0,FALSE,FALSE,FALSE,FALSE,25,6.999,554,2230,7.105,FALSE,3.502,3.497,0.005,FALSE,TRUE,NA,118.2,118.2,118.2,0,0,0,0,5,3036.4,759.1,,Idle,0,20,FALSE,5,TRUE,7,Go Home,FALSE,FALSE,FALSE,FALSE,FALSE,FALSE,FALSE,FALSE,FALSE,FALSE,FALSE,FALSE,6.972922873,79.91589179,0.5,,459.3,TRUE,1,1,FALSE,FALSE,FALSE,FALSE,,TRUE,FALSE,FALSE,Course Lock,131.2,52,16.4,Calm,85,,1.12.6,Mavic Mini,1SDCH7G0169R0K,1SFLH6Q0AB03DJ,1SRCH7F014TAHX,1U5X071EXP5ZJG,116.8,0.1,0,1.84458,1.11847,0,0,Mavic Mini,1SDCH7G0169R0K,1SFLH6Q0AB03DJ,1SRCH7F014TAHX,1U5X071EXP5ZJG,DJI Fly,,1.12.6,7B6739DB-07BF-A90C-59EF-B17AB6C54449,1SDCH7G0169R0K,,,,,6.972909775,79.9158923,5,,
1/26/2024,34:31.4,17m 43.4s,1063.4,6.97292406,79.91589089,1.3,1.3,1.3,59,1.2,0,0.316351,0,0.223694,0,0,-0.894776,0,1.2,1.5,27.9,27.9,,P-GPS,Auto Fly,,14,5,TRUE,,Mavic Mini,TRUE,FALSE,,Smart,RC,FALSE,TRUE,FALSE,,,TRUE,,FALSE,FALSE,FALSE,FALSE,FALSE,FALSE,FALSE,FALSE,FALSE,FALSE,0,Follow Yaw,0,0,25.8,25.8,FALSE,FALSE,FALSE,FALSE,FALSE,FALSE,,TRUE,Normal,,100,1024,1024,1024,1024,1,FALSE,FALSE,FALSE,FALSE,FALSE,0,FALSE,FALSE,FALSE,FALSE,25,6.999,554,2230,7.105,FALSE,3.502,3.497,0.005,FALSE,TRUE,NA,118.2,118.2,118.2,0,0,0,0,5,3036.4,759.1,,Idle,0,20,FALSE,5,TRUE,7,Go Home,FALSE,FALSE,FALSE,FALSE,FALSE,FALSE,FALSE,FALSE,FALSE,FALSE,FALSE,FALSE,6.972922873,79.91589179,0.5,,459.3,TRUE,1,1,FALSE,FALSE,FALSE,FALSE,,TRUE,FALSE,FALSE,Course Lock,131.2,52,16.4,Calm,85,,1.12.6,Mavic Mini,1SDCH7G0169R0K,1SFLH6Q0AB03DJ,1SRCH7F014TAHX,1U5X071EXP5ZJG,116.8,0.1,0,1.84458,1.11847,0,0,Mavic Mini,1SDCH7G0169R0K,1SFLH6Q0AB03DJ,1SRCH7F014TAHX,1U5X071EXP5ZJG,DJI Fly,,1.12.6,7B6739DB-07BF-A90C-59EF-B17AB6C54449,1SDCH7G0169R0K,,,,,6.972909775,79.9158923,5,,
1/26/2024,34:31.6,17m 43.5s,1063.5,6.972924067,79.91589083,1.3,1.3,1.6,59,1.2,0,0.316351,0,0.223694,0,0,-0.671082,0,0.7,2,27.8,27.8,,P-GPS,Auto Fly,,14,5,TRUE,,Mavic Mini,TRUE,FALSE,,Smart,RC,FALSE,TRUE,FALSE,,,TRUE,,FALSE,FALSE,FALSE,FALSE,FALSE,FALSE,FALSE,FALSE,FALSE,FALSE,0,Follow Yaw,0,0,25.8,25.8,FALSE,FALSE,FALSE,FALSE,FALSE,FALSE,,TRUE,Normal,,100,1024,1024,1024,1024,1,FALSE,FALSE,FALSE,FALSE,FALSE,0,FALSE,FALSE,FALSE,FALSE,25,6.999,554,2230,7.018,FALSE,3.502,3.497,0.005,FALSE,TRUE,NA,118.2,118.2,118.2,0,0,0,0,5,3440.7,860.18,,Idle,0,20,FALSE,5,TRUE,7,Go Home,FALSE,FALSE,FALSE,FALSE,FALSE,FALSE,FALSE,FALSE,FALSE,FALSE,FALSE,FALSE,6.972922873,79.91589179,0.5,,459.3,TRUE,1,1,FALSE,FALSE,FALSE,FALSE,,TRUE,FALSE,FALSE,Course Lock,131.2,52,16.4,Calm,85,,1.12.6,Mavic Mini,1SDCH7G0169R0K,1SFLH6Q0AB03DJ,1SRCH7F014TAHX,1U5X071EXP5ZJG,116.8,0.1,0,1.84458,1.11847,0,0,Mavic Mini,1SDCH7G0169R0K,1SFLH6Q0AB03DJ,1SRCH7F014TAHX,1U5X071EXP5ZJG,DJI Fly,,1.12.6,7B6739DB-07BF-A90C-59EF-B17AB6C54449,1SDCH7G0169R0K,,,,,6.972909775,79.9158923,5,,
1/26/2024,34:31.7,17m 43.6s,1063.6,6.972924079,79.91589077,1.3,1.3,1.6,59,1.2,0,0.316351,0,0.223694,0,0,-0.447388,0,0.6,2.1,27.8,27.8,,P-GPS,Auto Fly,,14,5,TRUE,,Mavic Mini,TRUE,FALSE,,Smart,RC,FALSE,TRUE,FALSE,,,TRUE,,FALSE,FALSE,FALSE,FALSE,FALSE,FALSE,FALSE,FALSE,FALSE,FALSE,0,Follow Yaw,0,0,25.8,25.8,FALSE,FALSE,FALSE,FALSE,FALSE,FALSE,,TRUE,Normal,,100,1024,1024,1024,1024,1,FALSE,FALSE,FALSE,FALSE,FALSE,0,FALSE,FALSE,FALSE,FALSE,25,6.999,554,2230,7.018,FALSE,3.502,3.497,0.005,FALSE,TRUE,NA,118.2,118.2,118.2,0,0,0,0,5,3440.7,860.18,,Idle,0,20,FALSE,5,TRUE,7,Go Home,FALSE,FALSE,FALSE,FALSE,FALSE,FALSE,FALSE,FALSE,FALSE,FALSE,FALSE,FALSE,6.972922873,79.91589179,0.5,,459.3,TRUE,1,1,FALSE,FALSE,FALSE,FALSE,,TRUE,FALSE,FALSE,Course Lock,131.2,52,16.4,Calm,85,,1.12.6,Mavic Mini,1SDCH7G0169R0K,1SFLH6Q0AB03DJ,1SRCH7F014TAHX,1U5X071EXP5ZJG,116.8,0.1,0,1.84458,1.11847,0,0,Mavic Mini,1SDCH7G0169R0K,1SFLH6Q0AB03DJ,1SRCH7F014TAHX,1U5X071EXP5ZJG,DJI Fly,,1.12.6,7B6739DB-07BF-A90C-59EF-B17AB6C54449,1SDCH7G0169R0K,,,,,6.972909775,79.9158923,5,,
1/26/2024,34:31.8,17m 43.7s,1063.7,6.972923941,79.91589065,1.6,1.6,1.6,59,1.3,0,0.316351,0,0.223694,0,0,-0.223694,0,0.7,1.7,27.8,27.8,,P-GPS,Auto Fly,,14,5,TRUE,,Mavic Mini,TRUE,FALSE,,Smart,RC,FALSE,TRUE,FALSE,,,TRUE,,FALSE,FALSE,FALSE,FALSE,FALSE,FALSE,FALSE,FALSE,FALSE,FALSE,0,Follow Yaw,0,0,25.8,25.8,FALSE,FALSE,FALSE,FALSE,FALSE,FALSE,,TRUE,Normal,,100,1024,1024,1024,1024,1,FALSE,FALSE,FALSE,FALSE,FALSE,0,FALSE,FALSE,FALSE,FALSE,25,6.999,554,2230,7.018,FALSE,3.502,3.497,0.005,FALSE,TRUE,NA,118.2,118.2,118.2,0,0,0,0,5,3440.7,860.18,,Idle,0,20,FALSE,5,TRUE,7,Go Home,FALSE,FALSE,FALSE,FALSE,FALSE,FALSE,FALSE,FALSE,FALSE,FALSE,FALSE,FALSE,6.972922873,79.91589179,0.5,,459.3,TRUE,1,1,FALSE,FALSE,FALSE,FALSE,,TRUE,FALSE,FALSE,Course Lock,131.2,52,16.4,Calm,85,,1.12.6,Mavic Mini,1SDCH7G0169R0K,1SFLH6Q0AB03DJ,1SRCH7F014TAHX,1U5X071EXP5ZJG,116.8,0.1,0,1.84458,1.11847,0,0,Mavic Mini,1SDCH7G0169R0K,1SFLH6Q0AB03DJ,1SRCH7F014TAHX,1U5X071EXP5ZJG,DJI Fly,,1.12.6,7B6739DB-07BF-A90C-59EF-B17AB6C54449,1SDCH7G0169R0K,,,,,6.972909775,79.9158923,5,,
1/26/2024,34:31.9,17m 43.8s,1063.8,6.972923971,79.91589079,1.6,1.6,1.6,59,1.4,0,0.316351,0,0.223694,0,0,0,0,0.9,1.2,27.8,27.8,,P-GPS,Auto Fly,,14,5,TRUE,,Mavic Mini,TRUE,FALSE,,Smart,RC,FALSE,TRUE,FALSE,,,TRUE,,FALSE,FALSE,FALSE,FALSE,FALSE,FALSE,FALSE,FALSE,FALSE,FALSE,0,Follow Yaw,0,0,25.8,25.8,FALSE,FALSE,FALSE,FALSE,FALSE,FALSE,,TRUE,Normal,,100,1024,1024,1024,1024,1,FALSE,FALSE,FALSE,FALSE,FALSE,0,FALSE,FALSE,FALSE,FALSE,25,6.999,554,2230,7.018,FALSE,3.502,3.497,0.005,FALSE,TRUE,NA,118.2,118.2,118.2,0,0,0,0,5,3440.7,860.18,,Idle,0,20,FALSE,5,TRUE,7,Go Home,FALSE,FALSE,FALSE,FALSE,FALSE,FALSE,FALSE,FALSE,FALSE,FALSE,FALSE,FALSE,6.972922873,79.91589179,0.5,,459.3,TRUE,1,1,FALSE,FALSE,FALSE,FALSE,,TRUE,FALSE,FALSE,Course Lock,131.2,52,16.4,Calm,85,,1.12.6,Mavic Mini,1SDCH7G0169R0K,1SFLH6Q0AB03DJ,1SRCH7F014TAHX,1U5X071EXP5ZJG,116.8,0.1,0,1.84458,1.11847,0,0,Mavic Mini,1SDCH7G0169R0K,1SFLH6Q0AB03DJ,1SRCH7F014TAHX,1U5X071EXP5ZJG,DJI Fly,,1.12.6,7B6739DB-07BF-A90C-59EF-B17AB6C54449,1SDCH7G0169R0K,,,,,6.972909775,79.9158923,5,,
1/26/2024,34:32.0,17m 43.9s,1063.9,6.972923995,79.91589094,1.6,1.6,1.6,59,1.4,0,0.316351,0,0.223694,0,0,0,0,1.1,0.6,27.7,27.7,,P-GPS,Auto Fly,,14,5,TRUE,,Mavic Mini,TRUE,FALSE,,Smart,RC,FALSE,TRUE,FALSE,,,TRUE,,FALSE,FALSE,FALSE,FALSE,FALSE,FALSE,FALSE,FALSE,FALSE,FALSE,0,Follow Yaw,0,0,25.8,25.8,FALSE,FALSE,FALSE,FALSE,FALSE,FALSE,,TRUE,Normal,,100,1024,1024,1024,1024,1,FALSE,FALSE,FALSE,FALSE,FALSE,0,FALSE,FALSE,FALSE,FALSE,25,6.991,552,2230,7.018,FALSE,3.497,3.494,0.005,FALSE,TRUE,NA,118.2,118.2,118.2,0,0,0,0,5,3440.7,860.18,,Idle,0,20,FALSE,5,TRUE,7,Go Home,FALSE,FALSE,FALSE,FALSE,FALSE,FALSE,FALSE,FALSE,FALSE,FALSE,FALSE,FALSE,6.972922873,79.91589179,0.5,,459.3,TRUE,1,1,FALSE,FALSE,FALSE,FALSE,,TRUE,FALSE,FALSE,Course Lock,131.2,52,16.4,Calm,85,,1.12.6,Mavic Mini,1SDCH7G0169R0K,1SFLH6Q0AB03DJ,1SRCH7F014TAHX,1U5X071EXP5ZJG,116.8,0.1,0,1.84458,1.11847,0,0,Mavic Mini,1SDCH7G0169R0K,1SFLH6Q0AB03DJ,1SRCH7F014TAHX,1U5X071EXP5ZJG,DJI Fly,,1.12.6,7B6739DB-07BF-A90C-59EF-B17AB6C54449,1SDCH7G0169R0K,,,,,6.972909775,79.9158923,5,,
1/26/2024,34:32.1,17m 44.0s,1064,6.972924009,79.91589108,1.6,1.6,1.6,59,1.5,0,0.316351,0,0.223694,0,0,0,0,1.1,0.6,27.7,27.7,,P-GPS,Auto Fly,,14,5,TRUE,,Mavic Mini,TRUE,FALSE,,Smart,RC,FALSE,TRUE,FALSE,,,TRUE,,FALSE,FALSE,FALSE,FALSE,FALSE,FALSE,FALSE,FALSE,FALSE,FALSE,0,Follow Yaw,0,0,25.8,25.8,FALSE,FALSE,FALSE,FALSE,FALSE,FALSE,,TRUE,Normal,,100,1024,1024,1024,1024,1,FALSE,FALSE,FALSE,FALSE,FALSE,0,FALSE,FALSE,FALSE,FALSE,25,6.991,552,2230,7.018,FALSE,3.497,3.494,0.005,FALSE,TRUE,NA,118.2,118.2,118.2,0,0,0,0,5,3440.7,860.18,,Idle,0,20,FALSE,5,TRUE,7,Go Home,FALSE,FALSE,FALSE,FALSE,FALSE,FALSE,FALSE,FALSE,FALSE,FALSE,FALSE,FALSE,6.972922873,79.91589179,0.4,,459.3,TRUE,1,1,FALSE,FALSE,FALSE,FALSE,,TRUE,FALSE,FALSE,Course Lock,131.2,52,16.4,Calm,85,,1.12.6,Mavic Mini,1SDCH7G0169R0K,1SFLH6Q0AB03DJ,1SRCH7F014TAHX,1U5X071EXP5ZJG,116.8,0.1,0,1.84458,1.11847,0,0,Mavic Mini,1SDCH7G0169R0K,1SFLH6Q0AB03DJ,1SRCH7F014TAHX,1U5X071EXP5ZJG,DJI Fly,,1.12.6,7B6739DB-07BF-A90C-59EF-B17AB6C54449,1SDCH7G0169R0K,,,,,6.972909775,79.9158923,5,,
1/26/2024,34:32.1,17m 44.1s,1064.1,6.972924051,79.91589159,1.6,1.6,1.6,59,1.7,0,0.316351,0,0.223694,0,0,0,0,1.5,0.4,27.7,27.7,,P-GPS,Auto Fly,,14,5,TRUE,,Mavic Mini,TRUE,FALSE,,Smart,RC,FALSE,TRUE,FALSE,,,TRUE,,FALSE,FALSE,FALSE,FALSE,FALSE,FALSE,FALSE,FALSE,FALSE,FALSE,0,Follow Yaw,0,0,25.8,25.8,FALSE,FALSE,FALSE,FALSE,FALSE,FALSE,,TRUE,Normal,,100,1024,1024,1024,1024,1,FALSE,FALSE,FALSE,FALSE,FALSE,0,FALSE,FALSE,FALSE,FALSE,25,6.991,552,2230,7.018,FALSE,3.497,3.494,0.005,FALSE,TRUE,NA,118.2,118.2,118.2,0,0,0,0,5,3440.7,860.18,,Idle,0,20,FALSE,5,TRUE,7,Go Home,FALSE,FALSE,FALSE,FALSE,FALSE,FALSE,FALSE,FALSE,FALSE,FALSE,FALSE,FALSE,6.972922873,79.91589179,0.4,,459.3,TRUE,1,1,FALSE,FALSE,FALSE,FALSE,,TRUE,FALSE,FALSE,Course Lock,131.2,52,16.4,Calm,85,,1.12.6,Mavic Mini,1SDCH7G0169R0K,1SFLH6Q0AB03DJ,1SRCH7F014TAHX,1U5X071EXP5ZJG,116.8,0.1,0,1.84458,1.11847,0,0,Mavic Mini,1SDCH7G0169R0K,1SFLH6Q0AB03DJ,1SRCH7F014TAHX,1U5X071EXP5ZJG,DJI Fly,,1.12.6,7B6739DB-07BF-A90C-59EF-B17AB6C54449,1SDCH7G0169R0K,,,,,6.972909775,79.9158923,5,,
1/26/2024,34:32.2,17m 44.2s,1064.2,6.972924087,79.91589173,1.6,1.6,1.6,59,1.7,0,0.316351,0,0.223694,0,0,0,0,1.8,0.6,27.7,27.7,,P-GPS,Auto Fly,,14,5,TRUE,,Mavic Mini,TRUE,FALSE,,Smart,RC,FALSE,TRUE,FALSE,,,TRUE,,FALSE,FALSE,FALSE,FALSE,FALSE,FALSE,FALSE,FALSE,FALSE,FALSE,0,Follow Yaw,0,0,25.8,25.8,FALSE,FALSE,FALSE,FALSE,FALSE,FALSE,,TRUE,Normal,,100,1024,1024,1024,1024,1,FALSE,FALSE,FALSE,FALSE,FALSE,0,FALSE,FALSE,FALSE,FALSE,25,6.991,552,2230,7.018,FALSE,3.497,3.494,0.005,FALSE,TRUE,NA,118.2,118.2,118.2,0,0,0,0,5,3440.7,860.18,,Idle,0,20,FALSE,5,TRUE,7,Go Home,FALSE,FALSE,FALSE,FALSE,FALSE,FALSE,FALSE,FALSE,FALSE,FALSE,FALSE,FALSE,6.972922873,79.91589179,0.4,,459.3,TRUE,1,1,FALSE,FALSE,FALSE,FALSE,,TRUE,FALSE,FALSE,Course Lock,131.2,52,16.4,Calm,85,,1.12.6,Mavic Mini,1SDCH7G0169R0K,1SFLH6Q0AB03DJ,1SRCH7F014TAHX,1U5X071EXP5ZJG,116.8,0.1,0,1.84458,1.11847,0,0,Mavic Mini,1SDCH7G0169R0K,1SFLH6Q0AB03DJ,1SRCH7F014TAHX,1U5X071EXP5ZJG,DJI Fly,,1.12.6,7B6739DB-07BF-A90C-59EF-B17AB6C54449,1SDCH7G0169R0K,,,,,6.972909775,79.9158923,5,,
1/26/2024,34:32.3,17m 44.3s,1064.3,6.97292412,79.91589186,1.3,1.6,1.6,59,1.8,0,0.316351,0,0.223694,0,0,0,0,1.9,0.6,27.7,27.7,,P-GPS,Auto Fly,,14,5,TRUE,,Mavic Mini,TRUE,FALSE,,Smart,RC,FALSE,TRUE,FALSE,,,TRUE,,FALSE,FALSE,FALSE,FALSE,FALSE,FALSE,FALSE,FALSE,FALSE,FALSE,0,Follow Yaw,0,0,25.8,25.8,FALSE,FALSE,FALSE,FALSE,FALSE,FALSE,,TRUE,Normal,,100,1024,1024,1024,1024,1,FALSE,FALSE,FALSE,FALSE,FALSE,0,FALSE,FALSE,FALSE,FALSE,25,6.991,552,2230,7.018,FALSE,3.497,3.494,0.005,FALSE,TRUE,NA,118.2,118.2,118.2,0,0,0,0,5,3440.7,860.18,,Idle,0,20,FALSE,5,TRUE,7,Go Home,FALSE,FALSE,FALSE,FALSE,FALSE,FALSE,FALSE,FALSE,FALSE,FALSE,FALSE,FALSE,6.972922873,79.91589179,0.4,,459.3,TRUE,1,1,FALSE,FALSE,FALSE,FALSE,,TRUE,FALSE,FALSE,Course Lock,131.2,52,16.4,Calm,85,,1.12.6,Mavic Mini,1SDCH7G0169R0K,1SFLH6Q0AB03DJ,1SRCH7F014TAHX,1U5X071EXP5ZJG,116.8,0.1,0,1.84458,1.11847,0,0,Mavic Mini,1SDCH7G0169R0K,1SFLH6Q0AB03DJ,1SRCH7F014TAHX,1U5X071EXP5ZJG,DJI Fly,,1.12.6,7B6739DB-07BF-A90C-59EF-B17AB6C54449,1SDCH7G0169R0K,,,,,6.972909775,79.9158923,5,,
1/26/2024,34:32.4,17m 44.4s,1064.4,6.972924169,79.91589191,1.3,1.6,1.6,59,1.8,0,0.316351,0,0.223694,0,0,0,0,2.2,0.5,27.7,27.7,,P-GPS,Auto Fly,,14,5,TRUE,,Mavic Mini,TRUE,FALSE,,Smart,RC,FALSE,TRUE,FALSE,,,TRUE,,FALSE,FALSE,FALSE,FALSE,FALSE,FALSE,FALSE,FALSE,FALSE,FALSE,0,Follow Yaw,0,0,25.8,25.8,FALSE,FALSE,FALSE,FALSE,FALSE,FALSE,,TRUE,Normal,,100,1024,1024,1024,1024,1,FALSE,FALSE,FALSE,FALSE,FALSE,0,FALSE,FALSE,FALSE,FALSE,25,6.991,552,2230,7.018,FALSE,3.497,3.494,0.005,FALSE,TRUE,NA,118.2,118.2,118.2,0,0,0,0,5,3440.7,860.18,,Idle,0,20,FALSE,5,TRUE,7,Go Home,FALSE,FALSE,FALSE,FALSE,FALSE,FALSE,FALSE,FALSE,FALSE,FALSE,FALSE,FALSE,6.972922873,79.91589179,0.4,,459.3,TRUE,1,1,FALSE,FALSE,FALSE,FALSE,,TRUE,FALSE,FALSE,Course Lock,131.2,52,16.4,Calm,85,,1.12.6,Mavic Mini,1SDCH7G0169R0K,1SFLH6Q0AB03DJ,1SRCH7F014TAHX,1U5X071EXP5ZJG,116.8,0.1,0,1.84458,1.11847,0,0,Mavic Mini,1SDCH7G0169R0K,1SFLH6Q0AB03DJ,1SRCH7F014TAHX,1U5X071EXP5ZJG,DJI Fly,,1.12.6,7B6739DB-07BF-A90C-59EF-B17AB6C54449,1SDCH7G0169R0K,,,,,6.972909775,79.9158923,5,,
1/26/2024,34:32.6,17m 44.5s,1064.5,6.972924286,79.91589202,1.3,1.6,1.6,59,1.8,0,0.316351,0,0.223694,0,0,0,0,2.3,0.1,27.7,27.7,,P-GPS,Auto Fly,,14,5,TRUE,,Mavic Mini,TRUE,FALSE,,Smart,RC,FALSE,TRUE,FALSE,,,TRUE,,FALSE,FALSE,FALSE,FALSE,FALSE,FALSE,FALSE,FALSE,FALSE,FALSE,0,Follow Yaw,0,0,25.8,25.8,FALSE,FALSE,FALSE,FALSE,FALSE,FALSE,,TRUE,Normal,,100,1024,1024,1024,1024,1,FALSE,FALSE,FALSE,FALSE,FALSE,0,FALSE,FALSE,FALSE,FALSE,25,6.991,552,2230,6.99,FALSE,3.497,3.494,0.005,FALSE,TRUE,NA,118.2,118.2,118.2,0,0,0,0,5,4545.2,1136.31,,Idle,0,20,FALSE,5,TRUE,7,Go Home,FALSE,FALSE,FALSE,FALSE,FALSE,FALSE,FALSE,FALSE,FALSE,FALSE,FALSE,FALSE,6.972922873,79.91589179,0.5,,459.3,TRUE,1,1,FALSE,FALSE,FALSE,FALSE,,TRUE,FALSE,FALSE,Course Lock,131.2,52,16.4,Calm,85,,1.12.6,Mavic Mini,1SDCH7G0169R0K,1SFLH6Q0AB03DJ,1SRCH7F014TAHX,1U5X071EXP5ZJG,116.8,0.1,0,1.84458,1.11847,0,0,Mavic Mini,1SDCH7G0169R0K,1SFLH6Q0AB03DJ,1SRCH7F014TAHX,1U5X071EXP5ZJG,DJI Fly,,1.12.6,7B6739DB-07BF-A90C-59EF-B17AB6C54449,1SDCH7G0169R0K,,,,,6.972909775,79.9158923,5,,
1/26/2024,34:32.7,17m 44.6s,1064.6,6.972924329,79.91589206,1.3,1.6,1.6,59,1.9,0,0.316351,0,0.223694,0,0,0,0,2.7,0,27.9,27.9,,P-GPS,Auto Fly,,14,5,TRUE,,Mavic Mini,TRUE,FALSE,,Smart,RC,FALSE,TRUE,FALSE,,,TRUE,,FALSE,FALSE,FALSE,FALSE,FALSE,FALSE,FALSE,FALSE,FALSE,FALSE,0,Follow Yaw,0,0,25.8,25.8,FALSE,FALSE,FALSE,FALSE,FALSE,FALSE,,TRUE,Normal,,100,1024,1024,1024,1024,1,FALSE,FALSE,FALSE,FALSE,FALSE,0,FALSE,FALSE,FALSE,FALSE,25,6.991,552,2230,6.99,FALSE,3.497,3.494,0.005,FALSE,TRUE,NA,118.2,118.2,118.2,0,0,0,0,5,4545.2,1136.31,,Idle,0,20,FALSE,5,TRUE,7,Go Home,FALSE,FALSE,FALSE,FALSE,FALSE,FALSE,FALSE,FALSE,FALSE,FALSE,FALSE,FALSE,6.972922873,79.91589179,0.5,,459.3,TRUE,1,1,FALSE,FALSE,FALSE,FALSE,,TRUE,FALSE,FALSE,Course Lock,131.2,52,16.4,Calm,85,,1.12.6,Mavic Mini,1SDCH7G0169R0K,1SFLH6Q0AB03DJ,1SRCH7F014TAHX,1U5X071EXP5ZJG,116.8,0.1,0,1.84458,1.11847,0,0,Mavic Mini,1SDCH7G0169R0K,1SFLH6Q0AB03DJ,1SRCH7F014TAHX,1U5X071EXP5ZJG,DJI Fly,,1.12.6,7B6739DB-07BF-A90C-59EF-B17AB6C54449,1SDCH7G0169R0K,,,,,6.972909775,79.9158923,5,,
