CUSTOM.date [local],CUSTOM.updateTime [local],OSD.flyTime,OSD.flyTime [s],OSD.latitude,OSD.longitude,OSD.height [ft],OSD.heightMax [ft],OSD.vpsHeight [ft],OSD.altitude [ft],OSD.mileage [ft],OSD.hSpeed [MPH],OSD.hSpeedMax [MPH],OSD.xSpeed [MPH],OSD.xSpeedMax [MPH],OSD.ySpeed [MPH],OSD.ySpeedMax [MPH],OSD.zSpeed [MPH],OSD.zSpeedMax [MPH],OSD.pitch,OSD.roll,OSD.yaw,OSD.yaw [360],OSD.directionOfTravel,OSD.flycState,OSD.flycCommand,OSD.flightAction,OSD.gpsNum,OSD.gpsLevel,OSD.isGPSUsed,OSD.nonGPSCause,OSD.droneType,OSD.isSwaveWork,OSD.waveError,OSD.goHomeStatus,OSD.batteryType,OSD.ctrlDevice,OSD.isOnGround,OSD.isMotorOn,OSD.isMotorBlocked,OSD.motorStartFailedCause,OSD.motorFailReason,OSD.isImuPreheated,OSD.imuInitFailReason,OSD.isAcceletorOverRange,OSD.isBarometerDeadInAir,OSD.isCompassError,OSD.isGoHomeHeightModified,OSD.canIOCWork,OSD.isNotEnoughForce,OSD.isOutOfLimit,OSD.isPropellerCatapult,OSD.isVibrating,OSD.isVisionUsed,OSD.voltageWarning,GIMBAL.mode,GIMBAL.pitch,GIMBAL.roll,GIMBAL.yaw,GIMBAL.yaw [360],GIMBAL.isPitchAtLimit,GIMBAL.isRollAtLimit,GIMBAL.isYawAtLimit,GIMBAL.isStuck,CAMERA.isPhoto,CAMERA.isVideo,CAMERA.filename,CAMERA.sdCardIsInserted,CAMERA.sdCardState,RC.downlinkSignal,RC.uplinkSignal,RC.aileron,RC.elevator,RC.throttle,RC.rudder,RC.mode,RC.goHomeDepressed,RC.recordDepressed,RC.shutterDepressed,RC.playbackDepressed,RC.wheelDepressed,RC.wheelOffset,RC.custom1Depressed,RC.custom2Depressed,RC.custom3Depressed,RC.custom4Depressed,BATTERY.chargeLevel,BATTERY.currentPV [V],BATTERY.currentCapacity [mAh],BATTERY.fullCapacity [mAh],BATTERY.voltage [V],BATTERY.isCellVoltageEstimated,BATTERY.cellVoltage1 [V],BATTERY.cellVoltage2 [V],BATTERY.maxCellVoltageDeviation,BATTERY.isCellVoltageDeviationHigh,BATTERY.isVoltageLow,BATTERY.current [A],BATTERY.temperature [F],BATTERY.minTemperature [F],BATTERY.maxTemperature [F],BATTERY.usefulTime [s],BATTERY.goHomeTime [s],BATTERY.landTime [s],BATTERY.goHomeBattery,BATTERY.landBattery,BATTERY.safeFlyRadius,BATTERY.volumeConsume,BATTERY.status,BATTERY.goHomeStatus,BATTERY.goHomeCountdown,BATTERY.lowWarning,BATTERY.lowWarningGoHome,BATTERY.seriousLowWarning,BATTERY.seriousLowWarningLanding,BATTERY.timesCharged,MC.failSafeAction,MC.isObstacleAvoidanceEnabled,MC.isCollisionAvoidanceEnabled,MC.isRthObstacleAvoidanceEnabled,MC.isBraking,MC.isAvoidingObstacle,MC.isAvoidingActiveObstacle,MC.isAscentLimitedByObstacle,MC.isLandingConfirmationNeeded,MC.atLowAltitudeLimit,MC.atDistanceLimit,MC.atAirportAltitudeLimit,MC.atAirportBoundary,HOME.latitude,HOME.longitude,HOME.distance [ft],HOME.height [ft],HOME.heightLimit [ft],HOME.isHomeRecord,HOME.goHomeMode,HOME.aircraftHeadDirection,HOME.isDynamicHomePointEnabled,HOME.isReachedLimitDistance,HOME.isReachedLimitHeight,HOME.isCompassCalibrating,HOME.compassCalibrationState,HOME.isMultipleFlightModeEnabled,HOME.isBeginnerMode,HOME.isIOCEnabled,HOME.iocMode,HOME.goHomeHeight [ft],HOME.courseLockAngle,HOME.forceLandingHeight [ft],HOME.wind,HOME.dataRecorderFileIndex,RECOVER.appType,RECOVER.appVersion,RECOVER.aircraftName,RECOVER.aircraftSerial,RECOVER.cameraSerial,RECOVER.rcSerial,RECOVER.batterySerial,DETAILS.totalTime [s],DETAILS.totalDistance [ft],DETAILS.maxHeight [ft],DETAILS.maxHorizontalSpeed [MPH],DETAILS.maxVerticalSpeed [MPH],DETAILS.photoNum,DETAILS.videoTime [s],DETAILS.aircraftName,DETAILS.aircraftSerial,DETAILS.cameraSerial,DETAILS.rcSerial,DETAILS.batterySerial,DETAILS.appName,DETAILS.appType,DETAILS.appVersion,DETAILS.guid,SERIAL.flightController,SERIAL.camera,SERIAL.gimbal,SERIAL.rc,SERIAL.battery,APPGPS.latitude,APPGPS.longitude,APPGPS.accuracy,APP.tip,APP.warning
2/15/2024,42:23.4,7m 39.4s,459.4,6.974497461,79.91427603,0,0,,49,0,0,0,0,0,0,0,0,0,4.7,0,25.5,25.5,,Starting Motors,Auto Fly,Takeoff (RC Assisted),16,5,TRUE,,Mavic Mini,FALSE,FALSE,,Smart,RC,TRUE,TRUE,FALSE,,,TRUE,,FALSE,FALSE,FALSE,FALSE,FALSE,FALSE,FALSE,FALSE,FALSE,FALSE,0,Follow Yaw,0,0,52,52,FALSE,FALSE,FALSE,FALSE,FALSE,FALSE,,FALSE,Normal,,,364,364,364,1684,1,FALSE,FALSE,FALSE,FALSE,FALSE,0,FALSE,FALSE,FALSE,FALSE,68,7.725,1435,2113,7.725,TRUE,3.863,3.863,,FALSE,FALSE,NA,109.4,109.4,109.4,,,,,,,,,Idle,,,TRUE,,FALSE,9,Hover,FALSE,FALSE,FALSE,FALSE,FALSE,FALSE,FALSE,FALSE,FALSE,FALSE,FALSE,FALSE,,,,,,FALSE,,,FALSE,FALSE,FALSE,FALSE,,FALSE,FALSE,FALSE,,,,,Calm,,,,,,,,,80,0.2,19.6,12.450808,4.250186,0,420,Mavic Mini,1SDCH7G0169R0K,1SFLH6Q0AB03DJ,1SRCH7F014TAHX,1U5X071EXP5ZJG,DJI Fly,,1.12.8,57CBE91D-C123-82FB-4515-5F7974F075BC,1SDCH7G0169R0K,,,,,,,,Flight mode changed to Starting Motors.,
2/15/2024,42:23.5,7m 39.5s,459.5,6.974497518,79.91427599,0,0,,49,0,0,0,0,0,0,0,0,0,4.7,0,25.5,25.5,,Starting Motors,Auto Fly,Takeoff (RC Assisted),16,5,TRUE,,Mavic Mini,FALSE,FALSE,,Smart,RC,TRUE,TRUE,FALSE,,,TRUE,,FALSE,FALSE,FALSE,FALSE,FALSE,FALSE,FALSE,FALSE,FALSE,FALSE,0,Follow Yaw,0,0,52,52,FALSE,FALSE,FALSE,FALSE,FALSE,FALSE,,TRUE,Normal,,,364,364,364,1684,1,FALSE,FALSE,FALSE,FALSE,FALSE,0,FALSE,FALSE,FALSE,FALSE,68,7.725,1435,2113,7.725,TRUE,3.863,3.863,,FALSE,FALSE,NA,109.4,109.4,109.4,,,,,,,,,Idle,,,TRUE,,FALSE,9,Go Home,FALSE,FALSE,FALSE,FALSE,FALSE,FALSE,FALSE,FALSE,FALSE,FALSE,FALSE,FALSE,,,,,,FALSE,,,FALSE,FALSE,FALSE,FALSE,,FALSE,FALSE,FALSE,,,,,Calm,,,1.12.8,Mavic Mini,1SDCH7G0169R0K,1SFLH6Q0AB03DJ,1SRCH7F014TAHX,1U5X071EXP5ZJG,80,0.2,19.6,12.450808,4.250186,0,420,Mavic Mini,1SDCH7G0169R0K,1SFLH6Q0AB03DJ,1SRCH7F014TAHX,1U5X071EXP5ZJG,DJI Fly,,1.12.8,57CBE91D-C123-82FB-4515-5F7974F075BC,1SDCH7G0169R0K,,,,,,,,,
2/15/2024,42:23.6,7m 39.6s,459.6,6.974497563,79.91427598,0,0,0.3,49,0,0,0,0,0,0,0,0,0,4.7,0,25.6,25.6,,Starting Motors,Auto Fly,Takeoff (RC Assisted),16,5,TRUE,,Mavic Mini,TRUE,FALSE,,Smart,RC,TRUE,TRUE,FALSE,,,TRUE,,FALSE,FALSE,FALSE,FALSE,FALSE,FALSE,FALSE,FALSE,FALSE,FALSE,0,Follow Yaw,0,0,52,52,FALSE,FALSE,FALSE,FALSE,FALSE,FALSE,,TRUE,Normal,,100,364,364,364,1684,1,FALSE,FALSE,FALSE,FALSE,FALSE,0,FALSE,FALSE,FALSE,FALSE,68,7.725,1435,2113,7.725,TRUE,3.863,3.863,,FALSE,FALSE,NA,109.4,109.4,109.4,,,,,,,,,Idle,,,TRUE,,FALSE,9,Go Home,FALSE,FALSE,FALSE,FALSE,FALSE,FALSE,FALSE,FALSE,FALSE,FALSE,FALSE,FALSE,,,,,,FALSE,,,FALSE,FALSE,FALSE,FALSE,,FALSE,FALSE,FALSE,,,,,Calm,,,1.12.8,Mavic Mini,1SDCH7G0169R0K,1SFLH6Q0AB03DJ,1SRCH7F014TAHX,1U5X071EXP5ZJG,80,0.2,19.6,12.450808,4.250186,0,420,Mavic Mini,1SDCH7G0169R0K,1SFLH6Q0AB03DJ,1SRCH7F014TAHX,1U5X071EXP5ZJG,DJI Fly,,1.12.8,57CBE91D-C123-82FB-4515-5F7974F075BC,1SDCH7G0169R0K,,,,,,,,,
2/15/2024,34:44.4,7m 39.7s,459.7,6.97449761,79.91427599,0,0,0.3,49,0,0,0,0,0,0,0,0,0,4.6,0,25.5,25.5,,Starting Motors,Auto Fly,Takeoff (RC Assisted),16,5,TRUE,,Mavic Mini,TRUE,FALSE,,Smart,RC,TRUE,TRUE,FALSE,,,TRUE,,FALSE,FALSE,FALSE,FALSE,FALSE,FALSE,FALSE,FALSE,FALSE,FALSE,0,Follow Yaw,0,0,52,52,FALSE,FALSE,FALSE,FALSE,FALSE,FALSE,,TRUE,Normal,,100,950,875,775,1508,1,FALSE,FALSE,FALSE,FALSE,FALSE,0,FALSE,FALSE,FALSE,FALSE,68,7.725,1435,2113,7.725,TRUE,3.863,3.863,,FALSE,FALSE,NA,109.4,109.4,109.4,,,,,,,,,Idle,,,TRUE,,FALSE,9,Go Home,FALSE,FALSE,FALSE,FALSE,FALSE,FALSE,FALSE,FALSE,FALSE,FALSE,FALSE,FALSE,,,,,,FALSE,,,FALSE,FALSE,FALSE,FALSE,,FALSE,FALSE,FALSE,,,,,Calm,,,1.12.8,Mavic Mini,1SDCH7G0169R0K,1SFLH6Q0AB03DJ,1SRCH7F014TAHX,1U5X071EXP5ZJG,80,0.2,19.6,12.450808,4.250186,0,420,Mavic Mini,1SDCH7G0169R0K,1SFLH6Q0AB03DJ,1SRCH7F014TAHX,1U5X071EXP5ZJG,DJI Fly,,1.12.8,57CBE91D-C123-82FB-4515-5F7974F075BC,1SDCH7G0169R0K,,,,,,,,,
2/15/2024,34:44.4,7m 39.8s,459.8,6.974497669,79.91427603,0,0,0.3,49,0,0,0,0,0,0,0,0,0,4.7,0,25.6,25.6,,Starting Motors,Auto Fly,Takeoff (RC Assisted),16,5,TRUE,,Mavic Mini,TRUE,FALSE,,Smart,RC,TRUE,TRUE,FALSE,,,TRUE,,FALSE,FALSE,FALSE,FALSE,FALSE,FALSE,FALSE,FALSE,FALSE,FALSE,0,Follow Yaw,0,0,52,52,FALSE,FALSE,FALSE,FALSE,FALSE,FALSE,,TRUE,Normal,,100,950,875,775,1508,1,FALSE,FALSE,FALSE,FALSE,FALSE,0,FALSE,FALSE,FALSE,FALSE,68,7.725,1435,2113,7.725,TRUE,3.863,3.863,,FALSE,FALSE,NA,109.4,109.4,109.4,,,,,,,,,Idle,,,TRUE,,FALSE,9,Go Home,FALSE,FALSE,FALSE,FALSE,FALSE,FALSE,FALSE,FALSE,FALSE,FALSE,FALSE,FALSE,,,,,,FALSE,,,FALSE,FALSE,FALSE,FALSE,,FALSE,FALSE,FALSE,,,,,Calm,,,1.12.8,Mavic Mini,1SDCH7G0169R0K,1SFLH6Q0AB03DJ,1SRCH7F014TAHX,1U5X071EXP5ZJG,80,0.2,19.6,12.450808,4.250186,0,420,Mavic Mini,1SDCH7G0169R0K,1SFLH6Q0AB03DJ,1SRCH7F014TAHX,1U5X071EXP5ZJG,DJI Fly,,1.12.8,57CBE91D-C123-82FB-4515-5F7974F075BC,1SDCH7G0169R0K,,,,,,,,,
2/15/2024,34:44.5,7m 39.9s,459.9,6.974497818,79.91427611,0,0,0.3,49,0.1,0,0,0,0,0,0,0,0,4.6,0.1,25.6,25.6,,Starting Motors,Auto Fly,Takeoff (RC Assisted),16,5,TRUE,,Mavic Mini,TRUE,FALSE,,Smart,RC,TRUE,TRUE,FALSE,,,TRUE,,FALSE,FALSE,FALSE,FALSE,FALSE,FALSE,FALSE,FALSE,FALSE,FALSE,0,Follow Yaw,0,0,52,52,FALSE,FALSE,FALSE,FALSE,FALSE,FALSE,,TRUE,Normal,,100,1024,1024,1024,1024,1,FALSE,FALSE,FALSE,FALSE,FALSE,0,FALSE,FALSE,FALSE,FALSE,68,7.725,1435,2113,7.725,TRUE,3.863,3.863,,FALSE,FALSE,NA,109.4,109.4,109.4,,,,,,,,,Idle,,,TRUE,,FALSE,9,Go Home,FALSE,FALSE,FALSE,FALSE,FALSE,FALSE,FALSE,FALSE,FALSE,FALSE,FALSE,FALSE,,,,,,FALSE,,,FALSE,FALSE,FALSE,FALSE,,FALSE,FALSE,FALSE,,,,,Calm,,,1.12.8,Mavic Mini,1SDCH7G0169R0K,1SFLH6Q0AB03DJ,1SRCH7F014TAHX,1U5X071EXP5ZJG,80,0.2,19.6,12.450808,4.250186,0,420,Mavic Mini,1SDCH7G0169R0K,1SFLH6Q0AB03DJ,1SRCH7F014TAHX,1U5X071EXP5ZJG,DJI Fly,,1.12.8,57CBE91D-C123-82FB-4515-5F7974F075BC,1SDCH7G0169R0K,,,,,,,,,
2/15/2024,34:44.6,7m 40.0s,460,6.974497825,79.91427612,0,0,0.3,49,0.1,0,0,0,0,0,0,0,0,4.6,0,25.6,25.6,,Starting Motors,Auto Fly,Takeoff (RC Assisted),16,5,TRUE,,Mavic Mini,TRUE,FALSE,,Smart,RC,TRUE,TRUE,FALSE,,,TRUE,,FALSE,FALSE,FALSE,FALSE,FALSE,FALSE,FALSE,FALSE,FALSE,FALSE,0,Follow Yaw,0,0,52,52,FALSE,FALSE,FALSE,FALSE,FALSE,FALSE,,TRUE,Normal,,100,1024,1024,1024,1024,1,FALSE,FALSE,FALSE,FALSE,FALSE,0,FALSE,FALSE,FALSE,FALSE,68,7.699,1435,2113,7.699,FALSE,3.852,3.848,0.004,FALSE,FALSE,NA,109.4,109.4,109.4,,,,,,,,,Idle,,,TRUE,,FALSE,9,Go Home,FALSE,FALSE,FALSE,FALSE,FALSE,FALSE,FALSE,FALSE,FALSE,FALSE,FALSE,FALSE,,,,,,FALSE,,,FALSE,FALSE,FALSE,FALSE,,FALSE,FALSE,FALSE,,,,,Calm,,,1.12.8,Mavic Mini,1SDCH7G0169R0K,1SFLH6Q0AB03DJ,1SRCH7F014TAHX,1U5X071EXP5ZJG,80,0.2,19.6,12.450808,4.250186,0,420,Mavic Mini,1SDCH7G0169R0K,1SFLH6Q0AB03DJ,1SRCH7F014TAHX,1U5X071EXP5ZJG,DJI Fly,,1.12.8,57CBE91D-C123-82FB-4515-5F7974F075BC,1SDCH7G0169R0K,,,,,,,,,
2/15/2024,34:44.7,7m 40.1s,460.1,6.974497838,79.91427613,0,0,0.3,49,0.1,0,0,0,0,0,0,0,0,4.7,0,25.6,25.6,,Starting Motors,Auto Fly,Takeoff (RC Assisted),16,5,TRUE,,Mavic Mini,TRUE,FALSE,,Smart,RC,TRUE,TRUE,FALSE,,,TRUE,,FALSE,FALSE,FALSE,FALSE,FALSE,FALSE,FALSE,FALSE,FALSE,FALSE,0,Follow Yaw,0,0,52,52,FALSE,FALSE,FALSE,FALSE,FALSE,FALSE,,TRUE,Normal,,100,1024,1024,1024,1024,1,FALSE,FALSE,FALSE,FALSE,FALSE,0,FALSE,FALSE,FALSE,FALSE,68,7.699,1435,2113,7.71,FALSE,3.852,3.848,0.004,FALSE,FALSE,NA,109.4,109.4,109.4,0,0,0,0,5,2605.3,651.32,,Idle,0,20,FALSE,5,TRUE,9,Go Home,FALSE,FALSE,FALSE,FALSE,FALSE,FALSE,FALSE,FALSE,FALSE,FALSE,FALSE,FALSE,6.974495662,79.91427537,0.8,123.6,328,TRUE,1,1,FALSE,FALSE,FALSE,FALSE,,TRUE,FALSE,FALSE,Course Lock,65.6,41.9,16.4,Calm,27,,1.12.8,Mavic Mini,1SDCH7G0169R0K,1SFLH6Q0AB03DJ,1SRCH7F014TAHX,1U5X071EXP5ZJG,80,0.2,19.6,12.450808,4.250186,0,420,Mavic Mini,1SDCH7G0169R0K,1SFLH6Q0AB03DJ,1SRCH7F014TAHX,1U5X071EXP5ZJG,DJI Fly,,1.12.8,57CBE91D-C123-82FB-4515-5F7974F075BC,1SDCH7G0169R0K,,,,,,,,Data Recorder File Index is 27.; Set Return to Home (RTH) altitude to 20 m (66 ft).; Set maximum flight altitude to 100 m (328 ft).,
2/15/2024,34:44.8,7m 40.2s,460.2,6.974497879,79.91427613,0,0,0.3,49,0.1,0,0,0,0,0,0,0,0,4.7,0,25.6,25.6,,Starting Motors,Auto Fly,Takeoff (RC Assisted),16,5,TRUE,,Mavic Mini,TRUE,FALSE,,Smart,RC,TRUE,TRUE,FALSE,,,TRUE,,FALSE,FALSE,FALSE,FALSE,FALSE,FALSE,FALSE,FALSE,FALSE,FALSE,0,Follow Yaw,0,0,52,52,FALSE,FALSE,FALSE,FALSE,FALSE,FALSE,,TRUE,Normal,,100,1024,1024,1024,1024,1,FALSE,FALSE,FALSE,FALSE,FALSE,0,FALSE,FALSE,FALSE,FALSE,68,7.699,1435,2113,7.71,FALSE,3.852,3.848,0.004,FALSE,FALSE,NA,109.4,109.4,109.4,0,0,0,0,5,2605.3,651.32,,Idle,0,20,FALSE,5,TRUE,9,Go Home,FALSE,FALSE,FALSE,FALSE,FALSE,FALSE,FALSE,FALSE,FALSE,FALSE,FALSE,FALSE,6.974495662,79.91427537,0.8,123.6,328,TRUE,1,1,FALSE,FALSE,FALSE,FALSE,,TRUE,FALSE,FALSE,Course Lock,65.6,41.9,16.4,Calm,27,,1.12.8,Mavic Mini,1SDCH7G0169R0K,1SFLH6Q0AB03DJ,1SRCH7F014TAHX,1U5X071EXP5ZJG,80,0.2,19.6,12.450808,4.250186,0,420,Mavic Mini,1SDCH7G0169R0K,1SFLH6Q0AB03DJ,1SRCH7F014TAHX,1U5X071EXP5ZJG,DJI Fly,,1.12.8,57CBE91D-C123-82FB-4515-5F7974F075BC,1SDCH7G0169R0K,,,,,,,,,
2/15/2024,34:44.9,7m 40.3s,460.3,6.974497857,79.91427607,0,0,0.3,49,0.1,0,0,0,0,0,0,0,0,4.7,0,25.7,25.7,,Starting Motors,Auto Fly,Takeoff (RC Assisted),16,5,TRUE,,Mavic Mini,TRUE,FALSE,,Smart,RC,TRUE,TRUE,FALSE,,,TRUE,,FALSE,FALSE,FALSE,FALSE,FALSE,FALSE,FALSE,FALSE,FALSE,FALSE,0,Follow Yaw,0,0,52,52,FALSE,FALSE,FALSE,FALSE,FALSE,FALSE,,TRUE,Normal,,100,1024,1024,1024,1024,1,FALSE,FALSE,FALSE,FALSE,FALSE,0,FALSE,FALSE,FALSE,FALSE,68,7.699,1435,2113,7.71,FALSE,3.852,3.848,0.004,FALSE,FALSE,NA,109.4,109.4,109.4,0,0,0,0,5,2605.3,651.32,,Idle,0,20,FALSE,5,TRUE,9,Go Home,FALSE,FALSE,FALSE,FALSE,FALSE,FALSE,FALSE,FALSE,FALSE,FALSE,FALSE,FALSE,6.974495662,79.91427537,0.8,123.6,328,TRUE,1,1,FALSE,FALSE,FALSE,FALSE,,TRUE,FALSE,FALSE,Course Lock,65.6,41.9,16.4,Calm,27,,1.12.8,Mavic Mini,1SDCH7G0169R0K,1SFLH6Q0AB03DJ,1SRCH7F014TAHX,1U5X071EXP5ZJG,80,0.2,19.6,12.450808,4.250186,0,420,Mavic Mini,1SDCH7G0169R0K,1SFLH6Q0AB03DJ,1SRCH7F014TAHX,1U5X071EXP5ZJG,DJI Fly,,1.12.8,57CBE91D-C123-82FB-4515-5F7974F075BC,1SDCH7G0169R0K,,,,,,,,,
2/15/2024,34:45.0,7m 40.4s,460.4,6.974497857,79.91427606,0,0,0.3,49,0.1,0,0,0,0,0,0,0,0,4.7,0,25.6,25.6,,Starting Motors,Auto Fly,Takeoff (RC Assisted),16,5,TRUE,,Mavic Mini,TRUE,FALSE,,Smart,RC,TRUE,TRUE,FALSE,,,TRUE,,FALSE,FALSE,FALSE,FALSE,FALSE,FALSE,FALSE,FALSE,FALSE,FALSE,0,Follow Yaw,0,0,52.1,52.1,FALSE,FALSE,FALSE,FALSE,FALSE,FALSE,,TRUE,Normal,,100,1024,1024,1024,1024,1,FALSE,FALSE,FALSE,FALSE,FALSE,0,FALSE,FALSE,FALSE,FALSE,68,7.699,1435,2113,7.71,FALSE,3.852,3.848,0.004,FALSE,FALSE,NA,109.4,109.4,109.4,0,0,0,0,5,2605.3,651.32,,Idle,0,20,FALSE,5,TRUE,9,Go Home,FALSE,FALSE,FALSE,FALSE,FALSE,FALSE,FALSE,FALSE,FALSE,FALSE,FALSE,FALSE,6.974495662,79.91427537,0.8,123.6,328,TRUE,1,1,FALSE,FALSE,FALSE,FALSE,,TRUE,FALSE,FALSE,Course Lock,65.6,41.9,16.4,Calm,27,,1.12.8,Mavic Mini,1SDCH7G0169R0K,1SFLH6Q0AB03DJ,1SRCH7F014TAHX,1U5X071EXP5ZJG,80,0.2,19.6,12.450808,4.250186,0,420,Mavic Mini,1SDCH7G0169R0K,1SFLH6Q0AB03DJ,1SRCH7F014TAHX,1U5X071EXP5ZJG,DJI Fly,,1.12.8,57CBE91D-C123-82FB-4515-5F7974F075BC,1SDCH7G0169R0K,,,,,,,,,
2/15/2024,34:45.2,7m 40.5s,460.5,6.974497852,79.91427605,0,0,0.3,49,0.1,0,0,0,0,0,0,0,0,4.7,0,25.7,25.7,,Manual Takeoff,Auto Fly,Takeoff (RC Assisted),16,5,TRUE,,Mavic Mini,TRUE,FALSE,,Smart,RC,TRUE,TRUE,FALSE,,,TRUE,,FALSE,FALSE,FALSE,FALSE,FALSE,FALSE,FALSE,FALSE,FALSE,FALSE,0,Follow Yaw,0,0,52.1,52.1,FALSE,FALSE,FALSE,FALSE,FALSE,FALSE,,TRUE,Normal,,100,1024,1024,1024,1024,1,FALSE,FALSE,FALSE,FALSE,FALSE,0,FALSE,FALSE,FALSE,FALSE,68,7.699,1435,2113,7.71,FALSE,3.852,3.848,0.004,FALSE,FALSE,NA,109.4,109.4,109.4,0,0,0,0,5,2605.3,651.32,,Idle,0,20,FALSE,5,TRUE,9,Go Home,FALSE,FALSE,FALSE,FALSE,FALSE,FALSE,FALSE,FALSE,FALSE,FALSE,FALSE,FALSE,6.974495662,79.91427537,0.8,123.6,328,TRUE,1,1,FALSE,FALSE,FALSE,FALSE,,TRUE,FALSE,FALSE,Course Lock,65.6,41.9,16.4,Calm,27,,1.12.8,Mavic Mini,1SDCH7G0169R0K,1SFLH6Q0AB03DJ,1SRCH7F014TAHX,1U5X071EXP5ZJG,80,0.2,19.6,12.450808,4.250186,0,420,Mavic Mini,1SDCH7G0169R0K,1SFLH6Q0AB03DJ,1SRCH7F014TAHX,1U5X071EXP5ZJG,DJI Fly,,1.12.8,57CBE91D-C123-82FB-4515-5F7974F075BC,1SDCH7G0169R0K,,,,,,,,Flight mode changed to Manual Takeoff.,
2/15/2024,34:45.2,7m 40.6s,460.6,6.974497839,79.91427605,0,0,0.3,49,0.1,0,0,0,0,0,0,0,0,4.6,0,25.6,25.6,,Manual Takeoff,Auto Fly,Takeoff (RC Assisted),16,5,TRUE,,Mavic Mini,TRUE,FALSE,,Smart,RC,TRUE,TRUE,FALSE,,,TRUE,,FALSE,FALSE,FALSE,FALSE,FALSE,FALSE,FALSE,FALSE,FALSE,FALSE,0,Follow Yaw,0,0,52.1,52.1,FALSE,FALSE,FALSE,FALSE,FALSE,FALSE,,TRUE,Normal,,100,1024,1024,1024,1024,1,FALSE,FALSE,FALSE,FALSE,FALSE,0,FALSE,FALSE,FALSE,FALSE,68,7.699,1435,2113,7.71,FALSE,3.852,3.848,0.004,FALSE,FALSE,NA,109.4,109.4,109.4,0,0,0,0,5,2605.3,651.32,,Idle,0,20,FALSE,5,TRUE,9,Go Home,FALSE,FALSE,FALSE,FALSE,FALSE,FALSE,FALSE,FALSE,FALSE,FALSE,FALSE,FALSE,6.974495662,79.91427537,0.8,123.6,328,TRUE,1,1,FALSE,FALSE,FALSE,FALSE,,TRUE,FALSE,FALSE,Course Lock,65.6,41.9,16.4,Calm,27,,1.12.8,Mavic Mini,1SDCH7G0169R0K,1SFLH6Q0AB03DJ,1SRCH7F014TAHX,1U5X071EXP5ZJG,80,0.2,19.6,12.450808,4.250186,0,420,Mavic Mini,1SDCH7G0169R0K,1SFLH6Q0AB03DJ,1SRCH7F014TAHX,1U5X071EXP5ZJG,DJI Fly,,1.12.8,57CBE91D-C123-82FB-4515-5F7974F075BC,1SDCH7G0169R0K,,,,,,,,,
2/15/2024,34:45.3,7m 40.7s,460.7,6.974497824,79.91427605,0,0,0.3,49,0.1,0,0,0,0,0,0,0,0,4.7,0,25.6,25.6,,Manual Takeoff,Auto Fly,Takeoff (RC Assisted),16,5,TRUE,,Mavic Mini,TRUE,FALSE,,Smart,RC,TRUE,TRUE,FALSE,,,TRUE,,FALSE,FALSE,FALSE,FALSE,FALSE,FALSE,FALSE,FALSE,FALSE,FALSE,0,Follow Yaw,0,0,52.1,52.1,FALSE,FALSE,FALSE,FALSE,FALSE,FALSE,,TRUE,Normal,,100,1024,1024,1024,1024,1,FALSE,FALSE,FALSE,FALSE,FALSE,0,FALSE,FALSE,FALSE,FALSE,68,7.699,1435,2113,7.71,FALSE,3.852,3.848,0.004,FALSE,FALSE,NA,109.4,109.4,109.4,0,0,0,0,5,2605.3,651.32,,Idle,0,20,FALSE,5,TRUE,9,Go Home,FALSE,FALSE,FALSE,FALSE,FALSE,FALSE,FALSE,FALSE,FALSE,FALSE,FALSE,FALSE,6.974495662,79.91427537,0.8,123.6,328,TRUE,1,1,FALSE,FALSE,FALSE,FALSE,,TRUE,FALSE,FALSE,Course Lock,65.6,41.9,16.4,Calm,27,,1.12.8,Mavic Mini,1SDCH7G0169R0K,1SFLH6Q0AB03DJ,1SRCH7F014TAHX,1U5X071EXP5ZJG,80,0.2,19.6,12.450808,4.250186,0,420,Mavic Mini,1SDCH7G0169R0K,1SFLH6Q0AB03DJ,1SRCH7F014TAHX,1U5X071EXP5ZJG,DJI Fly,,1.12.8,57CBE91D-C123-82FB-4515-5F7974F075BC,1SDCH7G0169R0K,,,,,,,,,
2/15/2024,34:45.5,7m 40.8s,460.8,6.974497748,79.91427601,0,0,0.3,49,0.2,0,0,0,0,0,0,0,0,4.7,0,25.6,25.6,,Manual Takeoff,Auto Fly,Takeoff (RC Assisted),16,5,TRUE,,Mavic Mini,TRUE,FALSE,,Smart,RC,TRUE,TRUE,FALSE,,,TRUE,,FALSE,FALSE,FALSE,FALSE,FALSE,FALSE,FALSE,FALSE,FALSE,FALSE,0,Follow Yaw,0,0,52.1,52.1,FALSE,FALSE,FALSE,FALSE,FALSE,FALSE,,TRUE,Normal,,100,1024,1024,1024,1024,1,FALSE,FALSE,FALSE,FALSE,FALSE,0,FALSE,FALSE,FALSE,FALSE,68,7.699,1435,2113,7.71,FALSE,3.852,3.848,0.004,FALSE,FALSE,NA,109.4,109.4,109.4,0,0,0,0,5,2605.3,651.32,,Idle,0,20,FALSE,5,TRUE,9,Go Home,FALSE,FALSE,FALSE,FALSE,FALSE,FALSE,FALSE,FALSE,FALSE,FALSE,FALSE,FALSE,6.974495662,79.91427537,0.7,123.6,328,TRUE,1,1,FALSE,FALSE,FALSE,FALSE,,TRUE,FALSE,FALSE,Course Lock,65.6,41.9,16.4,Calm,27,,1.12.8,Mavic Mini,1SDCH7G0169R0K,1SFLH6Q0AB03DJ,1SRCH7F014TAHX,1U5X071EXP5ZJG,80,0.2,19.6,12.450808,4.250186,0,420,Mavic Mini,1SDCH7G0169R0K,1SFLH6Q0AB03DJ,1SRCH7F014TAHX,1U5X071EXP5ZJG,DJI Fly,,1.12.8,57CBE91D-C123-82FB-4515-5F7974F075BC,1SDCH7G0169R0K,,,,,,,,,
2/15/2024,34:45.5,7m 40.9s,460.9,6.974497749,79.91427601,0,0,0.3,49,0.2,0,0,0,0,0,0,0,0,4.6,0,25.6,25.6,,Manual Takeoff,Auto Fly,Takeoff (RC Assisted),16,5,TRUE,,Mavic Mini,TRUE,FALSE,,Smart,RC,TRUE,TRUE,FALSE,,,TRUE,,FALSE,FALSE,FALSE,FALSE,FALSE,FALSE,FALSE,FALSE,FALSE,FALSE,0,Follow Yaw,0,0,52.1,52.1,FALSE,FALSE,FALSE,FALSE,FALSE,FALSE,,TRUE,Normal,,100,1024,1024,1024,1024,1,FALSE,FALSE,FALSE,FALSE,FALSE,0,FALSE,FALSE,FALSE,FALSE,68,7.699,1435,2113,7.71,FALSE,3.852,3.848,0.004,FALSE,FALSE,NA,109.4,109.4,109.4,0,0,0,0,5,2605.3,651.32,,Idle,0,20,FALSE,5,TRUE,9,Go Home,FALSE,FALSE,FALSE,FALSE,FALSE,FALSE,FALSE,FALSE,FALSE,FALSE,FALSE,FALSE,6.974495662,79.91427537,0.7,123.6,328,TRUE,1,1,FALSE,FALSE,FALSE,FALSE,,TRUE,FALSE,FALSE,Course Lock,65.6,41.9,16.4,Calm,27,,1.12.8,Mavic Mini,1SDCH7G0169R0K,1SFLH6Q0AB03DJ,1SRCH7F014TAHX,1U5X071EXP5ZJG,80,0.2,19.6,12.450808,4.250186,0,420,Mavic Mini,1SDCH7G0169R0K,1SFLH6Q0AB03DJ,1SRCH7F014TAHX,1U5X071EXP5ZJG,DJI Fly,,1.12.8,57CBE91D-C123-82FB-4515-5F7974F075BC,1SDCH7G0169R0K,,,,,,,,,
2/15/2024,34:45.6,7m 41.0s,461,6.974497791,79.91427601,0,0,0.3,49,0.2,0,0,0,0,0,0,0,0,4.7,0,25.7,25.7,,Manual Takeoff,Auto Fly,Takeoff (RC Assisted),16,5,TRUE,,Mavic Mini,TRUE,FALSE,,Smart,RC,TRUE,TRUE,FALSE,,,TRUE,,FALSE,FALSE,FALSE,FALSE,FALSE,FALSE,FALSE,FALSE,FALSE,FALSE,0,Follow Yaw,0,0,52.1,52.1,FALSE,FALSE,FALSE,FALSE,FALSE,FALSE,,TRUE,Normal,,100,1024,1024,1024,1024,1,FALSE,FALSE,FALSE,FALSE,FALSE,0,FALSE,FALSE,FALSE,FALSE,68,7.699,1435,2113,7.71,FALSE,3.852,3.848,0.004,FALSE,FALSE,NA,109.4,109.4,109.4,0,0,0,0,5,2605.3,651.32,,Idle,0,20,FALSE,5,TRUE,9,Go Home,FALSE,FALSE,FALSE,FALSE,FALSE,FALSE,FALSE,FALSE,FALSE,FALSE,FALSE,FALSE,6.974495662,79.91427537,0.8,123.6,328,TRUE,1,1,FALSE,FALSE,FALSE,FALSE,,TRUE,FALSE,FALSE,Course Lock,65.6,41.9,16.4,Calm,27,,1.12.8,Mavic Mini,1SDCH7G0169R0K,1SFLH6Q0AB03DJ,1SRCH7F014TAHX,1U5X071EXP5ZJG,80,0.2,19.6,12.450808,4.250186,0,420,Mavic Mini,1SDCH7G0169R0K,1SFLH6Q0AB03DJ,1SRCH7F014TAHX,1U5X071EXP5ZJG,DJI Fly,,1.12.8,57CBE91D-C123-82FB-4515-5F7974F075BC,1SDCH7G0169R0K,,,,,,,,,
2/15/2024,34:45.7,7m 41.1s,461.1,6.974497824,79.914276,0,0,0.3,49,0.2,0,0,0,0,0,0,0,0,4.7,0,25.6,25.6,,Manual Takeoff,Auto Fly,Takeoff (RC Assisted),16,5,TRUE,,Mavic Mini,TRUE,FALSE,,Smart,RC,TRUE,TRUE,FALSE,,,TRUE,,FALSE,FALSE,FALSE,FALSE,FALSE,FALSE,FALSE,FALSE,FALSE,FALSE,0,Follow Yaw,0,0,52.1,52.1,FALSE,FALSE,FALSE,FALSE,FALSE,FALSE,,TRUE,Normal,,100,1024,1024,1024,1024,1,FALSE,FALSE,FALSE,FALSE,FALSE,0,FALSE,FALSE,FALSE,FALSE,68,7.713,1434,2113,7.718,FALSE,3.857,3.856,0.004,FALSE,FALSE,NA,109.4,109.4,109.4,0,0,0,0,5,2605.3,651.32,,Idle,0,20,FALSE,5,TRUE,9,Go Home,FALSE,FALSE,FALSE,FALSE,FALSE,FALSE,FALSE,FALSE,FALSE,FALSE,FALSE,FALSE,6.974495662,79.91427537,0.8,123.6,328,TRUE,1,1,FALSE,FALSE,FALSE,FALSE,,TRUE,FALSE,FALSE,Course Lock,65.6,41.9,16.4,Calm,27,,1.12.8,Mavic Mini,1SDCH7G0169R0K,1SFLH6Q0AB03DJ,1SRCH7F014TAHX,1U5X071EXP5ZJG,80,0.2,19.6,12.450808,4.250186,0,420,Mavic Mini,1SDCH7G0169R0K,1SFLH6Q0AB03DJ,1SRCH7F014TAHX,1U5X071EXP5ZJG,DJI Fly,,1.12.8,57CBE91D-C123-82FB-4515-5F7974F075BC,1SDCH7G0169R0K,,,,,,,,,
2/15/2024,34:45.8,7m 41.2s,461.2,6.974497881,79.91427601,0,0,0.3,49,0.2,0,0,0,0,0,0,0,0,4.7,0,25.6,25.6,,Manual Takeoff,Auto Fly,Takeoff (RC Assisted),16,5,TRUE,,Mavic Mini,TRUE,FALSE,,Smart,RC,TRUE,TRUE,FALSE,,,TRUE,,FALSE,FALSE,FALSE,FALSE,FALSE,FALSE,FALSE,FALSE,FALSE,FALSE,0,Follow Yaw,0,0,52.1,52.1,FALSE,FALSE,FALSE,FALSE,FALSE,FALSE,,TRUE,Normal,,100,1024,1024,1124,1024,1,FALSE,FALSE,FALSE,FALSE,FALSE,0,FALSE,FALSE,FALSE,FALSE,68,7.713,1434,2113,7.718,FALSE,3.857,3.856,0.004,FALSE,FALSE,NA,109.4,109.4,109.4,0,0,0,0,5,2605.3,651.32,,Idle,0,20,FALSE,5,TRUE,9,Go Home,FALSE,FALSE,FALSE,FALSE,FALSE,FALSE,FALSE,FALSE,FALSE,FALSE,FALSE,FALSE,6.974495662,79.91427537,0.8,123.6,328,TRUE,1,1,FALSE,FALSE,FALSE,FALSE,,TRUE,FALSE,FALSE,Course Lock,65.6,41.9,16.4,Calm,27,,1.12.8,Mavic Mini,1SDCH7G0169R0K,1SFLH6Q0AB03DJ,1SRCH7F014TAHX,1U5X071EXP5ZJG,80,0.2,19.6,12.450808,4.250186,0,420,Mavic Mini,1SDCH7G0169R0K,1SFLH6Q0AB03DJ,1SRCH7F014TAHX,1U5X071EXP5ZJG,DJI Fly,,1.12.8,57CBE91D-C123-82FB-4515-5F7974F075BC,1SDCH7G0169R0K,,,,,,,,,
2/15/2024,34:45.9,7m 41.3s,461.3,6.974497897,79.91427601,0,0,0.3,49,0.2,0,0,0,0,0,0,0,0,4.6,0,25.6,25.6,,Manual Takeoff,Auto Fly,Takeoff (RC Assisted),16,5,TRUE,,Mavic Mini,TRUE,FALSE,,Smart,RC,TRUE,TRUE,FALSE,,,TRUE,,FALSE,FALSE,FALSE,FALSE,FALSE,FALSE,FALSE,FALSE,FALSE,FALSE,0,Follow Yaw,0,0,52.1,52.1,FALSE,FALSE,FALSE,FALSE,FALSE,FALSE,,TRUE,Normal,,100,1024,1024,1530,1024,1,FALSE,FALSE,FALSE,FALSE,FALSE,0,FALSE,FALSE,FALSE,FALSE,68,7.713,1434,2113,7.718,FALSE,3.857,3.856,0.004,FALSE,FALSE,NA,109.4,109.4,109.4,0,0,0,0,5,2605.3,651.32,,Idle,0,20,FALSE,5,TRUE,9,Go Home,FALSE,FALSE,FALSE,FALSE,FALSE,FALSE,FALSE,FALSE,FALSE,FALSE,FALSE,FALSE,6.974495662,79.91427537,0.8,123.6,328,TRUE,1,1,FALSE,FALSE,FALSE,FALSE,,TRUE,FALSE,FALSE,Course Lock,65.6,41.9,16.4,Calm,27,,1.12.8,Mavic Mini,1SDCH7G0169R0K,1SFLH6Q0AB03DJ,1SRCH7F014TAHX,1U5X071EXP5ZJG,80,0.2,19.6,12.450808,4.250186,0,420,Mavic Mini,1SDCH7G0169R0K,1SFLH6Q0AB03DJ,1SRCH7F014TAHX,1U5X071EXP5ZJG,DJI Fly,,1.12.8,57CBE91D-C123-82FB-4515-5F7974F075BC,1SDCH7G0169R0K,,,,,,,,,
2/15/2024,34:46.0,7m 41.4s,461.4,6.974497944,79.91427601,0,0,0.3,49,0.2,0,0,0,0,0,0,0,0,4.7,0,25.6,25.6,,Manual Takeoff,Auto Fly,Takeoff (RC Assisted),16,5,TRUE,,Mavic Mini,TRUE,FALSE,,Smart,RC,TRUE,TRUE,FALSE,,,TRUE,,FALSE,FALSE,FALSE,FALSE,FALSE,FALSE,FALSE,FALSE,FALSE,FALSE,0,Follow Yaw,0,0,52.1,52.1,FALSE,FALSE,FALSE,FALSE,FALSE,FALSE,,TRUE,Normal,,100,1024,1024,1615,1024,1,FALSE,FALSE,FALSE,FALSE,FALSE,0,FALSE,FALSE,FALSE,FALSE,68,7.713,1434,2113,7.718,FALSE,3.857,3.856,0.004,FALSE,FALSE,NA,109.4,109.4,109.4,0,0,0,0,5,2605.3,651.32,,Idle,0,20,FALSE,5,TRUE,9,Go Home,FALSE,FALSE,FALSE,FALSE,FALSE,FALSE,FALSE,FALSE,FALSE,FALSE,FALSE,FALSE,6.974495662,79.91427537,0.8,123.6,328,TRUE,1,1,FALSE,FALSE,FALSE,FALSE,,TRUE,FALSE,FALSE,Course Lock,65.6,41.9,16.4,Calm,27,,1.12.8,Mavic Mini,1SDCH7G0169R0K,1SFLH6Q0AB03DJ,1SRCH7F014TAHX,1U5X071EXP5ZJG,80,0.2,19.6,12.450808,4.250186,0,420,Mavic Mini,1SDCH7G0169R0K,1SFLH6Q0AB03DJ,1SRCH7F014TAHX,1U5X071EXP5ZJG,DJI Fly,,1.12.8,57CBE91D-C123-82FB-4515-5F7974F075BC,1SDCH7G0169R0K,,,,,,,,,
2/15/2024,34:46.1,7m 41.5s,461.5,6.974497981,79.91427602,0,0,0.3,49,0.3,0,0,0,0,0,0,0,0,4.6,0,25.6,25.6,,Manual Takeoff,Auto Fly,Takeoff (RC Assisted),16,5,TRUE,,Mavic Mini,TRUE,FALSE,,Smart,RC,TRUE,TRUE,FALSE,,,TRUE,,FALSE,FALSE,FALSE,FALSE,FALSE,FALSE,FALSE,FALSE,FALSE,FALSE,0,Follow Yaw,0,0,52.1,52.1,FALSE,FALSE,FALSE,FALSE,FALSE,FALSE,,TRUE,Normal,,100,1024,1024,1652,1024,1,FALSE,FALSE,FALSE,FALSE,FALSE,0,FALSE,FALSE,FALSE,FALSE,68,7.713,1434,2113,7.718,FALSE,3.857,3.856,0.004,FALSE,FALSE,NA,109.4,109.4,109.4,0,0,0,0,5,2605.3,651.32,,Idle,0,20,FALSE,5,TRUE,9,Go Home,FALSE,FALSE,FALSE,FALSE,FALSE,FALSE,FALSE,FALSE,FALSE,FALSE,FALSE,FALSE,6.974495662,79.91427537,0.8,123.6,328,TRUE,1,1,FALSE,FALSE,FALSE,FALSE,,TRUE,FALSE,FALSE,Course Lock,65.6,41.9,16.4,Calm,27,,1.12.8,Mavic Mini,1SDCH7G0169R0K,1SFLH6Q0AB03DJ,1SRCH7F014TAHX,1U5X071EXP5ZJG,80,0.2,19.6,12.450808,4.250186,0,420,Mavic Mini,1SDCH7G0169R0K,1SFLH6Q0AB03DJ,1SRCH7F014TAHX,1U5X071EXP5ZJG,DJI Fly,,1.12.8,57CBE91D-C123-82FB-4515-5F7974F075BC,1SDCH7G0169R0K,,,,,6.974487207,79.91423562,5,,
2/15/2024,34:46.2,7m 41.6s,461.6,6.974498026,79.91427615,0,0,0.3,49,0.3,0,0,0,0,0,0,0,0,4.6,0,25.6,25.6,,Manual Takeoff,Auto Fly,Takeoff (RC Assisted),16,5,TRUE,,Mavic Mini,TRUE,FALSE,,Smart,RC,TRUE,TRUE,FALSE,,,TRUE,,FALSE,FALSE,FALSE,FALSE,FALSE,FALSE,FALSE,FALSE,FALSE,FALSE,0,Follow Yaw,0,0,52.1,52.1,FALSE,FALSE,FALSE,FALSE,FALSE,FALSE,,TRUE,Normal,,100,1024,1024,1652,1024,1,FALSE,FALSE,FALSE,FALSE,FALSE,0,FALSE,FALSE,FALSE,FALSE,68,7.713,1434,2113,7.718,FALSE,3.857,3.856,0.004,FALSE,FALSE,NA,109.4,109.4,109.4,0,0,0,0,5,2605.3,651.32,,Idle,0,20,FALSE,5,TRUE,9,Go Home,FALSE,FALSE,FALSE,FALSE,FALSE,FALSE,FALSE,FALSE,FALSE,FALSE,FALSE,FALSE,6.974495662,79.91427537,0.9,123.6,328,TRUE,1,1,FALSE,FALSE,FALSE,FALSE,,TRUE,FALSE,FALSE,Course Lock,65.6,41.9,16.4,Calm,27,,1.12.8,Mavic Mini,1SDCH7G0169R0K,1SFLH6Q0AB03DJ,1SRCH7F014TAHX,1U5X071EXP5ZJG,80,0.2,19.6,12.450808,4.250186,0,420,Mavic Mini,1SDCH7G0169R0K,1SFLH6Q0AB03DJ,1SRCH7F014TAHX,1U5X071EXP5ZJG,DJI Fly,,1.12.8,57CBE91D-C123-82FB-4515-5F7974F075BC,1SDCH7G0169R0K,,,,,6.974487207,79.91423562,5,,
2/15/2024,34:46.3,7m 41.7s,461.7,6.974498041,79.91427619,0,0,0.3,49,0.3,0,0,0,0,0,0,0,0,4.6,0,25.6,25.6,,Manual Takeoff,Auto Fly,Takeoff (RC Assisted),16,5,TRUE,,Mavic Mini,TRUE,FALSE,,Smart,RC,TRUE,TRUE,FALSE,,,TRUE,,FALSE,FALSE,FALSE,FALSE,FALSE,FALSE,FALSE,FALSE,FALSE,FALSE,0,Follow Yaw,0,0,52.1,52.1,FALSE,FALSE,FALSE,FALSE,FALSE,FALSE,,TRUE,Normal,,100,1024,1024,1661,1024,1,FALSE,FALSE,FALSE,FALSE,FALSE,0,FALSE,FALSE,FALSE,FALSE,68,7.713,1434,2113,7.718,FALSE,3.857,3.856,0.004,FALSE,FALSE,NA,109.4,109.4,109.4,0,0,0,0,5,2605.3,651.32,,Idle,0,20,FALSE,5,TRUE,9,Go Home,FALSE,FALSE,FALSE,FALSE,FALSE,FALSE,FALSE,FALSE,FALSE,FALSE,FALSE,FALSE,6.974495662,79.91427537,0.9,123.6,328,TRUE,1,1,FALSE,FALSE,FALSE,FALSE,,TRUE,FALSE,FALSE,Course Lock,65.6,41.9,16.4,Calm,27,,1.12.8,Mavic Mini,1SDCH7G0169R0K,1SFLH6Q0AB03DJ,1SRCH7F014TAHX,1U5X071EXP5ZJG,80,0.2,19.6,12.450808,4.250186,0,420,Mavic Mini,1SDCH7G0169R0K,1SFLH6Q0AB03DJ,1SRCH7F014TAHX,1U5X071EXP5ZJG,DJI Fly,,1.12.8,57CBE91D-C123-82FB-4515-5F7974F075BC,1SDCH7G0169R0K,,,,,6.974487207,79.91423562,5,,
2/15/2024,34:46.5,7m 41.8s,461.8,6.974498084,79.9142762,0,0,0.3,49,0.3,0,0,0,0,0,0,0,0,4.7,0,25.3,25.3,,Manual Takeoff,Auto Fly,Takeoff (RC Assisted),16,5,TRUE,,Mavic Mini,TRUE,FALSE,,Smart,RC,TRUE,TRUE,FALSE,,,TRUE,,FALSE,FALSE,FALSE,FALSE,FALSE,FALSE,FALSE,FALSE,FALSE,FALSE,0,Follow Yaw,0,0,52.1,52.1,FALSE,FALSE,FALSE,FALSE,FALSE,FALSE,,TRUE,Normal,,100,1024,1024,1663,1024,1,FALSE,FALSE,FALSE,FALSE,FALSE,0,FALSE,FALSE,FALSE,FALSE,68,7.713,1434,2113,7.718,FALSE,3.857,3.856,0.004,FALSE,FALSE,NA,109.4,109.4,109.4,0,0,0,0,5,2605.3,651.32,,Idle,0,20,FALSE,5,TRUE,9,Go Home,FALSE,FALSE,FALSE,FALSE,FALSE,FALSE,FALSE,FALSE,FALSE,FALSE,FALSE,FALSE,6.974495662,79.91427537,0.9,123.6,328,TRUE,1,1,FALSE,FALSE,FALSE,FALSE,,TRUE,FALSE,FALSE,Course Lock,65.6,41.9,16.4,Calm,27,,1.12.8,Mavic Mini,1SDCH7G0169R0K,1SFLH6Q0AB03DJ,1SRCH7F014TAHX,1U5X071EXP5ZJG,80,0.2,19.6,12.450808,4.250186,0,420,Mavic Mini,1SDCH7G0169R0K,1SFLH6Q0AB03DJ,1SRCH7F014TAHX,1U5X071EXP5ZJG,DJI Fly,,1.12.8,57CBE91D-C123-82FB-4515-5F7974F075BC,1SDCH7G0169R0K,,,,,6.974487207,79.91423562,5,,
2/15/2024,34:46.5,7m 41.9s,461.9,6.974498126,79.91427622,0,0,0.3,49,0.4,0,0,0,0,0,0,0,0,3.4,0.2,24.9,24.9,,Manual Takeoff,Auto Fly,Takeoff (RC Assisted),16,5,TRUE,,Mavic Mini,TRUE,FALSE,,Smart,RC,TRUE,TRUE,FALSE,,,TRUE,,FALSE,FALSE,FALSE,FALSE,FALSE,FALSE,FALSE,FALSE,FALSE,FALSE,0,Follow Yaw,0,0,51.8,51.8,FALSE,FALSE,FALSE,FALSE,FALSE,FALSE,,TRUE,Normal,,100,1024,1024,1663,1024,1,FALSE,FALSE,FALSE,FALSE,FALSE,0,FALSE,FALSE,FALSE,FALSE,68,7.713,1434,2113,7.718,FALSE,3.857,3.856,0.004,FALSE,FALSE,NA,109.4,109.4,109.4,0,0,0,0,5,2605.3,651.32,,Idle,0,20,FALSE,5,TRUE,9,Go Home,FALSE,FALSE,FALSE,FALSE,FALSE,FALSE,FALSE,FALSE,FALSE,FALSE,FALSE,FALSE,6.974495662,79.91427537,0.9,123.6,328,TRUE,1,1,FALSE,FALSE,FALSE,FALSE,,TRUE,FALSE,FALSE,Course Lock,65.6,41.9,16.4,Calm,27,,1.12.8,Mavic Mini,1SDCH7G0169R0K,1SFLH6Q0AB03DJ,1SRCH7F014TAHX,1U5X071EXP5ZJG,80,0.2,19.6,12.450808,4.250186,0,420,Mavic Mini,1SDCH7G0169R0K,1SFLH6Q0AB03DJ,1SRCH7F014TAHX,1U5X071EXP5ZJG,DJI Fly,,1.12.8,57CBE91D-C123-82FB-4515-5F7974F075BC,1SDCH7G0169R0K,,,,,6.974487207,79.91423562,5,,
2/15/2024,34:46.6,7m 42.0s,462,6.974498272,79.9142762,0,0,0.3,49,0.4,0,0,0,0,0,0,0,0,2.4,0.4,24.2,24.2,,Manual Takeoff,Auto Fly,Takeoff (RC Assisted),16,5,TRUE,,Mavic Mini,TRUE,FALSE,,Smart,RC,TRUE,TRUE,FALSE,,,TRUE,,FALSE,FALSE,FALSE,FALSE,FALSE,FALSE,FALSE,FALSE,FALSE,FALSE,0,Follow Yaw,0,0,51.3,51.3,FALSE,FALSE,FALSE,FALSE,FALSE,FALSE,,TRUE,Normal,,100,1024,1024,1663,1024,1,FALSE,FALSE,FALSE,FALSE,FALSE,0,FALSE,FALSE,FALSE,FALSE,68,7.713,1434,2113,7.718,FALSE,3.857,3.856,0.004,FALSE,FALSE,NA,109.4,109.4,109.4,0,0,0,0,5,2605.3,651.32,,Idle,0,20,FALSE,5,TRUE,9,Go Home,FALSE,FALSE,FALSE,FALSE,FALSE,FALSE,FALSE,FALSE,FALSE,FALSE,FALSE,FALSE,6.974495662,79.91427537,0.9,123.6,328,TRUE,1,1,FALSE,FALSE,FALSE,FALSE,,TRUE,FALSE,FALSE,Course Lock,65.6,41.9,16.4,Calm,27,,1.12.8,Mavic Mini,1SDCH7G0169R0K,1SFLH6Q0AB03DJ,1SRCH7F014TAHX,1U5X071EXP5ZJG,80,0.2,19.6,12.450808,4.250186,0,420,Mavic Mini,1SDCH7G0169R0K,1SFLH6Q0AB03DJ,1SRCH7F014TAHX,1U5X071EXP5ZJG,DJI Fly,,1.12.8,57CBE91D-C123-82FB-4515-5F7974F075BC,1SDCH7G0169R0K,,,,,6.974487207,79.91423562,5,,
2/15/2024,34:46.7,7m 42.1s,462.1,6.974498313,79.91427622,0,0,0.3,49,0.4,0,0,0,0,0,0,0,0,0.4,-0.6,23.6,23.6,,Manual Takeoff,Auto Fly,Takeoff (RC Assisted),16,5,TRUE,,Mavic Mini,TRUE,FALSE,,Smart,RC,TRUE,TRUE,FALSE,,,TRUE,,FALSE,FALSE,FALSE,FALSE,FALSE,FALSE,FALSE,FALSE,FALSE,FALSE,0,Follow Yaw,0,0,50.7,50.7,FALSE,FALSE,FALSE,FALSE,FALSE,FALSE,,TRUE,Normal,,100,1024,1024,1662,1024,1,FALSE,FALSE,FALSE,FALSE,FALSE,0,FALSE,FALSE,FALSE,FALSE,68,7.713,1434,2113,7.673,FALSE,3.857,3.856,0.004,FALSE,FALSE,NA,109.4,109.4,109.4,0,0,0,0,5,2658.6,664.67,,Idle,0,20,FALSE,5,TRUE,9,Go Home,FALSE,FALSE,FALSE,FALSE,FALSE,FALSE,FALSE,FALSE,FALSE,FALSE,FALSE,FALSE,6.974495662,79.91427537,1,123.6,328,TRUE,1,1,FALSE,FALSE,FALSE,FALSE,,TRUE,FALSE,FALSE,Course Lock,65.6,41.9,16.4,Calm,27,,1.12.8,Mavic Mini,1SDCH7G0169R0K,1SFLH6Q0AB03DJ,1SRCH7F014TAHX,1U5X071EXP5ZJG,80,0.2,19.6,12.450808,4.250186,0,420,Mavic Mini,1SDCH7G0169R0K,1SFLH6Q0AB03DJ,1SRCH7F014TAHX,1U5X071EXP5ZJG,DJI Fly,,1.12.8,57CBE91D-C123-82FB-4515-5F7974F075BC,1SDCH7G0169R0K,,,,,6.974487207,79.91423562,5,,
2/15/2024,34:46.9,7m 42.2s,462.2,6.974498323,79.91427623,0,0,0.3,49,0.4,0,0,0,0,0,0,-0.223694,0,-0.2,-1.6,22.8,22.8,,Manual Takeoff,Auto Fly,,16,5,TRUE,,Mavic Mini,TRUE,FALSE,,Smart,RC,FALSE,TRUE,FALSE,,,TRUE,,FALSE,FALSE,FALSE,FALSE,FALSE,FALSE,FALSE,FALSE,FALSE,FALSE,0,Follow Yaw,0,0,50,50,FALSE,FALSE,FALSE,FALSE,FALSE,FALSE,,TRUE,Normal,,100,1024,1024,1662,1024,1,FALSE,FALSE,FALSE,FALSE,FALSE,0,FALSE,FALSE,FALSE,FALSE,68,7.713,1434,2113,7.673,FALSE,3.857,3.856,0.004,FALSE,FALSE,NA,109.4,109.4,109.4,0,0,0,0,5,2658.6,664.67,,Idle,0,20,FALSE,5,TRUE,9,Go Home,FALSE,FALSE,FALSE,FALSE,FALSE,FALSE,FALSE,FALSE,FALSE,FALSE,FALSE,FALSE,6.974495662,79.91427537,1,123.6,328,TRUE,1,1,FALSE,FALSE,FALSE,FALSE,,TRUE,FALSE,FALSE,Course Lock,65.6,41.9,16.4,Calm,27,,1.12.8,Mavic Mini,1SDCH7G0169R0K,1SFLH6Q0AB03DJ,1SRCH7F014TAHX,1U5X071EXP5ZJG,80,0.2,19.6,12.450808,4.250186,0,420,Mavic Mini,1SDCH7G0169R0K,1SFLH6Q0AB03DJ,1SRCH7F014TAHX,1U5X071EXP5ZJG,DJI Fly,,1.12.8,57CBE91D-C123-82FB-4515-5F7974F075BC,1SDCH7G0169R0K,,,,,6.974487207,79.91423562,5,,
2/15/2024,34:47.0,7m 42.3s,462.3,6.974498365,79.91427624,0,0,0.3,49,0.4,0,0,0,0,0,0,-0.671082,0,1,-1.2,22.7,22.7,,P-GPS,Auto Fly,,16,5,TRUE,,Mavic Mini,TRUE,FALSE,,Smart,RC,FALSE,TRUE,FALSE,,,TRUE,,FALSE,FALSE,FALSE,FALSE,FALSE,FALSE,FALSE,FALSE,FALSE,FALSE,0,Follow Yaw,0,0,49.9,49.9,FALSE,FALSE,FALSE,FALSE,FALSE,FALSE,,TRUE,Normal,,100,1024,1024,1663,1024,1,FALSE,FALSE,FALSE,FALSE,FALSE,0,FALSE,FALSE,FALSE,FALSE,68,7.571,1433,2113,7.673,FALSE,3.788,3.784,0.004,FALSE,FALSE,NA,109.4,109.4,109.4,0,0,0,0,5,2658.6,664.67,,Idle,0,20,FALSE,5,TRUE,9,Go Home,FALSE,FALSE,FALSE,FALSE,FALSE,FALSE,FALSE,FALSE,FALSE,FALSE,FALSE,FALSE,6.974495662,79.91427537,1,123.6,328,TRUE,1,1,FALSE,FALSE,FALSE,FALSE,,TRUE,FALSE,FALSE,Course Lock,65.6,41.9,16.4,Calm,27,,1.12.8,Mavic Mini,1SDCH7G0169R0K,1SFLH6Q0AB03DJ,1SRCH7F014TAHX,1U5X071EXP5ZJG,80,0.2,19.6,12.450808,4.250186,0,420,Mavic Mini,1SDCH7G0169R0K,1SFLH6Q0AB03DJ,1SRCH7F014TAHX,1U5X071EXP5ZJG,DJI Fly,,1.12.8,57CBE91D-C123-82FB-4515-5F7974F075BC,1SDCH7G0169R0K,,,,,6.974487207,79.91423562,5,Flight mode changed to P-GPS.,
2/15/2024,34:47.1,7m 42.4s,462.4,6.974498465,79.91427624,0,0,0.6,49,0.5,0,0,0,0,0,0,-1.11847,0,0.8,-0.2,23,23,,P-GPS,Auto Fly,,16,5,TRUE,,Mavic Mini,TRUE,FALSE,,Smart,RC,FALSE,TRUE,FALSE,,,TRUE,,FALSE,FALSE,FALSE,FALSE,FALSE,FALSE,FALSE,FALSE,FALSE,FALSE,0,Follow Yaw,0,0,49.9,49.9,FALSE,FALSE,FALSE,FALSE,FALSE,FALSE,,TRUE,Normal,,100,1024,1024,1662,1024,1,FALSE,FALSE,FALSE,FALSE,FALSE,0,FALSE,FALSE,FALSE,FALSE,68,7.571,1433,2113,7.673,FALSE,3.788,3.784,0.004,FALSE,FALSE,NA,109.4,109.4,109.4,0,0,0,0,5,2658.6,664.67,,Idle,0,20,FALSE,5,TRUE,9,Go Home,FALSE,FALSE,FALSE,FALSE,FALSE,FALSE,FALSE,FALSE,FALSE,FALSE,FALSE,FALSE,6.974495662,79.91427537,1,123.6,328,TRUE,1,1,FALSE,FALSE,FALSE,FALSE,,TRUE,FALSE,FALSE,Course Lock,65.6,41.9,16.4,Calm,27,,1.12.8,Mavic Mini,1SDCH7G0169R0K,1SFLH6Q0AB03DJ,1SRCH7F014TAHX,1U5X071EXP5ZJG,80,0.2,19.6,12.450808,4.250186,0,420,Mavic Mini,1SDCH7G0169R0K,1SFLH6Q0AB03DJ,1SRCH7F014TAHX,1U5X071EXP5ZJG,DJI Fly,,1.12.8,57CBE91D-C123-82FB-4515-5F7974F075BC,1SDCH7G0169R0K,,,,,6.974487207,79.91423562,5,,
2/15/2024,34:47.2,7m 42.5s,462.5,6.974498557,79.9142762,0.3,0.3,0.6,49,0.5,0,0,0,0,0,0,-1.565858,0,1.4,0.1,23.2,23.2,,P-GPS,Auto Fly,,16,5,TRUE,,Mavic Mini,TRUE,FALSE,,Smart,RC,FALSE,TRUE,FALSE,,,TRUE,,FALSE,FALSE,FALSE,FALSE,FALSE,FALSE,FALSE,FALSE,FALSE,FALSE,0,Follow Yaw,0,0,49.9,49.9,FALSE,FALSE,FALSE,FALSE,FALSE,FALSE,,TRUE,Normal,,100,1024,1024,1662,1024,1,FALSE,FALSE,FALSE,FALSE,FALSE,0,FALSE,FALSE,FALSE,FALSE,68,7.571,1433,2113,7.673,FALSE,3.788,3.784,0.004,FALSE,FALSE,NA,109.4,109.4,109.4,0,0,0,0,5,2658.6,664.67,,Idle,0,20,FALSE,5,TRUE,9,Go Home,FALSE,FALSE,FALSE,FALSE,FALSE,FALSE,FALSE,FALSE,FALSE,FALSE,FALSE,FALSE,6.974495662,79.91427537,1,123.6,328,TRUE,1,1,FALSE,FALSE,FALSE,FALSE,,TRUE,FALSE,FALSE,Course Lock,65.6,41.9,16.4,Calm,27,,1.12.8,Mavic Mini,1SDCH7G0169R0K,1SFLH6Q0AB03DJ,1SRCH7F014TAHX,1U5X071EXP5ZJG,80,0.2,19.6,12.450808,4.250186,0,420,Mavic Mini,1SDCH7G0169R0K,1SFLH6Q0AB03DJ,1SRCH7F014TAHX,1U5X071EXP5ZJG,DJI Fly,,1.12.8,57CBE91D-C123-82FB-4515-5F7974F075BC,1SDCH7G0169R0K,,,,,6.974487207,79.91423562,5,,
2/15/2024,34:47.2,7m 42.6s,462.6,6.974498653,79.91427625,0.6,0.6,0.9,49,0.6,0.223694,0.223694,0.223694,0.223694,0,0,-2.013246,0,1.9,0.2,23.1,23.1,22.6,P-GPS,Auto Fly,,16,5,TRUE,,Mavic Mini,TRUE,FALSE,,Smart,RC,FALSE,TRUE,FALSE,,,TRUE,,FALSE,FALSE,FALSE,FALSE,FALSE,FALSE,FALSE,FALSE,FALSE,FALSE,0,Follow Yaw,0,0,49.9,49.9,FALSE,FALSE,FALSE,FALSE,FALSE,FALSE,,TRUE,Normal,,100,1024,1024,1657,1024,1,FALSE,FALSE,FALSE,FALSE,FALSE,0,FALSE,FALSE,FALSE,FALSE,68,7.571,1433,2113,7.673,FALSE,3.788,3.784,0.004,FALSE,FALSE,NA,109.4,109.4,109.4,0,0,0,0,5,2658.6,664.67,,Idle,0,20,FALSE,5,TRUE,9,Go Home,FALSE,FALSE,FALSE,FALSE,FALSE,FALSE,FALSE,FALSE,FALSE,FALSE,FALSE,FALSE,6.974495662,79.91427537,1.1,123.6,328,TRUE,1,1,FALSE,FALSE,FALSE,FALSE,,TRUE,FALSE,FALSE,Course Lock,65.6,41.9,16.4,Calm,27,,1.12.8,Mavic Mini,1SDCH7G0169R0K,1SFLH6Q0AB03DJ,1SRCH7F014TAHX,1U5X071EXP5ZJG,80,0.2,19.6,12.450808,4.250186,0,420,Mavic Mini,1SDCH7G0169R0K,1SFLH6Q0AB03DJ,1SRCH7F014TAHX,1U5X071EXP5ZJG,DJI Fly,,1.12.8,57CBE91D-C123-82FB-4515-5F7974F075BC,1SDCH7G0169R0K,,,,,6.974487207,79.91423562,5,,
2/15/2024,34:47.3,7m 42.7s,462.7,6.974498746,79.91427631,0.9,0.9,1.3,50,0.6,0,0.223694,0,0.223694,0,0,-2.684328,0,1.8,0.1,23.2,23.2,,P-GPS,Auto Fly,,16,5,TRUE,,Mavic Mini,TRUE,FALSE,,Smart,RC,FALSE,TRUE,FALSE,,,TRUE,,FALSE,FALSE,FALSE,FALSE,FALSE,FALSE,FALSE,FALSE,FALSE,FALSE,0,Follow Yaw,0,0,49.9,49.9,FALSE,FALSE,FALSE,FALSE,FALSE,FALSE,,TRUE,Normal,,100,1024,1024,1651,1024,1,FALSE,FALSE,FALSE,FALSE,FALSE,0,FALSE,FALSE,FALSE,FALSE,68,7.571,1433,2113,7.673,FALSE,3.788,3.784,0.004,FALSE,FALSE,NA,109.4,109.4,109.4,0,0,0,0,5,2658.6,664.67,,Idle,0,20,FALSE,5,TRUE,9,Go Home,FALSE,FALSE,FALSE,FALSE,FALSE,FALSE,FALSE,FALSE,FALSE,FALSE,FALSE,FALSE,6.974495662,79.91427537,1.1,123.6,328,TRUE,1,1,FALSE,FALSE,FALSE,FALSE,,TRUE,FALSE,FALSE,Course Lock,65.6,41.9,16.4,Calm,27,,1.12.8,Mavic Mini,1SDCH7G0169R0K,1SFLH6Q0AB03DJ,1SRCH7F014TAHX,1U5X071EXP5ZJG,80,0.2,19.6,12.450808,4.250186,0,420,Mavic Mini,1SDCH7G0169R0K,1SFLH6Q0AB03DJ,1SRCH7F014TAHX,1U5X071EXP5ZJG,DJI Fly,,1.12.8,57CBE91D-C123-82FB-4515-5F7974F075BC,1SDCH7G0169R0K,,,,,6.974487207,79.91423562,5,,
2/15/2024,34:47.4,7m 42.8s,462.8,6.974498864,79.91427634,1.3,1.3,1.6,50,0.6,0,0.223694,0,0.223694,0,0,-3.131716,0,1.9,-0.2,23.1,23.1,,P-GPS,Auto Fly,,16,5,TRUE,,Mavic Mini,TRUE,FALSE,,Smart,RC,FALSE,TRUE,FALSE,,,TRUE,,FALSE,FALSE,FALSE,FALSE,FALSE,FALSE,FALSE,FALSE,FALSE,FALSE,0,Follow Yaw,0,0,49.9,49.9,FALSE,FALSE,FALSE,FALSE,FALSE,FALSE,,TRUE,Normal,,100,1024,1024,1647,1024,1,FALSE,FALSE,FALSE,FALSE,FALSE,0,FALSE,FALSE,FALSE,FALSE,68,7.571,1433,2113,7.673,FALSE,3.788,3.784,0.004,FALSE,FALSE,NA,109.4,109.4,109.4,0,0,0,0,5,2658.6,664.67,,Idle,0,20,FALSE,5,TRUE,9,Go Home,FALSE,FALSE,FALSE,FALSE,FALSE,FALSE,FALSE,FALSE,FALSE,FALSE,FALSE,FALSE,6.974495662,79.91427537,1.2,123.6,328,TRUE,1,1,FALSE,FALSE,FALSE,FALSE,,TRUE,FALSE,FALSE,Course Lock,65.6,41.9,16.4,Calm,27,,1.12.8,Mavic Mini,1SDCH7G0169R0K,1SFLH6Q0AB03DJ,1SRCH7F014TAHX,1U5X071EXP5ZJG,80,0.2,19.6,12.450808,4.250186,0,420,Mavic Mini,1SDCH7G0169R0K,1SFLH6Q0AB03DJ,1SRCH7F014TAHX,1U5X071EXP5ZJG,DJI Fly,,1.12.8,57CBE91D-C123-82FB-4515-5F7974F075BC,1SDCH7G0169R0K,,,,,6.974487207,79.91423562,5,,
2/15/2024,34:47.5,7m 42.9s,462.9,6.974498938,79.91427639,1.9,1.9,2.2,51,0.7,0,0.223694,0,0.223694,0,0,-3.579104,0,1.9,-0.1,23.2,23.2,,P-GPS,Auto Fly,,15,5,TRUE,,Mavic Mini,TRUE,FALSE,,Smart,RC,FALSE,TRUE,FALSE,,,TRUE,,FALSE,FALSE,FALSE,FALSE,FALSE,FALSE,FALSE,FALSE,FALSE,FALSE,0,Follow Yaw,0,0,49.9,49.9,FALSE,FALSE,FALSE,FALSE,FALSE,FALSE,,TRUE,Normal,,100,1024,1024,1611,1024,1,FALSE,FALSE,FALSE,FALSE,FALSE,0,FALSE,FALSE,FALSE,FALSE,68,7.571,1433,2113,7.673,FALSE,3.788,3.784,0.004,FALSE,FALSE,NA,109.4,109.4,109.4,0,0,0,0,5,2658.6,664.67,,Idle,0,20,FALSE,5,TRUE,9,Go Home,FALSE,FALSE,FALSE,FALSE,FALSE,FALSE,FALSE,FALSE,FALSE,FALSE,FALSE,FALSE,6.974495662,79.91427537,1.2,123.6,328,TRUE,1,1,FALSE,FALSE,FALSE,FALSE,,TRUE,FALSE,FALSE,Course Lock,65.6,41.9,16.4,Calm,27,,1.12.8,Mavic Mini,1SDCH7G0169R0K,1SFLH6Q0AB03DJ,1SRCH7F014TAHX,1U5X071EXP5ZJG,80,0.2,19.6,12.450808,4.250186,0,420,Mavic Mini,1SDCH7G0169R0K,1SFLH6Q0AB03DJ,1SRCH7F014TAHX,1U5X071EXP5ZJG,DJI Fly,,1.12.8,57CBE91D-C123-82FB-4515-5F7974F075BC,1SDCH7G0169R0K,,,,,6.974487207,79.91423562,5,,
2/15/2024,34:47.6,7m 43.0s,463,6.974498966,79.91427639,2.2,2.2,2.6,51,0.7,0,0.223694,0,0.223694,0,0,-4.026492,0,2.4,-0.2,23.3,23.3,,P-GPS,Auto Fly,,15,5,TRUE,,Mavic Mini,TRUE,FALSE,,Smart,RC,FALSE,TRUE,FALSE,,,TRUE,,FALSE,FALSE,FALSE,FALSE,FALSE,FALSE,FALSE,FALSE,FALSE,FALSE,0,Follow Yaw,0,0,49.9,49.9,FALSE,FALSE,FALSE,FALSE,FALSE,FALSE,,TRUE,Normal,,100,1024,1024,1409,1024,1,FALSE,FALSE,FALSE,FALSE,FALSE,0,FALSE,FALSE,FALSE,FALSE,68,7.571,1433,2113,7.673,FALSE,3.788,3.784,0.004,FALSE,FALSE,NA,109.4,109.4,109.4,0,0,0,0,5,2658.6,664.67,,Idle,0,20,FALSE,5,TRUE,9,Go Home,FALSE,FALSE,FALSE,FALSE,FALSE,FALSE,FALSE,FALSE,FALSE,FALSE,FALSE,FALSE,6.974495662,79.91427537,1.2,123.6,328,TRUE,1,1,FALSE,FALSE,FALSE,FALSE,,TRUE,FALSE,FALSE,Course Lock,65.6,41.9,16.4,Calm,27,,1.12.8,Mavic Mini,1SDCH7G0169R0K,1SFLH6Q0AB03DJ,1SRCH7F014TAHX,1U5X071EXP5ZJG,80,0.2,19.6,12.450808,4.250186,0,420,Mavic Mini,1SDCH7G0169R0K,1SFLH6Q0AB03DJ,1SRCH7F014TAHX,1U5X071EXP5ZJG,DJI Fly,,1.12.8,57CBE91D-C123-82FB-4515-5F7974F075BC,1SDCH7G0169R0K,,,,,6.974487207,79.91423562,5,,
2/15/2024,34:47.7,7m 43.1s,463.1,6.974499007,79.9142764,2.9,2.9,3.2,51,0.7,0,0.223694,0,0.223694,0,0,-4.250186,0,2.5,-0.4,23.3,23.3,,P-GPS,Auto Fly,,14,5,TRUE,,Mavic Mini,TRUE,FALSE,,Smart,RC,FALSE,TRUE,FALSE,,,TRUE,,FALSE,FALSE,FALSE,FALSE,FALSE,FALSE,FALSE,FALSE,FALSE,FALSE,0,Follow Yaw,0,0,49.9,49.9,FALSE,FALSE,FALSE,FALSE,FALSE,FALSE,,TRUE,Normal,,100,1024,1024,1056,1024,1,FALSE,FALSE,FALSE,FALSE,FALSE,0,FALSE,FALSE,FALSE,FALSE,68,7.571,1433,2113,7.632,FALSE,3.788,3.784,0.004,FALSE,FALSE,NA,109.4,109.4,109.4,0,0,2,0,5,2894.2,723.56,,Idle,0,20,FALSE,5,TRUE,9,Go Home,FALSE,FALSE,FALSE,FALSE,FALSE,FALSE,FALSE,FALSE,FALSE,FALSE,FALSE,FALSE,6.974498322,79.91427623,0.2,123.6,328,TRUE,1,1,FALSE,FALSE,FALSE,FALSE,,TRUE,FALSE,FALSE,Course Lock,65.6,41.9,16.4,Calm,27,,1.12.8,Mavic Mini,1SDCH7G0169R0K,1SFLH6Q0AB03DJ,1SRCH7F014TAHX,1U5X071EXP5ZJG,80,0.2,19.6,12.450808,4.250186,0,420,Mavic Mini,1SDCH7G0169R0K,1SFLH6Q0AB03DJ,1SRCH7F014TAHX,1U5X071EXP5ZJG,DJI Fly,,1.12.8,57CBE91D-C123-82FB-4515-5F7974F075BC,1SDCH7G0169R0K,,,,,6.974487207,79.91423562,5,Home Point Updated.,
2/15/2024,34:47.8,7m 43.2s,463.2,6.974499118,79.91427647,3.6,3.6,3.9,52,0.7,0,0.223694,0,0.223694,0,0,-4.026492,0,2.1,-0.4,23.3,23.3,,P-GPS,Auto Fly,,14,5,TRUE,,Mavic Mini,TRUE,FALSE,,Smart,RC,FALSE,TRUE,FALSE,,,TRUE,,FALSE,FALSE,FALSE,FALSE,FALSE,FALSE,FALSE,FALSE,FALSE,FALSE,0,Follow Yaw,0,0,49.9,49.9,FALSE,FALSE,FALSE,FALSE,FALSE,FALSE,,TRUE,Normal,,100,1024,1024,1024,1024,1,FALSE,FALSE,FALSE,FALSE,FALSE,0,FALSE,FALSE,FALSE,FALSE,68,7.571,1433,2113,7.632,FALSE,3.788,3.784,0.004,FALSE,FALSE,NA,109.4,109.4,109.4,0,0,2,0,5,2894.2,723.56,,Idle,0,20,FALSE,5,TRUE,9,Go Home,FALSE,FALSE,FALSE,FALSE,FALSE,FALSE,FALSE,FALSE,FALSE,FALSE,FALSE,FALSE,6.974498322,79.91427623,0.3,123.6,328,TRUE,1,1,FALSE,FALSE,FALSE,FALSE,,TRUE,FALSE,FALSE,Course Lock,65.6,41.9,16.4,Calm,27,,1.12.8,Mavic Mini,1SDCH7G0169R0K,1SFLH6Q0AB03DJ,1SRCH7F014TAHX,1U5X071EXP5ZJG,80,0.2,19.6,12.450808,4.250186,0,420,Mavic Mini,1SDCH7G0169R0K,1SFLH6Q0AB03DJ,1SRCH7F014TAHX,1U5X071EXP5ZJG,DJI Fly,,1.12.8,57CBE91D-C123-82FB-4515-5F7974F075BC,1SDCH7G0169R0K,,,,,6.974487207,79.91423562,5,,
2/15/2024,34:47.9,7m 43.3s,463.3,6.974499166,79.91427648,3.9,3.9,4.5,52,0.8,0,0.223694,0,0.223694,0,0,-3.579104,0,2.1,-0.3,23.3,23.3,,P-GPS,Auto Fly,,15,5,TRUE,,Mavic Mini,TRUE,FALSE,,Smart,RC,FALSE,TRUE,FALSE,,,TRUE,,FALSE,FALSE,FALSE,FALSE,FALSE,FALSE,FALSE,FALSE,FALSE,FALSE,0,Follow Yaw,0,0,49.9,49.9,FALSE,FALSE,FALSE,FALSE,FALSE,FALSE,,TRUE,Normal,,100,1024,1024,1024,1024,1,FALSE,FALSE,FALSE,FALSE,FALSE,0,FALSE,FALSE,FALSE,FALSE,68,7.571,1433,2113,7.632,FALSE,3.788,3.784,0.004,FALSE,FALSE,NA,109.4,109.4,109.4,0,0,2,0,5,2894.2,723.56,,Idle,0,20,FALSE,5,TRUE,9,Go Home,FALSE,FALSE,FALSE,FALSE,FALSE,FALSE,FALSE,FALSE,FALSE,FALSE,FALSE,FALSE,6.974498322,79.91427623,0.3,123.6,328,TRUE,1,1,FALSE,FALSE,FALSE,FALSE,,TRUE,FALSE,FALSE,Course Lock,65.6,41.9,16.4,Calm,27,,1.12.8,Mavic Mini,1SDCH7G0169R0K,1SFLH6Q0AB03DJ,1SRCH7F014TAHX,1U5X071EXP5ZJG,80,0.2,19.6,12.450808,4.250186,0,420,Mavic Mini,1SDCH7G0169R0K,1SFLH6Q0AB03DJ,1SRCH7F014TAHX,1U5X071EXP5ZJG,DJI Fly,,1.12.8,57CBE91D-C123-82FB-4515-5F7974F075BC,1SDCH7G0169R0K,,,,,6.974487207,79.91423562,5,Home Point updated. RTH altitude adjusted to 20 m! (Code: 120852).,
2/15/2024,34:48.0,7m 43.4s,463.4,6.97449927,79.9142765,4.5,4.5,5.2,53,0.8,0,0.223694,0,0.223694,0,0,-3.131716,0,2,0,23.4,23.4,,P-GPS,Auto Fly,,15,5,TRUE,,Mavic Mini,TRUE,FALSE,,Smart,RC,FALSE,TRUE,FALSE,,,TRUE,,FALSE,FALSE,FALSE,FALSE,FALSE,FALSE,FALSE,FALSE,FALSE,FALSE,0,Follow Yaw,0,0,49.9,49.9,FALSE,FALSE,FALSE,FALSE,FALSE,FALSE,,TRUE,Normal,,100,1024,1024,1024,1024,1,FALSE,FALSE,FALSE,FALSE,FALSE,0,FALSE,FALSE,FALSE,FALSE,68,7.523,1432,2113,7.632,FALSE,3.758,3.765,0.007,FALSE,FALSE,NA,109.4,109.4,109.4,0,0,2,0,5,2894.2,723.56,,Idle,0,20,FALSE,5,TRUE,9,Go Home,FALSE,FALSE,FALSE,FALSE,FALSE,FALSE,FALSE,FALSE,FALSE,FALSE,FALSE,FALSE,6.974498322,79.91427623,0.3,123.6,328,TRUE,1,1,FALSE,FALSE,FALSE,FALSE,,TRUE,FALSE,FALSE,Course Lock,65.6,41.9,16.4,Calm,27,,1.12.8,Mavic Mini,1SDCH7G0169R0K,1SFLH6Q0AB03DJ,1SRCH7F014TAHX,1U5X071EXP5ZJG,80,0.2,19.6,12.450808,4.250186,0,420,Mavic Mini,1SDCH7G0169R0K,1SFLH6Q0AB03DJ,1SRCH7F014TAHX,1U5X071EXP5ZJG,DJI Fly,,1.12.8,57CBE91D-C123-82FB-4515-5F7974F075BC,1SDCH7G0169R0K,,,,,6.974487207,79.91423562,5,,
2/15/2024,34:48.0,7m 43.5s,463.5,6.97449938,79.91427651,4.9,4.9,5.5,53,0.8,0,0.223694,0,0.223694,0,0,-2.684328,0,1.9,0,23.4,23.4,,P-GPS,Auto Fly,,15,5,TRUE,,Mavic Mini,TRUE,FALSE,,Smart,RC,FALSE,TRUE,FALSE,,,TRUE,,FALSE,FALSE,FALSE,FALSE,FALSE,FALSE,FALSE,FALSE,FALSE,FALSE,0,Follow Yaw,0,0,49.9,49.9,FALSE,FALSE,FALSE,FALSE,FALSE,FALSE,,TRUE,Normal,,100,1024,1024,1024,1024,1,FALSE,FALSE,FALSE,FALSE,FALSE,0,FALSE,FALSE,FALSE,FALSE,68,7.523,1432,2113,7.632,FALSE,3.758,3.765,0.007,FALSE,FALSE,NA,109.4,109.4,109.4,0,0,2,0,5,2894.2,723.56,,Idle,0,20,FALSE,5,TRUE,9,Go Home,FALSE,FALSE,FALSE,FALSE,FALSE,FALSE,FALSE,FALSE,FALSE,FALSE,FALSE,FALSE,6.974498322,79.91427623,0.3,123.6,328,TRUE,1,1,FALSE,FALSE,FALSE,FALSE,,TRUE,FALSE,FALSE,Course Lock,65.6,41.9,16.4,Calm,27,,1.12.8,Mavic Mini,1SDCH7G0169R0K,1SFLH6Q0AB03DJ,1SRCH7F014TAHX,1U5X071EXP5ZJG,80,0.2,19.6,12.450808,4.250186,0,420,Mavic Mini,1SDCH7G0169R0K,1SFLH6Q0AB03DJ,1SRCH7F014TAHX,1U5X071EXP5ZJG,DJI Fly,,1.12.8,57CBE91D-C123-82FB-4515-5F7974F075BC,1SDCH7G0169R0K,,,,,6.974487207,79.91423562,5,,
2/15/2024,34:48.2,7m 43.6s,463.6,6.974499534,79.9142765,5.2,5.2,5.9,54,0.9,0,0.223694,0,0.223694,0,0,-2.013246,0,1.9,0.1,23.4,23.4,,P-GPS,Auto Fly,,15,5,TRUE,,Mavic Mini,TRUE,FALSE,,Smart,RC,FALSE,TRUE,FALSE,,,TRUE,,FALSE,FALSE,FALSE,FALSE,FALSE,FALSE,FALSE,FALSE,FALSE,FALSE,0,Follow Yaw,0,0,49.9,49.9,FALSE,FALSE,FALSE,FALSE,FALSE,FALSE,,TRUE,Normal,,100,1024,1024,1024,1024,1,FALSE,FALSE,FALSE,FALSE,FALSE,0,FALSE,FALSE,FALSE,FALSE,68,7.523,1432,2113,7.632,FALSE,3.758,3.765,0.007,FALSE,FALSE,NA,109.4,109.4,109.4,0,0,2,0,5,2894.2,723.56,,Idle,0,20,FALSE,5,TRUE,9,Go Home,FALSE,FALSE,FALSE,FALSE,FALSE,FALSE,FALSE,FALSE,FALSE,FALSE,FALSE,FALSE,6.974498322,79.91427623,0.4,123.6,328,TRUE,1,1,FALSE,FALSE,FALSE,FALSE,,TRUE,FALSE,FALSE,Course Lock,65.6,41.9,16.4,Calm,27,,1.12.8,Mavic Mini,1SDCH7G0169R0K,1SFLH6Q0AB03DJ,1SRCH7F014TAHX,1U5X071EXP5ZJG,80,0.2,19.6,12.450808,4.250186,0,420,Mavic Mini,1SDCH7G0169R0K,1SFLH6Q0AB03DJ,1SRCH7F014TAHX,1U5X071EXP5ZJG,DJI Fly,,1.12.8,57CBE91D-C123-82FB-4515-5F7974F075BC,1SDCH7G0169R0K,,,,,6.974487207,79.91423562,5,,
2/15/2024,34:48.3,7m 43.7s,463.7,6.974499718,79.91427623,5.5,5.5,6.2,54,1,0,0.223694,0,0.223694,0,0,-1.342164,0,1.9,0.2,23.4,23.4,,P-GPS,Auto Fly,,15,5,TRUE,,Mavic Mini,TRUE,FALSE,,Smart,RC,FALSE,TRUE,FALSE,,,TRUE,,FALSE,FALSE,FALSE,FALSE,FALSE,FALSE,FALSE,FALSE,FALSE,FALSE,0,Follow Yaw,0,0,49.9,49.9,FALSE,FALSE,FALSE,FALSE,FALSE,FALSE,,TRUE,Normal,,100,1024,1024,1024,1024,1,FALSE,FALSE,FALSE,FALSE,FALSE,0,FALSE,FALSE,FALSE,FALSE,68,7.523,1432,2113,7.632,FALSE,3.758,3.765,0.007,FALSE,FALSE,NA,109.4,109.4,109.4,0,0,2,0,5,2894.2,723.56,,Idle,0,20,FALSE,5,TRUE,9,Go Home,FALSE,FALSE,FALSE,FALSE,FALSE,FALSE,FALSE,FALSE,FALSE,FALSE,FALSE,FALSE,6.974498322,79.91427623,0.5,123.6,328,TRUE,1,1,FALSE,FALSE,FALSE,FALSE,,TRUE,FALSE,FALSE,Course Lock,65.6,41.9,16.4,Calm,27,,1.12.8,Mavic Mini,1SDCH7G0169R0K,1SFLH6Q0AB03DJ,1SRCH7F014TAHX,1U5X071EXP5ZJG,80,0.2,19.6,12.450808,4.250186,0,420,Mavic Mini,1SDCH7G0169R0K,1SFLH6Q0AB03DJ,1SRCH7F014TAHX,1U5X071EXP5ZJG,DJI Fly,,1.12.8,57CBE91D-C123-82FB-4515-5F7974F075BC,1SDCH7G0169R0K,,,,,6.974487207,79.91423562,5,,
2/15/2024,34:48.4,7m 43.8s,463.8,6.974499797,79.91427617,5.5,5.5,6.5,54,1.1,0,0.223694,0,0.223694,0,0,-0.671082,0,1.7,0.5,23.4,23.4,,P-GPS,Auto Fly,,15,5,TRUE,,Mavic Mini,TRUE,FALSE,,Smart,RC,FALSE,TRUE,FALSE,,,TRUE,,FALSE,FALSE,FALSE,FALSE,FALSE,FALSE,FALSE,FALSE,FALSE,FALSE,0,Follow Yaw,0,0,49.9,49.9,FALSE,FALSE,FALSE,FALSE,FALSE,FALSE,,TRUE,Normal,,100,1024,1024,1024,1024,1,FALSE,FALSE,FALSE,FALSE,FALSE,0,FALSE,FALSE,FALSE,FALSE,68,7.523,1432,2113,7.632,FALSE,3.758,3.765,0.007,FALSE,FALSE,NA,109.4,109.4,109.4,0,0,2,0,5,2894.2,723.56,,Idle,0,20,FALSE,5,TRUE,9,Go Home,FALSE,FALSE,FALSE,FALSE,FALSE,FALSE,FALSE,FALSE,FALSE,FALSE,FALSE,FALSE,6.974498322,79.91427623,0.5,123.6,328,TRUE,1,1,FALSE,FALSE,FALSE,FALSE,,TRUE,FALSE,FALSE,Course Lock,65.6,41.9,16.4,Calm,27,,1.12.8,Mavic Mini,1SDCH7G0169R0K,1SFLH6Q0AB03DJ,1SRCH7F014TAHX,1U5X071EXP5ZJG,80,0.2,19.6,12.450808,4.250186,0,420,Mavic Mini,1SDCH7G0169R0K,1SFLH6Q0AB03DJ,1SRCH7F014TAHX,1U5X071EXP5ZJG,DJI Fly,,1.12.8,57CBE91D-C123-82FB-4515-5F7974F075BC,1SDCH7G0169R0K,,,,,6.974487207,79.91423562,5,,
2/15/2024,34:48.5,7m 43.9s,463.9,6.974499876,79.91427614,5.5,5.5,6.5,54,1.1,0,0.223694,0,0.223694,0,0,-0.223694,0,1.8,0.3,23.5,23.5,,P-GPS,Auto Fly,,15,5,TRUE,,Mavic Mini,TRUE,FALSE,,Smart,RC,FALSE,TRUE,FALSE,,,TRUE,,FALSE,FALSE,FALSE,FALSE,FALSE,FALSE,FALSE,FALSE,FALSE,FALSE,0,Follow Yaw,0,0,49.9,49.9,FALSE,FALSE,FALSE,FALSE,FALSE,FALSE,,TRUE,Normal,,100,1024,1024,1024,1024,1,FALSE,FALSE,FALSE,FALSE,FALSE,0,FALSE,FALSE,FALSE,FALSE,68,7.523,1432,2113,7.632,FALSE,3.758,3.765,0.007,FALSE,FALSE,NA,109.4,109.4,109.4,0,0,2,0,5,2894.2,723.56,,Idle,0,20,FALSE,5,TRUE,9,Go Home,FALSE,FALSE,FALSE,FALSE,FALSE,FALSE,FALSE,FALSE,FALSE,FALSE,FALSE,FALSE,6.974498322,79.91427623,0.5,123.6,328,TRUE,1,1,FALSE,FALSE,FALSE,FALSE,,TRUE,FALSE,FALSE,Course Lock,65.6,41.9,16.4,Calm,27,,1.12.8,Mavic Mini,1SDCH7G0169R0K,1SFLH6Q0AB03DJ,1SRCH7F014TAHX,1U5X071EXP5ZJG,80,0.2,19.6,12.450808,4.250186,0,420,Mavic Mini,1SDCH7G0169R0K,1SFLH6Q0AB03DJ,1SRCH7F014TAHX,1U5X071EXP5ZJG,DJI Fly,,1.12.8,57CBE91D-C123-82FB-4515-5F7974F075BC,1SDCH7G0169R0K,,,,,6.974487207,79.91423562,5,,
2/15/2024,34:48.6,7m 44.0s,464,6.974499976,79.9142762,5.5,5.5,6.5,54,1.1,0,0.223694,0,0.223694,0,0,0,0,2,0,23.5,23.5,,P-GPS,Auto Fly,,15,5,TRUE,,Mavic Mini,TRUE,FALSE,,Smart,RC,FALSE,TRUE,FALSE,,,TRUE,,FALSE,FALSE,FALSE,FALSE,FALSE,FALSE,FALSE,FALSE,FALSE,FALSE,0,Follow Yaw,0,0,49.9,49.9,FALSE,FALSE,FALSE,FALSE,FALSE,FALSE,,TRUE,Normal,,100,1024,1024,1024,1024,1,FALSE,FALSE,FALSE,FALSE,FALSE,0,FALSE,FALSE,FALSE,FALSE,68,7.523,1432,2113,7.632,FALSE,3.758,3.765,0.007,FALSE,FALSE,NA,109.4,109.4,109.4,0,0,2,0,5,2894.2,723.56,,Idle,0,20,FALSE,5,TRUE,9,Go Home,FALSE,FALSE,FALSE,FALSE,FALSE,FALSE,FALSE,FALSE,FALSE,FALSE,FALSE,FALSE,6.974498322,79.91427623,0.6,123.6,328,TRUE,1,1,FALSE,FALSE,FALSE,FALSE,,TRUE,FALSE,FALSE,Course Lock,65.6,41.9,16.4,Calm,27,,1.12.8,Mavic Mini,1SDCH7G0169R0K,1SFLH6Q0AB03DJ,1SRCH7F014TAHX,1U5X071EXP5ZJG,80,0.2,19.6,12.450808,4.250186,0,420,Mavic Mini,1SDCH7G0169R0K,1SFLH6Q0AB03DJ,1SRCH7F014TAHX,1U5X071EXP5ZJG,DJI Fly,,1.12.8,57CBE91D-C123-82FB-4515-5F7974F075BC,1SDCH7G0169R0K,,,,,6.974487207,79.91423562,5,,
2/15/2024,34:48.7,7m 44.1s,464.1,6.974500088,79.91427628,5.5,5.5,6.5,54,1.2,0,0.223694,0,0.223694,0,0,0,0,2.3,-0.4,23.4,23.4,,P-GPS,Auto Fly,,15,5,TRUE,,Mavic Mini,TRUE,FALSE,,Smart,RC,FALSE,TRUE,FALSE,,,TRUE,,FALSE,FALSE,FALSE,FALSE,FALSE,FALSE,FALSE,FALSE,FALSE,FALSE,0,Follow Yaw,0,0,49.9,49.9,FALSE,FALSE,FALSE,FALSE,FALSE,FALSE,,TRUE,Normal,,100,1024,1024,1024,1024,1,FALSE,FALSE,FALSE,FALSE,FALSE,0,FALSE,FALSE,FALSE,FALSE,68,7.523,1432,2113,7.526,FALSE,3.758,3.765,0.007,FALSE,FALSE,NA,109.4,109.4,109.4,0,0,3,0,5,3759.8,939.95,,Idle,0,20,FALSE,5,TRUE,9,Go Home,FALSE,FALSE,FALSE,FALSE,FALSE,FALSE,FALSE,FALSE,FALSE,FALSE,FALSE,FALSE,6.974498322,79.91427623,0.6,123.6,328,TRUE,1,1,FALSE,FALSE,FALSE,FALSE,,TRUE,FALSE,FALSE,Course Lock,65.6,41.9,16.4,Calm,27,,1.12.8,Mavic Mini,1SDCH7G0169R0K,1SFLH6Q0AB03DJ,1SRCH7F014TAHX,1U5X071EXP5ZJG,80,0.2,19.6,12.450808,4.250186,0,420,Mavic Mini,1SDCH7G0169R0K,1SFLH6Q0AB03DJ,1SRCH7F014TAHX,1U5X071EXP5ZJG,DJI Fly,,1.12.8,57CBE91D-C123-82FB-4515-5F7974F075BC,1SDCH7G0169R0K,,,,,6.974487207,79.91423562,5,,
2/15/2024,34:48.8,7m 44.2s,464.2,6.974500326,79.91427654,5.5,5.5,6.5,54,1.3,0,0.223694,0,0.223694,0,0,0,0,2.8,-0.6,23.4,23.4,,P-GPS,Auto Fly,,15,5,TRUE,,Mavic Mini,TRUE,FALSE,,Smart,RC,FALSE,TRUE,FALSE,,,TRUE,,FALSE,FALSE,FALSE,FALSE,FALSE,FALSE,FALSE,FALSE,FALSE,FALSE,0,Follow Yaw,0,0,49.9,49.9,FALSE,FALSE,FALSE,FALSE,FALSE,FALSE,,TRUE,Normal,,100,1024,1024,1024,1024,1,FALSE,FALSE,FALSE,FALSE,FALSE,0,FALSE,FALSE,FALSE,FALSE,68,7.523,1432,2113,7.526,FALSE,3.758,3.765,0.007,FALSE,FALSE,NA,109.4,109.4,109.4,0,0,3,0,5,3759.8,939.95,,Idle,0,20,FALSE,5,TRUE,9,Go Home,FALSE,FALSE,FALSE,FALSE,FALSE,FALSE,FALSE,FALSE,FALSE,FALSE,FALSE,FALSE,6.974498322,79.91427623,0.7,123.6,328,TRUE,1,1,FALSE,FALSE,FALSE,FALSE,,TRUE,FALSE,FALSE,Course Lock,65.6,41.9,16.4,Calm,27,,1.12.8,Mavic Mini,1SDCH7G0169R0K,1SFLH6Q0AB03DJ,1SRCH7F014TAHX,1U5X071EXP5ZJG,80,0.2,19.6,12.450808,4.250186,0,420,Mavic Mini,1SDCH7G0169R0K,1SFLH6Q0AB03DJ,1SRCH7F014TAHX,1U5X071EXP5ZJG,DJI Fly,,1.12.8,57CBE91D-C123-82FB-4515-5F7974F075BC,1SDCH7G0169R0K,,,,,6.974487207,79.91423562,5,,
2/15/2024,34:48.9,7m 44.3s,464.3,6.974500472,79.91427663,5.5,5.5,6.5,54,1.4,0,0.223694,0,0.223694,0,0,0,0,2.9,-0.8,23.4,23.4,,P-GPS,Auto Fly,,14,5,TRUE,,Mavic Mini,TRUE,FALSE,,Smart,RC,FALSE,TRUE,FALSE,,,TRUE,,FALSE,FALSE,FALSE,FALSE,FALSE,FALSE,FALSE,FALSE,FALSE,FALSE,0,Follow Yaw,0,0,49.9,49.9,FALSE,FALSE,FALSE,FALSE,FALSE,FALSE,,TRUE,Normal,,100,1024,1024,1024,1024,1,FALSE,FALSE,FALSE,FALSE,FALSE,0,FALSE,FALSE,FALSE,FALSE,68,7.523,1432,2113,7.526,FALSE,3.758,3.765,0.007,FALSE,FALSE,NA,109.4,109.4,109.4,0,0,3,0,5,3759.8,939.95,,Idle,0,20,FALSE,5,TRUE,9,Go Home,FALSE,FALSE,FALSE,FALSE,FALSE,FALSE,FALSE,FALSE,FALSE,FALSE,FALSE,FALSE,6.974498322,79.91427623,0.7,123.6,328,TRUE,1,1,FALSE,FALSE,FALSE,FALSE,,TRUE,FALSE,FALSE,Course Lock,65.6,41.9,16.4,Calm,27,,1.12.8,Mavic Mini,1SDCH7G0169R0K,1SFLH6Q0AB03DJ,1SRCH7F014TAHX,1U5X071EXP5ZJG,80,0.2,19.6,12.450808,4.250186,0,420,Mavic Mini,1SDCH7G0169R0K,1SFLH6Q0AB03DJ,1SRCH7F014TAHX,1U5X071EXP5ZJG,DJI Fly,,1.12.8,57CBE91D-C123-82FB-4515-5F7974F075BC,1SDCH7G0169R0K,,,,,6.974487207,79.91423562,5,,
2/15/2024,34:49.0,7m 44.4s,464.4,6.974500589,79.91427666,5.5,5.5,6.5,54,1.4,0,0.223694,0,0.223694,0,0,0,0,3,-0.8,23.3,23.3,,P-GPS,Auto Fly,,14,5,TRUE,,Mavic Mini,TRUE,FALSE,,Smart,RC,FALSE,TRUE,FALSE,,,TRUE,,FALSE,FALSE,FALSE,FALSE,FALSE,FALSE,FALSE,FALSE,FALSE,FALSE,0,Follow Yaw,0,0,49.9,49.9,FALSE,FALSE,FALSE,FALSE,FALSE,FALSE,,TRUE,Normal,,100,1024,1024,1024,1024,1,FALSE,FALSE,FALSE,FALSE,FALSE,0,FALSE,FALSE,FALSE,FALSE,68,7.523,1432,2113,7.526,FALSE,3.758,3.765,0.007,FALSE,FALSE,NA,109.4,109.4,109.4,0,0,3,0,5,3759.8,939.95,,Idle,0,20,FALSE,5,TRUE,9,Go Home,FALSE,FALSE,FALSE,FALSE,FALSE,FALSE,FALSE,FALSE,FALSE,FALSE,FALSE,FALSE,6.974498322,79.91427623,0.8,123.6,328,TRUE,1,1,FALSE,FALSE,FALSE,FALSE,,TRUE,FALSE,FALSE,Course Lock,65.6,41.9,16.4,Calm,27,,1.12.8,Mavic Mini,1SDCH7G0169R0K,1SFLH6Q0AB03DJ,1SRCH7F014TAHX,1U5X071EXP5ZJG,80,0.2,19.6,12.450808,4.250186,0,420,Mavic Mini,1SDCH7G0169R0K,1SFLH6Q0AB03DJ,1SRCH7F014TAHX,1U5X071EXP5ZJG,DJI Fly,,1.12.8,57CBE91D-C123-82FB-4515-5F7974F075BC,1SDCH7G0169R0K,,,,,6.974487207,79.91423562,5,,
2/15/2024,34:49.2,7m 44.5s,464.5,6.974500703,79.91427669,5.5,5.5,6.5,54,1.5,0,0.223694,0,0.223694,0,0,0,0,3.2,-0.7,23.3,23.3,,P-GPS,Auto Fly,,14,5,TRUE,,Mavic Mini,TRUE,FALSE,,Smart,RC,FALSE,TRUE,FALSE,,,TRUE,,FALSE,FALSE,FALSE,FALSE,FALSE,FALSE,FALSE,FALSE,FALSE,FALSE,0,Follow Yaw,0,0,49.9,49.9,FALSE,FALSE,FALSE,FALSE,FALSE,FALSE,,TRUE,Normal,,100,1024,1024,1024,1024,1,FALSE,FALSE,FALSE,FALSE,FALSE,0,FALSE,FALSE,FALSE,FALSE,68,7.523,1432,2113,7.526,FALSE,3.758,3.765,0.007,FALSE,FALSE,NA,109.4,109.4,109.4,0,0,3,0,5,3759.8,939.95,,Idle,0,20,FALSE,5,TRUE,9,Go Home,FALSE,FALSE,FALSE,FALSE,FALSE,FALSE,FALSE,FALSE,FALSE,FALSE,FALSE,FALSE,6.974498322,79.91427623,0.8,123.6,328,TRUE,1,1,FALSE,FALSE,FALSE,FALSE,,TRUE,FALSE,FALSE,Course Lock,65.6,41.9,16.4,Calm,27,,1.12.8,Mavic Mini,1SDCH7G0169R0K,1SFLH6Q0AB03DJ,1SRCH7F014TAHX,1U5X071EXP5ZJG,80,0.2,19.6,12.450808,4.250186,0,420,Mavic Mini,1SDCH7G0169R0K,1SFLH6Q0AB03DJ,1SRCH7F014TAHX,1U5X071EXP5ZJG,DJI Fly,,1.12.8,57CBE91D-C123-82FB-4515-5F7974F075BC,1SDCH7G0169R0K,,,,,6.974487207,79.91423562,5,,
2/15/2024,34:49.3,7m 44.6s,464.6,6.97450088,79.91427679,5.2,5.5,6.5,54,1.5,0,0.223694,0,0.223694,0,0,0,0,4,-0.6,23.3,23.3,,P-GPS,Auto Fly,,14,5,TRUE,,Mavic Mini,TRUE,FALSE,,Smart,RC,FALSE,TRUE,FALSE,,,TRUE,,FALSE,FALSE,FALSE,FALSE,FALSE,FALSE,FALSE,FALSE,FALSE,FALSE,0,Follow Yaw,0,0,49.9,49.9,FALSE,FALSE,FALSE,FALSE,FALSE,FALSE,,TRUE,Normal,,100,1024,1024,1024,1024,1,FALSE,FALSE,FALSE,FALSE,FALSE,0,FALSE,FALSE,FALSE,FALSE,68,7.537,1430,2113,7.526,FALSE,3.77,3.767,0.007,FALSE,FALSE,NA,109.4,109.4,109.4,0,0,3,0,5,3759.8,939.95,,Idle,0,20,FALSE,5,TRUE,9,Go Home,FALSE,FALSE,FALSE,FALSE,FALSE,FALSE,FALSE,FALSE,FALSE,FALSE,FALSE,FALSE,6.974498322,79.91427623,0.9,123.6,328,TRUE,1,1,FALSE,FALSE,FALSE,FALSE,,TRUE,FALSE,FALSE,Course Lock,65.6,41.9,16.4,Calm,27,,1.12.8,Mavic Mini,1SDCH7G0169R0K,1SFLH6Q0AB03DJ,1SRCH7F014TAHX,1U5X071EXP5ZJG,80,0.2,19.6,12.450808,4.250186,0,420,Mavic Mini,1SDCH7G0169R0K,1SFLH6Q0AB03DJ,1SRCH7F014TAHX,1U5X071EXP5ZJG,DJI Fly,,1.12.8,57CBE91D-C123-82FB-4515-5F7974F075BC,1SDCH7G0169R0K,,,,,6.974487207,79.91423562,5,,
2/15/2024,34:49.3,7m 44.7s,464.7,6.974500989,79.91427684,5.2,5.5,6.5,54,1.6,0,0.223694,0,0.223694,0,0,0,0,3.9,-0.3,23.3,23.3,,P-GPS,Auto Fly,,15,5,TRUE,,Mavic Mini,TRUE,FALSE,,Smart,RC,FALSE,TRUE,FALSE,,,TRUE,,FALSE,FALSE,FALSE,FALSE,FALSE,FALSE,FALSE,FALSE,FALSE,FALSE,0,Follow Yaw,0,0,49.9,49.9,FALSE,FALSE,FALSE,FALSE,FALSE,FALSE,,TRUE,Normal,,100,1024,1024,1024,1024,1,FALSE,FALSE,FALSE,FALSE,FALSE,0,FALSE,FALSE,FALSE,FALSE,68,7.537,1430,2113,7.526,FALSE,3.77,3.767,0.007,FALSE,FALSE,NA,109.4,109.4,109.4,0,0,3,0,5,3759.8,939.95,,Idle,0,20,FALSE,5,TRUE,9,Go Home,FALSE,FALSE,FALSE,FALSE,FALSE,FALSE,FALSE,FALSE,FALSE,FALSE,FALSE,FALSE,6.974498322,79.91427623,0.9,123.6,328,TRUE,1,1,FALSE,FALSE,FALSE,FALSE,,TRUE,FALSE,FALSE,Course Lock,65.6,41.9,16.4,Calm,27,,1.12.8,Mavic Mini,1SDCH7G0169R0K,1SFLH6Q0AB03DJ,1SRCH7F014TAHX,1U5X071EXP5ZJG,80,0.2,19.6,12.450808,4.250186,0,420,Mavic Mini,1SDCH7G0169R0K,1SFLH6Q0AB03DJ,1SRCH7F014TAHX,1U5X071EXP5ZJG,DJI Fly,,1.12.8,57CBE91D-C123-82FB-4515-5F7974F075BC,1SDCH7G0169R0K,,,,,6.974487207,79.91423562,5,,
