CUSTOM.date [local],CUSTOM.updateTime [local],OSD.flyTime,OSD.flyTime [s],OSD.latitude,OSD.longitude,OSD.height [ft],OSD.heightMax [ft],OSD.vpsHeight [ft],OSD.altitude [ft],OSD.mileage [ft],OSD.hSpeed [MPH],OSD.hSpeedMax [MPH],OSD.xSpeed [MPH],OSD.xSpeedMax [MPH],OSD.ySpeed [MPH],OSD.ySpeedMax [MPH],OSD.zSpeed [MPH],OSD.zSpeedMax [MPH],OSD.pitch,OSD.roll,OSD.yaw,OSD.yaw [360],OSD.directionOfTravel,OSD.flycState,OSD.flycCommand,OSD.flightAction,OSD.gpsNum,OSD.gpsLevel,OSD.isGPSUsed,OSD.nonGPSCause,OSD.droneType,OSD.isSwaveWork,OSD.waveError,OSD.goHomeStatus,OSD.batteryType,OSD.ctrlDevice,OSD.isOnGround,OSD.isMotorOn,OSD.isMotorBlocked,OSD.motorStartFailedCause,OSD.motorFailReason,OSD.isImuPreheated,OSD.imuInitFailReason,OSD.isAcceletorOverRange,OSD.isBarometerDeadInAir,OSD.isCompassError,OSD.isGoHomeHeightModified,OSD.canIOCWork,OSD.isNotEnoughForce,OSD.isOutOfLimit,OSD.isPropellerCatapult,OSD.isVibrating,OSD.isVisionUsed,OSD.voltageWarning,GIMBAL.mode,GIMBAL.pitch,GIMBAL.roll,GIMBAL.yaw,GIMBAL.yaw [360],GIMBAL.isPitchAtLimit,GIMBAL.isRollAtLimit,GIMBAL.isYawAtLimit,GIMBAL.isStuck,CAMERA.isPhoto,CAMERA.isVideo,CAMERA.filename,CAMERA.sdCardIsInserted,CAMERA.sdCardState,RC.downlinkSignal,RC.uplinkSignal,RC.aileron,RC.elevator,RC.throttle,RC.rudder,RC.mode,RC.goHomeDepressed,RC.recordDepressed,RC.shutterDepressed,RC.playbackDepressed,RC.wheelDepressed,RC.wheelOffset,RC.custom1Depressed,RC.custom2Depressed,RC.custom3Depressed,RC.custom4Depressed,BATTERY.chargeLevel,BATTERY.currentPV [V],BATTERY.currentCapacity [mAh],BATTERY.fullCapacity [mAh],BATTERY.voltage [V],BATTERY.isCellVoltageEstimated,BATTERY.cellVoltage1 [V],BATTERY.cellVoltage2 [V],BATTERY.maxCellVoltageDeviation,BATTERY.isCellVoltageDeviationHigh,BATTERY.isVoltageLow,BATTERY.current [A],BATTERY.temperature [F],BATTERY.minTemperature [F],BATTERY.maxTemperature [F],BATTERY.usefulTime [s],BATTERY.goHomeTime [s],BATTERY.landTime [s],BATTERY.goHomeBattery,BATTERY.landBattery,BATTERY.safeFlyRadius,BATTERY.volumeConsume,BATTERY.status,BATTERY.goHomeStatus,BATTERY.goHomeCountdown,BATTERY.lowWarning,BATTERY.lowWarningGoHome,BATTERY.seriousLowWarning,BATTERY.seriousLowWarningLanding,BATTERY.timesCharged,MC.failSafeAction,MC.isObstacleAvoidanceEnabled,MC.isCollisionAvoidanceEnabled,MC.isRthObstacleAvoidanceEnabled,MC.isBraking,MC.isAvoidingObstacle,MC.isAvoidingActiveObstacle,MC.isAscentLimitedByObstacle,MC.isLandingConfirmationNeeded,MC.atLowAltitudeLimit,MC.atDistanceLimit,MC.atAirportAltitudeLimit,MC.atAirportBoundary,HOME.latitude,HOME.longitude,HOME.distance [ft],HOME.height [ft],HOME.heightLimit [ft],HOME.isHomeRecord,HOME.goHomeMode,HOME.aircraftHeadDirection,HOME.isDynamicHomePointEnabled,HOME.isReachedLimitDistance,HOME.isReachedLimitHeight,HOME.isCompassCalibrating,HOME.compassCalibrationState,HOME.isMultipleFlightModeEnabled,HOME.isBeginnerMode,HOME.isIOCEnabled,HOME.iocMode,HOME.goHomeHeight [ft],HOME.courseLockAngle,HOME.forceLandingHeight [ft],HOME.wind,HOME.dataRecorderFileIndex,RECOVER.appType,RECOVER.appVersion,RECOVER.aircraftName,RECOVER.aircraftSerial,RECOVER.cameraSerial,RECOVER.rcSerial,RECOVER.batterySerial,DETAILS.totalTime [s],DETAILS.totalDistance [ft],DETAILS.maxHeight [ft],DETAILS.maxHorizontalSpeed [MPH],DETAILS.maxVerticalSpeed [MPH],DETAILS.photoNum,DETAILS.videoTime [s],DETAILS.aircraftName,DETAILS.aircraftSerial,DETAILS.cameraSerial,DETAILS.rcSerial,DETAILS.batterySerial,DETAILS.appName,DETAILS.appType,DETAILS.appVersion,DETAILS.guid,SERIAL.flightController,SERIAL.camera,SERIAL.gimbal,SERIAL.rc,SERIAL.battery,APPGPS.latitude,APPGPS.longitude,APPGPS.accuracy,APP.tip,APP.warning
2/15/2024,46:07.8,8m 59.6s,539.6,6.974223854,79.91434245,0,0,,51,0,0,0,0,0,0,0,0,0,2,2.1,91.2,91.2,,Starting Motors,Auto Fly,Takeoff (RC Assisted),17,5,TRUE,,Mavic Mini,FALSE,FALSE,,Smart,RC,TRUE,TRUE,FALSE,,,TRUE,,FALSE,FALSE,FALSE,FALSE,FALSE,FALSE,FALSE,FALSE,FALSE,FALSE,0,Follow Yaw,0,0,117.5,117.5,FALSE,FALSE,FALSE,FALSE,FALSE,FALSE,,TRUE,Normal,,,1024,1024,1024,1024,,FALSE,FALSE,FALSE,FALSE,FALSE,0,FALSE,FALSE,FALSE,FALSE,62,7.665,1314,2113,7.665,TRUE,3.833,3.833,,FALSE,FALSE,NA,112.5,112.4,112.4,,,,,,,,,Idle,,,TRUE,,FALSE,9,Go Home,FALSE,FALSE,FALSE,FALSE,FALSE,FALSE,FALSE,FALSE,FALSE,FALSE,FALSE,FALSE,,,,,,FALSE,,,FALSE,FALSE,FALSE,FALSE,,FALSE,FALSE,FALSE,,,,,Calm,,,1.12.8,Mavic Mini,1SDCH7G0169R0K,1SFLH6Q0AB03DJ,1SRCH7F014TAHX,1U5X071EXP5ZJG,93.3,0.1,3.2,4.244369,1.342164,0,0,Mavic Mini,1SDCH7G0169R0K,1SFLH6Q0AB03DJ,1SRCH7F014TAHX,1U5X071EXP5ZJG,DJI Fly,,1.12.8,887AF817-89E0-6550-A80C-CC8B9797423A,1SDCH7G0169R0K,,,,,,,,Flight mode changed to Starting Motors.,
2/15/2024,46:07.9,8m 59.7s,539.7,6.974223907,79.91434243,0,0,,51,0,0,0,0,0,0,0,0,0,1.9,2.1,91.2,91.2,,Starting Motors,Auto Fly,Takeoff (RC Assisted),17,5,TRUE,,Mavic Mini,FALSE,FALSE,,Smart,RC,TRUE,TRUE,FALSE,,,TRUE,,FALSE,FALSE,FALSE,FALSE,FALSE,FALSE,FALSE,FALSE,FALSE,FALSE,0,Follow Yaw,0,0,117.6,117.6,FALSE,FALSE,FALSE,FALSE,FALSE,FALSE,,TRUE,Normal,,100,1024,1024,1024,1024,1,FALSE,FALSE,FALSE,FALSE,FALSE,0,FALSE,FALSE,FALSE,FALSE,62,7.665,1314,2113,7.665,TRUE,3.833,3.833,,FALSE,FALSE,NA,112.5,112.4,112.4,,,,,,,,,Idle,,,TRUE,,FALSE,9,Go Home,FALSE,FALSE,FALSE,FALSE,FALSE,FALSE,FALSE,FALSE,FALSE,FALSE,FALSE,FALSE,,,,,,FALSE,,,FALSE,FALSE,FALSE,FALSE,,FALSE,FALSE,FALSE,,,,,Calm,,,1.12.8,Mavic Mini,1SDCH7G0169R0K,1SFLH6Q0AB03DJ,1SRCH7F014TAHX,1U5X071EXP5ZJG,93.3,0.1,3.2,4.244369,1.342164,0,0,Mavic Mini,1SDCH7G0169R0K,1SFLH6Q0AB03DJ,1SRCH7F014TAHX,1U5X071EXP5ZJG,DJI Fly,,1.12.8,887AF817-89E0-6550-A80C-CC8B9797423A,1SDCH7G0169R0K,,,,,,,,,
2/15/2024,37:08.3,8m 59.8s,539.8,6.974224035,79.91434246,0,0,0.3,51,0,0,0,0,0,0,0,0,0,2,2.1,91.2,91.2,,Starting Motors,Auto Fly,Takeoff (RC Assisted),17,5,TRUE,,Mavic Mini,TRUE,FALSE,,Smart,RC,TRUE,TRUE,FALSE,,,TRUE,,FALSE,FALSE,FALSE,FALSE,FALSE,FALSE,FALSE,FALSE,FALSE,FALSE,0,Follow Yaw,0,0,117.6,117.6,FALSE,FALSE,FALSE,FALSE,FALSE,FALSE,,TRUE,Normal,,100,1024,1024,1024,1024,1,FALSE,FALSE,FALSE,FALSE,FALSE,0,FALSE,FALSE,FALSE,FALSE,62,7.665,1314,2113,7.665,TRUE,3.833,3.833,,FALSE,FALSE,NA,112.5,112.4,112.4,,,,,,,,,Idle,,,TRUE,,FALSE,9,Go Home,FALSE,FALSE,FALSE,FALSE,FALSE,FALSE,FALSE,FALSE,FALSE,FALSE,FALSE,FALSE,,,,,,FALSE,,,FALSE,FALSE,FALSE,FALSE,,FALSE,FALSE,FALSE,,,,,Calm,,,1.12.8,Mavic Mini,1SDCH7G0169R0K,1SFLH6Q0AB03DJ,1SRCH7F014TAHX,1U5X071EXP5ZJG,93.3,0.1,3.2,4.244369,1.342164,0,0,Mavic Mini,1SDCH7G0169R0K,1SFLH6Q0AB03DJ,1SRCH7F014TAHX,1U5X071EXP5ZJG,DJI Fly,,1.12.8,887AF817-89E0-6550-A80C-CC8B9797423A,1SDCH7G0169R0K,,,,,,,,,
2/15/2024,37:08.4,8m 59.9s,539.9,6.974224062,79.91434241,0,0,0.3,51,0,0,0,0,0,0,0,0,0,1.9,2.1,91.2,91.2,,Starting Motors,Auto Fly,Takeoff (RC Assisted),17,5,TRUE,,Mavic Mini,TRUE,FALSE,,Smart,RC,TRUE,TRUE,FALSE,,,TRUE,,FALSE,FALSE,FALSE,FALSE,FALSE,FALSE,FALSE,FALSE,FALSE,FALSE,0,Follow Yaw,0,0,117.6,117.6,FALSE,FALSE,FALSE,FALSE,FALSE,FALSE,,TRUE,Normal,,100,1024,1024,1024,1024,1,FALSE,FALSE,FALSE,FALSE,FALSE,0,FALSE,FALSE,FALSE,FALSE,62,7.665,1314,2113,7.665,FALSE,3.834,3.831,0.003,FALSE,FALSE,NA,112.5,112.4,112.4,,,,,,,,,Idle,,,TRUE,,FALSE,9,Go Home,FALSE,FALSE,FALSE,FALSE,FALSE,FALSE,FALSE,FALSE,FALSE,FALSE,FALSE,FALSE,,,,,,FALSE,,,FALSE,FALSE,FALSE,FALSE,,FALSE,FALSE,FALSE,,,,,Calm,,,1.12.8,Mavic Mini,1SDCH7G0169R0K,1SFLH6Q0AB03DJ,1SRCH7F014TAHX,1U5X071EXP5ZJG,93.3,0.1,3.2,4.244369,1.342164,0,0,Mavic Mini,1SDCH7G0169R0K,1SFLH6Q0AB03DJ,1SRCH7F014TAHX,1U5X071EXP5ZJG,DJI Fly,,1.12.8,887AF817-89E0-6550-A80C-CC8B9797423A,1SDCH7G0169R0K,,,,,,,,,
2/15/2024,37:08.5,9m 0.0s,540,6.974224085,79.91434235,0,0,0.3,51,0,0,0,0,0,0,0,0,0,1.9,2.1,91.2,91.2,,Starting Motors,Auto Fly,Takeoff (RC Assisted),17,5,TRUE,,Mavic Mini,TRUE,FALSE,,Smart,RC,TRUE,TRUE,FALSE,,,TRUE,,FALSE,FALSE,FALSE,FALSE,FALSE,FALSE,FALSE,FALSE,FALSE,FALSE,0,Follow Yaw,0,0,117.6,117.6,FALSE,FALSE,FALSE,FALSE,FALSE,FALSE,,TRUE,Normal,,100,1024,1024,1024,1024,1,FALSE,FALSE,FALSE,FALSE,FALSE,0,FALSE,FALSE,FALSE,FALSE,62,7.665,1314,2113,7.665,FALSE,3.834,3.831,0.003,FALSE,FALSE,NA,112.5,112.4,112.4,,,,,,,,,Idle,,,TRUE,,FALSE,9,Go Home,FALSE,FALSE,FALSE,FALSE,FALSE,FALSE,FALSE,FALSE,FALSE,FALSE,FALSE,FALSE,,,,,,FALSE,,,FALSE,FALSE,FALSE,FALSE,,FALSE,FALSE,FALSE,,,,,Calm,,,1.12.8,Mavic Mini,1SDCH7G0169R0K,1SFLH6Q0AB03DJ,1SRCH7F014TAHX,1U5X071EXP5ZJG,93.3,0.1,3.2,4.244369,1.342164,0,0,Mavic Mini,1SDCH7G0169R0K,1SFLH6Q0AB03DJ,1SRCH7F014TAHX,1U5X071EXP5ZJG,DJI Fly,,1.12.8,887AF817-89E0-6550-A80C-CC8B9797423A,1SDCH7G0169R0K,,,,,,,,,
2/15/2024,37:08.6,9m 0.1s,540.1,6.974224091,79.91434232,0,0,0.3,51,0,0,0,0,0,0,0,0,0,1.9,2.1,91.2,91.2,,Starting Motors,Auto Fly,Takeoff (RC Assisted),17,5,TRUE,,Mavic Mini,TRUE,FALSE,,Smart,RC,TRUE,TRUE,FALSE,,,TRUE,,FALSE,FALSE,FALSE,FALSE,FALSE,FALSE,FALSE,FALSE,FALSE,FALSE,0,Follow Yaw,0,0,117.6,117.6,FALSE,FALSE,FALSE,FALSE,FALSE,FALSE,,TRUE,Normal,,100,1024,1024,1024,1024,1,FALSE,FALSE,FALSE,FALSE,FALSE,0,FALSE,FALSE,FALSE,FALSE,62,7.665,1314,2113,7.665,FALSE,3.834,3.831,0.003,FALSE,FALSE,NA,112.5,112.4,112.4,,,,,,,,,Idle,,,TRUE,,FALSE,9,Go Home,FALSE,FALSE,FALSE,FALSE,FALSE,FALSE,FALSE,FALSE,FALSE,FALSE,FALSE,FALSE,,,,,,FALSE,,,FALSE,FALSE,FALSE,FALSE,,FALSE,FALSE,FALSE,,,,,Calm,,,1.12.8,Mavic Mini,1SDCH7G0169R0K,1SFLH6Q0AB03DJ,1SRCH7F014TAHX,1U5X071EXP5ZJG,93.3,0.1,3.2,4.244369,1.342164,0,0,Mavic Mini,1SDCH7G0169R0K,1SFLH6Q0AB03DJ,1SRCH7F014TAHX,1U5X071EXP5ZJG,DJI Fly,,1.12.8,887AF817-89E0-6550-A80C-CC8B9797423A,1SDCH7G0169R0K,,,,,,,,,
2/15/2024,37:08.7,9m 0.2s,540.2,6.974224043,79.9143423,0,0,0.3,51,0.1,0,0,0,0,0,0,0,0,1.9,2,91.4,91.4,,Starting Motors,Auto Fly,Takeoff (RC Assisted),17,5,TRUE,,Mavic Mini,TRUE,FALSE,,Smart,RC,TRUE,TRUE,FALSE,,,TRUE,,FALSE,FALSE,FALSE,FALSE,FALSE,FALSE,FALSE,FALSE,FALSE,FALSE,0,Follow Yaw,0,0,117.6,117.6,FALSE,FALSE,FALSE,FALSE,FALSE,FALSE,,TRUE,Normal,,100,1024,1024,1024,1024,1,FALSE,FALSE,FALSE,FALSE,FALSE,0,FALSE,FALSE,FALSE,FALSE,62,7.665,1314,2113,7.665,FALSE,3.834,3.831,0.003,FALSE,FALSE,NA,112.5,112.4,112.4,,,,,,,,,Idle,,,TRUE,,FALSE,9,Go Home,FALSE,FALSE,FALSE,FALSE,FALSE,FALSE,FALSE,FALSE,FALSE,FALSE,FALSE,FALSE,,,,,,FALSE,,,FALSE,FALSE,FALSE,FALSE,,FALSE,FALSE,FALSE,,,,,Calm,,,1.12.8,Mavic Mini,1SDCH7G0169R0K,1SFLH6Q0AB03DJ,1SRCH7F014TAHX,1U5X071EXP5ZJG,93.3,0.1,3.2,4.244369,1.342164,0,0,Mavic Mini,1SDCH7G0169R0K,1SFLH6Q0AB03DJ,1SRCH7F014TAHX,1U5X071EXP5ZJG,DJI Fly,,1.12.8,887AF817-89E0-6550-A80C-CC8B9797423A,1SDCH7G0169R0K,,,,,,,,,
2/15/2024,37:08.7,9m 0.3s,540.3,6.974224085,79.91434229,0,0,0.3,51,0.1,0,0,0,0,0,0,0,0,2,2,91.3,91.3,,Starting Motors,Auto Fly,Takeoff (RC Assisted),17,5,TRUE,,Mavic Mini,TRUE,FALSE,,Smart,RC,TRUE,TRUE,FALSE,,,TRUE,,FALSE,FALSE,FALSE,FALSE,FALSE,FALSE,FALSE,FALSE,FALSE,FALSE,0,Follow Yaw,0,0,117.6,117.6,FALSE,FALSE,FALSE,FALSE,FALSE,FALSE,,TRUE,Normal,,100,1024,1024,1024,1024,1,FALSE,FALSE,FALSE,FALSE,FALSE,0,FALSE,FALSE,FALSE,FALSE,62,7.665,1314,2113,7.657,FALSE,3.834,3.831,0.003,FALSE,FALSE,NA,112.5,112.4,112.4,0,25,0,18,5,2564.9,641.24,,Idle,0,20,FALSE,5,TRUE,9,Go Home,FALSE,FALSE,FALSE,FALSE,FALSE,FALSE,FALSE,FALSE,FALSE,FALSE,FALSE,FALSE,6.974498322,79.91427623,102.8,121.4,328,TRUE,1,1,FALSE,FALSE,FALSE,FALSE,,TRUE,FALSE,FALSE,Course Lock,65.6,41.9,16.4,Calm,27,,1.12.8,Mavic Mini,1SDCH7G0169R0K,1SFLH6Q0AB03DJ,1SRCH7F014TAHX,1U5X071EXP5ZJG,93.3,0.1,3.2,4.244369,1.342164,0,0,Mavic Mini,1SDCH7G0169R0K,1SFLH6Q0AB03DJ,1SRCH7F014TAHX,1U5X071EXP5ZJG,DJI Fly,,1.12.8,887AF817-89E0-6550-A80C-CC8B9797423A,1SDCH7G0169R0K,,,,,,,,Data Recorder File Index is 27.; Set Return to Home (RTH) altitude to 20 m (66 ft).; Set maximum flight altitude to 100 m (328 ft).,
2/15/2024,37:09.0,9m 0.4s,540.4,6.974224137,79.91434229,0,0,0.3,51,0.1,0,0,0,0,0,0,0,0,1.9,2.1,91.3,91.3,,Starting Motors,Auto Fly,Takeoff (RC Assisted),17,5,TRUE,,Mavic Mini,TRUE,FALSE,,Smart,RC,TRUE,TRUE,FALSE,,,TRUE,,FALSE,FALSE,FALSE,FALSE,FALSE,FALSE,FALSE,FALSE,FALSE,FALSE,0,Follow Yaw,0,0,117.6,117.6,FALSE,FALSE,FALSE,FALSE,FALSE,FALSE,,TRUE,Normal,,100,1024,1024,1024,1024,1,FALSE,FALSE,FALSE,FALSE,FALSE,0,FALSE,FALSE,FALSE,FALSE,62,7.665,1314,2113,7.657,FALSE,3.834,3.831,0.003,FALSE,FALSE,NA,112.5,112.4,112.4,0,25,0,18,5,2564.9,641.24,,Idle,0,20,FALSE,5,TRUE,9,Go Home,FALSE,FALSE,FALSE,FALSE,FALSE,FALSE,FALSE,FALSE,FALSE,FALSE,FALSE,FALSE,6.974498322,79.91427623,102.8,121.4,328,TRUE,1,1,FALSE,FALSE,FALSE,FALSE,,TRUE,FALSE,FALSE,Course Lock,65.6,41.9,16.4,Calm,27,,1.12.8,Mavic Mini,1SDCH7G0169R0K,1SFLH6Q0AB03DJ,1SRCH7F014TAHX,1U5X071EXP5ZJG,93.3,0.1,3.2,4.244369,1.342164,0,0,Mavic Mini,1SDCH7G0169R0K,1SFLH6Q0AB03DJ,1SRCH7F014TAHX,1U5X071EXP5ZJG,DJI Fly,,1.12.8,887AF817-89E0-6550-A80C-CC8B9797423A,1SDCH7G0169R0K,,,,,,,,,
2/15/2024,37:09.0,9m 0.5s,540.5,6.974224156,79.91434229,0,0,0.3,51,0.1,0,0,0,0,0,0,0,0,1.9,2,91.2,91.2,,Starting Motors,Auto Fly,Takeoff (RC Assisted),17,5,TRUE,,Mavic Mini,TRUE,FALSE,,Smart,RC,TRUE,TRUE,FALSE,,,TRUE,,FALSE,FALSE,FALSE,FALSE,FALSE,FALSE,FALSE,FALSE,FALSE,FALSE,0,Follow Yaw,0,0,117.6,117.6,FALSE,FALSE,FALSE,FALSE,FALSE,FALSE,,TRUE,Normal,,100,1024,1024,1024,1024,1,FALSE,FALSE,FALSE,FALSE,FALSE,0,FALSE,FALSE,FALSE,FALSE,62,7.665,1314,2113,7.657,FALSE,3.834,3.831,0.003,FALSE,FALSE,NA,112.5,112.4,112.4,0,25,0,18,5,2564.9,641.24,,Idle,0,20,FALSE,5,TRUE,9,Go Home,FALSE,FALSE,FALSE,FALSE,FALSE,FALSE,FALSE,FALSE,FALSE,FALSE,FALSE,FALSE,6.974498322,79.91427623,102.8,121.4,328,TRUE,1,1,FALSE,FALSE,FALSE,FALSE,,TRUE,FALSE,FALSE,Course Lock,65.6,41.9,16.4,Calm,27,,1.12.8,Mavic Mini,1SDCH7G0169R0K,1SFLH6Q0AB03DJ,1SRCH7F014TAHX,1U5X071EXP5ZJG,93.3,0.1,3.2,4.244369,1.342164,0,0,Mavic Mini,1SDCH7G0169R0K,1SFLH6Q0AB03DJ,1SRCH7F014TAHX,1U5X071EXP5ZJG,DJI Fly,,1.12.8,887AF817-89E0-6550-A80C-CC8B9797423A,1SDCH7G0169R0K,,,,,,,,,
2/15/2024,37:09.1,9m 0.6s,540.6,6.974224175,79.91434239,0,0,0.3,51,0.1,0,0,0,0,0,0,0,0,2,2.1,91.3,91.3,,Starting Motors,Auto Fly,Takeoff (RC Assisted),17,5,TRUE,,Mavic Mini,TRUE,FALSE,,Smart,RC,TRUE,TRUE,FALSE,,,TRUE,,FALSE,FALSE,FALSE,FALSE,FALSE,FALSE,FALSE,FALSE,FALSE,FALSE,0,Follow Yaw,0,0,117.6,117.6,FALSE,FALSE,FALSE,FALSE,FALSE,FALSE,,TRUE,Normal,,100,1024,1024,1024,1024,1,FALSE,FALSE,FALSE,FALSE,FALSE,0,FALSE,FALSE,FALSE,FALSE,62,7.645,1314,2113,7.657,FALSE,3.822,3.823,0.003,FALSE,FALSE,NA,112.5,112.4,112.4,0,25,0,18,5,2564.9,641.24,,Idle,0,20,FALSE,5,TRUE,9,Go Home,FALSE,FALSE,FALSE,FALSE,FALSE,FALSE,FALSE,FALSE,FALSE,FALSE,FALSE,FALSE,6.974498322,79.91427623,102.8,121.4,328,TRUE,1,1,FALSE,FALSE,FALSE,FALSE,,TRUE,FALSE,FALSE,Course Lock,65.6,41.9,16.4,Calm,27,,1.12.8,Mavic Mini,1SDCH7G0169R0K,1SFLH6Q0AB03DJ,1SRCH7F014TAHX,1U5X071EXP5ZJG,93.3,0.1,3.2,4.244369,1.342164,0,0,Mavic Mini,1SDCH7G0169R0K,1SFLH6Q0AB03DJ,1SRCH7F014TAHX,1U5X071EXP5ZJG,DJI Fly,,1.12.8,887AF817-89E0-6550-A80C-CC8B9797423A,1SDCH7G0169R0K,,,,,,,,,
2/15/2024,37:09.2,9m 0.7s,540.7,6.974224175,79.91434234,0,0,0.3,51,0.2,0,0,0,0,0,0,0,0,1.9,2,91.3,91.3,,Manual Takeoff,Auto Fly,Takeoff (RC Assisted),17,5,TRUE,,Mavic Mini,TRUE,FALSE,,Smart,RC,TRUE,TRUE,FALSE,,,TRUE,,FALSE,FALSE,FALSE,FALSE,FALSE,FALSE,FALSE,FALSE,FALSE,FALSE,0,Follow Yaw,0,0,117.6,117.6,FALSE,FALSE,FALSE,FALSE,FALSE,FALSE,,TRUE,Normal,,100,1024,1024,1024,1024,1,FALSE,FALSE,FALSE,FALSE,FALSE,0,FALSE,FALSE,FALSE,FALSE,62,7.645,1314,2113,7.657,FALSE,3.822,3.823,0.003,FALSE,FALSE,NA,112.5,112.4,112.4,0,25,0,18,5,2564.9,641.24,,Idle,0,20,FALSE,5,TRUE,9,Go Home,FALSE,FALSE,FALSE,FALSE,FALSE,FALSE,FALSE,FALSE,FALSE,FALSE,FALSE,FALSE,6.974498322,79.91427623,102.8,121.4,328,TRUE,1,1,FALSE,FALSE,FALSE,FALSE,,TRUE,FALSE,FALSE,Course Lock,65.6,41.9,16.4,Calm,27,,1.12.8,Mavic Mini,1SDCH7G0169R0K,1SFLH6Q0AB03DJ,1SRCH7F014TAHX,1U5X071EXP5ZJG,93.3,0.1,3.2,4.244369,1.342164,0,0,Mavic Mini,1SDCH7G0169R0K,1SFLH6Q0AB03DJ,1SRCH7F014TAHX,1U5X071EXP5ZJG,DJI Fly,,1.12.8,887AF817-89E0-6550-A80C-CC8B9797423A,1SDCH7G0169R0K,,,,,,,,Flight mode changed to Manual Takeoff.,
2/15/2024,37:09.3,9m 0.8s,540.8,6.974224176,79.91434229,0,0,0.3,51,0.2,0,0,0,0,0,0,0,0,1.9,2.1,91.2,91.2,,Manual Takeoff,Auto Fly,Takeoff (RC Assisted),17,5,TRUE,,Mavic Mini,TRUE,FALSE,,Smart,RC,TRUE,TRUE,FALSE,,,TRUE,,FALSE,FALSE,FALSE,FALSE,FALSE,FALSE,FALSE,FALSE,FALSE,FALSE,0,Follow Yaw,0,0,117.6,117.6,FALSE,FALSE,FALSE,FALSE,FALSE,FALSE,,TRUE,Normal,,100,1024,1024,1024,1024,1,FALSE,FALSE,FALSE,FALSE,FALSE,0,FALSE,FALSE,FALSE,FALSE,62,7.645,1314,2113,7.657,FALSE,3.822,3.823,0.003,FALSE,FALSE,NA,112.5,112.4,112.4,0,25,0,18,5,2564.9,641.24,,Idle,0,20,FALSE,5,TRUE,9,Go Home,FALSE,FALSE,FALSE,FALSE,FALSE,FALSE,FALSE,FALSE,FALSE,FALSE,FALSE,FALSE,6.974498322,79.91427623,102.8,121.4,328,TRUE,1,1,FALSE,FALSE,FALSE,FALSE,,TRUE,FALSE,FALSE,Course Lock,65.6,41.9,16.4,Calm,27,,1.12.8,Mavic Mini,1SDCH7G0169R0K,1SFLH6Q0AB03DJ,1SRCH7F014TAHX,1U5X071EXP5ZJG,93.3,0.1,3.2,4.244369,1.342164,0,0,Mavic Mini,1SDCH7G0169R0K,1SFLH6Q0AB03DJ,1SRCH7F014TAHX,1U5X071EXP5ZJG,DJI Fly,,1.12.8,887AF817-89E0-6550-A80C-CC8B9797423A,1SDCH7G0169R0K,,,,,,,,,
2/15/2024,37:09.4,9m 0.9s,540.9,6.974224217,79.91434231,0,0,0.3,51,0.2,0,0,0,0,0,0,0,0,2,2.1,91.3,91.3,,Manual Takeoff,Auto Fly,Takeoff (RC Assisted),17,5,TRUE,,Mavic Mini,TRUE,FALSE,,Smart,RC,TRUE,TRUE,FALSE,,,TRUE,,FALSE,FALSE,FALSE,FALSE,FALSE,FALSE,FALSE,FALSE,FALSE,FALSE,0,Follow Yaw,0,0,117.7,117.7,FALSE,FALSE,FALSE,FALSE,FALSE,FALSE,,TRUE,Normal,,100,1024,1024,1024,1024,1,FALSE,FALSE,FALSE,FALSE,FALSE,0,FALSE,FALSE,FALSE,FALSE,62,7.645,1314,2113,7.657,FALSE,3.822,3.823,0.003,FALSE,FALSE,NA,112.5,112.4,112.4,0,25,0,18,5,2564.9,641.24,,Idle,0,20,FALSE,5,TRUE,9,Go Home,FALSE,FALSE,FALSE,FALSE,FALSE,FALSE,FALSE,FALSE,FALSE,FALSE,FALSE,FALSE,6.974498322,79.91427623,102.8,121.4,328,TRUE,1,1,FALSE,FALSE,FALSE,FALSE,,TRUE,FALSE,FALSE,Course Lock,65.6,41.9,16.4,Calm,27,,1.12.8,Mavic Mini,1SDCH7G0169R0K,1SFLH6Q0AB03DJ,1SRCH7F014TAHX,1U5X071EXP5ZJG,93.3,0.1,3.2,4.244369,1.342164,0,0,Mavic Mini,1SDCH7G0169R0K,1SFLH6Q0AB03DJ,1SRCH7F014TAHX,1U5X071EXP5ZJG,DJI Fly,,1.12.8,887AF817-89E0-6550-A80C-CC8B9797423A,1SDCH7G0169R0K,,,,,,,,,
2/15/2024,37:09.5,9m 1.0s,541,6.974224259,79.9143424,0,0,0.3,51,0.2,0,0,0,0,0,0,0,0,2,2.1,91.3,91.3,,Manual Takeoff,Auto Fly,Takeoff (RC Assisted),17,5,TRUE,,Mavic Mini,TRUE,FALSE,,Smart,RC,TRUE,TRUE,FALSE,,,TRUE,,FALSE,FALSE,FALSE,FALSE,FALSE,FALSE,FALSE,FALSE,FALSE,FALSE,0,Follow Yaw,0,0,117.7,117.7,FALSE,FALSE,FALSE,FALSE,FALSE,FALSE,,TRUE,Normal,,100,1024,1024,1024,1024,1,FALSE,FALSE,FALSE,FALSE,FALSE,0,FALSE,FALSE,FALSE,FALSE,62,7.645,1314,2113,7.657,FALSE,3.822,3.823,0.003,FALSE,FALSE,NA,112.5,112.4,112.4,0,25,0,18,5,2564.9,641.24,,Idle,0,20,FALSE,5,TRUE,9,Go Home,FALSE,FALSE,FALSE,FALSE,FALSE,FALSE,FALSE,FALSE,FALSE,FALSE,FALSE,FALSE,6.974498322,79.91427623,102.8,121.4,328,TRUE,1,1,FALSE,FALSE,FALSE,FALSE,,TRUE,FALSE,FALSE,Course Lock,65.6,41.9,16.4,Calm,27,,1.12.8,Mavic Mini,1SDCH7G0169R0K,1SFLH6Q0AB03DJ,1SRCH7F014TAHX,1U5X071EXP5ZJG,93.3,0.1,3.2,4.244369,1.342164,0,0,Mavic Mini,1SDCH7G0169R0K,1SFLH6Q0AB03DJ,1SRCH7F014TAHX,1U5X071EXP5ZJG,DJI Fly,,1.12.8,887AF817-89E0-6550-A80C-CC8B9797423A,1SDCH7G0169R0K,,,,,,,,,
2/15/2024,37:09.6,9m 1.1s,541.1,6.974224274,79.91434237,0,0,0.3,51,0.2,0,0,0,0,0,0,0,0,2,2.1,91.3,91.3,,Manual Takeoff,Auto Fly,Takeoff (RC Assisted),17,5,TRUE,,Mavic Mini,TRUE,FALSE,,Smart,RC,TRUE,TRUE,FALSE,,,TRUE,,FALSE,FALSE,FALSE,FALSE,FALSE,FALSE,FALSE,FALSE,FALSE,FALSE,0,Follow Yaw,0,0,117.7,117.7,FALSE,FALSE,FALSE,FALSE,FALSE,FALSE,,TRUE,Normal,,100,1024,1024,1024,1024,1,FALSE,FALSE,FALSE,FALSE,FALSE,0,FALSE,FALSE,FALSE,FALSE,62,7.645,1314,2113,7.657,FALSE,3.822,3.823,0.003,FALSE,FALSE,NA,112.5,112.4,112.4,0,25,0,18,5,2564.9,641.24,,Idle,0,20,FALSE,5,TRUE,9,Go Home,FALSE,FALSE,FALSE,FALSE,FALSE,FALSE,FALSE,FALSE,FALSE,FALSE,FALSE,FALSE,6.974498322,79.91427623,102.8,121.4,328,TRUE,1,1,FALSE,FALSE,FALSE,FALSE,,TRUE,FALSE,FALSE,Course Lock,65.6,41.9,16.4,Calm,27,,1.12.8,Mavic Mini,1SDCH7G0169R0K,1SFLH6Q0AB03DJ,1SRCH7F014TAHX,1U5X071EXP5ZJG,93.3,0.1,3.2,4.244369,1.342164,0,0,Mavic Mini,1SDCH7G0169R0K,1SFLH6Q0AB03DJ,1SRCH7F014TAHX,1U5X071EXP5ZJG,DJI Fly,,1.12.8,887AF817-89E0-6550-A80C-CC8B9797423A,1SDCH7G0169R0K,,,,,,,,,
2/15/2024,37:09.7,9m 1.2s,541.2,6.974224287,79.91434232,0,0,0.3,51,0.3,0,0,0,0,0,0,0,0,2,2.1,91.2,91.2,,Manual Takeoff,Auto Fly,Takeoff (RC Assisted),17,5,TRUE,,Mavic Mini,TRUE,FALSE,,Smart,RC,TRUE,TRUE,FALSE,,,TRUE,,FALSE,FALSE,FALSE,FALSE,FALSE,FALSE,FALSE,FALSE,FALSE,FALSE,0,Follow Yaw,0,0,117.7,117.7,FALSE,FALSE,FALSE,FALSE,FALSE,FALSE,,TRUE,Normal,,100,1024,1024,1024,1024,1,FALSE,FALSE,FALSE,FALSE,FALSE,0,FALSE,FALSE,FALSE,FALSE,62,7.645,1314,2113,7.657,FALSE,3.822,3.823,0.003,FALSE,FALSE,NA,112.5,112.4,112.4,0,25,0,18,5,2564.9,641.24,,Idle,0,20,FALSE,5,TRUE,9,Go Home,FALSE,FALSE,FALSE,FALSE,FALSE,FALSE,FALSE,FALSE,FALSE,FALSE,FALSE,FALSE,6.974498322,79.91427623,102.7,121.4,328,TRUE,1,1,FALSE,FALSE,FALSE,FALSE,,TRUE,FALSE,FALSE,Course Lock,65.6,41.9,16.4,Calm,27,,1.12.8,Mavic Mini,1SDCH7G0169R0K,1SFLH6Q0AB03DJ,1SRCH7F014TAHX,1U5X071EXP5ZJG,93.3,0.1,3.2,4.244369,1.342164,0,0,Mavic Mini,1SDCH7G0169R0K,1SFLH6Q0AB03DJ,1SRCH7F014TAHX,1U5X071EXP5ZJG,DJI Fly,,1.12.8,887AF817-89E0-6550-A80C-CC8B9797423A,1SDCH7G0169R0K,,,,,,,,,
2/15/2024,37:09.8,9m 1.3s,541.3,6.974224286,79.9143423,0,0,0.3,51,0.3,0,0,0,0,0,0,0,0,1.9,2.1,91.2,91.2,,Manual Takeoff,Auto Fly,Takeoff (RC Assisted),17,5,TRUE,,Mavic Mini,TRUE,FALSE,,Smart,RC,TRUE,TRUE,FALSE,,,TRUE,,FALSE,FALSE,FALSE,FALSE,FALSE,FALSE,FALSE,FALSE,FALSE,FALSE,0,Follow Yaw,0,0,117.7,117.7,FALSE,FALSE,FALSE,FALSE,FALSE,FALSE,,TRUE,Normal,,100,1024,1024,1024,1024,1,FALSE,FALSE,FALSE,FALSE,FALSE,0,FALSE,FALSE,FALSE,FALSE,62,7.645,1314,2113,7.652,FALSE,3.822,3.823,0.003,FALSE,FALSE,NA,112.5,112.4,112.4,0,25,0,18,5,2600.9,650.23,,Idle,0,20,FALSE,5,TRUE,9,Go Home,FALSE,FALSE,FALSE,FALSE,FALSE,FALSE,FALSE,FALSE,FALSE,FALSE,FALSE,FALSE,6.974498322,79.91427623,102.7,121.4,328,TRUE,1,1,FALSE,FALSE,FALSE,FALSE,,TRUE,FALSE,FALSE,Course Lock,65.6,41.9,16.4,Calm,27,,1.12.8,Mavic Mini,1SDCH7G0169R0K,1SFLH6Q0AB03DJ,1SRCH7F014TAHX,1U5X071EXP5ZJG,93.3,0.1,3.2,4.244369,1.342164,0,0,Mavic Mini,1SDCH7G0169R0K,1SFLH6Q0AB03DJ,1SRCH7F014TAHX,1U5X071EXP5ZJG,DJI Fly,,1.12.8,887AF817-89E0-6550-A80C-CC8B9797423A,1SDCH7G0169R0K,,,,,,,,,
2/15/2024,37:09.9,9m 1.4s,541.4,6.974224286,79.91434228,0,0,0.3,51,0.3,0,0,0,0,0,0,0,0,1.9,2.1,91.2,91.2,,Manual Takeoff,Auto Fly,Takeoff (RC Assisted),17,5,TRUE,,Mavic Mini,TRUE,FALSE,,Smart,RC,TRUE,TRUE,FALSE,,,TRUE,,FALSE,FALSE,FALSE,FALSE,FALSE,FALSE,FALSE,FALSE,FALSE,FALSE,0,Follow Yaw,0,0,117.7,117.7,FALSE,FALSE,FALSE,FALSE,FALSE,FALSE,,TRUE,Normal,,100,1024,1024,1024,1024,1,FALSE,FALSE,FALSE,FALSE,FALSE,0,FALSE,FALSE,FALSE,FALSE,62,7.645,1314,2113,7.652,FALSE,3.822,3.823,0.003,FALSE,FALSE,NA,112.5,112.4,112.4,0,25,0,18,5,2600.9,650.23,,Idle,0,20,FALSE,5,TRUE,9,Go Home,FALSE,FALSE,FALSE,FALSE,FALSE,FALSE,FALSE,FALSE,FALSE,FALSE,FALSE,FALSE,6.974498322,79.91427623,102.7,121.4,328,TRUE,1,1,FALSE,FALSE,FALSE,FALSE,,TRUE,FALSE,FALSE,Course Lock,65.6,41.9,16.4,Calm,27,,1.12.8,Mavic Mini,1SDCH7G0169R0K,1SFLH6Q0AB03DJ,1SRCH7F014TAHX,1U5X071EXP5ZJG,93.3,0.1,3.2,4.244369,1.342164,0,0,Mavic Mini,1SDCH7G0169R0K,1SFLH6Q0AB03DJ,1SRCH7F014TAHX,1U5X071EXP5ZJG,DJI Fly,,1.12.8,887AF817-89E0-6550-A80C-CC8B9797423A,1SDCH7G0169R0K,,,,,,,,,
2/15/2024,37:10.0,9m 1.5s,541.5,6.974224314,79.91434227,0,0,0.3,51,0.3,0,0,0,0,0,0,0,0,2,2.1,91.3,91.3,,Manual Takeoff,Auto Fly,Takeoff (RC Assisted),17,5,TRUE,,Mavic Mini,TRUE,FALSE,,Smart,RC,TRUE,TRUE,FALSE,,,TRUE,,FALSE,FALSE,FALSE,FALSE,FALSE,FALSE,FALSE,FALSE,FALSE,FALSE,0,Follow Yaw,0,0,117.7,117.7,FALSE,FALSE,FALSE,FALSE,FALSE,FALSE,,TRUE,Normal,,100,1024,1024,1024,1024,1,FALSE,FALSE,FALSE,FALSE,FALSE,0,FALSE,FALSE,FALSE,FALSE,62,7.645,1314,2113,7.652,FALSE,3.822,3.823,0.003,FALSE,FALSE,NA,112.5,112.4,112.4,0,25,0,18,5,2600.9,650.23,,Idle,0,20,FALSE,5,TRUE,9,Go Home,FALSE,FALSE,FALSE,FALSE,FALSE,FALSE,FALSE,FALSE,FALSE,FALSE,FALSE,FALSE,6.974498322,79.91427623,102.7,121.4,328,TRUE,1,1,FALSE,FALSE,FALSE,FALSE,,TRUE,FALSE,FALSE,Course Lock,65.6,41.9,16.4,Calm,27,,1.12.8,Mavic Mini,1SDCH7G0169R0K,1SFLH6Q0AB03DJ,1SRCH7F014TAHX,1U5X071EXP5ZJG,93.3,0.1,3.2,4.244369,1.342164,0,0,Mavic Mini,1SDCH7G0169R0K,1SFLH6Q0AB03DJ,1SRCH7F014TAHX,1U5X071EXP5ZJG,DJI Fly,,1.12.8,887AF817-89E0-6550-A80C-CC8B9797423A,1SDCH7G0169R0K,,,,,,,,,
2/15/2024,37:10.1,9m 1.6s,541.6,6.974224366,79.91434226,0,0,0.3,51,0.3,0,0,0,0,0,0,0,0,2,2.1,91.3,91.3,,Manual Takeoff,Auto Fly,Takeoff (RC Assisted),17,5,TRUE,,Mavic Mini,TRUE,FALSE,,Smart,RC,TRUE,TRUE,FALSE,,,TRUE,,FALSE,FALSE,FALSE,FALSE,FALSE,FALSE,FALSE,FALSE,FALSE,FALSE,0,Follow Yaw,0,0,117.7,117.7,FALSE,FALSE,FALSE,FALSE,FALSE,FALSE,,TRUE,Normal,,100,1024,1024,1024,1024,1,FALSE,FALSE,FALSE,FALSE,FALSE,0,FALSE,FALSE,FALSE,FALSE,62,7.645,1314,2113,7.652,FALSE,3.822,3.823,0.003,FALSE,FALSE,NA,112.5,112.4,112.4,0,25,0,18,5,2600.9,650.23,,Idle,0,20,FALSE,5,TRUE,9,Go Home,FALSE,FALSE,FALSE,FALSE,FALSE,FALSE,FALSE,FALSE,FALSE,FALSE,FALSE,FALSE,6.974498322,79.91427623,102.7,121.4,328,TRUE,1,1,FALSE,FALSE,FALSE,FALSE,,TRUE,FALSE,FALSE,Course Lock,65.6,41.9,16.4,Calm,27,,1.12.8,Mavic Mini,1SDCH7G0169R0K,1SFLH6Q0AB03DJ,1SRCH7F014TAHX,1U5X071EXP5ZJG,93.3,0.1,3.2,4.244369,1.342164,0,0,Mavic Mini,1SDCH7G0169R0K,1SFLH6Q0AB03DJ,1SRCH7F014TAHX,1U5X071EXP5ZJG,DJI Fly,,1.12.8,887AF817-89E0-6550-A80C-CC8B9797423A,1SDCH7G0169R0K,,,,,,,,,
2/15/2024,37:10.3,9m 1.7s,541.7,6.974224387,79.91434226,0,0,0.3,51,0.3,0,0,0,0,0,0,0,0,2,2.1,91.2,91.2,,Manual Takeoff,Auto Fly,Takeoff (RC Assisted),17,5,TRUE,,Mavic Mini,TRUE,FALSE,,Smart,RC,TRUE,TRUE,FALSE,,,TRUE,,FALSE,FALSE,FALSE,FALSE,FALSE,FALSE,FALSE,FALSE,FALSE,FALSE,0,Follow Yaw,0,0,117.7,117.7,FALSE,FALSE,FALSE,FALSE,FALSE,FALSE,,TRUE,Normal,,100,1024,1024,1024,1024,1,FALSE,FALSE,FALSE,FALSE,FALSE,0,FALSE,FALSE,FALSE,FALSE,62,7.652,1313,2113,7.652,FALSE,3.827,3.825,0.003,FALSE,FALSE,NA,112.5,112.4,112.4,0,25,0,18,5,2600.9,650.23,,Idle,0,20,FALSE,5,TRUE,9,Go Home,FALSE,FALSE,FALSE,FALSE,FALSE,FALSE,FALSE,FALSE,FALSE,FALSE,FALSE,FALSE,6.974498322,79.91427623,102.7,121.4,328,TRUE,1,1,FALSE,FALSE,FALSE,FALSE,,TRUE,FALSE,FALSE,Course Lock,65.6,41.9,16.4,Calm,27,,1.12.8,Mavic Mini,1SDCH7G0169R0K,1SFLH6Q0AB03DJ,1SRCH7F014TAHX,1U5X071EXP5ZJG,93.3,0.1,3.2,4.244369,1.342164,0,0,Mavic Mini,1SDCH7G0169R0K,1SFLH6Q0AB03DJ,1SRCH7F014TAHX,1U5X071EXP5ZJG,DJI Fly,,1.12.8,887AF817-89E0-6550-A80C-CC8B9797423A,1SDCH7G0169R0K,,,,,6.974197445,79.91433218,5,,
2/15/2024,37:10.3,9m 1.8s,541.8,6.974224406,79.91434225,0,0,0.3,51,0.3,0,0,0,0,0,0,0,0,2,2.1,91.2,91.2,,Manual Takeoff,Auto Fly,Takeoff (RC Assisted),17,5,TRUE,,Mavic Mini,TRUE,FALSE,,Smart,RC,TRUE,TRUE,FALSE,,,TRUE,,FALSE,FALSE,FALSE,FALSE,FALSE,FALSE,FALSE,FALSE,FALSE,FALSE,0,Follow Yaw,0,0,117.7,117.7,FALSE,FALSE,FALSE,FALSE,FALSE,FALSE,,TRUE,Normal,,100,1024,1024,1024,1024,1,FALSE,FALSE,FALSE,FALSE,FALSE,0,FALSE,FALSE,FALSE,FALSE,62,7.652,1313,2113,7.652,FALSE,3.827,3.825,0.003,FALSE,FALSE,NA,112.5,112.4,112.4,0,25,0,18,5,2600.9,650.23,,Idle,0,20,FALSE,5,TRUE,9,Go Home,FALSE,FALSE,FALSE,FALSE,FALSE,FALSE,FALSE,FALSE,FALSE,FALSE,FALSE,FALSE,6.974498322,79.91427623,102.7,121.4,328,TRUE,1,1,FALSE,FALSE,FALSE,FALSE,,TRUE,FALSE,FALSE,Course Lock,65.6,41.9,16.4,Calm,27,,1.12.8,Mavic Mini,1SDCH7G0169R0K,1SFLH6Q0AB03DJ,1SRCH7F014TAHX,1U5X071EXP5ZJG,93.3,0.1,3.2,4.244369,1.342164,0,0,Mavic Mini,1SDCH7G0169R0K,1SFLH6Q0AB03DJ,1SRCH7F014TAHX,1U5X071EXP5ZJG,DJI Fly,,1.12.8,887AF817-89E0-6550-A80C-CC8B9797423A,1SDCH7G0169R0K,,,,,6.974197445,79.91433218,5,,
2/15/2024,37:10.4,9m 1.9s,541.9,6.974224331,79.91434231,0,0,0.3,51,0.4,0,0,0,0,0,0,0,0,1.9,2.1,91.2,91.2,,Manual Takeoff,Auto Fly,Takeoff (RC Assisted),17,5,TRUE,,Mavic Mini,TRUE,FALSE,,Smart,RC,TRUE,TRUE,FALSE,,,TRUE,,FALSE,FALSE,FALSE,FALSE,FALSE,FALSE,FALSE,FALSE,FALSE,FALSE,0,Follow Yaw,0,0,117.7,117.7,FALSE,FALSE,FALSE,FALSE,FALSE,FALSE,,TRUE,Normal,,100,1024,1024,1024,1024,1,FALSE,FALSE,FALSE,FALSE,FALSE,0,FALSE,FALSE,FALSE,FALSE,62,7.652,1313,2113,7.652,FALSE,3.827,3.825,0.003,FALSE,FALSE,NA,112.5,112.4,112.4,0,25,0,18,5,2600.9,650.23,,Idle,0,20,FALSE,5,TRUE,9,Go Home,FALSE,FALSE,FALSE,FALSE,FALSE,FALSE,FALSE,FALSE,FALSE,FALSE,FALSE,FALSE,6.974498322,79.91427623,102.7,121.4,328,TRUE,1,1,FALSE,FALSE,FALSE,FALSE,,TRUE,FALSE,FALSE,Course Lock,65.6,41.9,16.4,Calm,27,,1.12.8,Mavic Mini,1SDCH7G0169R0K,1SFLH6Q0AB03DJ,1SRCH7F014TAHX,1U5X071EXP5ZJG,93.3,0.1,3.2,4.244369,1.342164,0,0,Mavic Mini,1SDCH7G0169R0K,1SFLH6Q0AB03DJ,1SRCH7F014TAHX,1U5X071EXP5ZJG,DJI Fly,,1.12.8,887AF817-89E0-6550-A80C-CC8B9797423A,1SDCH7G0169R0K,,,,,6.974197445,79.91433218,5,,
2/15/2024,37:10.5,9m 2.0s,542,6.974224335,79.9143423,0,0,0.3,51,0.4,0,0,0,0,0,0,0,0,1.9,2.1,91.3,91.3,,Manual Takeoff,Auto Fly,Takeoff (RC Assisted),17,5,TRUE,,Mavic Mini,TRUE,FALSE,,Smart,RC,TRUE,TRUE,FALSE,,,TRUE,,FALSE,FALSE,FALSE,FALSE,FALSE,FALSE,FALSE,FALSE,FALSE,FALSE,0,Follow Yaw,0,0,117.7,117.7,FALSE,FALSE,FALSE,FALSE,FALSE,FALSE,,TRUE,Normal,,100,1024,1024,1024,1024,1,FALSE,FALSE,FALSE,FALSE,FALSE,0,FALSE,FALSE,FALSE,FALSE,62,7.652,1313,2113,7.652,FALSE,3.827,3.825,0.003,FALSE,FALSE,NA,112.5,112.4,112.4,0,25,0,18,5,2600.9,650.23,,Idle,0,20,FALSE,5,TRUE,9,Go Home,FALSE,FALSE,FALSE,FALSE,FALSE,FALSE,FALSE,FALSE,FALSE,FALSE,FALSE,FALSE,6.974498322,79.91427623,102.7,121.4,328,TRUE,1,1,FALSE,FALSE,FALSE,FALSE,,TRUE,FALSE,FALSE,Course Lock,65.6,41.9,16.4,Calm,27,,1.12.8,Mavic Mini,1SDCH7G0169R0K,1SFLH6Q0AB03DJ,1SRCH7F014TAHX,1U5X071EXP5ZJG,93.3,0.1,3.2,4.244369,1.342164,0,0,Mavic Mini,1SDCH7G0169R0K,1SFLH6Q0AB03DJ,1SRCH7F014TAHX,1U5X071EXP5ZJG,DJI Fly,,1.12.8,887AF817-89E0-6550-A80C-CC8B9797423A,1SDCH7G0169R0K,,,,,6.974197445,79.91433218,5,,
2/15/2024,37:10.6,9m 2.1s,542.1,6.974224333,79.91434229,0,0,0.3,51,0.4,0,0,0,0,0,0,0,0,1.9,2.1,91.2,91.2,,Manual Takeoff,Auto Fly,Takeoff (RC Assisted),17,5,TRUE,,Mavic Mini,TRUE,FALSE,,Smart,RC,TRUE,TRUE,FALSE,,,TRUE,,FALSE,FALSE,FALSE,FALSE,FALSE,FALSE,FALSE,FALSE,FALSE,FALSE,0,Follow Yaw,0,0,117.7,117.7,FALSE,FALSE,FALSE,FALSE,FALSE,FALSE,,TRUE,Normal,,100,1024,1024,1024,1024,1,FALSE,FALSE,FALSE,FALSE,FALSE,0,FALSE,FALSE,FALSE,FALSE,62,7.652,1313,2113,7.652,FALSE,3.827,3.825,0.003,FALSE,FALSE,NA,112.5,112.4,112.4,0,25,0,18,5,2600.9,650.23,,Idle,0,20,FALSE,5,TRUE,9,Go Home,FALSE,FALSE,FALSE,FALSE,FALSE,FALSE,FALSE,FALSE,FALSE,FALSE,FALSE,FALSE,6.974498322,79.91427623,102.7,121.4,328,TRUE,1,1,FALSE,FALSE,FALSE,FALSE,,TRUE,FALSE,FALSE,Course Lock,65.6,41.9,16.4,Calm,27,,1.12.8,Mavic Mini,1SDCH7G0169R0K,1SFLH6Q0AB03DJ,1SRCH7F014TAHX,1U5X071EXP5ZJG,93.3,0.1,3.2,4.244369,1.342164,0,0,Mavic Mini,1SDCH7G0169R0K,1SFLH6Q0AB03DJ,1SRCH7F014TAHX,1U5X071EXP5ZJG,DJI Fly,,1.12.8,887AF817-89E0-6550-A80C-CC8B9797423A,1SDCH7G0169R0K,,,,,6.974197445,79.91433218,5,,
2/15/2024,37:10.7,9m 2.2s,542.2,6.974224333,79.91434229,0,0,0.3,51,0.4,0,0,0,0,0,0,0,0,2,2.1,91.2,91.2,,Manual Takeoff,Auto Fly,Takeoff (RC Assisted),17,5,TRUE,,Mavic Mini,TRUE,FALSE,,Smart,RC,TRUE,TRUE,FALSE,,,TRUE,,FALSE,FALSE,FALSE,FALSE,FALSE,FALSE,FALSE,FALSE,FALSE,FALSE,0,Follow Yaw,0,0,117.7,117.7,FALSE,FALSE,FALSE,FALSE,FALSE,FALSE,,TRUE,Normal,,100,1024,1024,1024,1024,1,FALSE,FALSE,FALSE,FALSE,FALSE,0,FALSE,FALSE,FALSE,FALSE,62,7.652,1313,2113,7.652,FALSE,3.827,3.825,0.003,FALSE,FALSE,NA,112.5,112.4,112.4,0,25,0,18,5,2600.9,650.23,,Idle,0,20,FALSE,5,TRUE,9,Go Home,FALSE,FALSE,FALSE,FALSE,FALSE,FALSE,FALSE,FALSE,FALSE,FALSE,FALSE,FALSE,6.974498322,79.91427623,102.7,121.4,328,TRUE,1,1,FALSE,FALSE,FALSE,FALSE,,TRUE,FALSE,FALSE,Course Lock,65.6,41.9,16.4,Calm,27,,1.12.8,Mavic Mini,1SDCH7G0169R0K,1SFLH6Q0AB03DJ,1SRCH7F014TAHX,1U5X071EXP5ZJG,93.3,0.1,3.2,4.244369,1.342164,0,0,Mavic Mini,1SDCH7G0169R0K,1SFLH6Q0AB03DJ,1SRCH7F014TAHX,1U5X071EXP5ZJG,DJI Fly,,1.12.8,887AF817-89E0-6550-A80C-CC8B9797423A,1SDCH7G0169R0K,,,,,6.974197445,79.91433218,5,,
2/15/2024,37:10.8,9m 2.3s,542.3,6.974224397,79.91434246,0,0,0.3,51,0.4,0,0,0,0,0,0,0,0,2,2,91.2,91.2,,Manual Takeoff,Auto Fly,Takeoff (RC Assisted),17,5,TRUE,,Mavic Mini,TRUE,FALSE,,Smart,RC,TRUE,TRUE,FALSE,,,TRUE,,FALSE,FALSE,FALSE,FALSE,FALSE,FALSE,FALSE,FALSE,FALSE,FALSE,0,Follow Yaw,0,0,117.7,117.7,FALSE,FALSE,FALSE,FALSE,FALSE,FALSE,,TRUE,Normal,,100,1024,1024,1024,1024,1,FALSE,FALSE,FALSE,FALSE,FALSE,0,FALSE,FALSE,FALSE,FALSE,62,7.652,1313,2113,7.649,FALSE,3.827,3.825,0.003,FALSE,FALSE,NA,112.5,112.4,112.4,0,25,0,18,5,2698.4,674.6,,Idle,0,20,FALSE,5,TRUE,9,Go Home,FALSE,FALSE,FALSE,FALSE,FALSE,FALSE,FALSE,FALSE,FALSE,FALSE,FALSE,FALSE,6.974498322,79.91427623,102.7,121.4,328,TRUE,1,1,FALSE,FALSE,FALSE,FALSE,,TRUE,FALSE,FALSE,Course Lock,65.6,41.9,16.4,Calm,27,,1.12.8,Mavic Mini,1SDCH7G0169R0K,1SFLH6Q0AB03DJ,1SRCH7F014TAHX,1U5X071EXP5ZJG,93.3,0.1,3.2,4.244369,1.342164,0,0,Mavic Mini,1SDCH7G0169R0K,1SFLH6Q0AB03DJ,1SRCH7F014TAHX,1U5X071EXP5ZJG,DJI Fly,,1.12.8,887AF817-89E0-6550-A80C-CC8B9797423A,1SDCH7G0169R0K,,,,,6.974197445,79.91433218,5,,
2/15/2024,37:10.9,9m 2.4s,542.4,6.974224452,79.9143425,0,0,0.3,51,0.5,0,0,0,0,0,0,0,0,2,2,91.2,91.2,,Manual Takeoff,Auto Fly,Takeoff (RC Assisted),17,5,TRUE,,Mavic Mini,TRUE,FALSE,,Smart,RC,TRUE,TRUE,FALSE,,,TRUE,,FALSE,FALSE,FALSE,FALSE,FALSE,FALSE,FALSE,FALSE,FALSE,FALSE,0,Follow Yaw,0,0,117.7,117.7,FALSE,FALSE,FALSE,FALSE,FALSE,FALSE,,TRUE,Normal,,100,1024,1024,1024,1024,1,FALSE,FALSE,FALSE,FALSE,FALSE,0,FALSE,FALSE,FALSE,FALSE,62,7.652,1313,2113,7.649,FALSE,3.827,3.825,0.003,FALSE,FALSE,NA,112.5,112.4,112.4,0,25,0,18,5,2698.4,674.6,,Idle,0,20,FALSE,5,TRUE,9,Go Home,FALSE,FALSE,FALSE,FALSE,FALSE,FALSE,FALSE,FALSE,FALSE,FALSE,FALSE,FALSE,6.974498322,79.91427623,102.7,121.4,328,TRUE,1,1,FALSE,FALSE,FALSE,FALSE,,TRUE,FALSE,FALSE,Course Lock,65.6,41.9,16.4,Calm,27,,1.12.8,Mavic Mini,1SDCH7G0169R0K,1SFLH6Q0AB03DJ,1SRCH7F014TAHX,1U5X071EXP5ZJG,93.3,0.1,3.2,4.244369,1.342164,0,0,Mavic Mini,1SDCH7G0169R0K,1SFLH6Q0AB03DJ,1SRCH7F014TAHX,1U5X071EXP5ZJG,DJI Fly,,1.12.8,887AF817-89E0-6550-A80C-CC8B9797423A,1SDCH7G0169R0K,,,,,6.974197445,79.91433218,5,,
2/15/2024,37:11.0,9m 2.5s,542.5,6.974224477,79.91434247,0,0,0.3,51,0.5,0,0,0,0,0,0,0,0,2,2.1,91.2,91.2,,Manual Takeoff,Auto Fly,Takeoff (RC Assisted),17,5,TRUE,,Mavic Mini,TRUE,FALSE,,Smart,RC,TRUE,TRUE,FALSE,,,TRUE,,FALSE,FALSE,FALSE,FALSE,FALSE,FALSE,FALSE,FALSE,FALSE,FALSE,0,Follow Yaw,0,0,117.7,117.7,FALSE,FALSE,FALSE,FALSE,FALSE,FALSE,,TRUE,Normal,,100,1024,1024,1024,1024,1,FALSE,FALSE,FALSE,FALSE,FALSE,0,FALSE,FALSE,FALSE,FALSE,62,7.652,1313,2113,7.649,FALSE,3.827,3.825,0.003,FALSE,FALSE,NA,112.5,112.4,112.4,0,25,0,18,5,2698.4,674.6,,Idle,0,20,FALSE,5,TRUE,9,Go Home,FALSE,FALSE,FALSE,FALSE,FALSE,FALSE,FALSE,FALSE,FALSE,FALSE,FALSE,FALSE,6.974498322,79.91427623,102.7,121.4,328,TRUE,1,1,FALSE,FALSE,FALSE,FALSE,,TRUE,FALSE,FALSE,Course Lock,65.6,41.9,16.4,Calm,27,,1.12.8,Mavic Mini,1SDCH7G0169R0K,1SFLH6Q0AB03DJ,1SRCH7F014TAHX,1U5X071EXP5ZJG,93.3,0.1,3.2,4.244369,1.342164,0,0,Mavic Mini,1SDCH7G0169R0K,1SFLH6Q0AB03DJ,1SRCH7F014TAHX,1U5X071EXP5ZJG,DJI Fly,,1.12.8,887AF817-89E0-6550-A80C-CC8B9797423A,1SDCH7G0169R0K,,,,,6.974197445,79.91433218,5,,
2/15/2024,37:11.1,9m 2.6s,542.6,6.9742245,79.91434243,0,0,0.3,51,0.5,0,0,0,0,0,0,0,0,2,2.1,91.2,91.2,,Manual Takeoff,Auto Fly,Takeoff (RC Assisted),17,5,TRUE,,Mavic Mini,TRUE,FALSE,,Smart,RC,TRUE,TRUE,FALSE,,,TRUE,,FALSE,FALSE,FALSE,FALSE,FALSE,FALSE,FALSE,FALSE,FALSE,FALSE,0,Follow Yaw,0,0,117.7,117.7,FALSE,FALSE,FALSE,FALSE,FALSE,FALSE,,TRUE,Normal,,100,1024,1024,1024,1024,1,FALSE,FALSE,FALSE,FALSE,FALSE,0,FALSE,FALSE,FALSE,FALSE,62,7.652,1313,2113,7.649,FALSE,3.827,3.825,0.003,FALSE,FALSE,NA,112.5,112.4,112.4,0,25,0,18,5,2698.4,674.6,,Idle,0,20,FALSE,5,TRUE,9,Go Home,FALSE,FALSE,FALSE,FALSE,FALSE,FALSE,FALSE,FALSE,FALSE,FALSE,FALSE,FALSE,6.974498322,79.91427623,102.7,121.4,328,TRUE,1,1,FALSE,FALSE,FALSE,FALSE,,TRUE,FALSE,FALSE,Course Lock,65.6,41.9,16.4,Calm,27,,1.12.8,Mavic Mini,1SDCH7G0169R0K,1SFLH6Q0AB03DJ,1SRCH7F014TAHX,1U5X071EXP5ZJG,93.3,0.1,3.2,4.244369,1.342164,0,0,Mavic Mini,1SDCH7G0169R0K,1SFLH6Q0AB03DJ,1SRCH7F014TAHX,1U5X071EXP5ZJG,DJI Fly,,1.12.8,887AF817-89E0-6550-A80C-CC8B9797423A,1SDCH7G0169R0K,,,,,6.974197445,79.91433218,5,,
2/15/2024,37:11.3,9m 2.7s,542.7,6.974224438,79.91434233,0,0,0.3,51,0.5,0,0,0,0,0,0,0,0,1.9,2.1,91.2,91.2,,Manual Takeoff,Auto Fly,Takeoff (RC Assisted),17,5,TRUE,,Mavic Mini,TRUE,FALSE,,Smart,RC,TRUE,TRUE,FALSE,,,TRUE,,FALSE,FALSE,FALSE,FALSE,FALSE,FALSE,FALSE,FALSE,FALSE,FALSE,0,Follow Yaw,0,0,117.7,117.7,FALSE,FALSE,FALSE,FALSE,FALSE,FALSE,,TRUE,Normal,,100,1024,1024,1063,1024,1,FALSE,FALSE,FALSE,FALSE,FALSE,0,FALSE,FALSE,FALSE,FALSE,62,7.652,1313,2113,7.649,FALSE,3.827,3.825,0.003,FALSE,FALSE,NA,112.5,112.4,112.4,0,25,0,18,5,2698.4,674.6,,Idle,0,20,FALSE,5,TRUE,9,Go Home,FALSE,FALSE,FALSE,FALSE,FALSE,FALSE,FALSE,FALSE,FALSE,FALSE,FALSE,FALSE,6.974498322,79.91427623,102.7,121.4,328,TRUE,1,1,FALSE,FALSE,FALSE,FALSE,,TRUE,FALSE,FALSE,Course Lock,65.6,41.9,16.4,Calm,27,,1.12.8,Mavic Mini,1SDCH7G0169R0K,1SFLH6Q0AB03DJ,1SRCH7F014TAHX,1U5X071EXP5ZJG,93.3,0.1,3.2,4.244369,1.342164,0,0,Mavic Mini,1SDCH7G0169R0K,1SFLH6Q0AB03DJ,1SRCH7F014TAHX,1U5X071EXP5ZJG,DJI Fly,,1.12.8,887AF817-89E0-6550-A80C-CC8B9797423A,1SDCH7G0169R0K,,,,,6.974197445,79.91433218,5,,
2/15/2024,37:11.3,9m 2.8s,542.8,6.974224443,79.9143423,0,0,0.3,51,0.5,0,0,0,0,0,0,0,0,1.9,2.1,91.2,91.2,,Manual Takeoff,Auto Fly,Takeoff (RC Assisted),17,5,TRUE,,Mavic Mini,TRUE,FALSE,,Smart,RC,TRUE,TRUE,FALSE,,,TRUE,,FALSE,FALSE,FALSE,FALSE,FALSE,FALSE,FALSE,FALSE,FALSE,FALSE,0,Follow Yaw,0,0,117.7,117.7,FALSE,FALSE,FALSE,FALSE,FALSE,FALSE,,TRUE,Normal,,100,1024,1024,1070,1024,1,FALSE,FALSE,FALSE,FALSE,FALSE,0,FALSE,FALSE,FALSE,FALSE,62,7.652,1313,2113,7.649,FALSE,3.827,3.825,0.003,FALSE,FALSE,NA,112.5,112.4,112.4,0,25,0,18,5,2698.4,674.6,,Idle,0,20,FALSE,5,TRUE,9,Go Home,FALSE,FALSE,FALSE,FALSE,FALSE,FALSE,FALSE,FALSE,FALSE,FALSE,FALSE,FALSE,6.974498322,79.91427623,102.7,121.4,328,TRUE,1,1,FALSE,FALSE,FALSE,FALSE,,TRUE,FALSE,FALSE,Course Lock,65.6,41.9,16.4,Calm,27,,1.12.8,Mavic Mini,1SDCH7G0169R0K,1SFLH6Q0AB03DJ,1SRCH7F014TAHX,1U5X071EXP5ZJG,93.3,0.1,3.2,4.244369,1.342164,0,0,Mavic Mini,1SDCH7G0169R0K,1SFLH6Q0AB03DJ,1SRCH7F014TAHX,1U5X071EXP5ZJG,DJI Fly,,1.12.8,887AF817-89E0-6550-A80C-CC8B9797423A,1SDCH7G0169R0K,,,,,6.974197445,79.91433218,5,,
2/15/2024,37:11.3,9m 2.9s,542.9,6.974224486,79.91434229,0,0,0.3,51,0.6,0,0,0,0,0,0,0,0,1.9,2.1,91.2,91.2,,Manual Takeoff,Auto Fly,Takeoff (RC Assisted),17,5,TRUE,,Mavic Mini,TRUE,FALSE,,Smart,RC,TRUE,TRUE,FALSE,,,TRUE,,FALSE,FALSE,FALSE,FALSE,FALSE,FALSE,FALSE,FALSE,FALSE,FALSE,0,Follow Yaw,0,0,117.7,117.7,FALSE,FALSE,FALSE,FALSE,FALSE,FALSE,,TRUE,Normal,,100,1024,1024,1070,1024,1,FALSE,FALSE,FALSE,FALSE,FALSE,0,FALSE,FALSE,FALSE,FALSE,62,7.652,1313,2113,7.649,FALSE,3.827,3.825,0.003,FALSE,FALSE,NA,112.5,112.4,112.4,0,25,0,18,5,2698.4,674.6,,Idle,0,20,FALSE,5,TRUE,9,Go Home,FALSE,FALSE,FALSE,FALSE,FALSE,FALSE,FALSE,FALSE,FALSE,FALSE,FALSE,FALSE,6.974498322,79.91427623,102.7,121.4,328,TRUE,1,1,FALSE,FALSE,FALSE,FALSE,,TRUE,FALSE,FALSE,Course Lock,65.6,41.9,16.4,Calm,27,,1.12.8,Mavic Mini,1SDCH7G0169R0K,1SFLH6Q0AB03DJ,1SRCH7F014TAHX,1U5X071EXP5ZJG,93.3,0.1,3.2,4.244369,1.342164,0,0,Mavic Mini,1SDCH7G0169R0K,1SFLH6Q0AB03DJ,1SRCH7F014TAHX,1U5X071EXP5ZJG,DJI Fly,,1.12.8,887AF817-89E0-6550-A80C-CC8B9797423A,1SDCH7G0169R0K,,,,,6.974197445,79.91433218,5,,
2/15/2024,37:11.5,9m 3.0s,543,6.974224538,79.91434228,0,0,0.3,51,0.6,0,0,0,0,0,0,0,0,1.9,2.1,91.2,91.2,,Manual Takeoff,Auto Fly,Takeoff (RC Assisted),17,5,TRUE,,Mavic Mini,TRUE,FALSE,,Smart,RC,TRUE,TRUE,FALSE,,,TRUE,,FALSE,FALSE,FALSE,FALSE,FALSE,FALSE,FALSE,FALSE,FALSE,FALSE,0,Follow Yaw,0,0,117.7,117.7,FALSE,FALSE,FALSE,FALSE,FALSE,FALSE,,TRUE,Normal,,100,1024,1024,1086,1024,1,FALSE,FALSE,FALSE,FALSE,FALSE,0,FALSE,FALSE,FALSE,FALSE,62,7.652,1313,2113,7.649,FALSE,3.827,3.825,0.003,FALSE,FALSE,NA,112.5,112.4,112.4,0,25,0,18,5,2698.4,674.6,,Idle,0,20,FALSE,5,TRUE,9,Go Home,FALSE,FALSE,FALSE,FALSE,FALSE,FALSE,FALSE,FALSE,FALSE,FALSE,FALSE,FALSE,6.974498322,79.91427623,102.7,121.4,328,TRUE,1,1,FALSE,FALSE,FALSE,FALSE,,TRUE,FALSE,FALSE,Course Lock,65.6,41.9,16.4,Calm,27,,1.12.8,Mavic Mini,1SDCH7G0169R0K,1SFLH6Q0AB03DJ,1SRCH7F014TAHX,1U5X071EXP5ZJG,93.3,0.1,3.2,4.244369,1.342164,0,0,Mavic Mini,1SDCH7G0169R0K,1SFLH6Q0AB03DJ,1SRCH7F014TAHX,1U5X071EXP5ZJG,DJI Fly,,1.12.8,887AF817-89E0-6550-A80C-CC8B9797423A,1SDCH7G0169R0K,,,,,6.974197445,79.91433218,5,,
2/15/2024,37:11.6,9m 3.1s,543.1,6.974224559,79.91434227,0,0,0.3,51,0.6,0,0,0,0,0,0,0,0,1.9,2,91.3,91.3,,Manual Takeoff,Auto Fly,Takeoff (RC Assisted),17,5,TRUE,,Mavic Mini,TRUE,FALSE,,Smart,RC,TRUE,TRUE,FALSE,,,TRUE,,FALSE,FALSE,FALSE,FALSE,FALSE,FALSE,FALSE,FALSE,FALSE,FALSE,0,Follow Yaw,0,0,117.7,117.7,FALSE,FALSE,FALSE,FALSE,FALSE,FALSE,,TRUE,Normal,,100,1024,1024,1090,1024,1,FALSE,FALSE,FALSE,FALSE,FALSE,0,FALSE,FALSE,FALSE,FALSE,62,7.652,1313,2113,7.649,FALSE,3.827,3.825,0.003,FALSE,FALSE,NA,112.5,112.4,112.4,0,25,0,18,5,2698.4,674.6,,Idle,0,20,FALSE,5,TRUE,9,Go Home,FALSE,FALSE,FALSE,FALSE,FALSE,FALSE,FALSE,FALSE,FALSE,FALSE,FALSE,FALSE,6.974498322,79.91427623,102.6,121.4,328,TRUE,1,1,FALSE,FALSE,FALSE,FALSE,,TRUE,FALSE,FALSE,Course Lock,65.6,41.9,16.4,Calm,27,,1.12.8,Mavic Mini,1SDCH7G0169R0K,1SFLH6Q0AB03DJ,1SRCH7F014TAHX,1U5X071EXP5ZJG,93.3,0.1,3.2,4.244369,1.342164,0,0,Mavic Mini,1SDCH7G0169R0K,1SFLH6Q0AB03DJ,1SRCH7F014TAHX,1U5X071EXP5ZJG,DJI Fly,,1.12.8,887AF817-89E0-6550-A80C-CC8B9797423A,1SDCH7G0169R0K,,,,,6.974197445,79.91433218,5,,
2/15/2024,37:11.7,9m 3.2s,543.2,6.974224587,79.9143423,0,0,0.3,51,0.6,0,0,0,0,0,0,0,0,1.9,1.9,91.2,91.2,,Manual Takeoff,Auto Fly,Takeoff (RC Assisted),17,5,TRUE,,Mavic Mini,TRUE,FALSE,,Smart,RC,TRUE,TRUE,FALSE,,,TRUE,,FALSE,FALSE,FALSE,FALSE,FALSE,FALSE,FALSE,FALSE,FALSE,FALSE,0,Follow Yaw,0,0,117.7,117.7,FALSE,FALSE,FALSE,FALSE,FALSE,FALSE,,TRUE,Normal,,100,1024,1024,1090,1024,1,FALSE,FALSE,FALSE,FALSE,FALSE,0,FALSE,FALSE,FALSE,FALSE,62,7.652,1313,2113,7.649,FALSE,3.827,3.825,0.003,FALSE,FALSE,NA,112.5,112.4,112.4,0,25,0,18,5,2698.4,674.6,,Idle,0,20,FALSE,5,TRUE,9,Go Home,FALSE,FALSE,FALSE,FALSE,FALSE,FALSE,FALSE,FALSE,FALSE,FALSE,FALSE,FALSE,6.974498322,79.91427623,102.6,121.4,328,TRUE,1,1,FALSE,FALSE,FALSE,FALSE,,TRUE,FALSE,FALSE,Course Lock,65.6,41.9,16.4,Calm,27,,1.12.8,Mavic Mini,1SDCH7G0169R0K,1SFLH6Q0AB03DJ,1SRCH7F014TAHX,1U5X071EXP5ZJG,93.3,0.1,3.2,4.244369,1.342164,0,0,Mavic Mini,1SDCH7G0169R0K,1SFLH6Q0AB03DJ,1SRCH7F014TAHX,1U5X071EXP5ZJG,DJI Fly,,1.12.8,887AF817-89E0-6550-A80C-CC8B9797423A,1SDCH7G0169R0K,,,,,6.974197445,79.91433218,5,,
2/15/2024,37:11.8,9m 3.3s,543.3,6.974224635,79.91434235,0,0,0.3,51,0.6,0,0,0,0,0,0,0,0,2,1.9,91.2,91.2,,Manual Takeoff,Auto Fly,Takeoff (RC Assisted),17,5,TRUE,,Mavic Mini,TRUE,FALSE,,Smart,RC,TRUE,TRUE,FALSE,,,TRUE,,FALSE,FALSE,FALSE,FALSE,FALSE,FALSE,FALSE,FALSE,FALSE,FALSE,0,Follow Yaw,0,0,117.7,117.7,FALSE,FALSE,FALSE,FALSE,FALSE,FALSE,,TRUE,Normal,,100,1024,1024,1090,1024,1,FALSE,FALSE,FALSE,FALSE,FALSE,0,FALSE,FALSE,FALSE,FALSE,62,7.652,1313,2113,7.643,FALSE,3.827,3.825,0.003,FALSE,FALSE,NA,112.5,112.4,112.4,0,25,0,18,5,2838.9,709.74,,Idle,0,20,FALSE,5,TRUE,9,Go Home,FALSE,FALSE,FALSE,FALSE,FALSE,FALSE,FALSE,FALSE,FALSE,FALSE,FALSE,FALSE,6.974498322,79.91427623,102.6,121.4,328,TRUE,1,1,FALSE,FALSE,FALSE,FALSE,,TRUE,FALSE,FALSE,Course Lock,65.6,41.9,16.4,Calm,27,,1.12.8,Mavic Mini,1SDCH7G0169R0K,1SFLH6Q0AB03DJ,1SRCH7F014TAHX,1U5X071EXP5ZJG,93.3,0.1,3.2,4.244369,1.342164,0,0,Mavic Mini,1SDCH7G0169R0K,1SFLH6Q0AB03DJ,1SRCH7F014TAHX,1U5X071EXP5ZJG,DJI Fly,,1.12.8,887AF817-89E0-6550-A80C-CC8B9797423A,1SDCH7G0169R0K,,,,,6.974197445,79.91433218,5,,
2/15/2024,37:11.9,9m 3.4s,543.4,6.974224691,79.91434239,0,0,0.3,51,0.6,0,0,0,0,0,0,0,0,1.8,1.8,91,91,,Manual Takeoff,Auto Fly,Takeoff (RC Assisted),17,5,TRUE,,Mavic Mini,TRUE,FALSE,,Smart,RC,TRUE,TRUE,FALSE,,,TRUE,,FALSE,FALSE,FALSE,FALSE,FALSE,FALSE,FALSE,FALSE,FALSE,FALSE,0,Follow Yaw,0,0,117.7,117.7,FALSE,FALSE,FALSE,FALSE,FALSE,FALSE,,TRUE,Normal,,100,1024,1024,1090,1024,1,FALSE,FALSE,FALSE,FALSE,FALSE,0,FALSE,FALSE,FALSE,FALSE,62,7.652,1313,2113,7.643,FALSE,3.827,3.825,0.003,FALSE,FALSE,NA,112.5,112.4,112.4,0,25,0,18,5,2838.9,709.74,,Idle,0,20,FALSE,5,TRUE,9,Go Home,FALSE,FALSE,FALSE,FALSE,FALSE,FALSE,FALSE,FALSE,FALSE,FALSE,FALSE,FALSE,6.974498322,79.91427623,102.6,121.4,328,TRUE,1,1,FALSE,FALSE,FALSE,FALSE,,TRUE,FALSE,FALSE,Course Lock,65.6,41.9,16.4,Calm,27,,1.12.8,Mavic Mini,1SDCH7G0169R0K,1SFLH6Q0AB03DJ,1SRCH7F014TAHX,1U5X071EXP5ZJG,93.3,0.1,3.2,4.244369,1.342164,0,0,Mavic Mini,1SDCH7G0169R0K,1SFLH6Q0AB03DJ,1SRCH7F014TAHX,1U5X071EXP5ZJG,DJI Fly,,1.12.8,887AF817-89E0-6550-A80C-CC8B9797423A,1SDCH7G0169R0K,,,,,6.974197445,79.91433218,5,,
2/15/2024,37:12.0,9m 3.5s,543.5,6.974224708,79.91434241,0,0,0.3,51,0.7,0,0,0,0,0,0,0,0,1.9,1.8,90.9,90.9,,Manual Takeoff,Auto Fly,Takeoff (RC Assisted),17,5,TRUE,,Mavic Mini,TRUE,FALSE,,Smart,RC,TRUE,TRUE,FALSE,,,TRUE,,FALSE,FALSE,FALSE,FALSE,FALSE,FALSE,FALSE,FALSE,FALSE,FALSE,0,Follow Yaw,0,0,117.6,117.6,FALSE,FALSE,FALSE,FALSE,FALSE,FALSE,,TRUE,Normal,,100,1024,1024,1091,1024,1,FALSE,FALSE,FALSE,FALSE,FALSE,0,FALSE,FALSE,FALSE,FALSE,62,7.652,1313,2113,7.643,FALSE,3.827,3.825,0.003,FALSE,FALSE,NA,112.5,112.4,112.4,0,25,0,18,5,2838.9,709.74,,Idle,0,20,FALSE,5,TRUE,9,Go Home,FALSE,FALSE,FALSE,FALSE,FALSE,FALSE,FALSE,FALSE,FALSE,FALSE,FALSE,FALSE,6.974498322,79.91427623,102.6,121.4,328,TRUE,1,1,FALSE,FALSE,FALSE,FALSE,,TRUE,FALSE,FALSE,Course Lock,65.6,41.9,16.4,Calm,27,,1.12.8,Mavic Mini,1SDCH7G0169R0K,1SFLH6Q0AB03DJ,1SRCH7F014TAHX,1U5X071EXP5ZJG,93.3,0.1,3.2,4.244369,1.342164,0,0,Mavic Mini,1SDCH7G0169R0K,1SFLH6Q0AB03DJ,1SRCH7F014TAHX,1U5X071EXP5ZJG,DJI Fly,,1.12.8,887AF817-89E0-6550-A80C-CC8B9797423A,1SDCH7G0169R0K,,,,,6.974197445,79.91433218,5,,
2/15/2024,37:12.1,9m 3.6s,543.6,6.974224708,79.91434253,0,0,0.3,51,0.7,0,0,0,0,0,0,0,0,1.9,1.7,90.6,90.6,,Manual Takeoff,Auto Fly,Takeoff (RC Assisted),17,5,TRUE,,Mavic Mini,TRUE,FALSE,,Smart,RC,TRUE,TRUE,FALSE,,,TRUE,,FALSE,FALSE,FALSE,FALSE,FALSE,FALSE,FALSE,FALSE,FALSE,FALSE,0,Follow Yaw,0,0,117.6,117.6,FALSE,FALSE,FALSE,FALSE,FALSE,FALSE,,TRUE,Normal,,100,1024,1024,1090,1024,1,FALSE,FALSE,FALSE,FALSE,FALSE,0,FALSE,FALSE,FALSE,FALSE,62,7.652,1313,2113,7.643,FALSE,3.827,3.825,0.003,FALSE,FALSE,NA,112.5,112.4,112.4,0,25,0,18,5,2838.9,709.74,,Idle,0,20,FALSE,5,TRUE,9,Go Home,FALSE,FALSE,FALSE,FALSE,FALSE,FALSE,FALSE,FALSE,FALSE,FALSE,FALSE,FALSE,6.974498322,79.91427623,102.6,121.4,328,TRUE,1,1,FALSE,FALSE,FALSE,FALSE,,TRUE,FALSE,FALSE,Course Lock,65.6,41.9,16.4,Calm,27,,1.12.8,Mavic Mini,1SDCH7G0169R0K,1SFLH6Q0AB03DJ,1SRCH7F014TAHX,1U5X071EXP5ZJG,93.3,0.1,3.2,4.244369,1.342164,0,0,Mavic Mini,1SDCH7G0169R0K,1SFLH6Q0AB03DJ,1SRCH7F014TAHX,1U5X071EXP5ZJG,DJI Fly,,1.12.8,887AF817-89E0-6550-A80C-CC8B9797423A,1SDCH7G0169R0K,,,,,6.974197445,79.91433218,5,,
2/15/2024,37:12.2,9m 3.7s,543.7,6.974224747,79.91434252,0,0,0.3,51,0.7,0,0,0,0,0,0,0,0,1.9,1.7,89.9,89.9,,Manual Takeoff,Auto Fly,Takeoff (RC Assisted),17,5,TRUE,,Mavic Mini,TRUE,FALSE,,Smart,RC,TRUE,TRUE,FALSE,,,TRUE,,FALSE,FALSE,FALSE,FALSE,FALSE,FALSE,FALSE,FALSE,FALSE,FALSE,0,Follow Yaw,0,0,117.4,117.4,FALSE,FALSE,FALSE,FALSE,FALSE,FALSE,,TRUE,Normal,,100,1024,1024,1090,1024,1,FALSE,FALSE,FALSE,FALSE,FALSE,0,FALSE,FALSE,FALSE,FALSE,62,7.652,1313,2113,7.643,FALSE,3.827,3.825,0.003,FALSE,FALSE,NA,112.5,112.4,112.4,0,25,0,18,5,2838.9,709.74,,Idle,0,20,FALSE,5,TRUE,9,Go Home,FALSE,FALSE,FALSE,FALSE,FALSE,FALSE,FALSE,FALSE,FALSE,FALSE,FALSE,FALSE,6.974498322,79.91427623,102.6,121.4,328,TRUE,1,1,FALSE,FALSE,FALSE,FALSE,,TRUE,FALSE,FALSE,Course Lock,65.6,41.9,16.4,Calm,27,,1.12.8,Mavic Mini,1SDCH7G0169R0K,1SFLH6Q0AB03DJ,1SRCH7F014TAHX,1U5X071EXP5ZJG,93.3,0.1,3.2,4.244369,1.342164,0,0,Mavic Mini,1SDCH7G0169R0K,1SFLH6Q0AB03DJ,1SRCH7F014TAHX,1U5X071EXP5ZJG,DJI Fly,,1.12.8,887AF817-89E0-6550-A80C-CC8B9797423A,1SDCH7G0169R0K,,,,,6.974197445,79.91433218,5,,
2/15/2024,37:12.3,9m 3.8s,543.8,6.974224777,79.91434252,0,0,0.3,51,0.7,0,0,0,0,0,0,0,0,1.2,1.6,89,89,,Manual Takeoff,Auto Fly,Takeoff (RC Assisted),16,5,TRUE,,Mavic Mini,TRUE,FALSE,,Smart,RC,TRUE,TRUE,FALSE,,,TRUE,,FALSE,FALSE,FALSE,FALSE,FALSE,FALSE,FALSE,FALSE,FALSE,FALSE,0,Follow Yaw,0,0,117.1,117.1,FALSE,FALSE,FALSE,FALSE,FALSE,FALSE,,TRUE,Normal,,100,1024,1024,1090,1024,1,FALSE,FALSE,FALSE,FALSE,FALSE,0,FALSE,FALSE,FALSE,FALSE,62,7.652,1313,2113,7.643,FALSE,3.827,3.825,0.003,FALSE,FALSE,NA,112.5,112.4,112.4,0,25,0,18,5,2838.9,709.74,,Idle,0,20,FALSE,5,TRUE,9,Go Home,FALSE,FALSE,FALSE,FALSE,FALSE,FALSE,FALSE,FALSE,FALSE,FALSE,FALSE,FALSE,6.974498322,79.91427623,102.6,121.4,328,TRUE,1,1,FALSE,FALSE,FALSE,FALSE,,TRUE,FALSE,FALSE,Course Lock,65.6,41.9,16.4,Calm,27,,1.12.8,Mavic Mini,1SDCH7G0169R0K,1SFLH6Q0AB03DJ,1SRCH7F014TAHX,1U5X071EXP5ZJG,93.3,0.1,3.2,4.244369,1.342164,0,0,Mavic Mini,1SDCH7G0169R0K,1SFLH6Q0AB03DJ,1SRCH7F014TAHX,1U5X071EXP5ZJG,DJI Fly,,1.12.8,887AF817-89E0-6550-A80C-CC8B9797423A,1SDCH7G0169R0K,,,,,6.974197445,79.91433218,5,,
2/15/2024,37:12.4,9m 3.9s,543.9,6.97422473,79.91434252,0,0,0.3,51,0.7,0,0,0,0,0,0,0,0,-0.3,0.2,88.2,88.2,,Manual Takeoff,Auto Fly,Takeoff (RC Assisted),16,5,TRUE,,Mavic Mini,TRUE,FALSE,,Smart,RC,TRUE,TRUE,FALSE,,,TRUE,,FALSE,FALSE,FALSE,FALSE,FALSE,FALSE,FALSE,FALSE,FALSE,FALSE,0,Follow Yaw,0,0,116.6,116.6,FALSE,FALSE,FALSE,FALSE,FALSE,FALSE,,TRUE,Normal,,100,1024,1024,1089,1024,1,FALSE,FALSE,FALSE,FALSE,FALSE,0,FALSE,FALSE,FALSE,FALSE,62,7.652,1313,2113,7.643,FALSE,3.827,3.825,0.003,FALSE,FALSE,NA,112.5,112.4,112.4,0,25,0,18,5,2838.9,709.74,,Idle,0,20,FALSE,5,TRUE,9,Go Home,FALSE,FALSE,FALSE,FALSE,FALSE,FALSE,FALSE,FALSE,FALSE,FALSE,FALSE,FALSE,6.974498322,79.91427623,102.6,121.4,328,TRUE,1,1,FALSE,FALSE,FALSE,FALSE,,TRUE,FALSE,FALSE,Course Lock,65.6,41.9,16.4,Calm,27,,1.12.8,Mavic Mini,1SDCH7G0169R0K,1SFLH6Q0AB03DJ,1SRCH7F014TAHX,1U5X071EXP5ZJG,93.3,0.1,3.2,4.244369,1.342164,0,0,Mavic Mini,1SDCH7G0169R0K,1SFLH6Q0AB03DJ,1SRCH7F014TAHX,1U5X071EXP5ZJG,DJI Fly,,1.12.8,887AF817-89E0-6550-A80C-CC8B9797423A,1SDCH7G0169R0K,,,,,6.974197445,79.91433218,5,,
2/15/2024,37:12.5,9m 4.0s,544,6.974224611,79.91434252,0,0,0.3,51,0.8,0.223694,0.223694,-0.223694,0,0,0,-0.223694,0,-1.5,-0.1,87.5,87.5,178.2,Manual Takeoff,Auto Fly,Takeoff (RC Assisted),16,5,TRUE,,Mavic Mini,TRUE,FALSE,,Smart,RC,TRUE,TRUE,FALSE,,,TRUE,,FALSE,FALSE,FALSE,FALSE,FALSE,FALSE,FALSE,FALSE,FALSE,FALSE,0,Follow Yaw,0,0,116.1,116.1,FALSE,FALSE,FALSE,FALSE,FALSE,FALSE,,TRUE,Normal,,100,1024,1024,1084,1024,1,FALSE,FALSE,FALSE,FALSE,FALSE,0,FALSE,FALSE,FALSE,FALSE,62,7.559,1313,2113,7.643,FALSE,3.782,3.777,0.005,FALSE,FALSE,NA,112.5,112.4,112.4,0,25,0,18,5,2838.9,709.74,,Idle,0,20,FALSE,5,TRUE,9,Go Home,FALSE,FALSE,FALSE,FALSE,FALSE,FALSE,FALSE,FALSE,FALSE,FALSE,FALSE,FALSE,6.974498322,79.91427623,102.6,121.4,328,TRUE,1,1,FALSE,FALSE,FALSE,FALSE,,TRUE,FALSE,FALSE,Course Lock,65.6,41.9,16.4,Calm,27,,1.12.8,Mavic Mini,1SDCH7G0169R0K,1SFLH6Q0AB03DJ,1SRCH7F014TAHX,1U5X071EXP5ZJG,93.3,0.1,3.2,4.244369,1.342164,0,0,Mavic Mini,1SDCH7G0169R0K,1SFLH6Q0AB03DJ,1SRCH7F014TAHX,1U5X071EXP5ZJG,DJI Fly,,1.12.8,887AF817-89E0-6550-A80C-CC8B9797423A,1SDCH7G0169R0K,,,,,6.974197445,79.91433218,5,,
2/15/2024,37:12.5,9m 4.1s,544.1,6.974224514,79.91434261,0,0,0.3,51,0.8,0.316351,0.316351,-0.223694,0,0.223694,0.223694,-0.223694,0,-1.2,-0.6,87,87,146.3,P-GPS,Auto Fly,,16,5,TRUE,,Mavic Mini,TRUE,FALSE,,Smart,RC,FALSE,TRUE,FALSE,,,TRUE,,FALSE,FALSE,FALSE,FALSE,FALSE,FALSE,FALSE,FALSE,FALSE,FALSE,0,Follow Yaw,0,0,115.6,115.6,FALSE,FALSE,FALSE,FALSE,FALSE,FALSE,,TRUE,Normal,,100,1024,1024,1075,1024,1,FALSE,FALSE,FALSE,FALSE,FALSE,0,FALSE,FALSE,FALSE,FALSE,62,7.559,1313,2113,7.643,FALSE,3.782,3.777,0.005,FALSE,FALSE,NA,112.5,112.4,112.4,0,25,0,18,5,2838.9,709.74,,Idle,0,20,FALSE,5,TRUE,9,Go Home,FALSE,FALSE,FALSE,FALSE,FALSE,FALSE,FALSE,FALSE,FALSE,FALSE,FALSE,FALSE,6.974498322,79.91427623,102.7,121.4,328,TRUE,1,1,FALSE,FALSE,FALSE,FALSE,,TRUE,FALSE,FALSE,Course Lock,65.6,41.9,16.4,Calm,27,,1.12.8,Mavic Mini,1SDCH7G0169R0K,1SFLH6Q0AB03DJ,1SRCH7F014TAHX,1U5X071EXP5ZJG,93.3,0.1,3.2,4.244369,1.342164,0,0,Mavic Mini,1SDCH7G0169R0K,1SFLH6Q0AB03DJ,1SRCH7F014TAHX,1U5X071EXP5ZJG,DJI Fly,,1.12.8,887AF817-89E0-6550-A80C-CC8B9797423A,1SDCH7G0169R0K,,,,,6.974197445,79.91433218,5,Flight mode changed to P-GPS.,
2/15/2024,37:12.8,9m 4.2s,544.2,6.974224403,79.91434275,0,0,0.3,51,0.9,0.316351,0.316351,-0.223694,0,0.223694,0.223694,-0.447388,0,0.7,-1.8,86.8,86.8,136,P-GPS,Auto Fly,,16,5,TRUE,,Mavic Mini,TRUE,FALSE,,Smart,RC,FALSE,TRUE,FALSE,,,TRUE,,FALSE,FALSE,FALSE,FALSE,FALSE,FALSE,FALSE,FALSE,FALSE,FALSE,0,Follow Yaw,0,0,115.3,115.3,FALSE,FALSE,FALSE,FALSE,FALSE,FALSE,,TRUE,Normal,,100,1024,1024,1068,1024,1,FALSE,FALSE,FALSE,FALSE,FALSE,0,FALSE,FALSE,FALSE,FALSE,62,7.559,1313,2113,7.643,FALSE,3.782,3.777,0.005,FALSE,FALSE,NA,112.5,112.4,112.4,0,25,0,18,5,2838.9,709.74,,Idle,0,20,FALSE,5,TRUE,9,Go Home,FALSE,FALSE,FALSE,FALSE,FALSE,FALSE,FALSE,FALSE,FALSE,FALSE,FALSE,FALSE,6.974498322,79.91427623,102.7,121.4,328,TRUE,1,1,FALSE,FALSE,FALSE,FALSE,,TRUE,FALSE,FALSE,Course Lock,65.6,41.9,16.4,Calm,27,,1.12.8,Mavic Mini,1SDCH7G0169R0K,1SFLH6Q0AB03DJ,1SRCH7F014TAHX,1U5X071EXP5ZJG,93.3,0.1,3.2,4.244369,1.342164,0,0,Mavic Mini,1SDCH7G0169R0K,1SFLH6Q0AB03DJ,1SRCH7F014TAHX,1U5X071EXP5ZJG,DJI Fly,,1.12.8,887AF817-89E0-6550-A80C-CC8B9797423A,1SDCH7G0169R0K,,,,,6.974197445,79.91433218,5,,
2/15/2024,37:12.8,9m 4.3s,544.3,6.974224238,79.91434296,0.3,0.3,0.6,51,1,0.500194,0.500194,-0.223694,0,0.447388,0.447388,-0.671082,0,1.8,-2.1,86.8,86.8,135.5,P-GPS,Auto Fly,,16,5,TRUE,,Mavic Mini,TRUE,FALSE,,Smart,RC,FALSE,TRUE,FALSE,,,TRUE,,FALSE,FALSE,FALSE,FALSE,FALSE,FALSE,FALSE,FALSE,FALSE,FALSE,0,Follow Yaw,0,0,115.1,115.1,FALSE,FALSE,FALSE,FALSE,FALSE,FALSE,,TRUE,Normal,,100,1024,1024,1065,1024,1,FALSE,FALSE,FALSE,FALSE,FALSE,0,FALSE,FALSE,FALSE,FALSE,62,7.559,1313,2113,7.569,FALSE,3.782,3.777,0.005,FALSE,FALSE,NA,112.5,112.4,112.4,0,0,2,0,5,3123.2,780.82,,Idle,0,20,FALSE,5,TRUE,9,Go Home,FALSE,FALSE,FALSE,FALSE,FALSE,FALSE,FALSE,FALSE,FALSE,FALSE,FALSE,FALSE,6.974224556,79.91434257,0.1,121.4,328,TRUE,1,1,FALSE,FALSE,FALSE,FALSE,,TRUE,FALSE,FALSE,Course Lock,65.6,41.9,16.4,Calm,27,,1.12.8,Mavic Mini,1SDCH7G0169R0K,1SFLH6Q0AB03DJ,1SRCH7F014TAHX,1U5X071EXP5ZJG,93.3,0.1,3.2,4.244369,1.342164,0,0,Mavic Mini,1SDCH7G0169R0K,1SFLH6Q0AB03DJ,1SRCH7F014TAHX,1U5X071EXP5ZJG,DJI Fly,,1.12.8,887AF817-89E0-6550-A80C-CC8B9797423A,1SDCH7G0169R0K,,,,,6.974197445,79.91433218,5,Home Point Updated.,
2/15/2024,37:12.9,9m 4.4s,544.4,6.974223972,79.91434328,0.3,0.3,0.6,51,1.1,0.316351,0.500194,-0.223694,0,0.223694,0.447388,-1.11847,0,3,-1.9,86.8,86.8,136.6,P-GPS,Auto Fly,,16,5,TRUE,,Mavic Mini,TRUE,FALSE,,Smart,RC,FALSE,TRUE,FALSE,,,TRUE,,FALSE,FALSE,FALSE,FALSE,FALSE,FALSE,FALSE,FALSE,FALSE,FALSE,0,Follow Yaw,0,0,115,115,FALSE,FALSE,FALSE,FALSE,FALSE,FALSE,,TRUE,Normal,,100,1024,1024,1061,1024,1,FALSE,FALSE,FALSE,FALSE,FALSE,0,FALSE,FALSE,FALSE,FALSE,62,7.559,1313,2113,7.569,FALSE,3.782,3.777,0.005,FALSE,FALSE,NA,112.5,112.4,112.4,0,0,2,0,5,3123.2,780.82,,Idle,0,20,FALSE,5,TRUE,9,Go Home,FALSE,FALSE,FALSE,FALSE,FALSE,FALSE,FALSE,FALSE,FALSE,FALSE,FALSE,FALSE,6.974224556,79.91434257,0.3,121.4,328,TRUE,1,1,FALSE,FALSE,FALSE,FALSE,,TRUE,FALSE,FALSE,Course Lock,65.6,41.9,16.4,Calm,27,,1.12.8,Mavic Mini,1SDCH7G0169R0K,1SFLH6Q0AB03DJ,1SRCH7F014TAHX,1U5X071EXP5ZJG,93.3,0.1,3.2,4.244369,1.342164,0,0,Mavic Mini,1SDCH7G0169R0K,1SFLH6Q0AB03DJ,1SRCH7F014TAHX,1U5X071EXP5ZJG,DJI Fly,,1.12.8,887AF817-89E0-6550-A80C-CC8B9797423A,1SDCH7G0169R0K,,,,,6.974197445,79.91433218,5,Home Point updated. RTH altitude adjusted to 20 m! (Code: 120852).,
2/15/2024,37:13.0,9m 4.5s,544.5,6.974223817,79.91434349,0.6,0.6,0.6,51,1.2,0.316351,0.500194,-0.223694,0,0.223694,0.447388,-1.11847,0,2.8,-2,86.8,86.8,134.7,P-GPS,Auto Fly,,16,5,TRUE,,Mavic Mini,TRUE,FALSE,,Smart,RC,FALSE,TRUE,FALSE,,,TRUE,,FALSE,FALSE,FALSE,FALSE,FALSE,FALSE,FALSE,FALSE,FALSE,FALSE,0,Follow Yaw,0,0,114.9,114.9,FALSE,FALSE,FALSE,FALSE,FALSE,FALSE,,TRUE,Normal,,100,1024,1024,1056,1024,1,FALSE,FALSE,FALSE,FALSE,FALSE,0,FALSE,FALSE,FALSE,FALSE,62,7.559,1313,2113,7.569,FALSE,3.782,3.777,0.005,FALSE,FALSE,NA,112.5,112.4,112.4,0,0,2,0,5,3123.2,780.82,,Idle,0,20,FALSE,5,TRUE,9,Go Home,FALSE,FALSE,FALSE,FALSE,FALSE,FALSE,FALSE,FALSE,FALSE,FALSE,FALSE,FALSE,6.974224556,79.91434257,0.4,121.4,328,TRUE,1,1,FALSE,FALSE,FALSE,FALSE,,TRUE,FALSE,FALSE,Course Lock,65.6,41.9,16.4,Calm,27,,1.12.8,Mavic Mini,1SDCH7G0169R0K,1SFLH6Q0AB03DJ,1SRCH7F014TAHX,1U5X071EXP5ZJG,93.3,0.1,3.2,4.244369,1.342164,0,0,Mavic Mini,1SDCH7G0169R0K,1SFLH6Q0AB03DJ,1SRCH7F014TAHX,1U5X071EXP5ZJG,DJI Fly,,1.12.8,887AF817-89E0-6550-A80C-CC8B9797423A,1SDCH7G0169R0K,,,,,6.974197445,79.91433218,5,,
2/15/2024,37:13.2,9m 4.6s,544.6,6.974223662,79.91434368,0.6,0.6,0.9,51,1.3,0.316351,0.500194,-0.223694,0,0.223694,0.447388,-1.342164,0,2.7,-2.2,86.9,86.9,135.6,P-GPS,Auto Fly,,17,5,TRUE,,Mavic Mini,TRUE,FALSE,,Smart,RC,FALSE,TRUE,FALSE,,,TRUE,,FALSE,FALSE,FALSE,FALSE,FALSE,FALSE,FALSE,FALSE,FALSE,FALSE,0,Follow Yaw,0,0,114.8,114.8,FALSE,FALSE,FALSE,FALSE,FALSE,FALSE,,TRUE,Normal,,100,1024,1024,1056,1024,1,FALSE,FALSE,FALSE,FALSE,FALSE,0,FALSE,FALSE,FALSE,FALSE,62,7.559,1313,2113,7.569,FALSE,3.782,3.777,0.005,FALSE,FALSE,NA,112.5,112.4,112.4,0,0,2,0,5,3123.2,780.82,,Idle,0,20,FALSE,5,TRUE,9,Go Home,FALSE,FALSE,FALSE,FALSE,FALSE,FALSE,FALSE,FALSE,FALSE,FALSE,FALSE,FALSE,6.974224556,79.91434257,0.5,121.4,328,TRUE,1,1,FALSE,FALSE,FALSE,FALSE,,TRUE,FALSE,FALSE,Course Lock,65.6,41.9,16.4,Calm,27,,1.12.8,Mavic Mini,1SDCH7G0169R0K,1SFLH6Q0AB03DJ,1SRCH7F014TAHX,1U5X071EXP5ZJG,93.3,0.1,3.2,4.244369,1.342164,0,0,Mavic Mini,1SDCH7G0169R0K,1SFLH6Q0AB03DJ,1SRCH7F014TAHX,1U5X071EXP5ZJG,DJI Fly,,1.12.8,887AF817-89E0-6550-A80C-CC8B9797423A,1SDCH7G0169R0K,,,,,6.974197445,79.91433218,5,,
2/15/2024,37:13.2,9m 4.7s,544.7,6.974223541,79.91434386,0.9,0.9,1.3,52,1.4,0.316351,0.500194,-0.223694,0,0.223694,0.447388,-1.342164,0,3,-2.4,87,87,131,P-GPS,Auto Fly,,17,5,TRUE,,Mavic Mini,TRUE,FALSE,,Smart,RC,FALSE,TRUE,FALSE,,,TRUE,,FALSE,FALSE,FALSE,FALSE,FALSE,FALSE,FALSE,FALSE,FALSE,FALSE,0,Follow Yaw,0,0,114.8,114.8,FALSE,FALSE,FALSE,FALSE,FALSE,FALSE,,TRUE,Normal,,100,1024,1024,1054,1024,1,FALSE,FALSE,FALSE,FALSE,FALSE,0,FALSE,FALSE,FALSE,FALSE,62,7.559,1313,2113,7.569,FALSE,3.782,3.777,0.005,FALSE,FALSE,NA,112.5,112.4,112.4,0,0,2,0,5,3123.2,780.82,,Idle,0,20,FALSE,5,TRUE,9,Go Home,FALSE,FALSE,FALSE,FALSE,FALSE,FALSE,FALSE,FALSE,FALSE,FALSE,FALSE,FALSE,6.974224556,79.91434257,0.5,121.4,328,TRUE,1,1,FALSE,FALSE,FALSE,FALSE,,TRUE,FALSE,FALSE,Course Lock,65.6,41.9,16.4,Calm,27,,1.12.8,Mavic Mini,1SDCH7G0169R0K,1SFLH6Q0AB03DJ,1SRCH7F014TAHX,1U5X071EXP5ZJG,93.3,0.1,3.2,4.244369,1.342164,0,0,Mavic Mini,1SDCH7G0169R0K,1SFLH6Q0AB03DJ,1SRCH7F014TAHX,1U5X071EXP5ZJG,DJI Fly,,1.12.8,887AF817-89E0-6550-A80C-CC8B9797423A,1SDCH7G0169R0K,,,,,6.974197445,79.91433218,5,,
2/15/2024,37:13.3,9m 4.8s,544.8,6.974223428,79.91434404,0.9,0.9,1.3,52,1.5,0.316351,0.500194,-0.223694,0,0.223694,0.447388,-1.11847,0,3.1,-2.4,87.1,87.1,129.2,P-GPS,Auto Fly,,16,5,TRUE,,Mavic Mini,TRUE,FALSE,,Smart,RC,FALSE,TRUE,FALSE,,,TRUE,,FALSE,FALSE,FALSE,FALSE,FALSE,FALSE,FALSE,FALSE,FALSE,FALSE,0,Follow Yaw,0,0,114.8,114.8,FALSE,FALSE,FALSE,FALSE,FALSE,FALSE,,TRUE,Normal,,100,1024,1024,1047,1024,1,FALSE,FALSE,FALSE,FALSE,FALSE,0,FALSE,FALSE,FALSE,FALSE,62,7.559,1313,2113,7.569,FALSE,3.782,3.777,0.005,FALSE,FALSE,NA,112.5,112.4,112.4,0,0,2,0,5,3123.2,780.82,,Idle,0,20,FALSE,5,TRUE,9,Go Home,FALSE,FALSE,FALSE,FALSE,FALSE,FALSE,FALSE,FALSE,FALSE,FALSE,FALSE,FALSE,6.974224556,79.91434257,0.6,121.4,328,TRUE,1,1,FALSE,FALSE,FALSE,FALSE,,TRUE,FALSE,FALSE,Course Lock,65.6,41.9,16.4,Calm,27,,1.12.8,Mavic Mini,1SDCH7G0169R0K,1SFLH6Q0AB03DJ,1SRCH7F014TAHX,1U5X071EXP5ZJG,93.3,0.1,3.2,4.244369,1.342164,0,0,Mavic Mini,1SDCH7G0169R0K,1SFLH6Q0AB03DJ,1SRCH7F014TAHX,1U5X071EXP5ZJG,DJI Fly,,1.12.8,887AF817-89E0-6550-A80C-CC8B9797423A,1SDCH7G0169R0K,,,,,6.974197445,79.91433218,5,,
