CUSTOM.date [local],CUSTOM.updateTime [local],OSD.flyTime,OSD.flyTime [s],OSD.latitude,OSD.longitude,OSD.height [ft],OSD.heightMax [ft],OSD.vpsHeight [ft],OSD.altitude [ft],OSD.mileage [ft],OSD.hSpeed [MPH],OSD.hSpeedMax [MPH],OSD.xSpeed [MPH],OSD.xSpeedMax [MPH],OSD.ySpeed [MPH],OSD.ySpeedMax [MPH],OSD.zSpeed [MPH],OSD.zSpeedMax [MPH],OSD.pitch,OSD.roll,OSD.yaw,OSD.yaw [360],OSD.directionOfTravel,OSD.flycState,OSD.flycCommand,OSD.flightAction,OSD.gpsNum,OSD.gpsLevel,OSD.isGPSUsed,OSD.nonGPSCause,OSD.droneType,OSD.isSwaveWork,OSD.waveError,OSD.goHomeStatus,OSD.batteryType,OSD.ctrlDevice,OSD.isOnGround,OSD.isMotorOn,OSD.isMotorBlocked,OSD.motorStartFailedCause,OSD.motorFailReason,OSD.isImuPreheated,OSD.imuInitFailReason,OSD.isAcceletorOverRange,OSD.isBarometerDeadInAir,OSD.isCompassError,OSD.isGoHomeHeightModified,OSD.canIOCWork,OSD.isNotEnoughForce,OSD.isOutOfLimit,OSD.isPropellerCatapult,OSD.isVibrating,OSD.isVisionUsed,OSD.voltageWarning,GIMBAL.mode,GIMBAL.pitch,GIMBAL.roll,GIMBAL.yaw,GIMBAL.yaw [360],GIMBAL.isPitchAtLimit,GIMBAL.isRollAtLimit,GIMBAL.isYawAtLimit,GIMBAL.isStuck,CAMERA.isPhoto,CAMERA.isVideo,CAMERA.filename,CAMERA.sdCardIsInserted,CAMERA.sdCardState,RC.downlinkSignal,RC.uplinkSignal,RC.aileron,RC.elevator,RC.throttle,RC.rudder,RC.mode,RC.goHomeDepressed,RC.recordDepressed,RC.shutterDepressed,RC.playbackDepressed,RC.wheelDepressed,RC.wheelOffset,RC.custom1Depressed,RC.custom2Depressed,RC.custom3Depressed,RC.custom4Depressed,BATTERY.chargeLevel,BATTERY.currentPV [V],BATTERY.currentCapacity [mAh],BATTERY.fullCapacity [mAh],BATTERY.voltage [V],BATTERY.isCellVoltageEstimated,BATTERY.cellVoltage1 [V],BATTERY.cellVoltage2 [V],BATTERY.maxCellVoltageDeviation,BATTERY.isCellVoltageDeviationHigh,BATTERY.isVoltageLow,BATTERY.current [A],BATTERY.temperature [F],BATTERY.minTemperature [F],BATTERY.maxTemperature [F],BATTERY.usefulTime [s],BATTERY.goHomeTime [s],BATTERY.landTime [s],BATTERY.goHomeBattery,BATTERY.landBattery,BATTERY.safeFlyRadius,BATTERY.volumeConsume,BATTERY.status,BATTERY.goHomeStatus,BATTERY.goHomeCountdown,BATTERY.lowWarning,BATTERY.lowWarningGoHome,BATTERY.seriousLowWarning,BATTERY.seriousLowWarningLanding,BATTERY.timesCharged,MC.failSafeAction,MC.isObstacleAvoidanceEnabled,MC.isCollisionAvoidanceEnabled,MC.isRthObstacleAvoidanceEnabled,MC.isBraking,MC.isAvoidingObstacle,MC.isAvoidingActiveObstacle,MC.isAscentLimitedByObstacle,MC.isLandingConfirmationNeeded,MC.atLowAltitudeLimit,MC.atDistanceLimit,MC.atAirportAltitudeLimit,MC.atAirportBoundary,HOME.latitude,HOME.longitude,HOME.distance [ft],HOME.height [ft],HOME.heightLimit [ft],HOME.isHomeRecord,HOME.goHomeMode,HOME.aircraftHeadDirection,HOME.isDynamicHomePointEnabled,HOME.isReachedLimitDistance,HOME.isReachedLimitHeight,HOME.isCompassCalibrating,HOME.compassCalibrationState,HOME.isMultipleFlightModeEnabled,HOME.isBeginnerMode,HOME.isIOCEnabled,HOME.iocMode,HOME.goHomeHeight [ft],HOME.courseLockAngle,HOME.forceLandingHeight [ft],HOME.wind,HOME.dataRecorderFileIndex,RECOVER.appType,RECOVER.appVersion,RECOVER.aircraftName,RECOVER.aircraftSerial,RECOVER.cameraSerial,RECOVER.rcSerial,RECOVER.batterySerial,DETAILS.totalTime [s],DETAILS.totalDistance [ft],DETAILS.maxHeight [ft],DETAILS.maxHorizontalSpeed [MPH],DETAILS.maxVerticalSpeed [MPH],DETAILS.photoNum,DETAILS.videoTime [s],DETAILS.aircraftName,DETAILS.aircraftSerial,DETAILS.cameraSerial,DETAILS.rcSerial,DETAILS.batterySerial,DETAILS.appName,DETAILS.appType,DETAILS.appVersion,DETAILS.guid,SERIAL.flightController,SERIAL.camera,SERIAL.gimbal,SERIAL.rc,SERIAL.battery,APPGPS.latitude,APPGPS.longitude,APPGPS.accuracy,APP.tip,APP.warning
2/25/2024,03:11.0,4m 27.7s,267.7,6.972715972,79.91578545,0,0,,63,0,0,0,0,0,0,0,0,0,4.1,3.1,-20.7,339.3,,Starting Motors,Other,Takeoff (RC Assisted),15,5,TRUE,,Mavic Mini,FALSE,FALSE,,Smart,RC,TRUE,TRUE,FALSE,,,TRUE,,FALSE,FALSE,FALSE,FALSE,FALSE,FALSE,FALSE,FALSE,FALSE,FALSE,0,Follow Yaw,0,0,-12.4,347.6,FALSE,FALSE,FALSE,FALSE,FALSE,FALSE,,TRUE,Normal,,,1024,1024,1024,1024,2,FALSE,FALSE,FALSE,FALSE,FALSE,0,FALSE,FALSE,FALSE,FALSE,79,7.845,1617,2050,7.845,TRUE,3.923,3.923,,FALSE,FALSE,NA,101.5,101.4,101.4,,,,,,,,,Idle,,,TRUE,,FALSE,11,Go Home,FALSE,FALSE,FALSE,FALSE,FALSE,FALSE,FALSE,FALSE,FALSE,FALSE,FALSE,FALSE,,,,,,FALSE,,,FALSE,FALSE,FALSE,FALSE,,FALSE,FALSE,FALSE,,,,,Calm,,,1.12.8,Mavic Mini,1SDCH7G0169R0K,1SFLH6Q0AB03DJ,1SRCH7F014TAHX,1U5X071EXP5ZJG,89.2,0.2,3.2,8.164159,2.013246,0,1573,Mavic Mini,1SDCH7G0169R0K,1SFLH6Q0AB03DJ,1SRCH7F014TAHX,1U5X071EXP5ZJG,DJI Fly,,1.12.8,B49DC99F-A0DA-1C5B-08DD-588A1BD94FE6,1SDCH7G0169R0K,,,,,,,,Flight mode changed to Starting Motors.,
2/25/2024,03:11.1,4m 27.8s,267.8,6.972715968,79.91578546,0,0,,63,0,0,0,0,0,0,0,0,0,4.2,3.1,-20.7,339.3,,Starting Motors,Other,Takeoff (RC Assisted),15,5,TRUE,,Mavic Mini,FALSE,FALSE,,Smart,RC,TRUE,TRUE,FALSE,,,TRUE,,FALSE,FALSE,FALSE,FALSE,FALSE,FALSE,FALSE,FALSE,FALSE,FALSE,0,Follow Yaw,0,0,-12.4,347.6,FALSE,FALSE,FALSE,FALSE,FALSE,FALSE,,TRUE,Normal,,,1024,1024,1024,1024,2,FALSE,FALSE,FALSE,FALSE,FALSE,0,FALSE,FALSE,FALSE,FALSE,79,7.845,1617,2050,7.845,TRUE,3.923,3.923,,FALSE,FALSE,NA,101.5,101.4,101.4,,,,,,,,,Idle,,,TRUE,,FALSE,11,Go Home,FALSE,FALSE,FALSE,FALSE,FALSE,FALSE,FALSE,FALSE,FALSE,FALSE,FALSE,FALSE,,,,,,FALSE,,,FALSE,FALSE,FALSE,FALSE,,FALSE,FALSE,FALSE,,,,,Calm,,,1.12.8,Mavic Mini,1SDCH7G0169R0K,1SFLH6Q0AB03DJ,1SRCH7F014TAHX,1U5X071EXP5ZJG,89.2,0.2,3.2,8.164159,2.013246,0,1573,Mavic Mini,1SDCH7G0169R0K,1SFLH6Q0AB03DJ,1SRCH7F014TAHX,1U5X071EXP5ZJG,DJI Fly,,1.12.8,B49DC99F-A0DA-1C5B-08DD-588A1BD94FE6,1SDCH7G0169R0K,,,,,,,,,
2/25/2024,03:11.2,4m 27.9s,267.9,6.972716037,79.91578543,0,0,0.3,63,0,0,0,0,0,0,0,0,0,4.1,3.1,-20.7,339.3,,Starting Motors,Other,Takeoff (RC Assisted),15,5,TRUE,,Mavic Mini,TRUE,FALSE,,Smart,RC,TRUE,TRUE,FALSE,,,TRUE,,FALSE,FALSE,FALSE,FALSE,FALSE,FALSE,FALSE,FALSE,FALSE,FALSE,0,Follow Yaw,0,0,-12.4,347.6,FALSE,FALSE,FALSE,FALSE,FALSE,FALSE,,TRUE,Normal,,100,1024,1024,1024,1024,2,FALSE,FALSE,FALSE,FALSE,FALSE,0,FALSE,FALSE,FALSE,FALSE,79,7.846,1617,2050,7.846,FALSE,3.923,3.923,,FALSE,FALSE,NA,101.5,101.4,101.4,,,,,,,,,Idle,,,TRUE,,FALSE,11,Go Home,FALSE,FALSE,FALSE,FALSE,FALSE,FALSE,FALSE,FALSE,FALSE,FALSE,FALSE,FALSE,,,,,,FALSE,,,FALSE,FALSE,FALSE,FALSE,,FALSE,FALSE,FALSE,,,,,Calm,,,1.12.8,Mavic Mini,1SDCH7G0169R0K,1SFLH6Q0AB03DJ,1SRCH7F014TAHX,1U5X071EXP5ZJG,89.2,0.2,3.2,8.164159,2.013246,0,1573,Mavic Mini,1SDCH7G0169R0K,1SFLH6Q0AB03DJ,1SRCH7F014TAHX,1U5X071EXP5ZJG,DJI Fly,,1.12.8,B49DC99F-A0DA-1C5B-08DD-588A1BD94FE6,1SDCH7G0169R0K,,,,,,,,,
2/25/2024,03:11.2,4m 28.0s,268,6.972716039,79.91578538,0,0,0.3,63,0,0,0,0,0,0,0,0,0,4.1,3.1,-20.7,339.3,,Starting Motors,Other,Takeoff (RC Assisted),15,5,TRUE,,Mavic Mini,TRUE,FALSE,,Smart,RC,TRUE,TRUE,FALSE,,,TRUE,,FALSE,FALSE,FALSE,FALSE,FALSE,FALSE,FALSE,FALSE,FALSE,FALSE,0,Follow Yaw,0,0,-12.4,347.6,FALSE,FALSE,FALSE,FALSE,FALSE,FALSE,,TRUE,Normal,,100,1024,1024,1024,1024,2,FALSE,FALSE,FALSE,FALSE,FALSE,0,FALSE,FALSE,FALSE,FALSE,79,7.846,1617,2050,7.846,FALSE,3.923,3.923,,FALSE,FALSE,NA,101.5,101.4,101.4,,,,,,,,,Idle,,,TRUE,,FALSE,11,Go Home,FALSE,FALSE,FALSE,FALSE,FALSE,FALSE,FALSE,FALSE,FALSE,FALSE,FALSE,FALSE,,,,,,FALSE,,,FALSE,FALSE,FALSE,FALSE,,FALSE,FALSE,FALSE,,,,,Calm,,,1.12.8,Mavic Mini,1SDCH7G0169R0K,1SFLH6Q0AB03DJ,1SRCH7F014TAHX,1U5X071EXP5ZJG,89.2,0.2,3.2,8.164159,2.013246,0,1573,Mavic Mini,1SDCH7G0169R0K,1SFLH6Q0AB03DJ,1SRCH7F014TAHX,1U5X071EXP5ZJG,DJI Fly,,1.12.8,B49DC99F-A0DA-1C5B-08DD-588A1BD94FE6,1SDCH7G0169R0K,,,,,,,,,
2/25/2024,03:11.4,4m 28.1s,268.1,6.972716041,79.91578535,0,0,0.3,63,0,0,0,0,0,0,0,0,0,4.2,3.2,-20.7,339.3,,Starting Motors,Other,Takeoff (RC Assisted),15,5,TRUE,,Mavic Mini,TRUE,FALSE,,Smart,RC,TRUE,TRUE,FALSE,,,TRUE,,FALSE,FALSE,FALSE,FALSE,FALSE,FALSE,FALSE,FALSE,FALSE,FALSE,0,Follow Yaw,0,0,-12.4,347.6,FALSE,FALSE,FALSE,FALSE,FALSE,FALSE,,TRUE,Normal,,100,1024,1024,1024,1024,2,FALSE,FALSE,FALSE,FALSE,FALSE,0,FALSE,FALSE,FALSE,FALSE,79,7.846,1617,2050,7.846,FALSE,3.923,3.923,,FALSE,FALSE,NA,101.5,101.4,101.4,,,,,,,,,Idle,,,TRUE,,FALSE,11,Go Home,FALSE,FALSE,FALSE,FALSE,FALSE,FALSE,FALSE,FALSE,FALSE,FALSE,FALSE,FALSE,,,,,,FALSE,,,FALSE,FALSE,FALSE,FALSE,,FALSE,FALSE,FALSE,,,,,Calm,,,1.12.8,Mavic Mini,1SDCH7G0169R0K,1SFLH6Q0AB03DJ,1SRCH7F014TAHX,1U5X071EXP5ZJG,89.2,0.2,3.2,8.164159,2.013246,0,1573,Mavic Mini,1SDCH7G0169R0K,1SFLH6Q0AB03DJ,1SRCH7F014TAHX,1U5X071EXP5ZJG,DJI Fly,,1.12.8,B49DC99F-A0DA-1C5B-08DD-588A1BD94FE6,1SDCH7G0169R0K,,,,,,,,,
2/25/2024,03:11.4,4m 28.2s,268.2,6.972716041,79.91578533,0,0,0.3,63,0,0,0,0,0,0,0,0,0,4.2,3,-20.9,339.1,,Starting Motors,Other,Takeoff (RC Assisted),15,5,TRUE,,Mavic Mini,TRUE,FALSE,,Smart,RC,TRUE,TRUE,FALSE,,,TRUE,,FALSE,FALSE,FALSE,FALSE,FALSE,FALSE,FALSE,FALSE,FALSE,FALSE,0,Follow Yaw,0,0,-12.5,347.5,FALSE,FALSE,FALSE,FALSE,FALSE,FALSE,,TRUE,Normal,,100,1024,1024,1024,1024,2,FALSE,FALSE,FALSE,FALSE,FALSE,0,FALSE,FALSE,FALSE,FALSE,79,7.838,1616,2050,7.838,FALSE,3.919,3.919,,FALSE,FALSE,NA,101.5,101.4,101.4,,,,,,,,,Idle,,,TRUE,,FALSE,11,Go Home,FALSE,FALSE,FALSE,FALSE,FALSE,FALSE,FALSE,FALSE,FALSE,FALSE,FALSE,FALSE,,,,,,FALSE,,,FALSE,FALSE,FALSE,FALSE,,FALSE,FALSE,FALSE,,,,,Calm,,,1.12.8,Mavic Mini,1SDCH7G0169R0K,1SFLH6Q0AB03DJ,1SRCH7F014TAHX,1U5X071EXP5ZJG,89.2,0.2,3.2,8.164159,2.013246,0,1573,Mavic Mini,1SDCH7G0169R0K,1SFLH6Q0AB03DJ,1SRCH7F014TAHX,1U5X071EXP5ZJG,DJI Fly,,1.12.8,B49DC99F-A0DA-1C5B-08DD-588A1BD94FE6,1SDCH7G0169R0K,,,,,,,,,
2/25/2024,03:11.5,4m 28.3s,268.3,6.972715977,79.91578537,0,0,0.3,63,0,0,0,0,0,0,0,0,0,4.2,3,-21.2,338.8,,Starting Motors,Other,Takeoff (RC Assisted),15,5,TRUE,,Mavic Mini,TRUE,FALSE,,Smart,RC,TRUE,TRUE,FALSE,,,TRUE,,FALSE,FALSE,FALSE,FALSE,FALSE,FALSE,FALSE,FALSE,FALSE,FALSE,0,Follow Yaw,0,0,-12.5,347.5,FALSE,FALSE,FALSE,FALSE,FALSE,FALSE,,TRUE,Normal,,100,1024,1024,1024,1024,2,FALSE,FALSE,FALSE,FALSE,FALSE,0,FALSE,FALSE,FALSE,FALSE,79,7.838,1616,2050,7.838,FALSE,3.919,3.919,,FALSE,FALSE,NA,101.5,101.4,101.4,,,,,,,,,Idle,,,TRUE,,FALSE,11,Go Home,FALSE,FALSE,FALSE,FALSE,FALSE,FALSE,FALSE,FALSE,FALSE,FALSE,FALSE,FALSE,,,,,,FALSE,,,FALSE,FALSE,FALSE,FALSE,,FALSE,FALSE,FALSE,,,,,Calm,,,1.12.8,Mavic Mini,1SDCH7G0169R0K,1SFLH6Q0AB03DJ,1SRCH7F014TAHX,1U5X071EXP5ZJG,89.2,0.2,3.2,8.164159,2.013246,0,1573,Mavic Mini,1SDCH7G0169R0K,1SFLH6Q0AB03DJ,1SRCH7F014TAHX,1U5X071EXP5ZJG,DJI Fly,,1.12.8,B49DC99F-A0DA-1C5B-08DD-588A1BD94FE6,1SDCH7G0169R0K,,,,,,,,,
2/25/2024,03:11.6,4m 28.4s,268.4,6.972715925,79.91578537,0,0,0.3,63,0.1,0,0,0,0,0,0,0,0,4.2,3.1,-21.3,338.7,,Starting Motors,Other,Takeoff (RC Assisted),15,5,TRUE,,Mavic Mini,TRUE,FALSE,,Smart,RC,TRUE,TRUE,FALSE,,,TRUE,,FALSE,FALSE,FALSE,FALSE,FALSE,FALSE,FALSE,FALSE,FALSE,FALSE,0,Follow Yaw,0,0,-12.8,347.2,FALSE,FALSE,FALSE,FALSE,FALSE,FALSE,,TRUE,Normal,,100,1024,1024,1024,1024,2,FALSE,FALSE,FALSE,FALSE,FALSE,0,FALSE,FALSE,FALSE,FALSE,79,7.838,1616,2050,7.838,FALSE,3.919,3.919,,FALSE,FALSE,NA,101.5,101.4,101.4,,,,,,,,,Idle,,,TRUE,,FALSE,11,Go Home,FALSE,FALSE,FALSE,FALSE,FALSE,FALSE,FALSE,FALSE,FALSE,FALSE,FALSE,FALSE,,,,,,FALSE,,,FALSE,FALSE,FALSE,FALSE,,FALSE,FALSE,FALSE,,,,,Calm,,,1.12.8,Mavic Mini,1SDCH7G0169R0K,1SFLH6Q0AB03DJ,1SRCH7F014TAHX,1U5X071EXP5ZJG,89.2,0.2,3.2,8.164159,2.013246,0,1573,Mavic Mini,1SDCH7G0169R0K,1SFLH6Q0AB03DJ,1SRCH7F014TAHX,1U5X071EXP5ZJG,DJI Fly,,1.12.8,B49DC99F-A0DA-1C5B-08DD-588A1BD94FE6,1SDCH7G0169R0K,,,,,,,,,
2/25/2024,03:11.7,4m 28.5s,268.5,6.972715891,79.91578535,0,0,0.3,63,0.1,0,0,0,0,0,0,0,0,4.2,3.1,-21.3,338.7,,Starting Motors,Other,Takeoff (RC Assisted),15,5,TRUE,,Mavic Mini,TRUE,FALSE,,Smart,RC,TRUE,TRUE,FALSE,,,TRUE,,FALSE,FALSE,FALSE,FALSE,FALSE,FALSE,FALSE,FALSE,FALSE,FALSE,0,Follow Yaw,0,0,-12.9,347.1,FALSE,FALSE,FALSE,FALSE,FALSE,FALSE,,TRUE,Normal,,100,1024,1024,1024,1024,2,FALSE,FALSE,FALSE,FALSE,FALSE,0,FALSE,FALSE,FALSE,FALSE,79,7.838,1616,2050,7.838,FALSE,3.919,3.919,,FALSE,FALSE,NA,101.5,101.4,101.4,,,,,,,,,Idle,,,TRUE,,FALSE,11,Go Home,FALSE,FALSE,FALSE,FALSE,FALSE,FALSE,FALSE,FALSE,FALSE,FALSE,FALSE,FALSE,,,,,,FALSE,,,FALSE,FALSE,FALSE,FALSE,,FALSE,FALSE,FALSE,,,,,Calm,,,1.12.8,Mavic Mini,1SDCH7G0169R0K,1SFLH6Q0AB03DJ,1SRCH7F014TAHX,1U5X071EXP5ZJG,89.2,0.2,3.2,8.164159,2.013246,0,1573,Mavic Mini,1SDCH7G0169R0K,1SFLH6Q0AB03DJ,1SRCH7F014TAHX,1U5X071EXP5ZJG,DJI Fly,,1.12.8,B49DC99F-A0DA-1C5B-08DD-588A1BD94FE6,1SDCH7G0169R0K,,,,,,,,,
2/25/2024,03:11.8,4m 28.6s,268.6,6.972715872,79.9157853,0,0,0.3,63,0.1,0,0,0,0,0,0,0,0,4.2,3.1,-21.3,338.7,,Starting Motors,Other,Takeoff (RC Assisted),15,5,TRUE,,Mavic Mini,TRUE,FALSE,,Smart,RC,TRUE,TRUE,FALSE,,,TRUE,,FALSE,FALSE,FALSE,FALSE,FALSE,FALSE,FALSE,FALSE,FALSE,FALSE,0,Follow Yaw,0,0,-13,347,FALSE,FALSE,FALSE,FALSE,FALSE,FALSE,,TRUE,Normal,,100,1024,1024,1024,1024,2,FALSE,FALSE,FALSE,FALSE,FALSE,0,FALSE,FALSE,FALSE,FALSE,79,7.838,1616,2050,7.832,FALSE,3.919,3.919,,FALSE,FALSE,NA,101.5,101.4,101.4,0,0,0,0,5,2720.7,680.19,,Idle,0,20,FALSE,5,TRUE,11,Go Home,FALSE,FALSE,FALSE,FALSE,FALSE,FALSE,FALSE,FALSE,FALSE,FALSE,FALSE,FALSE,6.972715039,79.91578693,0.6,210.9,328,TRUE,1,1,FALSE,FALSE,FALSE,FALSE,,TRUE,FALSE,FALSE,Course Lock,49.2,,16.4,Calm,37,,1.12.8,Mavic Mini,1SDCH7G0169R0K,1SFLH6Q0AB03DJ,1SRCH7F014TAHX,1U5X071EXP5ZJG,89.2,0.2,3.2,8.164159,2.013246,0,1573,Mavic Mini,1SDCH7G0169R0K,1SFLH6Q0AB03DJ,1SRCH7F014TAHX,1U5X071EXP5ZJG,DJI Fly,,1.12.8,B49DC99F-A0DA-1C5B-08DD-588A1BD94FE6,1SDCH7G0169R0K,,,,,,,,Data Recorder File Index is 37.; Set Return to Home (RTH) altitude to 15 m (49 ft).; Set maximum flight altitude to 100 m (328 ft).,
2/25/2024,03:11.9,4m 28.7s,268.7,6.972715863,79.91578527,0,0,0.3,63,0.1,0,0,0,0,0,0,0,0,4.1,3.1,-21.3,338.7,,Starting Motors,Other,Takeoff (RC Assisted),15,5,TRUE,,Mavic Mini,TRUE,FALSE,,Smart,RC,TRUE,TRUE,FALSE,,,TRUE,,FALSE,FALSE,FALSE,FALSE,FALSE,FALSE,FALSE,FALSE,FALSE,FALSE,0,Follow Yaw,0,0,-13,347,FALSE,FALSE,FALSE,FALSE,FALSE,FALSE,,TRUE,Normal,,100,1024,1024,1024,1024,2,FALSE,FALSE,FALSE,FALSE,FALSE,0,FALSE,FALSE,FALSE,FALSE,79,7.838,1616,2050,7.832,FALSE,3.919,3.919,,FALSE,FALSE,NA,101.5,101.4,101.4,0,0,0,0,5,2720.7,680.19,,Idle,0,20,FALSE,5,TRUE,11,Go Home,FALSE,FALSE,FALSE,FALSE,FALSE,FALSE,FALSE,FALSE,FALSE,FALSE,FALSE,FALSE,6.972715039,79.91578693,0.6,210.9,328,TRUE,1,1,FALSE,FALSE,FALSE,FALSE,,TRUE,FALSE,FALSE,Course Lock,49.2,,16.4,Calm,37,,1.12.8,Mavic Mini,1SDCH7G0169R0K,1SFLH6Q0AB03DJ,1SRCH7F014TAHX,1U5X071EXP5ZJG,89.2,0.2,3.2,8.164159,2.013246,0,1573,Mavic Mini,1SDCH7G0169R0K,1SFLH6Q0AB03DJ,1SRCH7F014TAHX,1U5X071EXP5ZJG,DJI Fly,,1.12.8,B49DC99F-A0DA-1C5B-08DD-588A1BD94FE6,1SDCH7G0169R0K,,,,,,,,,
2/25/2024,03:12.0,4m 28.8s,268.8,6.972715911,79.91578523,0,0,0.3,63,0.1,0,0,0,0,0,0,0,0,4.2,3.1,-21.3,338.7,,Manual Takeoff,Other,Takeoff (RC Assisted),15,5,TRUE,,Mavic Mini,TRUE,FALSE,,Smart,RC,TRUE,TRUE,FALSE,,,TRUE,,FALSE,FALSE,FALSE,FALSE,FALSE,FALSE,FALSE,FALSE,FALSE,FALSE,0,Follow Yaw,0,0,-13,347,FALSE,FALSE,FALSE,FALSE,FALSE,FALSE,,TRUE,Normal,,100,1024,1024,1024,1024,2,FALSE,FALSE,FALSE,FALSE,FALSE,0,FALSE,FALSE,FALSE,FALSE,79,7.838,1616,2050,7.832,FALSE,3.919,3.919,,FALSE,FALSE,NA,101.5,101.4,101.4,0,0,0,0,5,2720.7,680.19,,Idle,0,20,FALSE,5,TRUE,11,Go Home,FALSE,FALSE,FALSE,FALSE,FALSE,FALSE,FALSE,FALSE,FALSE,FALSE,FALSE,FALSE,6.972715039,79.91578693,0.6,210.9,328,TRUE,1,1,FALSE,FALSE,FALSE,FALSE,,TRUE,FALSE,FALSE,Course Lock,49.2,,16.4,Calm,37,,1.12.8,Mavic Mini,1SDCH7G0169R0K,1SFLH6Q0AB03DJ,1SRCH7F014TAHX,1U5X071EXP5ZJG,89.2,0.2,3.2,8.164159,2.013246,0,1573,Mavic Mini,1SDCH7G0169R0K,1SFLH6Q0AB03DJ,1SRCH7F014TAHX,1U5X071EXP5ZJG,DJI Fly,,1.12.8,B49DC99F-A0DA-1C5B-08DD-588A1BD94FE6,1SDCH7G0169R0K,,,,,,,,Flight mode changed to Manual Takeoff.,
2/25/2024,03:12.1,4m 28.9s,268.9,6.972715915,79.91578523,0,0,0.3,63,0.1,0,0,0,0,0,0,0,0,4.2,3,-21.3,338.7,,Manual Takeoff,Other,Takeoff (RC Assisted),15,5,TRUE,,Mavic Mini,TRUE,FALSE,,Smart,RC,TRUE,TRUE,FALSE,,,TRUE,,FALSE,FALSE,FALSE,FALSE,FALSE,FALSE,FALSE,FALSE,FALSE,FALSE,0,Follow Yaw,0,0,-13,347,FALSE,FALSE,FALSE,FALSE,FALSE,FALSE,,TRUE,Normal,,100,1024,1024,1024,1024,2,FALSE,FALSE,FALSE,FALSE,FALSE,0,FALSE,FALSE,FALSE,FALSE,79,7.838,1616,2050,7.832,FALSE,3.919,3.919,,FALSE,FALSE,NA,101.5,101.4,101.4,0,0,0,0,5,2720.7,680.19,,Idle,0,20,FALSE,5,TRUE,11,Go Home,FALSE,FALSE,FALSE,FALSE,FALSE,FALSE,FALSE,FALSE,FALSE,FALSE,FALSE,FALSE,6.972715039,79.91578693,0.6,210.9,328,TRUE,1,1,FALSE,FALSE,FALSE,FALSE,,TRUE,FALSE,FALSE,Course Lock,49.2,,16.4,Calm,37,,1.12.8,Mavic Mini,1SDCH7G0169R0K,1SFLH6Q0AB03DJ,1SRCH7F014TAHX,1U5X071EXP5ZJG,89.2,0.2,3.2,8.164159,2.013246,0,1573,Mavic Mini,1SDCH7G0169R0K,1SFLH6Q0AB03DJ,1SRCH7F014TAHX,1U5X071EXP5ZJG,DJI Fly,,1.12.8,B49DC99F-A0DA-1C5B-08DD-588A1BD94FE6,1SDCH7G0169R0K,,,,,,,,,
2/25/2024,03:12.2,4m 29.0s,269,6.972715922,79.91578523,0,0,0.3,63,0.1,0,0,0,0,0,0,0,0,4.1,3.1,-21.4,338.6,,Manual Takeoff,Other,Takeoff (RC Assisted),15,5,TRUE,,Mavic Mini,TRUE,FALSE,,Smart,RC,TRUE,TRUE,FALSE,,,TRUE,,FALSE,FALSE,FALSE,FALSE,FALSE,FALSE,FALSE,FALSE,FALSE,FALSE,0,Follow Yaw,0,0,-13,347,FALSE,FALSE,FALSE,FALSE,FALSE,FALSE,,TRUE,Normal,,100,1024,1024,1024,1024,2,FALSE,FALSE,FALSE,FALSE,FALSE,0,FALSE,FALSE,FALSE,FALSE,79,7.838,1616,2050,7.832,FALSE,3.919,3.919,,FALSE,FALSE,NA,101.5,101.4,101.4,0,0,0,0,5,2720.7,680.19,,Idle,0,20,FALSE,5,TRUE,11,Go Home,FALSE,FALSE,FALSE,FALSE,FALSE,FALSE,FALSE,FALSE,FALSE,FALSE,FALSE,FALSE,6.972715039,79.91578693,0.6,210.9,328,TRUE,1,1,FALSE,FALSE,FALSE,FALSE,,TRUE,FALSE,FALSE,Course Lock,49.2,,16.4,Calm,37,,1.12.8,Mavic Mini,1SDCH7G0169R0K,1SFLH6Q0AB03DJ,1SRCH7F014TAHX,1U5X071EXP5ZJG,89.2,0.2,3.2,8.164159,2.013246,0,1573,Mavic Mini,1SDCH7G0169R0K,1SFLH6Q0AB03DJ,1SRCH7F014TAHX,1U5X071EXP5ZJG,DJI Fly,,1.12.8,B49DC99F-A0DA-1C5B-08DD-588A1BD94FE6,1SDCH7G0169R0K,,,,,,,,,
2/25/2024,03:12.3,4m 29.1s,269.1,6.972715904,79.91578521,0,0,0.3,63,0.1,0,0,0,0,0,0,0,0,4.2,3,-21.4,338.6,,Manual Takeoff,Other,Takeoff (RC Assisted),15,5,TRUE,,Mavic Mini,TRUE,FALSE,,Smart,RC,TRUE,TRUE,FALSE,,,TRUE,,FALSE,FALSE,FALSE,FALSE,FALSE,FALSE,FALSE,FALSE,FALSE,FALSE,0,Follow Yaw,0,0,-13.1,346.9,FALSE,FALSE,FALSE,FALSE,FALSE,FALSE,,TRUE,Normal,,100,1024,1024,1024,1024,2,FALSE,FALSE,FALSE,FALSE,FALSE,0,FALSE,FALSE,FALSE,FALSE,79,7.838,1616,2050,7.832,FALSE,3.919,3.919,,FALSE,FALSE,NA,101.5,101.4,101.4,0,0,0,0,5,2720.7,680.19,,Idle,0,20,FALSE,5,TRUE,11,Go Home,FALSE,FALSE,FALSE,FALSE,FALSE,FALSE,FALSE,FALSE,FALSE,FALSE,FALSE,FALSE,6.972715039,79.91578693,0.6,210.9,328,TRUE,1,1,FALSE,FALSE,FALSE,FALSE,,TRUE,FALSE,FALSE,Course Lock,49.2,,16.4,Calm,37,,1.12.8,Mavic Mini,1SDCH7G0169R0K,1SFLH6Q0AB03DJ,1SRCH7F014TAHX,1U5X071EXP5ZJG,89.2,0.2,3.2,8.164159,2.013246,0,1573,Mavic Mini,1SDCH7G0169R0K,1SFLH6Q0AB03DJ,1SRCH7F014TAHX,1U5X071EXP5ZJG,DJI Fly,,1.12.8,B49DC99F-A0DA-1C5B-08DD-588A1BD94FE6,1SDCH7G0169R0K,,,,,,,,,
2/25/2024,03:12.3,4m 29.2s,269.2,6.972715825,79.91578516,0,0,0.3,63,0.2,0,0,0,0,0,0,0,0,4.2,3,-21.4,338.6,,Manual Takeoff,Other,Takeoff (RC Assisted),15,5,TRUE,,Mavic Mini,TRUE,FALSE,,Smart,RC,TRUE,TRUE,FALSE,,,TRUE,,FALSE,FALSE,FALSE,FALSE,FALSE,FALSE,FALSE,FALSE,FALSE,FALSE,0,Follow Yaw,0,0,-13.1,346.9,FALSE,FALSE,FALSE,FALSE,FALSE,FALSE,,TRUE,Normal,,100,1024,1024,1031,1024,2,FALSE,FALSE,FALSE,FALSE,FALSE,0,FALSE,FALSE,FALSE,FALSE,79,7.838,1616,2050,7.832,FALSE,3.919,3.919,,FALSE,FALSE,NA,101.5,101.4,101.4,0,0,0,0,5,2720.7,680.19,,Idle,0,20,FALSE,5,TRUE,11,Go Home,FALSE,FALSE,FALSE,FALSE,FALSE,FALSE,FALSE,FALSE,FALSE,FALSE,FALSE,FALSE,6.972715039,79.91578693,0.7,210.9,328,TRUE,1,1,FALSE,FALSE,FALSE,FALSE,,TRUE,FALSE,FALSE,Course Lock,49.2,,16.4,Calm,37,,1.12.8,Mavic Mini,1SDCH7G0169R0K,1SFLH6Q0AB03DJ,1SRCH7F014TAHX,1U5X071EXP5ZJG,89.2,0.2,3.2,8.164159,2.013246,0,1573,Mavic Mini,1SDCH7G0169R0K,1SFLH6Q0AB03DJ,1SRCH7F014TAHX,1U5X071EXP5ZJG,DJI Fly,,1.12.8,B49DC99F-A0DA-1C5B-08DD-588A1BD94FE6,1SDCH7G0169R0K,,,,,,,,,
2/25/2024,03:12.5,4m 29.3s,269.3,6.972715792,79.91578513,0,0,0.3,63,0.2,0,0,0,0,0,0,0,0,4.2,3,-21.3,338.7,,Manual Takeoff,Other,Takeoff (RC Assisted),15,5,TRUE,,Mavic Mini,TRUE,FALSE,,Smart,RC,TRUE,TRUE,FALSE,,,TRUE,,FALSE,FALSE,FALSE,FALSE,FALSE,FALSE,FALSE,FALSE,FALSE,FALSE,0,Follow Yaw,0,0,-13.1,346.9,FALSE,FALSE,FALSE,FALSE,FALSE,FALSE,,TRUE,Normal,,100,1024,1024,1077,1024,2,FALSE,FALSE,FALSE,FALSE,FALSE,0,FALSE,FALSE,FALSE,FALSE,79,7.838,1616,2050,7.832,FALSE,3.919,3.919,,FALSE,FALSE,NA,101.5,101.4,101.4,0,0,0,0,5,2720.7,680.19,,Idle,0,20,FALSE,5,TRUE,11,Go Home,FALSE,FALSE,FALSE,FALSE,FALSE,FALSE,FALSE,FALSE,FALSE,FALSE,FALSE,FALSE,6.972715039,79.91578693,0.7,210.9,328,TRUE,1,1,FALSE,FALSE,FALSE,FALSE,,TRUE,FALSE,FALSE,Course Lock,49.2,,16.4,Calm,37,,1.12.8,Mavic Mini,1SDCH7G0169R0K,1SFLH6Q0AB03DJ,1SRCH7F014TAHX,1U5X071EXP5ZJG,89.2,0.2,3.2,8.164159,2.013246,0,1573,Mavic Mini,1SDCH7G0169R0K,1SFLH6Q0AB03DJ,1SRCH7F014TAHX,1U5X071EXP5ZJG,DJI Fly,,1.12.8,B49DC99F-A0DA-1C5B-08DD-588A1BD94FE6,1SDCH7G0169R0K,,,,,,,,,
2/25/2024,03:12.5,4m 29.4s,269.4,6.972715776,79.91578512,0,0,0.3,63,0.2,0,0,0,0,0,0,0,0,4.1,3.1,-21.4,338.6,,Manual Takeoff,Other,Takeoff (RC Assisted),15,5,TRUE,,Mavic Mini,TRUE,FALSE,,Smart,RC,TRUE,TRUE,FALSE,,,TRUE,,FALSE,FALSE,FALSE,FALSE,FALSE,FALSE,FALSE,FALSE,FALSE,FALSE,0,Follow Yaw,0,0,-13.1,346.9,FALSE,FALSE,FALSE,FALSE,FALSE,FALSE,,TRUE,Normal,,100,1024,1024,1135,1024,2,FALSE,FALSE,FALSE,FALSE,FALSE,0,FALSE,FALSE,FALSE,FALSE,79,7.84,1616,2050,7.832,FALSE,3.92,3.92,,FALSE,FALSE,NA,101.5,101.4,101.4,0,0,0,0,5,2720.7,680.19,,Idle,0,20,FALSE,5,TRUE,11,Go Home,FALSE,FALSE,FALSE,FALSE,FALSE,FALSE,FALSE,FALSE,FALSE,FALSE,FALSE,FALSE,6.972715039,79.91578693,0.7,210.9,328,TRUE,1,1,FALSE,FALSE,FALSE,FALSE,,TRUE,FALSE,FALSE,Course Lock,49.2,,16.4,Calm,37,,1.12.8,Mavic Mini,1SDCH7G0169R0K,1SFLH6Q0AB03DJ,1SRCH7F014TAHX,1U5X071EXP5ZJG,89.2,0.2,3.2,8.164159,2.013246,0,1573,Mavic Mini,1SDCH7G0169R0K,1SFLH6Q0AB03DJ,1SRCH7F014TAHX,1U5X071EXP5ZJG,DJI Fly,,1.12.8,B49DC99F-A0DA-1C5B-08DD-588A1BD94FE6,1SDCH7G0169R0K,,,,,,,,,
2/25/2024,03:12.8,4m 29.5s,269.5,6.972715767,79.91578512,0,0,0.3,63,0.2,0,0,0,0,0,0,0,0,4.2,3,-21.4,338.6,,Manual Takeoff,Other,Takeoff (RC Assisted),15,5,TRUE,,Mavic Mini,TRUE,FALSE,,Smart,RC,TRUE,TRUE,FALSE,,,TRUE,,FALSE,FALSE,FALSE,FALSE,FALSE,FALSE,FALSE,FALSE,FALSE,FALSE,0,Follow Yaw,0,0,-13.1,346.9,FALSE,FALSE,FALSE,FALSE,FALSE,FALSE,,TRUE,Normal,,100,1024,1024,1135,1024,2,FALSE,FALSE,FALSE,FALSE,FALSE,0,FALSE,FALSE,FALSE,FALSE,79,7.84,1616,2050,7.832,FALSE,3.92,3.92,,FALSE,FALSE,NA,101.5,101.4,101.4,0,0,0,0,5,2720.7,680.19,,Idle,0,20,FALSE,5,TRUE,11,Go Home,FALSE,FALSE,FALSE,FALSE,FALSE,FALSE,FALSE,FALSE,FALSE,FALSE,FALSE,FALSE,6.972715039,79.91578693,0.7,210.9,328,TRUE,1,1,FALSE,FALSE,FALSE,FALSE,,TRUE,FALSE,FALSE,Course Lock,49.2,,16.4,Calm,37,,1.12.8,Mavic Mini,1SDCH7G0169R0K,1SFLH6Q0AB03DJ,1SRCH7F014TAHX,1U5X071EXP5ZJG,89.2,0.2,3.2,8.164159,2.013246,0,1573,Mavic Mini,1SDCH7G0169R0K,1SFLH6Q0AB03DJ,1SRCH7F014TAHX,1U5X071EXP5ZJG,DJI Fly,,1.12.8,B49DC99F-A0DA-1C5B-08DD-588A1BD94FE6,1SDCH7G0169R0K,,,,,,,,,
2/25/2024,03:12.9,4m 29.6s,269.6,6.972715814,79.91578517,0,0,0.3,63,0.2,0,0,0,0,0,0,0,0,3.9,2.2,-21.5,338.5,,Manual Takeoff,Other,Takeoff (RC Assisted),15,5,TRUE,,Mavic Mini,TRUE,FALSE,,Smart,RC,TRUE,TRUE,FALSE,,,TRUE,,FALSE,FALSE,FALSE,FALSE,FALSE,FALSE,FALSE,FALSE,FALSE,FALSE,0,Follow Yaw,0,0,-13.1,346.9,FALSE,FALSE,FALSE,FALSE,FALSE,FALSE,,TRUE,Normal,,100,1024,1024,1196,1024,2,FALSE,FALSE,FALSE,FALSE,FALSE,0,FALSE,FALSE,FALSE,FALSE,79,7.84,1616,2050,7.839,FALSE,3.92,3.92,,FALSE,FALSE,NA,101.5,101.4,101.4,0,0,0,0,5,2839.7,709.92,,Idle,0,20,FALSE,5,TRUE,11,Go Home,FALSE,FALSE,FALSE,FALSE,FALSE,FALSE,FALSE,FALSE,FALSE,FALSE,FALSE,FALSE,6.972715039,79.91578693,0.6,210.9,328,TRUE,1,1,FALSE,FALSE,FALSE,FALSE,,TRUE,FALSE,FALSE,Course Lock,49.2,,16.4,Calm,37,,1.12.8,Mavic Mini,1SDCH7G0169R0K,1SFLH6Q0AB03DJ,1SRCH7F014TAHX,1U5X071EXP5ZJG,89.2,0.2,3.2,8.164159,2.013246,0,1573,Mavic Mini,1SDCH7G0169R0K,1SFLH6Q0AB03DJ,1SRCH7F014TAHX,1U5X071EXP5ZJG,DJI Fly,,1.12.8,B49DC99F-A0DA-1C5B-08DD-588A1BD94FE6,1SDCH7G0169R0K,,,,,6.972695617,79.91577697,5,,
2/25/2024,03:12.9,4m 29.7s,269.7,6.972715815,79.91578517,0,0,0.3,63,0.2,0,0,0,0,0,0,0,0,3.4,0.4,-21.6,338.4,,Manual Takeoff,Other,Takeoff (RC Assisted),15,5,TRUE,,Mavic Mini,TRUE,FALSE,,Smart,RC,TRUE,TRUE,FALSE,,,TRUE,,FALSE,FALSE,FALSE,FALSE,FALSE,FALSE,FALSE,FALSE,FALSE,FALSE,0,Follow Yaw,0,0,-13.1,346.9,FALSE,FALSE,FALSE,FALSE,FALSE,FALSE,,TRUE,Normal,,100,1024,1024,1198,1024,2,FALSE,FALSE,FALSE,FALSE,FALSE,0,FALSE,FALSE,FALSE,FALSE,79,7.84,1616,2050,7.839,FALSE,3.92,3.92,,FALSE,FALSE,NA,101.5,101.4,101.4,0,0,0,0,5,2839.7,709.92,,Idle,0,20,FALSE,5,TRUE,11,Go Home,FALSE,FALSE,FALSE,FALSE,FALSE,FALSE,FALSE,FALSE,FALSE,FALSE,FALSE,FALSE,6.972715039,79.91578693,0.6,210.9,328,TRUE,1,1,FALSE,FALSE,FALSE,FALSE,,TRUE,FALSE,FALSE,Course Lock,49.2,,16.4,Calm,37,,1.12.8,Mavic Mini,1SDCH7G0169R0K,1SFLH6Q0AB03DJ,1SRCH7F014TAHX,1U5X071EXP5ZJG,89.2,0.2,3.2,8.164159,2.013246,0,1573,Mavic Mini,1SDCH7G0169R0K,1SFLH6Q0AB03DJ,1SRCH7F014TAHX,1U5X071EXP5ZJG,DJI Fly,,1.12.8,B49DC99F-A0DA-1C5B-08DD-588A1BD94FE6,1SDCH7G0169R0K,,,,,6.972695617,79.91577697,5,,
2/25/2024,03:13.1,4m 29.8s,269.8,6.972715818,79.91578516,0,0,0.3,63,0.2,0,0,0,0,0,0,0,0,3.4,0.1,-21.6,338.4,,Manual Takeoff,Other,Takeoff (RC Assisted),15,5,TRUE,,Mavic Mini,TRUE,FALSE,,Smart,RC,TRUE,TRUE,FALSE,,,TRUE,,FALSE,FALSE,FALSE,FALSE,FALSE,FALSE,FALSE,FALSE,FALSE,FALSE,0,Follow Yaw,0,0,-13.1,346.9,FALSE,FALSE,FALSE,FALSE,FALSE,FALSE,,TRUE,Normal,,100,1024,1024,1212,1024,2,FALSE,FALSE,FALSE,FALSE,FALSE,0,FALSE,FALSE,FALSE,FALSE,79,7.84,1616,2050,7.839,FALSE,3.92,3.92,,FALSE,FALSE,NA,101.5,101.4,101.4,0,0,0,0,5,2839.7,709.92,,Idle,0,20,FALSE,5,TRUE,11,Go Home,FALSE,FALSE,FALSE,FALSE,FALSE,FALSE,FALSE,FALSE,FALSE,FALSE,FALSE,FALSE,6.972715039,79.91578693,0.7,210.9,328,TRUE,1,1,FALSE,FALSE,FALSE,FALSE,,TRUE,FALSE,FALSE,Course Lock,49.2,,16.4,Calm,37,,1.12.8,Mavic Mini,1SDCH7G0169R0K,1SFLH6Q0AB03DJ,1SRCH7F014TAHX,1U5X071EXP5ZJG,89.2,0.2,3.2,8.164159,2.013246,0,1573,Mavic Mini,1SDCH7G0169R0K,1SFLH6Q0AB03DJ,1SRCH7F014TAHX,1U5X071EXP5ZJG,DJI Fly,,1.12.8,B49DC99F-A0DA-1C5B-08DD-588A1BD94FE6,1SDCH7G0169R0K,,,,,6.972695617,79.91577697,5,,
2/25/2024,03:13.1,4m 29.9s,269.9,6.97271582,79.91578513,0,0,0.3,63,0.2,0,0,0,0,0,0,0,0,3.2,0,-22.1,337.9,,Manual Takeoff,Other,Takeoff (RC Assisted),15,5,TRUE,,Mavic Mini,TRUE,FALSE,,Smart,RC,TRUE,TRUE,FALSE,,,TRUE,,FALSE,FALSE,FALSE,FALSE,FALSE,FALSE,FALSE,FALSE,FALSE,FALSE,0,Follow Yaw,0,0,-13.2,346.8,FALSE,FALSE,FALSE,FALSE,FALSE,FALSE,,TRUE,Normal,,100,1024,1024,1209,1024,2,FALSE,FALSE,FALSE,FALSE,FALSE,0,FALSE,FALSE,FALSE,FALSE,79,7.84,1616,2050,7.839,FALSE,3.92,3.92,,FALSE,FALSE,NA,101.5,101.4,101.4,0,0,0,0,5,2839.7,709.92,,Idle,0,20,FALSE,5,TRUE,11,Go Home,FALSE,FALSE,FALSE,FALSE,FALSE,FALSE,FALSE,FALSE,FALSE,FALSE,FALSE,FALSE,6.972715039,79.91578693,0.7,210.9,328,TRUE,1,1,FALSE,FALSE,FALSE,FALSE,,TRUE,FALSE,FALSE,Course Lock,49.2,,16.4,Calm,37,,1.12.8,Mavic Mini,1SDCH7G0169R0K,1SFLH6Q0AB03DJ,1SRCH7F014TAHX,1U5X071EXP5ZJG,89.2,0.2,3.2,8.164159,2.013246,0,1573,Mavic Mini,1SDCH7G0169R0K,1SFLH6Q0AB03DJ,1SRCH7F014TAHX,1U5X071EXP5ZJG,DJI Fly,,1.12.8,B49DC99F-A0DA-1C5B-08DD-588A1BD94FE6,1SDCH7G0169R0K,,,,,6.972695617,79.91577697,5,,
2/25/2024,03:13.2,4m 30.0s,270,6.972715874,79.91578504,0,0,0.3,63,0.3,0,0,0,0,0,0,0,0,3.2,0,-23.5,336.5,,Manual Takeoff,Other,Takeoff (RC Assisted),15,5,TRUE,,Mavic Mini,TRUE,FALSE,,Smart,RC,TRUE,TRUE,FALSE,,,TRUE,,FALSE,FALSE,FALSE,FALSE,FALSE,FALSE,FALSE,FALSE,FALSE,FALSE,0,Follow Yaw,0,0,-14,346,FALSE,FALSE,FALSE,FALSE,FALSE,FALSE,,TRUE,Normal,,100,1024,1024,1198,1024,2,FALSE,FALSE,FALSE,FALSE,FALSE,0,FALSE,FALSE,FALSE,FALSE,79,7.84,1616,2050,7.839,FALSE,3.92,3.92,,FALSE,FALSE,NA,101.5,101.4,101.4,0,0,0,0,5,2839.7,709.92,,Idle,0,20,FALSE,5,TRUE,11,Go Home,FALSE,FALSE,FALSE,FALSE,FALSE,FALSE,FALSE,FALSE,FALSE,FALSE,FALSE,FALSE,6.972715039,79.91578693,0.7,210.9,328,TRUE,1,1,FALSE,FALSE,FALSE,FALSE,,TRUE,FALSE,FALSE,Course Lock,49.2,,16.4,Calm,37,,1.12.8,Mavic Mini,1SDCH7G0169R0K,1SFLH6Q0AB03DJ,1SRCH7F014TAHX,1U5X071EXP5ZJG,89.2,0.2,3.2,8.164159,2.013246,0,1573,Mavic Mini,1SDCH7G0169R0K,1SFLH6Q0AB03DJ,1SRCH7F014TAHX,1U5X071EXP5ZJG,DJI Fly,,1.12.8,B49DC99F-A0DA-1C5B-08DD-588A1BD94FE6,1SDCH7G0169R0K,,,,,6.972695617,79.91577697,5,,
2/25/2024,03:13.3,4m 30.1s,270.1,6.972715858,79.915785,0,0,0.3,63,0.3,0,0,0,0,0,0,0,0,2.6,-0.1,-24.9,335.1,,Manual Takeoff,Other,Takeoff (RC Assisted),15,5,TRUE,,Mavic Mini,TRUE,FALSE,,Smart,RC,TRUE,TRUE,FALSE,,,TRUE,,FALSE,FALSE,FALSE,FALSE,FALSE,FALSE,FALSE,FALSE,FALSE,FALSE,0,Follow Yaw,0,0,-15.3,344.7,FALSE,FALSE,FALSE,FALSE,FALSE,FALSE,,TRUE,Normal,,100,1024,1024,1193,1024,2,FALSE,FALSE,FALSE,FALSE,FALSE,0,FALSE,FALSE,FALSE,FALSE,79,7.84,1616,2050,7.839,FALSE,3.92,3.92,,FALSE,FALSE,NA,101.5,101.4,101.4,0,0,0,0,5,2839.7,709.92,,Idle,0,20,FALSE,5,TRUE,11,Go Home,FALSE,FALSE,FALSE,FALSE,FALSE,FALSE,FALSE,FALSE,FALSE,FALSE,FALSE,FALSE,6.972715039,79.91578693,0.7,210.9,328,TRUE,1,1,FALSE,FALSE,FALSE,FALSE,,TRUE,FALSE,FALSE,Course Lock,49.2,,16.4,Calm,37,,1.12.8,Mavic Mini,1SDCH7G0169R0K,1SFLH6Q0AB03DJ,1SRCH7F014TAHX,1U5X071EXP5ZJG,89.2,0.2,3.2,8.164159,2.013246,0,1573,Mavic Mini,1SDCH7G0169R0K,1SFLH6Q0AB03DJ,1SRCH7F014TAHX,1U5X071EXP5ZJG,DJI Fly,,1.12.8,B49DC99F-A0DA-1C5B-08DD-588A1BD94FE6,1SDCH7G0169R0K,,,,,6.972695617,79.91577697,5,,
2/25/2024,03:13.4,4m 30.2s,270.2,6.972715816,79.91578498,0,0,0.3,63,0.3,0,0,0,0,0,0,0,0,1.1,0,-26.1,333.9,,Manual Takeoff,Other,Takeoff (RC Assisted),15,5,TRUE,,Mavic Mini,TRUE,FALSE,,Smart,RC,TRUE,TRUE,FALSE,,,TRUE,,FALSE,FALSE,FALSE,FALSE,FALSE,FALSE,FALSE,FALSE,FALSE,FALSE,0,Follow Yaw,0,0,-16.5,343.5,FALSE,FALSE,FALSE,FALSE,FALSE,FALSE,,TRUE,Normal,,100,1024,1024,1191,1024,2,FALSE,FALSE,FALSE,FALSE,FALSE,0,FALSE,FALSE,FALSE,FALSE,79,7.84,1616,2050,7.839,FALSE,3.92,3.92,,FALSE,FALSE,NA,101.5,101.4,101.4,0,0,0,0,5,2839.7,709.92,,Idle,0,20,FALSE,5,TRUE,11,Go Home,FALSE,FALSE,FALSE,FALSE,FALSE,FALSE,FALSE,FALSE,FALSE,FALSE,FALSE,FALSE,6.972715039,79.91578693,0.7,210.9,328,TRUE,1,1,FALSE,FALSE,FALSE,FALSE,,TRUE,FALSE,FALSE,Course Lock,49.2,,16.4,Calm,37,,1.12.8,Mavic Mini,1SDCH7G0169R0K,1SFLH6Q0AB03DJ,1SRCH7F014TAHX,1U5X071EXP5ZJG,89.2,0.2,3.2,8.164159,2.013246,0,1573,Mavic Mini,1SDCH7G0169R0K,1SFLH6Q0AB03DJ,1SRCH7F014TAHX,1U5X071EXP5ZJG,DJI Fly,,1.12.8,B49DC99F-A0DA-1C5B-08DD-588A1BD94FE6,1SDCH7G0169R0K,,,,,6.972695617,79.91577697,5,,
2/25/2024,03:13.6,4m 30.3s,270.3,6.972715805,79.91578497,0,0,0.3,63,0.3,0,0,0,0,0,0,0,0,-1,-0.8,-27.3,332.7,,Manual Takeoff,Other,Takeoff (RC Assisted),15,5,TRUE,,Mavic Mini,TRUE,FALSE,,Smart,RC,TRUE,TRUE,FALSE,,,TRUE,,FALSE,FALSE,FALSE,FALSE,FALSE,FALSE,FALSE,FALSE,FALSE,FALSE,0,Follow Yaw,0,0,-17.8,342.2,FALSE,FALSE,FALSE,FALSE,FALSE,FALSE,,TRUE,Normal,,100,1024,1024,1193,1024,2,FALSE,FALSE,FALSE,FALSE,FALSE,0,FALSE,FALSE,FALSE,FALSE,79,7.84,1616,2050,7.839,FALSE,3.92,3.92,,FALSE,FALSE,NA,101.5,101.4,101.4,0,0,0,0,5,2839.7,709.92,,Idle,0,20,FALSE,5,TRUE,11,Go Home,FALSE,FALSE,FALSE,FALSE,FALSE,FALSE,FALSE,FALSE,FALSE,FALSE,FALSE,FALSE,6.972715039,79.91578693,0.7,210.9,328,TRUE,1,1,FALSE,FALSE,FALSE,FALSE,,TRUE,FALSE,FALSE,Course Lock,49.2,,16.4,Calm,37,,1.12.8,Mavic Mini,1SDCH7G0169R0K,1SFLH6Q0AB03DJ,1SRCH7F014TAHX,1U5X071EXP5ZJG,89.2,0.2,3.2,8.164159,2.013246,0,1573,Mavic Mini,1SDCH7G0169R0K,1SFLH6Q0AB03DJ,1SRCH7F014TAHX,1U5X071EXP5ZJG,DJI Fly,,1.12.8,B49DC99F-A0DA-1C5B-08DD-588A1BD94FE6,1SDCH7G0169R0K,,,,,6.972695617,79.91577697,5,,
2/25/2024,03:13.6,4m 30.4s,270.4,6.972715839,79.91578495,0,0,0.3,63,0.3,0,0,0,0,0,0,0,0,-2.1,-1.1,-28.5,331.5,,Manual Takeoff,Other,Takeoff (RC Assisted),15,5,TRUE,,Mavic Mini,TRUE,FALSE,,Smart,RC,TRUE,TRUE,FALSE,,,TRUE,,FALSE,FALSE,FALSE,FALSE,FALSE,FALSE,FALSE,FALSE,FALSE,FALSE,0,Follow Yaw,0,0,-18.9,341.1,FALSE,FALSE,FALSE,FALSE,FALSE,FALSE,,TRUE,Normal,,100,1024,1024,1193,1024,2,FALSE,FALSE,FALSE,FALSE,FALSE,0,FALSE,FALSE,FALSE,FALSE,79,7.84,1616,2050,7.839,FALSE,3.92,3.92,,FALSE,FALSE,NA,101.5,101.4,101.4,0,0,0,0,5,2839.7,709.92,,Idle,0,20,FALSE,5,TRUE,11,Go Home,FALSE,FALSE,FALSE,FALSE,FALSE,FALSE,FALSE,FALSE,FALSE,FALSE,FALSE,FALSE,6.972715039,79.91578693,0.7,210.9,328,TRUE,1,1,FALSE,FALSE,FALSE,FALSE,,TRUE,FALSE,FALSE,Course Lock,49.2,,16.4,Calm,37,,1.12.8,Mavic Mini,1SDCH7G0169R0K,1SFLH6Q0AB03DJ,1SRCH7F014TAHX,1U5X071EXP5ZJG,89.2,0.2,3.2,8.164159,2.013246,0,1573,Mavic Mini,1SDCH7G0169R0K,1SFLH6Q0AB03DJ,1SRCH7F014TAHX,1U5X071EXP5ZJG,DJI Fly,,1.12.8,B49DC99F-A0DA-1C5B-08DD-588A1BD94FE6,1SDCH7G0169R0K,,,,,6.972695617,79.91577697,5,,
2/25/2024,03:13.7,4m 30.5s,270.5,6.972715874,79.91578497,0,0,0.3,63,0.4,0.223694,0.223694,0.223694,0.223694,0,0,-0.223694,0,-2.8,-1.3,-29.9,330.1,32.1,Manual Takeoff,Other,,15,5,TRUE,,Mavic Mini,TRUE,FALSE,,Smart,RC,FALSE,TRUE,FALSE,,,TRUE,,FALSE,FALSE,FALSE,FALSE,FALSE,FALSE,FALSE,FALSE,FALSE,FALSE,0,Follow Yaw,0,0,-20.2,339.8,FALSE,FALSE,FALSE,FALSE,FALSE,FALSE,,TRUE,Normal,,100,1024,1024,1189,1024,2,FALSE,FALSE,FALSE,FALSE,FALSE,0,FALSE,FALSE,FALSE,FALSE,79,7.717,1615,2050,7.839,FALSE,3.86,3.857,0.003,FALSE,FALSE,NA,101.5,101.4,101.4,0,0,0,0,5,2839.7,709.92,,Idle,0,20,FALSE,5,TRUE,11,Go Home,FALSE,FALSE,FALSE,FALSE,FALSE,FALSE,FALSE,FALSE,FALSE,FALSE,FALSE,FALSE,6.972715039,79.91578693,0.7,210.9,328,TRUE,1,1,FALSE,FALSE,FALSE,FALSE,,TRUE,FALSE,FALSE,Course Lock,49.2,,16.4,Calm,37,,1.12.8,Mavic Mini,1SDCH7G0169R0K,1SFLH6Q0AB03DJ,1SRCH7F014TAHX,1U5X071EXP5ZJG,89.2,0.2,3.2,8.164159,2.013246,0,1573,Mavic Mini,1SDCH7G0169R0K,1SFLH6Q0AB03DJ,1SRCH7F014TAHX,1U5X071EXP5ZJG,DJI Fly,,1.12.8,B49DC99F-A0DA-1C5B-08DD-588A1BD94FE6,1SDCH7G0169R0K,,,,,6.972695617,79.91577697,5,,
2/25/2024,03:13.9,4m 30.6s,270.6,6.972716026,79.91578487,0,0,0.3,63,0.4,0.316351,0.316351,0.223694,0.223694,-0.223694,0,-0.447388,0,-1.2,-0.1,-30.1,329.9,332.4,Tripod,Other,,14,5,TRUE,,Mavic Mini,TRUE,FALSE,,Smart,RC,FALSE,TRUE,FALSE,,,TRUE,,FALSE,FALSE,FALSE,FALSE,FALSE,FALSE,FALSE,FALSE,FALSE,FALSE,0,Follow Yaw,0,0,-20.8,339.2,FALSE,FALSE,FALSE,FALSE,FALSE,FALSE,,TRUE,Normal,,100,1024,1024,1156,1024,2,FALSE,FALSE,FALSE,FALSE,FALSE,0,FALSE,FALSE,FALSE,FALSE,79,7.717,1615,2050,7.785,FALSE,3.86,3.857,0.003,FALSE,FALSE,NA,101.5,101.4,101.4,0,0,1,0,5,3184.2,796.06,,Idle,0,20,FALSE,5,TRUE,11,Go Home,FALSE,FALSE,FALSE,FALSE,FALSE,FALSE,FALSE,FALSE,FALSE,FALSE,FALSE,FALSE,6.972715868,79.91578498,0,210.9,328,TRUE,1,1,FALSE,FALSE,FALSE,FALSE,,TRUE,FALSE,FALSE,Course Lock,49.2,,16.4,Calm,37,,1.12.8,Mavic Mini,1SDCH7G0169R0K,1SFLH6Q0AB03DJ,1SRCH7F014TAHX,1U5X071EXP5ZJG,89.2,0.2,3.2,8.164159,2.013246,0,1573,Mavic Mini,1SDCH7G0169R0K,1SFLH6Q0AB03DJ,1SRCH7F014TAHX,1U5X071EXP5ZJG,DJI Fly,,1.12.8,B49DC99F-A0DA-1C5B-08DD-588A1BD94FE6,1SDCH7G0169R0K,,,,,6.972695617,79.91577697,5,Home Point Updated.; Flight mode changed to Tripod.,
2/25/2024,03:13.9,4m 30.7s,270.7,6.972716208,79.91578471,0,0,0.6,63,0.5,0.500194,0.500194,0.447388,0.447388,-0.223694,0,-0.894776,0,2.8,0.5,-30,330,325.1,Tripod,Other,,14,5,TRUE,,Mavic Mini,TRUE,FALSE,,Smart,RC,FALSE,TRUE,FALSE,,,TRUE,,FALSE,FALSE,FALSE,FALSE,FALSE,FALSE,FALSE,FALSE,FALSE,FALSE,0,Follow Yaw,0,0,-20.8,339.2,FALSE,FALSE,FALSE,FALSE,FALSE,FALSE,,TRUE,Normal,,100,1024,1024,1149,1024,2,FALSE,FALSE,FALSE,FALSE,FALSE,0,FALSE,FALSE,FALSE,FALSE,79,7.717,1615,2050,7.785,FALSE,3.86,3.857,0.003,FALSE,FALSE,NA,101.5,101.4,101.4,0,0,1,0,5,3184.2,796.06,,Idle,0,20,FALSE,5,TRUE,11,Go Home,FALSE,FALSE,FALSE,FALSE,FALSE,FALSE,FALSE,FALSE,FALSE,FALSE,FALSE,FALSE,6.972715868,79.91578498,0.1,210.9,328,TRUE,1,1,FALSE,FALSE,FALSE,FALSE,,TRUE,FALSE,FALSE,Course Lock,49.2,,16.4,Calm,37,,1.12.8,Mavic Mini,1SDCH7G0169R0K,1SFLH6Q0AB03DJ,1SRCH7F014TAHX,1U5X071EXP5ZJG,89.2,0.2,3.2,8.164159,2.013246,0,1573,Mavic Mini,1SDCH7G0169R0K,1SFLH6Q0AB03DJ,1SRCH7F014TAHX,1U5X071EXP5ZJG,DJI Fly,,1.12.8,B49DC99F-A0DA-1C5B-08DD-588A1BD94FE6,1SDCH7G0169R0K,,,,,6.972695617,79.91577697,5,,
2/25/2024,03:14.1,4m 30.8s,270.8,6.972716403,79.91578451,0,0,0.6,63,0.6,0.500194,0.500194,0.447388,0.447388,-0.223694,0,-1.11847,0,4.3,0.6,-29.4,330.6,321.7,Tripod,Other,,15,5,TRUE,,Mavic Mini,TRUE,FALSE,,Smart,RC,FALSE,TRUE,FALSE,,,TRUE,,FALSE,FALSE,FALSE,FALSE,FALSE,FALSE,FALSE,FALSE,FALSE,FALSE,0,Follow Yaw,0,0,-20.8,339.2,FALSE,FALSE,FALSE,FALSE,FALSE,FALSE,,TRUE,Normal,,100,1024,1024,1145,1024,2,FALSE,FALSE,FALSE,FALSE,FALSE,0,FALSE,FALSE,FALSE,FALSE,79,7.717,1615,2050,7.785,FALSE,3.86,3.857,0.003,FALSE,FALSE,NA,101.5,101.4,101.4,0,0,1,0,5,3184.2,796.06,,Idle,0,20,FALSE,5,TRUE,11,Go Home,FALSE,FALSE,FALSE,FALSE,FALSE,FALSE,FALSE,FALSE,FALSE,FALSE,FALSE,FALSE,6.972715868,79.91578498,0.2,210.9,328,TRUE,1,1,FALSE,FALSE,FALSE,FALSE,,TRUE,FALSE,FALSE,Course Lock,49.2,,16.4,Calm,37,,1.12.8,Mavic Mini,1SDCH7G0169R0K,1SFLH6Q0AB03DJ,1SRCH7F014TAHX,1U5X071EXP5ZJG,89.2,0.2,3.2,8.164159,2.013246,0,1573,Mavic Mini,1SDCH7G0169R0K,1SFLH6Q0AB03DJ,1SRCH7F014TAHX,1U5X071EXP5ZJG,DJI Fly,,1.12.8,B49DC99F-A0DA-1C5B-08DD-588A1BD94FE6,1SDCH7G0169R0K,,,,,6.972695617,79.91577697,5,,
2/25/2024,03:14.1,4m 30.9s,270.9,6.972716638,79.91578434,0.3,0.3,0.6,64,0.7,0.316351,0.500194,0.223694,0.447388,-0.223694,0,-1.342164,0,3.8,0,-29.6,330.4,330.8,Tripod,Other,,15,5,TRUE,,Mavic Mini,TRUE,FALSE,,Smart,RC,FALSE,TRUE,FALSE,,,TRUE,,FALSE,FALSE,FALSE,FALSE,FALSE,FALSE,FALSE,FALSE,FALSE,FALSE,0,Follow Yaw,0,0,-20.8,339.2,FALSE,FALSE,FALSE,FALSE,FALSE,FALSE,,TRUE,Normal,,100,1024,1024,1144,1024,2,FALSE,FALSE,FALSE,FALSE,FALSE,0,FALSE,FALSE,FALSE,FALSE,79,7.717,1615,2050,7.785,FALSE,3.86,3.857,0.003,FALSE,FALSE,NA,101.5,101.4,101.4,0,0,1,0,5,3184.2,796.06,,Idle,0,20,FALSE,5,TRUE,11,Go Home,FALSE,FALSE,FALSE,FALSE,FALSE,FALSE,FALSE,FALSE,FALSE,FALSE,FALSE,FALSE,6.972715868,79.91578498,0.3,210.9,328,TRUE,1,1,FALSE,FALSE,FALSE,FALSE,,TRUE,FALSE,FALSE,Course Lock,49.2,,16.4,Calm,37,,1.12.8,Mavic Mini,1SDCH7G0169R0K,1SFLH6Q0AB03DJ,1SRCH7F014TAHX,1U5X071EXP5ZJG,89.2,0.2,3.2,8.164159,2.013246,0,1573,Mavic Mini,1SDCH7G0169R0K,1SFLH6Q0AB03DJ,1SRCH7F014TAHX,1U5X071EXP5ZJG,DJI Fly,,1.12.8,B49DC99F-A0DA-1C5B-08DD-588A1BD94FE6,1SDCH7G0169R0K,,,,,6.972695617,79.91577697,5,,
2/25/2024,03:14.2,4m 31.0s,271,6.972716841,79.91578419,0.3,0.3,0.9,64,0.8,0.316351,0.500194,0.223694,0.447388,-0.223694,0,-1.342164,0,3.2,0,-29.5,330.5,330.9,Tripod,Other,,15,5,TRUE,,Mavic Mini,TRUE,FALSE,,Smart,RC,FALSE,TRUE,FALSE,,,TRUE,,FALSE,FALSE,FALSE,FALSE,FALSE,FALSE,FALSE,FALSE,FALSE,FALSE,0,Follow Yaw,0,0,-20.8,339.2,FALSE,FALSE,FALSE,FALSE,FALSE,FALSE,,TRUE,Normal,,100,1024,1024,1145,1024,2,FALSE,FALSE,FALSE,FALSE,FALSE,0,FALSE,FALSE,FALSE,FALSE,79,7.717,1615,2050,7.785,FALSE,3.86,3.857,0.003,FALSE,FALSE,NA,101.5,101.4,101.4,0,0,1,0,5,3184.2,796.06,,Idle,0,20,FALSE,5,TRUE,11,Go Home,FALSE,FALSE,FALSE,FALSE,FALSE,FALSE,FALSE,FALSE,FALSE,FALSE,FALSE,FALSE,6.972715868,79.91578498,0.4,210.9,328,TRUE,1,1,FALSE,FALSE,FALSE,FALSE,,TRUE,FALSE,FALSE,Course Lock,49.2,,16.4,Calm,37,,1.12.8,Mavic Mini,1SDCH7G0169R0K,1SFLH6Q0AB03DJ,1SRCH7F014TAHX,1U5X071EXP5ZJG,89.2,0.2,3.2,8.164159,2.013246,0,1573,Mavic Mini,1SDCH7G0169R0K,1SFLH6Q0AB03DJ,1SRCH7F014TAHX,1U5X071EXP5ZJG,DJI Fly,,1.12.8,B49DC99F-A0DA-1C5B-08DD-588A1BD94FE6,1SDCH7G0169R0K,,,,,6.972695617,79.91577697,5,Home Point updated. RTH altitude adjusted to 15 m!'}G (Code: 120852).,
2/25/2024,03:14.4,4m 31.1s,271.1,6.972716982,79.91578402,0.6,0.6,0.9,64,0.9,0.316351,0.500194,0.223694,0.447388,-0.223694,0,-1.342164,0,3,0.4,-29.4,330.6,317.1,Tripod,Other,,15,5,TRUE,,Mavic Mini,TRUE,FALSE,,Smart,RC,FALSE,TRUE,FALSE,,,TRUE,,FALSE,FALSE,FALSE,FALSE,FALSE,FALSE,FALSE,FALSE,FALSE,FALSE,0,Follow Yaw,0,0,-20.8,339.2,FALSE,FALSE,FALSE,FALSE,FALSE,FALSE,,TRUE,Normal,,100,1024,1024,1142,1024,2,FALSE,FALSE,FALSE,FALSE,FALSE,0,FALSE,FALSE,FALSE,FALSE,79,7.717,1615,2050,7.785,FALSE,3.86,3.857,0.003,FALSE,FALSE,NA,101.5,101.4,101.4,0,0,1,0,5,3184.2,796.06,,Idle,0,20,FALSE,5,TRUE,11,Go Home,FALSE,FALSE,FALSE,FALSE,FALSE,FALSE,FALSE,FALSE,FALSE,FALSE,FALSE,FALSE,6.972715868,79.91578498,0.5,210.9,328,TRUE,1,1,FALSE,FALSE,FALSE,FALSE,,TRUE,FALSE,FALSE,Course Lock,49.2,,16.4,Calm,37,,1.12.8,Mavic Mini,1SDCH7G0169R0K,1SFLH6Q0AB03DJ,1SRCH7F014TAHX,1U5X071EXP5ZJG,89.2,0.2,3.2,8.164159,2.013246,0,1573,Mavic Mini,1SDCH7G0169R0K,1SFLH6Q0AB03DJ,1SRCH7F014TAHX,1U5X071EXP5ZJG,DJI Fly,,1.12.8,B49DC99F-A0DA-1C5B-08DD-588A1BD94FE6,1SDCH7G0169R0K,,,,,6.972695617,79.91577697,5,,
2/25/2024,03:14.5,4m 31.2s,271.2,6.972717092,79.91578382,0.9,0.9,1.3,64,1,0.316351,0.500194,0.223694,0.447388,-0.223694,0,-1.342164,0,3.5,0.5,-29.5,330.5,304.5,Tripod,Other,,15,5,TRUE,,Mavic Mini,TRUE,FALSE,,Smart,RC,FALSE,TRUE,FALSE,,,TRUE,,FALSE,FALSE,FALSE,FALSE,FALSE,FALSE,FALSE,FALSE,FALSE,FALSE,0,Follow Yaw,0,0,-20.8,339.2,FALSE,FALSE,FALSE,FALSE,FALSE,FALSE,,TRUE,Normal,,100,1024,1024,1132,1024,2,FALSE,FALSE,FALSE,FALSE,FALSE,0,FALSE,FALSE,FALSE,FALSE,79,7.717,1615,2050,7.785,FALSE,3.86,3.857,0.003,FALSE,FALSE,NA,101.5,101.4,101.4,0,0,1,0,5,3184.2,796.06,,Idle,0,20,FALSE,5,TRUE,11,Go Home,FALSE,FALSE,FALSE,FALSE,FALSE,FALSE,FALSE,FALSE,FALSE,FALSE,FALSE,FALSE,6.972715868,79.91578498,0.6,210.9,328,TRUE,1,1,FALSE,FALSE,FALSE,FALSE,,TRUE,FALSE,FALSE,Course Lock,49.2,,16.4,Calm,37,,1.12.8,Mavic Mini,1SDCH7G0169R0K,1SFLH6Q0AB03DJ,1SRCH7F014TAHX,1U5X071EXP5ZJG,89.2,0.2,3.2,8.164159,2.013246,0,1573,Mavic Mini,1SDCH7G0169R0K,1SFLH6Q0AB03DJ,1SRCH7F014TAHX,1U5X071EXP5ZJG,DJI Fly,,1.12.8,B49DC99F-A0DA-1C5B-08DD-588A1BD94FE6,1SDCH7G0169R0K,,,,,6.972695617,79.91577697,5,,
2/25/2024,03:14.6,4m 31.3s,271.3,6.972717372,79.91578356,0.9,0.9,1.3,64,1.1,0.316351,0.500194,0.223694,0.447388,-0.223694,0,-0.894776,0,3.7,0.5,-29.6,330.4,325,Tripod,Other,,15,5,TRUE,,Mavic Mini,TRUE,FALSE,,Smart,RC,FALSE,TRUE,FALSE,,,TRUE,,FALSE,FALSE,FALSE,FALSE,FALSE,FALSE,FALSE,FALSE,FALSE,FALSE,0,Follow Yaw,0,0,-20.8,339.2,FALSE,FALSE,FALSE,FALSE,FALSE,FALSE,,TRUE,Normal,,100,1024,1024,1132,1024,2,FALSE,FALSE,FALSE,FALSE,FALSE,0,FALSE,FALSE,FALSE,FALSE,79,7.717,1615,2050,7.785,FALSE,3.86,3.857,0.003,FALSE,FALSE,NA,101.5,101.4,101.4,0,0,1,0,5,3184.2,796.06,,Idle,0,20,FALSE,5,TRUE,11,Go Home,FALSE,FALSE,FALSE,FALSE,FALSE,FALSE,FALSE,FALSE,FALSE,FALSE,FALSE,FALSE,6.972715868,79.91578498,0.7,210.9,328,TRUE,1,1,FALSE,FALSE,FALSE,FALSE,,TRUE,FALSE,FALSE,Course Lock,49.2,,16.4,Calm,37,,1.12.8,Mavic Mini,1SDCH7G0169R0K,1SFLH6Q0AB03DJ,1SRCH7F014TAHX,1U5X071EXP5ZJG,89.2,0.2,3.2,8.164159,2.013246,0,1573,Mavic Mini,1SDCH7G0169R0K,1SFLH6Q0AB03DJ,1SRCH7F014TAHX,1U5X071EXP5ZJG,DJI Fly,,1.12.8,B49DC99F-A0DA-1C5B-08DD-588A1BD94FE6,1SDCH7G0169R0K,,,,,6.972695617,79.91577697,5,,
2/25/2024,03:14.7,4m 31.4s,271.4,6.972717543,79.91578346,1.3,1.3,1.6,65,1.2,0.223694,0.500194,0,0.447388,-0.223694,0,-0.671082,0,4.1,0.5,-29.5,330.5,335.6,Tripod,Other,,15,5,TRUE,,Mavic Mini,TRUE,FALSE,,Smart,RC,FALSE,TRUE,FALSE,,,TRUE,,FALSE,FALSE,FALSE,FALSE,FALSE,FALSE,FALSE,FALSE,FALSE,FALSE,0,Follow Yaw,0,0,-20.8,339.2,FALSE,FALSE,FALSE,FALSE,FALSE,FALSE,,TRUE,Normal,,100,1024,1024,1104,1024,2,FALSE,FALSE,FALSE,FALSE,FALSE,0,FALSE,FALSE,FALSE,FALSE,79,7.717,1615,2050,7.785,FALSE,3.86,3.857,0.003,FALSE,FALSE,NA,101.5,101.4,101.4,0,0,1,0,5,3184.2,796.06,,Idle,0,20,FALSE,5,TRUE,11,Go Home,FALSE,FALSE,FALSE,FALSE,FALSE,FALSE,FALSE,FALSE,FALSE,FALSE,FALSE,FALSE,6.972715868,79.91578498,0.8,210.9,328,TRUE,1,1,FALSE,FALSE,FALSE,FALSE,,TRUE,FALSE,FALSE,Course Lock,49.2,,16.4,Calm,37,,1.12.8,Mavic Mini,1SDCH7G0169R0K,1SFLH6Q0AB03DJ,1SRCH7F014TAHX,1U5X071EXP5ZJG,89.2,0.2,3.2,8.164159,2.013246,0,1573,Mavic Mini,1SDCH7G0169R0K,1SFLH6Q0AB03DJ,1SRCH7F014TAHX,1U5X071EXP5ZJG,DJI Fly,,1.12.8,B49DC99F-A0DA-1C5B-08DD-588A1BD94FE6,1SDCH7G0169R0K,,,,,6.972695617,79.91577697,5,,
2/25/2024,03:14.8,4m 31.5s,271.5,6.972717627,79.9157834,1.3,1.3,1.6,65,1.2,0,0.500194,0,0.447388,0,0,-0.447388,0,4.3,0.9,-29.5,330.5,,Tripod,Other,,15,5,TRUE,,Mavic Mini,TRUE,FALSE,,Smart,RC,FALSE,TRUE,FALSE,,,TRUE,,FALSE,FALSE,FALSE,FALSE,FALSE,FALSE,FALSE,FALSE,FALSE,FALSE,0,Follow Yaw,0,0,-20.8,339.2,FALSE,FALSE,FALSE,FALSE,FALSE,FALSE,,TRUE,Normal,,100,1024,1024,1091,1024,2,FALSE,FALSE,FALSE,FALSE,FALSE,0,FALSE,FALSE,FALSE,FALSE,79,7.717,1615,2050,7.785,FALSE,3.86,3.857,0.003,FALSE,FALSE,NA,101.5,101.4,101.4,0,0,1,0,5,3184.2,796.06,,Idle,0,20,FALSE,5,TRUE,11,Go Home,FALSE,FALSE,FALSE,FALSE,FALSE,FALSE,FALSE,FALSE,FALSE,FALSE,FALSE,FALSE,6.972715868,79.91578498,0.8,210.9,328,TRUE,1,1,FALSE,FALSE,FALSE,FALSE,,TRUE,FALSE,FALSE,Course Lock,49.2,,16.4,Calm,37,,1.12.8,Mavic Mini,1SDCH7G0169R0K,1SFLH6Q0AB03DJ,1SRCH7F014TAHX,1U5X071EXP5ZJG,89.2,0.2,3.2,8.164159,2.013246,0,1573,Mavic Mini,1SDCH7G0169R0K,1SFLH6Q0AB03DJ,1SRCH7F014TAHX,1U5X071EXP5ZJG,DJI Fly,,1.12.8,B49DC99F-A0DA-1C5B-08DD-588A1BD94FE6,1SDCH7G0169R0K,,,,,6.972695617,79.91577697,5,,
2/25/2024,03:14.8,4m 31.6s,271.6,6.972717636,79.91578338,1.3,1.3,1.9,65,1.2,0,0.500194,0,0.447388,0,0,-0.223694,0,4.1,1,-29.6,330.4,,Tripod,Other,,15,5,TRUE,,Mavic Mini,TRUE,FALSE,,Smart,RC,FALSE,TRUE,FALSE,,,TRUE,,FALSE,FALSE,FALSE,FALSE,FALSE,FALSE,FALSE,FALSE,FALSE,FALSE,0,Follow Yaw,0,0,-20.8,339.2,FALSE,FALSE,FALSE,FALSE,FALSE,FALSE,,TRUE,Normal,,100,1024,1024,1056,1024,2,FALSE,FALSE,FALSE,FALSE,FALSE,0,FALSE,FALSE,FALSE,FALSE,79,7.677,1614,2050,7.729,FALSE,3.839,3.838,0.003,FALSE,FALSE,NA,101.5,101.4,101.4,0,0,1,0,5,3184.2,796.06,,Idle,0,20,FALSE,5,TRUE,11,Go Home,FALSE,FALSE,FALSE,FALSE,FALSE,FALSE,FALSE,FALSE,FALSE,FALSE,FALSE,FALSE,6.972715868,79.91578498,0.8,210.9,328,TRUE,1,1,FALSE,FALSE,FALSE,FALSE,,TRUE,FALSE,FALSE,Course Lock,49.2,,16.4,Calm,37,,1.12.8,Mavic Mini,1SDCH7G0169R0K,1SFLH6Q0AB03DJ,1SRCH7F014TAHX,1U5X071EXP5ZJG,89.2,0.2,3.2,8.164159,2.013246,0,1573,Mavic Mini,1SDCH7G0169R0K,1SFLH6Q0AB03DJ,1SRCH7F014TAHX,1U5X071EXP5ZJG,DJI Fly,,1.12.8,B49DC99F-A0DA-1C5B-08DD-588A1BD94FE6,1SDCH7G0169R0K,,,,,6.972695617,79.91577697,5,,
2/25/2024,03:14.9,4m 31.7s,271.7,6.972717521,79.91578343,1.3,1.3,1.9,65,1.3,0,0.500194,0,0.447388,0,0,-0.223694,0,3.8,1,-29.5,330.5,,Tripod,Other,,15,5,TRUE,,Mavic Mini,TRUE,FALSE,,Smart,RC,FALSE,TRUE,FALSE,,,TRUE,,FALSE,FALSE,FALSE,FALSE,FALSE,FALSE,FALSE,FALSE,FALSE,FALSE,0,Follow Yaw,0,0,-20.8,339.2,FALSE,FALSE,FALSE,FALSE,FALSE,FALSE,,TRUE,Normal,,100,1024,1024,1024,1024,2,FALSE,FALSE,FALSE,FALSE,FALSE,0,FALSE,FALSE,FALSE,FALSE,79,7.677,1614,2050,7.729,FALSE,3.839,3.838,0.003,FALSE,FALSE,NA,101.5,101.4,101.4,0,0,1,0,5,3184.2,796.06,,Idle,0,20,FALSE,5,TRUE,11,Go Home,FALSE,FALSE,FALSE,FALSE,FALSE,FALSE,FALSE,FALSE,FALSE,FALSE,FALSE,FALSE,6.972715868,79.91578498,0.8,210.9,328,TRUE,1,1,FALSE,FALSE,FALSE,FALSE,,TRUE,FALSE,FALSE,Course Lock,49.2,,16.4,Calm,37,,1.12.8,Mavic Mini,1SDCH7G0169R0K,1SFLH6Q0AB03DJ,1SRCH7F014TAHX,1U5X071EXP5ZJG,89.2,0.2,3.2,8.164159,2.013246,0,1573,Mavic Mini,1SDCH7G0169R0K,1SFLH6Q0AB03DJ,1SRCH7F014TAHX,1U5X071EXP5ZJG,DJI Fly,,1.12.8,B49DC99F-A0DA-1C5B-08DD-588A1BD94FE6,1SDCH7G0169R0K,,,,,6.972695617,79.91577697,5,,
2/25/2024,03:15.1,4m 31.8s,271.8,6.972717586,79.91578338,1.3,1.3,1.9,65,1.3,0,0.500194,0,0.447388,0,0,-0.223694,0,3.6,1.5,-29.5,330.5,,Tripod,Other,,15,5,TRUE,,Mavic Mini,TRUE,FALSE,,Smart,RC,FALSE,TRUE,FALSE,,,TRUE,,FALSE,FALSE,FALSE,FALSE,FALSE,FALSE,FALSE,FALSE,FALSE,FALSE,0,Follow Yaw,0,0,-20.8,339.2,FALSE,FALSE,FALSE,FALSE,FALSE,FALSE,,TRUE,Normal,,100,1024,1024,1024,1024,2,FALSE,FALSE,FALSE,FALSE,FALSE,0,FALSE,FALSE,FALSE,FALSE,79,7.677,1614,2050,7.729,FALSE,3.839,3.838,0.003,FALSE,FALSE,NA,101.5,101.4,101.4,0,0,1,0,5,3184.2,796.06,,Idle,0,20,FALSE,5,TRUE,11,Go Home,FALSE,FALSE,FALSE,FALSE,FALSE,FALSE,FALSE,FALSE,FALSE,FALSE,FALSE,FALSE,6.972715868,79.91578498,0.8,210.9,328,TRUE,1,1,FALSE,FALSE,FALSE,FALSE,,TRUE,FALSE,FALSE,Course Lock,49.2,,16.4,Calm,37,,1.12.8,Mavic Mini,1SDCH7G0169R0K,1SFLH6Q0AB03DJ,1SRCH7F014TAHX,1U5X071EXP5ZJG,89.2,0.2,3.2,8.164159,2.013246,0,1573,Mavic Mini,1SDCH7G0169R0K,1SFLH6Q0AB03DJ,1SRCH7F014TAHX,1U5X071EXP5ZJG,DJI Fly,,1.12.8,B49DC99F-A0DA-1C5B-08DD-588A1BD94FE6,1SDCH7G0169R0K,,,,,6.972695617,79.91577697,5,,
2/25/2024,03:15.2,4m 31.9s,271.9,6.972717639,79.91578339,1.3,1.3,1.9,65,1.3,0,0.500194,0,0.447388,0,0,0,0,3.2,1.7,-29.6,330.4,,Tripod,Other,,15,5,TRUE,,Mavic Mini,TRUE,FALSE,,Smart,RC,FALSE,TRUE,FALSE,,,TRUE,,FALSE,FALSE,FALSE,FALSE,FALSE,FALSE,FALSE,FALSE,FALSE,FALSE,0,Follow Yaw,0,0,-20.8,339.2,FALSE,FALSE,FALSE,FALSE,FALSE,FALSE,,TRUE,Normal,,100,1024,1024,1024,926,2,FALSE,FALSE,FALSE,FALSE,FALSE,0,FALSE,FALSE,FALSE,FALSE,79,7.677,1614,2050,7.729,FALSE,3.839,3.838,0.003,FALSE,FALSE,NA,101.5,101.4,101.4,0,0,1,0,5,3184.2,796.06,,Idle,0,20,FALSE,5,TRUE,11,Go Home,FALSE,FALSE,FALSE,FALSE,FALSE,FALSE,FALSE,FALSE,FALSE,FALSE,FALSE,FALSE,6.972715868,79.91578498,0.8,210.9,328,TRUE,1,1,FALSE,FALSE,FALSE,FALSE,,TRUE,FALSE,FALSE,Course Lock,49.2,,16.4,Calm,37,,1.12.8,Mavic Mini,1SDCH7G0169R0K,1SFLH6Q0AB03DJ,1SRCH7F014TAHX,1U5X071EXP5ZJG,89.2,0.2,3.2,8.164159,2.013246,0,1573,Mavic Mini,1SDCH7G0169R0K,1SFLH6Q0AB03DJ,1SRCH7F014TAHX,1U5X071EXP5ZJG,DJI Fly,,1.12.8,B49DC99F-A0DA-1C5B-08DD-588A1BD94FE6,1SDCH7G0169R0K,,,,,6.972695617,79.91577697,5,,
2/25/2024,03:15.2,4m 32.0s,272,6.97271769,79.91578345,1.3,1.3,1.9,65,1.4,0,0.500194,0,0.447388,0,0,0,0,2.6,1,-29.7,330.3,,Tripod,Other,,15,5,TRUE,,Mavic Mini,TRUE,FALSE,,Smart,RC,FALSE,TRUE,FALSE,,,TRUE,,FALSE,FALSE,FALSE,FALSE,FALSE,FALSE,FALSE,FALSE,FALSE,FALSE,0,Follow Yaw,0,0,-20.8,339.2,FALSE,FALSE,FALSE,FALSE,FALSE,FALSE,,TRUE,Normal,,100,1024,1024,1024,754,2,FALSE,FALSE,FALSE,FALSE,FALSE,0,FALSE,FALSE,FALSE,FALSE,79,7.677,1614,2050,7.729,FALSE,3.839,3.838,0.003,FALSE,FALSE,NA,101.5,101.4,101.4,0,0,1,0,5,3184.2,796.06,,Idle,0,20,FALSE,5,TRUE,11,Go Home,FALSE,FALSE,FALSE,FALSE,FALSE,FALSE,FALSE,FALSE,FALSE,FALSE,FALSE,FALSE,6.972715868,79.91578498,0.8,210.9,328,TRUE,1,1,FALSE,FALSE,FALSE,FALSE,,TRUE,FALSE,FALSE,Course Lock,49.2,,16.4,Calm,37,,1.12.8,Mavic Mini,1SDCH7G0169R0K,1SFLH6Q0AB03DJ,1SRCH7F014TAHX,1U5X071EXP5ZJG,89.2,0.2,3.2,8.164159,2.013246,0,1573,Mavic Mini,1SDCH7G0169R0K,1SFLH6Q0AB03DJ,1SRCH7F014TAHX,1U5X071EXP5ZJG,DJI Fly,,1.12.8,B49DC99F-A0DA-1C5B-08DD-588A1BD94FE6,1SDCH7G0169R0K,,,,,6.972695617,79.91577697,5,,
2/25/2024,03:15.3,4m 32.1s,272.1,6.972717725,79.9157835,1.3,1.3,1.9,65,1.4,0,0.500194,0,0.447388,0,0,0,0,2.5,0.8,-30,330,,Tripod,Other,,15,5,TRUE,,Mavic Mini,TRUE,FALSE,,Smart,RC,FALSE,TRUE,FALSE,,,TRUE,,FALSE,FALSE,FALSE,FALSE,FALSE,FALSE,FALSE,FALSE,FALSE,FALSE,0,Follow Yaw,0,0,-20.9,339.1,FALSE,FALSE,FALSE,FALSE,FALSE,FALSE,,TRUE,Normal,,100,1024,1024,1024,721,2,FALSE,FALSE,FALSE,FALSE,FALSE,0,FALSE,FALSE,FALSE,FALSE,79,7.677,1614,2050,7.729,FALSE,3.839,3.838,0.003,FALSE,FALSE,NA,101.5,101.4,101.4,0,0,1,0,5,3184.2,796.06,,Idle,0,20,FALSE,5,TRUE,11,Go Home,FALSE,FALSE,FALSE,FALSE,FALSE,FALSE,FALSE,FALSE,FALSE,FALSE,FALSE,FALSE,6.972715868,79.91578498,0.8,210.9,328,TRUE,1,1,FALSE,FALSE,FALSE,FALSE,,TRUE,FALSE,FALSE,Course Lock,49.2,,16.4,Calm,37,,1.12.8,Mavic Mini,1SDCH7G0169R0K,1SFLH6Q0AB03DJ,1SRCH7F014TAHX,1U5X071EXP5ZJG,89.2,0.2,3.2,8.164159,2.013246,0,1573,Mavic Mini,1SDCH7G0169R0K,1SFLH6Q0AB03DJ,1SRCH7F014TAHX,1U5X071EXP5ZJG,DJI Fly,,1.12.8,B49DC99F-A0DA-1C5B-08DD-588A1BD94FE6,1SDCH7G0169R0K,,,,,6.972695617,79.91577697,5,,
2/25/2024,03:15.4,4m 32.2s,272.2,6.972717699,79.91578355,1.3,1.3,1.9,65,1.4,0,0.500194,0,0.447388,0,0,0,0,3,1,-29.9,330.1,,Tripod,Other,,15,5,TRUE,,Mavic Mini,TRUE,FALSE,,Smart,RC,FALSE,TRUE,FALSE,,,TRUE,,FALSE,FALSE,FALSE,FALSE,FALSE,FALSE,FALSE,FALSE,FALSE,FALSE,0,Follow Yaw,0,0,-21.1,338.9,FALSE,FALSE,FALSE,FALSE,FALSE,FALSE,,TRUE,Normal,,100,1024,1024,1024,704,2,FALSE,FALSE,FALSE,FALSE,FALSE,0,FALSE,FALSE,FALSE,FALSE,79,7.677,1614,2050,7.729,FALSE,3.839,3.838,0.003,FALSE,FALSE,NA,101.5,101.4,101.4,0,0,1,0,5,3184.2,796.06,,Idle,0,20,FALSE,5,TRUE,11,Go Home,FALSE,FALSE,FALSE,FALSE,FALSE,FALSE,FALSE,FALSE,FALSE,FALSE,FALSE,FALSE,6.972715868,79.91578498,0.8,210.9,328,TRUE,1,1,FALSE,FALSE,FALSE,FALSE,,TRUE,FALSE,FALSE,Course Lock,49.2,,16.4,Calm,37,,1.12.8,Mavic Mini,1SDCH7G0169R0K,1SFLH6Q0AB03DJ,1SRCH7F014TAHX,1U5X071EXP5ZJG,89.2,0.2,3.2,8.164159,2.013246,0,1573,Mavic Mini,1SDCH7G0169R0K,1SFLH6Q0AB03DJ,1SRCH7F014TAHX,1U5X071EXP5ZJG,DJI Fly,,1.12.8,B49DC99F-A0DA-1C5B-08DD-588A1BD94FE6,1SDCH7G0169R0K,,,,,6.972695617,79.91577697,5,,
2/25/2024,03:15.5,4m 32.3s,272.3,6.97271773,79.91578357,1.3,1.3,1.9,65,1.4,0,0.500194,0,0.447388,0,0,0,0,3.1,0.7,-29.8,330.2,,Tripod,Other,,15,5,TRUE,,Mavic Mini,TRUE,FALSE,,Smart,RC,FALSE,TRUE,FALSE,,,TRUE,,FALSE,FALSE,FALSE,FALSE,FALSE,FALSE,FALSE,FALSE,FALSE,FALSE,0,Follow Yaw,0,0,-21.5,338.5,FALSE,FALSE,FALSE,FALSE,FALSE,FALSE,,TRUE,Normal,,100,1024,1024,1024,704,2,FALSE,FALSE,FALSE,FALSE,FALSE,0,FALSE,FALSE,FALSE,FALSE,79,7.677,1614,2050,7.729,FALSE,3.839,3.838,0.003,FALSE,FALSE,NA,101.5,101.4,101.4,0,0,1,0,5,3184.2,796.06,,Idle,0,20,FALSE,5,TRUE,11,Go Home,FALSE,FALSE,FALSE,FALSE,FALSE,FALSE,FALSE,FALSE,FALSE,FALSE,FALSE,FALSE,6.972715868,79.91578498,0.8,210.9,328,TRUE,1,1,FALSE,FALSE,FALSE,FALSE,,TRUE,FALSE,FALSE,Course Lock,49.2,,16.4,Calm,37,,1.12.8,Mavic Mini,1SDCH7G0169R0K,1SFLH6Q0AB03DJ,1SRCH7F014TAHX,1U5X071EXP5ZJG,89.2,0.2,3.2,8.164159,2.013246,0,1573,Mavic Mini,1SDCH7G0169R0K,1SFLH6Q0AB03DJ,1SRCH7F014TAHX,1U5X071EXP5ZJG,DJI Fly,,1.12.8,B49DC99F-A0DA-1C5B-08DD-588A1BD94FE6,1SDCH7G0169R0K,,,,,6.972695617,79.91577697,5,,
2/25/2024,03:15.6,4m 32.4s,272.4,6.972717774,79.91578359,1.3,1.3,1.9,65,1.4,0,0.500194,0,0.447388,0,0,0,0,3.7,0.3,-30,330,,Tripod,Other,,15,5,TRUE,,Mavic Mini,TRUE,FALSE,,Smart,RC,FALSE,TRUE,FALSE,,,TRUE,,FALSE,FALSE,FALSE,FALSE,FALSE,FALSE,FALSE,FALSE,FALSE,FALSE,0,Follow Yaw,0,0,-22.1,337.9,FALSE,FALSE,FALSE,FALSE,FALSE,FALSE,,TRUE,Normal,,100,1024,1024,1024,687,2,FALSE,FALSE,FALSE,FALSE,FALSE,0,FALSE,FALSE,FALSE,FALSE,79,7.677,1614,2050,7.729,FALSE,3.839,3.838,0.003,FALSE,FALSE,NA,101.5,101.4,101.4,0,0,1,0,5,3184.2,796.06,,Idle,0,20,FALSE,5,TRUE,11,Go Home,FALSE,FALSE,FALSE,FALSE,FALSE,FALSE,FALSE,FALSE,FALSE,FALSE,FALSE,FALSE,6.972715868,79.91578498,0.8,210.9,328,TRUE,1,1,FALSE,FALSE,FALSE,FALSE,,TRUE,FALSE,FALSE,Course Lock,49.2,,16.4,Calm,37,,1.12.8,Mavic Mini,1SDCH7G0169R0K,1SFLH6Q0AB03DJ,1SRCH7F014TAHX,1U5X071EXP5ZJG,89.2,0.2,3.2,8.164159,2.013246,0,1573,Mavic Mini,1SDCH7G0169R0K,1SFLH6Q0AB03DJ,1SRCH7F014TAHX,1U5X071EXP5ZJG,DJI Fly,,1.12.8,B49DC99F-A0DA-1C5B-08DD-588A1BD94FE6,1SDCH7G0169R0K,,,,,6.972695617,79.91577697,5,,
2/25/2024,03:15.7,4m 32.5s,272.5,6.972717836,79.91578365,1.3,1.3,1.9,65,1.5,0,0.500194,0,0.447388,0,0,0,0,3.7,0.2,-30.4,329.6,,Tripod,Other,,15,5,TRUE,,Mavic Mini,TRUE,FALSE,,Smart,RC,FALSE,TRUE,FALSE,,,TRUE,,FALSE,FALSE,FALSE,FALSE,FALSE,FALSE,FALSE,FALSE,FALSE,FALSE,0,Follow Yaw,0,0,-22.8,337.2,FALSE,FALSE,FALSE,FALSE,FALSE,FALSE,,TRUE,Normal,,100,1024,1024,1024,659,2,FALSE,FALSE,FALSE,FALSE,FALSE,0,FALSE,FALSE,FALSE,FALSE,79,7.677,1614,2050,7.729,FALSE,3.839,3.838,0.003,FALSE,FALSE,NA,101.5,101.4,101.4,0,0,1,0,5,3184.2,796.06,,Idle,0,20,FALSE,5,TRUE,11,Go Home,FALSE,FALSE,FALSE,FALSE,FALSE,FALSE,FALSE,FALSE,FALSE,FALSE,FALSE,FALSE,6.972715868,79.91578498,0.8,210.9,328,TRUE,1,1,FALSE,FALSE,FALSE,FALSE,,TRUE,FALSE,FALSE,Course Lock,49.2,,16.4,Calm,37,,1.12.8,Mavic Mini,1SDCH7G0169R0K,1SFLH6Q0AB03DJ,1SRCH7F014TAHX,1U5X071EXP5ZJG,89.2,0.2,3.2,8.164159,2.013246,0,1573,Mavic Mini,1SDCH7G0169R0K,1SFLH6Q0AB03DJ,1SRCH7F014TAHX,1U5X071EXP5ZJG,DJI Fly,,1.12.8,B49DC99F-A0DA-1C5B-08DD-588A1BD94FE6,1SDCH7G0169R0K,,,,,6.972695617,79.91577697,5,,
2/25/2024,03:15.8,4m 32.6s,272.6,6.972717994,79.91578379,1.3,1.3,1.9,65,1.5,0.223694,0.500194,0,0.447388,0.223694,0.223694,0,0,3.9,-0.8,-31.1,328.9,33,Tripod,Other,,15,5,TRUE,,Mavic Mini,TRUE,FALSE,,Smart,RC,FALSE,TRUE,FALSE,,,TRUE,,FALSE,FALSE,FALSE,FALSE,FALSE,FALSE,FALSE,FALSE,FALSE,FALSE,0,Follow Yaw,0,0,-23.6,336.4,FALSE,FALSE,FALSE,FALSE,FALSE,FALSE,,TRUE,Normal,,100,1024,1024,1024,604,2,FALSE,FALSE,FALSE,FALSE,FALSE,0,FALSE,FALSE,FALSE,FALSE,79,7.677,1614,2050,7.676,FALSE,3.839,3.838,0.003,FALSE,FALSE,NA,101.5,101.4,101.4,0,0,1,0,5,4151.3,1037.84,,Idle,0,20,FALSE,5,TRUE,11,Go Home,FALSE,FALSE,FALSE,FALSE,FALSE,FALSE,FALSE,FALSE,FALSE,FALSE,FALSE,FALSE,6.972715868,79.91578498,0.8,210.9,328,TRUE,1,1,FALSE,FALSE,FALSE,FALSE,,TRUE,FALSE,FALSE,Course Lock,49.2,,16.4,Calm,37,,1.12.8,Mavic Mini,1SDCH7G0169R0K,1SFLH6Q0AB03DJ,1SRCH7F014TAHX,1U5X071EXP5ZJG,89.2,0.2,3.2,8.164159,2.013246,0,1573,Mavic Mini,1SDCH7G0169R0K,1SFLH6Q0AB03DJ,1SRCH7F014TAHX,1U5X071EXP5ZJG,DJI Fly,,1.12.8,B49DC99F-A0DA-1C5B-08DD-588A1BD94FE6,1SDCH7G0169R0K,,,,,6.972695617,79.91577697,5,,
2/25/2024,03:16.0,4m 32.7s,272.7,6.972718006,79.91578391,1.3,1.3,1.9,65,1.6,0.223694,0.500194,0,0.447388,0.223694,0.223694,0,0,2.6,-0.7,-31.9,328.1,82.7,Tripod,Other,,15,5,TRUE,,Mavic Mini,TRUE,FALSE,,Smart,RC,FALSE,TRUE,FALSE,,,TRUE,,FALSE,FALSE,FALSE,FALSE,FALSE,FALSE,FALSE,FALSE,FALSE,FALSE,0,Follow Yaw,0,0,-24.5,335.5,FALSE,FALSE,FALSE,FALSE,FALSE,FALSE,,TRUE,Normal,,100,1024,1024,1024,627,2,FALSE,FALSE,FALSE,FALSE,FALSE,0,FALSE,FALSE,FALSE,FALSE,79,7.677,1614,2050,7.676,FALSE,3.839,3.838,0.003,FALSE,FALSE,NA,101.5,101.4,101.4,0,0,1,0,5,4151.3,1037.84,,Idle,0,20,FALSE,5,TRUE,11,Go Home,FALSE,FALSE,FALSE,FALSE,FALSE,FALSE,FALSE,FALSE,FALSE,FALSE,FALSE,FALSE,6.972715868,79.91578498,0.8,210.9,328,TRUE,1,1,FALSE,FALSE,FALSE,FALSE,,TRUE,FALSE,FALSE,Course Lock,49.2,,16.4,Calm,37,,1.12.8,Mavic Mini,1SDCH7G0169R0K,1SFLH6Q0AB03DJ,1SRCH7F014TAHX,1U5X071EXP5ZJG,89.2,0.2,3.2,8.164159,2.013246,0,1573,Mavic Mini,1SDCH7G0169R0K,1SFLH6Q0AB03DJ,1SRCH7F014TAHX,1U5X071EXP5ZJG,DJI Fly,,1.12.8,B49DC99F-A0DA-1C5B-08DD-588A1BD94FE6,1SDCH7G0169R0K,,,,,6.972695617,79.91577697,5,,
2/25/2024,03:16.1,4m 32.8s,272.8,6.97271797,79.91578405,1.6,1.6,1.9,65,1.6,0.223694,0.500194,0,0.447388,0.223694,0.223694,0,0,1.4,-0.3,-32.8,327.2,109,Tripod,Other,,15,5,TRUE,,Mavic Mini,TRUE,FALSE,,Smart,RC,FALSE,TRUE,FALSE,,,TRUE,,FALSE,FALSE,FALSE,FALSE,FALSE,FALSE,FALSE,FALSE,FALSE,FALSE,0,Follow Yaw,0,0,-25.5,334.5,FALSE,FALSE,FALSE,FALSE,FALSE,FALSE,,TRUE,Normal,,100,1024,1024,1024,754,2,FALSE,FALSE,FALSE,FALSE,FALSE,0,FALSE,FALSE,FALSE,FALSE,79,7.656,1612,2050,7.676,FALSE,3.828,3.828,0.003,FALSE,FALSE,NA,101.7,101.4,101.6,0,0,1,0,5,4151.3,1037.84,,Idle,0,20,FALSE,5,TRUE,11,Go Home,FALSE,FALSE,FALSE,FALSE,FALSE,FALSE,FALSE,FALSE,FALSE,FALSE,FALSE,FALSE,6.972715868,79.91578498,0.8,210.9,328,TRUE,1,1,FALSE,FALSE,FALSE,FALSE,,TRUE,FALSE,FALSE,Course Lock,49.2,,16.4,Calm,37,,1.12.8,Mavic Mini,1SDCH7G0169R0K,1SFLH6Q0AB03DJ,1SRCH7F014TAHX,1U5X071EXP5ZJG,89.2,0.2,3.2,8.164159,2.013246,0,1573,Mavic Mini,1SDCH7G0169R0K,1SFLH6Q0AB03DJ,1SRCH7F014TAHX,1U5X071EXP5ZJG,DJI Fly,,1.12.8,B49DC99F-A0DA-1C5B-08DD-588A1BD94FE6,1SDCH7G0169R0K,,,,,6.972695617,79.91577697,5,,
2/25/2024,03:16.1,4m 32.9s,272.9,6.972717934,79.91578418,1.6,1.6,1.9,65,1.7,0.223694,0.500194,0,0.447388,0.223694,0.223694,0,0,0.5,-0.8,-33.7,326.3,109.2,Tripod,Other,,15,5,TRUE,,Mavic Mini,TRUE,FALSE,,Smart,RC,FALSE,TRUE,FALSE,,,TRUE,,FALSE,FALSE,FALSE,FALSE,FALSE,FALSE,FALSE,FALSE,FALSE,FALSE,0,Follow Yaw,0,0,-26.6,333.4,FALSE,FALSE,FALSE,FALSE,FALSE,FALSE,,TRUE,Normal,,100,1024,1024,1024,1024,2,FALSE,FALSE,FALSE,FALSE,FALSE,0,FALSE,FALSE,FALSE,FALSE,79,7.656,1612,2050,7.676,FALSE,3.828,3.828,0.003,FALSE,FALSE,NA,101.7,101.4,101.6,0,0,1,0,5,4151.3,1037.84,,Idle,0,20,FALSE,5,TRUE,11,Go Home,FALSE,FALSE,FALSE,FALSE,FALSE,FALSE,FALSE,FALSE,FALSE,FALSE,FALSE,FALSE,6.972715868,79.91578498,0.8,210.9,328,TRUE,1,1,FALSE,FALSE,FALSE,FALSE,,TRUE,FALSE,FALSE,Course Lock,49.2,,16.4,Calm,37,,1.12.8,Mavic Mini,1SDCH7G0169R0K,1SFLH6Q0AB03DJ,1SRCH7F014TAHX,1U5X071EXP5ZJG,89.2,0.2,3.2,8.164159,2.013246,0,1573,Mavic Mini,1SDCH7G0169R0K,1SFLH6Q0AB03DJ,1SRCH7F014TAHX,1U5X071EXP5ZJG,DJI Fly,,1.12.8,B49DC99F-A0DA-1C5B-08DD-588A1BD94FE6,1SDCH7G0169R0K,,,,,6.972695617,79.91577697,5,,
