CUSTOM.date [local],CUSTOM.updateTime [local],OSD.flyTime,OSD.flyTime [s],OSD.latitude,OSD.longitude,OSD.height [ft],OSD.heightMax [ft],OSD.vpsHeight [ft],OSD.altitude [ft],OSD.mileage [ft],OSD.hSpeed [MPH],OSD.hSpeedMax [MPH],OSD.xSpeed [MPH],OSD.xSpeedMax [MPH],OSD.ySpeed [MPH],OSD.ySpeedMax [MPH],OSD.zSpeed [MPH],OSD.zSpeedMax [MPH],OSD.pitch,OSD.roll,OSD.yaw,OSD.yaw [360],OSD.directionOfTravel,OSD.flycState,OSD.flycCommand,OSD.flightAction,OSD.gpsNum,OSD.gpsLevel,OSD.isGPSUsed,OSD.nonGPSCause,OSD.droneType,OSD.isSwaveWork,OSD.waveError,OSD.goHomeStatus,OSD.batteryType,OSD.ctrlDevice,OSD.isOnGround,OSD.isMotorOn,OSD.isMotorBlocked,OSD.motorStartFailedCause,OSD.motorFailReason,OSD.isImuPreheated,OSD.imuInitFailReason,OSD.isAcceletorOverRange,OSD.isBarometerDeadInAir,OSD.isCompassError,OSD.isGoHomeHeightModified,OSD.canIOCWork,OSD.isNotEnoughForce,OSD.isOutOfLimit,OSD.isPropellerCatapult,OSD.isVibrating,OSD.isVisionUsed,OSD.voltageWarning,GIMBAL.mode,GIMBAL.pitch,GIMBAL.roll,GIMBAL.yaw,GIMBAL.yaw [360],GIMBAL.isPitchAtLimit,GIMBAL.isRollAtLimit,GIMBAL.isYawAtLimit,GIMBAL.isStuck,CAMERA.isPhoto,CAMERA.isVideo,CAMERA.filename,CAMERA.sdCardIsInserted,CAMERA.sdCardState,RC.downlinkSignal,RC.uplinkSignal,RC.aileron,RC.elevator,RC.throttle,RC.rudder,RC.mode,RC.goHomeDepressed,RC.recordDepressed,RC.shutterDepressed,RC.playbackDepressed,RC.wheelDepressed,RC.wheelOffset,RC.custom1Depressed,RC.custom2Depressed,RC.custom3Depressed,RC.custom4Depressed,BATTERY.chargeLevel,BATTERY.currentPV [V],BATTERY.currentCapacity [mAh],BATTERY.fullCapacity [mAh],BATTERY.voltage [V],BATTERY.isCellVoltageEstimated,BATTERY.cellVoltage1 [V],BATTERY.cellVoltage2 [V],BATTERY.maxCellVoltageDeviation,BATTERY.isCellVoltageDeviationHigh,BATTERY.isVoltageLow,BATTERY.current [A],BATTERY.temperature [F],BATTERY.minTemperature [F],BATTERY.maxTemperature [F],BATTERY.usefulTime [s],BATTERY.goHomeTime [s],BATTERY.landTime [s],BATTERY.goHomeBattery,BATTERY.landBattery,BATTERY.safeFlyRadius,BATTERY.volumeConsume,BATTERY.status,BATTERY.goHomeStatus,BATTERY.goHomeCountdown,BATTERY.lowWarning,BATTERY.lowWarningGoHome,BATTERY.seriousLowWarning,BATTERY.seriousLowWarningLanding,BATTERY.timesCharged,MC.failSafeAction,MC.isObstacleAvoidanceEnabled,MC.isCollisionAvoidanceEnabled,MC.isRthObstacleAvoidanceEnabled,MC.isBraking,MC.isAvoidingObstacle,MC.isAvoidingActiveObstacle,MC.isAscentLimitedByObstacle,MC.isLandingConfirmationNeeded,MC.atLowAltitudeLimit,MC.atDistanceLimit,MC.atAirportAltitudeLimit,MC.atAirportBoundary,HOME.latitude,HOME.longitude,HOME.distance [ft],HOME.height [ft],HOME.heightLimit [ft],HOME.isHomeRecord,HOME.goHomeMode,HOME.aircraftHeadDirection,HOME.isDynamicHomePointEnabled,HOME.isReachedLimitDistance,HOME.isReachedLimitHeight,HOME.isCompassCalibrating,HOME.compassCalibrationState,HOME.isMultipleFlightModeEnabled,HOME.isBeginnerMode,HOME.isIOCEnabled,HOME.iocMode,HOME.goHomeHeight [ft],HOME.courseLockAngle,HOME.forceLandingHeight [ft],HOME.wind,HOME.dataRecorderFileIndex,RECOVER.appType,RECOVER.appVersion,RECOVER.aircraftName,RECOVER.aircraftSerial,RECOVER.cameraSerial,RECOVER.rcSerial,RECOVER.batterySerial,DETAILS.totalTime [s],DETAILS.totalDistance [ft],DETAILS.maxHeight [ft],DETAILS.maxHorizontalSpeed [MPH],DETAILS.maxVerticalSpeed [MPH],DETAILS.photoNum,DETAILS.videoTime [s],DETAILS.aircraftName,DETAILS.aircraftSerial,DETAILS.cameraSerial,DETAILS.rcSerial,DETAILS.batterySerial,DETAILS.appName,DETAILS.appType,DETAILS.appVersion,DETAILS.guid,SERIAL.flightController,SERIAL.camera,SERIAL.gimbal,SERIAL.rc,SERIAL.battery,APPGPS.latitude,APPGPS.longitude,APPGPS.accuracy,APP.tip,APP.warning
3/2/2024,08:27.6,14m 17.6s,857.6,6.97288574,79.91593142,0,0,,57,0,0,0,0,0,0,0,0,0,2.9,3.6,-49.8,310.2,,Starting Motors,Auto Fly,Takeoff (RC Assisted),16,5,TRUE,,Mavic Mini,FALSE,FALSE,,Smart,RC,TRUE,TRUE,FALSE,,,TRUE,,FALSE,FALSE,FALSE,FALSE,FALSE,FALSE,FALSE,FALSE,FALSE,FALSE,0,Follow Yaw,0,0,-46,314,FALSE,FALSE,FALSE,FALSE,FALSE,FALSE,,TRUE,Normal,,,1024,1024,1024,1024,1,FALSE,FALSE,FALSE,FALSE,FALSE,0,FALSE,FALSE,FALSE,FALSE,37,7.265,754,2075,7.265,TRUE,3.633,3.633,,FALSE,FALSE,NA,120,120,120,,,,,,,,,Idle,,,TRUE,,FALSE,7,Go Home,FALSE,FALSE,FALSE,FALSE,FALSE,FALSE,FALSE,FALSE,FALSE,FALSE,FALSE,FALSE,,,,,,FALSE,,,FALSE,FALSE,FALSE,FALSE,,FALSE,FALSE,FALSE,,,,,Calm,,,1.12.8,Mavic Mini,1SDCH7G0169R0K,1SFLH6Q0AB03DJ,1SRCH7F014TAHX,1U5X071EXP6C8G,73.8,0.6,13.1,15.744702,4.47388,0,0,Mavic Mini,1SDCH7G0169R0K,1SFLH6Q0AB03DJ,1SRCH7F014TAHX,1U5X071EXP6C8G,DJI Fly,,1.12.8,DE8DA94C-6A61-3686-7E45-505733B7EADD,1SDCH7G0169R0K,,,,,,,,Flight mode changed to Starting Motors.,
3/2/2024,54:10.1,14m 17.7s,857.7,6.972885738,79.91593143,0,0,,57,0,0,0,0,0,0,0,0,0,2.9,3.6,-49.8,310.2,,Starting Motors,Auto Fly,Takeoff (RC Assisted),16,5,TRUE,,Mavic Mini,FALSE,FALSE,,Smart,RC,TRUE,TRUE,FALSE,,,TRUE,,FALSE,FALSE,FALSE,FALSE,FALSE,FALSE,FALSE,FALSE,FALSE,FALSE,0,Follow Yaw,0,0,-46,314,FALSE,FALSE,FALSE,FALSE,FALSE,FALSE,,TRUE,Normal,,,1024,1024,1024,1024,1,FALSE,FALSE,FALSE,FALSE,FALSE,0,FALSE,FALSE,FALSE,FALSE,37,7.265,754,2075,7.265,FALSE,3.635,3.63,0.005,FALSE,FALSE,NA,120,120,120,,,,,,,,,Idle,,,TRUE,,FALSE,7,Go Home,FALSE,FALSE,FALSE,FALSE,FALSE,FALSE,FALSE,FALSE,FALSE,FALSE,FALSE,FALSE,,,,,,FALSE,,,FALSE,FALSE,FALSE,FALSE,,FALSE,FALSE,FALSE,,,,,Calm,,,1.12.8,Mavic Mini,1SDCH7G0169R0K,1SFLH6Q0AB03DJ,1SRCH7F014TAHX,1U5X071EXP6C8G,73.8,0.6,13.1,15.744702,4.47388,0,0,Mavic Mini,1SDCH7G0169R0K,1SFLH6Q0AB03DJ,1SRCH7F014TAHX,1U5X071EXP6C8G,DJI Fly,,1.12.8,DE8DA94C-6A61-3686-7E45-505733B7EADD,1SDCH7G0169R0K,,,,,,,,,
3/2/2024,54:10.2,14m 17.8s,857.8,6.972885737,79.91593146,0,0,0.3,57,0,0,0,0,0,0,0,0,0,2.9,3.6,-49.8,310.2,,Starting Motors,Auto Fly,Takeoff (RC Assisted),16,5,TRUE,,Mavic Mini,TRUE,FALSE,,Smart,RC,TRUE,TRUE,FALSE,,,TRUE,,FALSE,FALSE,FALSE,FALSE,FALSE,FALSE,FALSE,FALSE,FALSE,FALSE,0,Follow Yaw,0,0,-46,314,FALSE,FALSE,FALSE,FALSE,FALSE,FALSE,,TRUE,Normal,,,1024,1024,1024,1024,1,FALSE,FALSE,FALSE,FALSE,FALSE,0,FALSE,FALSE,FALSE,FALSE,37,7.265,754,2075,7.265,FALSE,3.635,3.63,0.005,FALSE,FALSE,NA,120,120,120,,,,,,,,,Idle,,,TRUE,,FALSE,7,Go Home,FALSE,FALSE,FALSE,FALSE,FALSE,FALSE,FALSE,FALSE,FALSE,FALSE,FALSE,FALSE,,,,,,FALSE,,,FALSE,FALSE,FALSE,FALSE,,FALSE,FALSE,FALSE,,,,,Calm,,,1.12.8,Mavic Mini,1SDCH7G0169R0K,1SFLH6Q0AB03DJ,1SRCH7F014TAHX,1U5X071EXP6C8G,73.8,0.6,13.1,15.744702,4.47388,0,0,Mavic Mini,1SDCH7G0169R0K,1SFLH6Q0AB03DJ,1SRCH7F014TAHX,1U5X071EXP6C8G,DJI Fly,,1.12.8,DE8DA94C-6A61-3686-7E45-505733B7EADD,1SDCH7G0169R0K,,,,,,,,,
3/2/2024,54:10.3,14m 17.9s,857.9,6.972885736,79.9159315,0,0,0.3,57,0,0,0,0,0,0,0,0,0,2.9,3.6,-49.8,310.2,,Starting Motors,Auto Fly,Takeoff (RC Assisted),16,5,TRUE,,Mavic Mini,TRUE,FALSE,,Smart,RC,TRUE,TRUE,FALSE,,,TRUE,,FALSE,FALSE,FALSE,FALSE,FALSE,FALSE,FALSE,FALSE,FALSE,FALSE,0,Follow Yaw,0,0,-45.9,314.1,FALSE,FALSE,FALSE,FALSE,FALSE,FALSE,,TRUE,Normal,,,1024,1024,1024,1024,1,FALSE,FALSE,FALSE,FALSE,FALSE,0,FALSE,FALSE,FALSE,FALSE,37,7.265,754,2075,7.265,FALSE,3.635,3.63,0.005,FALSE,FALSE,NA,120,120,120,,,,,,,,,Idle,,,TRUE,,FALSE,7,Go Home,FALSE,FALSE,FALSE,FALSE,FALSE,FALSE,FALSE,FALSE,FALSE,FALSE,FALSE,FALSE,,,,,,FALSE,,,FALSE,FALSE,FALSE,FALSE,,FALSE,FALSE,FALSE,,,,,Calm,,,1.12.8,Mavic Mini,1SDCH7G0169R0K,1SFLH6Q0AB03DJ,1SRCH7F014TAHX,1U5X071EXP6C8G,73.8,0.6,13.1,15.744702,4.47388,0,0,Mavic Mini,1SDCH7G0169R0K,1SFLH6Q0AB03DJ,1SRCH7F014TAHX,1U5X071EXP6C8G,DJI Fly,,1.12.8,DE8DA94C-6A61-3686-7E45-505733B7EADD,1SDCH7G0169R0K,,,,,,,,,
3/2/2024,54:10.4,14m 18.0s,858,6.972885735,79.91593152,0,0,0.3,57,0,0,0,0,0,0,0,0,0,2.9,3.6,-49.8,310.2,,Starting Motors,Auto Fly,Takeoff (RC Assisted),16,5,TRUE,,Mavic Mini,TRUE,FALSE,,Smart,RC,TRUE,TRUE,FALSE,,,TRUE,,FALSE,FALSE,FALSE,FALSE,FALSE,FALSE,FALSE,FALSE,FALSE,FALSE,0,Follow Yaw,0,0,-45.9,314.1,FALSE,FALSE,FALSE,FALSE,FALSE,FALSE,,TRUE,Normal,,,1024,1024,1024,1024,1,FALSE,FALSE,FALSE,FALSE,FALSE,0,FALSE,FALSE,FALSE,FALSE,37,7.265,754,2075,7.265,FALSE,3.635,3.63,0.005,FALSE,FALSE,NA,120,120,120,,,,,,,,,Idle,,,TRUE,,FALSE,7,Go Home,FALSE,FALSE,FALSE,FALSE,FALSE,FALSE,FALSE,FALSE,FALSE,FALSE,FALSE,FALSE,,,,,,FALSE,,,FALSE,FALSE,FALSE,FALSE,,FALSE,FALSE,FALSE,,,,,Calm,,,1.12.8,Mavic Mini,1SDCH7G0169R0K,1SFLH6Q0AB03DJ,1SRCH7F014TAHX,1U5X071EXP6C8G,73.8,0.6,13.1,15.744702,4.47388,0,0,Mavic Mini,1SDCH7G0169R0K,1SFLH6Q0AB03DJ,1SRCH7F014TAHX,1U5X071EXP6C8G,DJI Fly,,1.12.8,DE8DA94C-6A61-3686-7E45-505733B7EADD,1SDCH7G0169R0K,,,,,,,,,
3/2/2024,54:10.5,14m 18.1s,858.1,6.972885742,79.91593155,0,0,0.3,57,0,0,0,0,0,0,0,0,0,2.9,3.6,-49.8,310.2,,Starting Motors,Auto Fly,Takeoff (RC Assisted),16,5,TRUE,,Mavic Mini,TRUE,FALSE,,Smart,RC,TRUE,TRUE,FALSE,,,TRUE,,FALSE,FALSE,FALSE,FALSE,FALSE,FALSE,FALSE,FALSE,FALSE,FALSE,0,Follow Yaw,0,0,-46,314,FALSE,FALSE,FALSE,FALSE,FALSE,FALSE,,TRUE,Normal,,100,1024,1024,1024,1024,1,FALSE,FALSE,FALSE,FALSE,FALSE,0,FALSE,FALSE,FALSE,FALSE,37,7.265,754,2075,7.251,FALSE,3.635,3.63,0.005,FALSE,FALSE,NA,120,120,120,0,0,0,0,5,2733.4,683.37,,Idle,0,20,FALSE,5,TRUE,7,Go Home,FALSE,FALSE,FALSE,FALSE,FALSE,FALSE,FALSE,FALSE,FALSE,FALSE,FALSE,FALSE,6.97288848,79.91593338,1.1,123.7,328,TRUE,1,1,FALSE,FALSE,FALSE,FALSE,,TRUE,FALSE,FALSE,Course Lock,49.2,14.3,16.4,Calm,40,,1.12.8,Mavic Mini,1SDCH7G0169R0K,1SFLH6Q0AB03DJ,1SRCH7F014TAHX,1U5X071EXP6C8G,73.8,0.6,13.1,15.744702,4.47388,0,0,Mavic Mini,1SDCH7G0169R0K,1SFLH6Q0AB03DJ,1SRCH7F014TAHX,1U5X071EXP6C8G,DJI Fly,,1.12.8,DE8DA94C-6A61-3686-7E45-505733B7EADD,1SDCH7G0169R0K,,,,,,,,Data Recorder File Index is 40.; Set Return to Home (RTH) altitude to 15 m (49 ft).; Set maximum flight altitude to 100 m (328 ft).,
3/2/2024,54:10.6,14m 18.2s,858.2,6.972885742,79.91593158,0,0,0.3,57,0,0,0,0,0,0,0,0,0,2.9,3.7,-50.1,309.9,,Starting Motors,Auto Fly,Takeoff (RC Assisted),16,5,TRUE,,Mavic Mini,TRUE,FALSE,,Smart,RC,TRUE,TRUE,FALSE,,,TRUE,,FALSE,FALSE,FALSE,FALSE,FALSE,FALSE,FALSE,FALSE,FALSE,FALSE,0,Follow Yaw,0,0,-46,314,FALSE,FALSE,FALSE,FALSE,FALSE,FALSE,,TRUE,Normal,,100,1024,1024,1024,1024,1,FALSE,FALSE,FALSE,FALSE,FALSE,0,FALSE,FALSE,FALSE,FALSE,37,7.265,754,2075,7.251,FALSE,3.635,3.63,0.005,FALSE,FALSE,NA,120,120,120,0,0,0,0,5,2733.4,683.37,,Idle,0,20,FALSE,5,TRUE,7,Go Home,FALSE,FALSE,FALSE,FALSE,FALSE,FALSE,FALSE,FALSE,FALSE,FALSE,FALSE,FALSE,6.97288848,79.91593338,1.1,123.7,328,TRUE,1,1,FALSE,FALSE,FALSE,FALSE,,TRUE,FALSE,FALSE,Course Lock,49.2,14.3,16.4,Calm,40,,1.12.8,Mavic Mini,1SDCH7G0169R0K,1SFLH6Q0AB03DJ,1SRCH7F014TAHX,1U5X071EXP6C8G,73.8,0.6,13.1,15.744702,4.47388,0,0,Mavic Mini,1SDCH7G0169R0K,1SFLH6Q0AB03DJ,1SRCH7F014TAHX,1U5X071EXP6C8G,DJI Fly,,1.12.8,DE8DA94C-6A61-3686-7E45-505733B7EADD,1SDCH7G0169R0K,,,,,,,,,
3/2/2024,54:10.7,14m 18.3s,858.3,6.972885739,79.91593162,0,0,0.3,57,0,0,0,0,0,0,0,0,0,2.9,3.6,-50.1,309.9,,Starting Motors,Auto Fly,Takeoff (RC Assisted),16,5,TRUE,,Mavic Mini,TRUE,FALSE,,Smart,RC,TRUE,TRUE,FALSE,,,TRUE,,FALSE,FALSE,FALSE,FALSE,FALSE,FALSE,FALSE,FALSE,FALSE,FALSE,0,Follow Yaw,0,0,-46,314,FALSE,FALSE,FALSE,FALSE,FALSE,FALSE,,TRUE,Normal,,100,1024,1024,1024,1024,1,FALSE,FALSE,FALSE,FALSE,FALSE,0,FALSE,FALSE,FALSE,FALSE,37,7.265,754,2075,7.251,FALSE,3.635,3.63,0.005,FALSE,FALSE,NA,120,120,120,0,0,0,0,5,2733.4,683.37,,Idle,0,20,FALSE,5,TRUE,7,Go Home,FALSE,FALSE,FALSE,FALSE,FALSE,FALSE,FALSE,FALSE,FALSE,FALSE,FALSE,FALSE,6.97288848,79.91593338,1.1,123.7,328,TRUE,1,1,FALSE,FALSE,FALSE,FALSE,,TRUE,FALSE,FALSE,Course Lock,49.2,14.3,16.4,Calm,40,,1.12.8,Mavic Mini,1SDCH7G0169R0K,1SFLH6Q0AB03DJ,1SRCH7F014TAHX,1U5X071EXP6C8G,73.8,0.6,13.1,15.744702,4.47388,0,0,Mavic Mini,1SDCH7G0169R0K,1SFLH6Q0AB03DJ,1SRCH7F014TAHX,1U5X071EXP6C8G,DJI Fly,,1.12.8,DE8DA94C-6A61-3686-7E45-505733B7EADD,1SDCH7G0169R0K,,,,,,,,,
3/2/2024,54:10.9,14m 18.4s,858.4,6.972885738,79.91593164,0,0,0.3,57,0,0,0,0,0,0,0,0,0,2.9,3.6,-50.1,309.9,,Starting Motors,Auto Fly,Takeoff (RC Assisted),16,5,TRUE,,Mavic Mini,TRUE,FALSE,,Smart,RC,TRUE,TRUE,FALSE,,,TRUE,,FALSE,FALSE,FALSE,FALSE,FALSE,FALSE,FALSE,FALSE,FALSE,FALSE,0,Follow Yaw,0,0,-46.1,313.9,FALSE,FALSE,FALSE,FALSE,FALSE,FALSE,,TRUE,Normal,,100,1024,1024,1024,1024,1,FALSE,FALSE,FALSE,FALSE,FALSE,0,FALSE,FALSE,FALSE,FALSE,37,7.265,754,2075,7.251,FALSE,3.635,3.63,0.005,FALSE,FALSE,NA,120,120,120,0,0,0,0,5,2733.4,683.37,,Idle,0,20,FALSE,5,TRUE,7,Go Home,FALSE,FALSE,FALSE,FALSE,FALSE,FALSE,FALSE,FALSE,FALSE,FALSE,FALSE,FALSE,6.97288848,79.91593338,1.1,123.7,328,TRUE,1,1,FALSE,FALSE,FALSE,FALSE,,TRUE,FALSE,FALSE,Course Lock,49.2,14.3,16.4,Calm,40,,1.12.8,Mavic Mini,1SDCH7G0169R0K,1SFLH6Q0AB03DJ,1SRCH7F014TAHX,1U5X071EXP6C8G,73.8,0.6,13.1,15.744702,4.47388,0,0,Mavic Mini,1SDCH7G0169R0K,1SFLH6Q0AB03DJ,1SRCH7F014TAHX,1U5X071EXP6C8G,DJI Fly,,1.12.8,DE8DA94C-6A61-3686-7E45-505733B7EADD,1SDCH7G0169R0K,,,,,,,,,
3/2/2024,54:10.9,14m 18.5s,858.5,6.972885745,79.91593166,0,0,0.3,57,0,0,0,0,0,0,0,0,0,2.9,3.7,-50.1,309.9,,Starting Motors,Auto Fly,Takeoff (RC Assisted),16,5,TRUE,,Mavic Mini,TRUE,FALSE,,Smart,RC,TRUE,TRUE,FALSE,,,TRUE,,FALSE,FALSE,FALSE,FALSE,FALSE,FALSE,FALSE,FALSE,FALSE,FALSE,0,Follow Yaw,0,0,-46.1,313.9,FALSE,FALSE,FALSE,FALSE,FALSE,FALSE,,TRUE,Normal,,100,1024,1024,1024,1024,1,FALSE,FALSE,FALSE,FALSE,FALSE,0,FALSE,FALSE,FALSE,FALSE,37,7.265,754,2075,7.251,FALSE,3.635,3.63,0.005,FALSE,FALSE,NA,120,120,120,0,0,0,0,5,2733.4,683.37,,Idle,0,20,FALSE,5,TRUE,7,Go Home,FALSE,FALSE,FALSE,FALSE,FALSE,FALSE,FALSE,FALSE,FALSE,FALSE,FALSE,FALSE,6.97288848,79.91593338,1.1,123.7,328,TRUE,1,1,FALSE,FALSE,FALSE,FALSE,,TRUE,FALSE,FALSE,Course Lock,49.2,14.3,16.4,Calm,40,,1.12.8,Mavic Mini,1SDCH7G0169R0K,1SFLH6Q0AB03DJ,1SRCH7F014TAHX,1U5X071EXP6C8G,73.8,0.6,13.1,15.744702,4.47388,0,0,Mavic Mini,1SDCH7G0169R0K,1SFLH6Q0AB03DJ,1SRCH7F014TAHX,1U5X071EXP6C8G,DJI Fly,,1.12.8,DE8DA94C-6A61-3686-7E45-505733B7EADD,1SDCH7G0169R0K,,,,,,,,,
3/2/2024,54:11.0,14m 18.6s,858.6,6.972885745,79.91593165,0,0,0.3,57,0,0,0,0,0,0,0,0,0,2.9,3.6,-50.2,309.8,,Starting Motors,Auto Fly,Takeoff (RC Assisted),16,5,TRUE,,Mavic Mini,TRUE,FALSE,,Smart,RC,TRUE,TRUE,FALSE,,,TRUE,,FALSE,FALSE,FALSE,FALSE,FALSE,FALSE,FALSE,FALSE,FALSE,FALSE,0,Follow Yaw,0,0,-46.1,313.9,FALSE,FALSE,FALSE,FALSE,FALSE,FALSE,,TRUE,Normal,,100,1024,1024,1024,1024,1,FALSE,FALSE,FALSE,FALSE,FALSE,0,FALSE,FALSE,FALSE,FALSE,37,7.265,754,2075,7.251,FALSE,3.635,3.63,0.005,FALSE,FALSE,NA,120,120,120,0,0,0,0,5,2733.4,683.37,,Idle,0,20,FALSE,5,TRUE,7,Go Home,FALSE,FALSE,FALSE,FALSE,FALSE,FALSE,FALSE,FALSE,FALSE,FALSE,FALSE,FALSE,6.97288848,79.91593338,1.1,123.7,328,TRUE,1,1,FALSE,FALSE,FALSE,FALSE,,TRUE,FALSE,FALSE,Course Lock,49.2,14.3,16.4,Calm,40,,1.12.8,Mavic Mini,1SDCH7G0169R0K,1SFLH6Q0AB03DJ,1SRCH7F014TAHX,1U5X071EXP6C8G,73.8,0.6,13.1,15.744702,4.47388,0,0,Mavic Mini,1SDCH7G0169R0K,1SFLH6Q0AB03DJ,1SRCH7F014TAHX,1U5X071EXP6C8G,DJI Fly,,1.12.8,DE8DA94C-6A61-3686-7E45-505733B7EADD,1SDCH7G0169R0K,,,,,,,,,
3/2/2024,54:11.1,14m 18.7s,858.7,6.972885744,79.91593164,0,0,0.3,57,0,0,0,0,0,0,0,0,0,2.9,3.6,-50.2,309.8,,Manual Takeoff,Auto Fly,Takeoff (RC Assisted),16,5,TRUE,,Mavic Mini,TRUE,FALSE,,Smart,RC,TRUE,TRUE,FALSE,,,TRUE,,FALSE,FALSE,FALSE,FALSE,FALSE,FALSE,FALSE,FALSE,FALSE,FALSE,0,Follow Yaw,0,0,-46.2,313.8,FALSE,FALSE,FALSE,FALSE,FALSE,FALSE,,TRUE,Normal,,100,1024,1024,1024,1024,1,FALSE,FALSE,FALSE,FALSE,FALSE,0,FALSE,FALSE,FALSE,FALSE,37,7.265,754,2075,7.251,FALSE,3.635,3.63,0.005,FALSE,FALSE,NA,120,120,120,0,0,0,0,5,2733.4,683.37,,Idle,0,20,FALSE,5,TRUE,7,Go Home,FALSE,FALSE,FALSE,FALSE,FALSE,FALSE,FALSE,FALSE,FALSE,FALSE,FALSE,FALSE,6.97288848,79.91593338,1.1,123.7,328,TRUE,1,1,FALSE,FALSE,FALSE,FALSE,,TRUE,FALSE,FALSE,Course Lock,49.2,14.3,16.4,Calm,40,,1.12.8,Mavic Mini,1SDCH7G0169R0K,1SFLH6Q0AB03DJ,1SRCH7F014TAHX,1U5X071EXP6C8G,73.8,0.6,13.1,15.744702,4.47388,0,0,Mavic Mini,1SDCH7G0169R0K,1SFLH6Q0AB03DJ,1SRCH7F014TAHX,1U5X071EXP6C8G,DJI Fly,,1.12.8,DE8DA94C-6A61-3686-7E45-505733B7EADD,1SDCH7G0169R0K,,,,,,,,Flight mode changed to Manual Takeoff.,
3/2/2024,54:11.2,14m 18.8s,858.8,6.972885744,79.91593163,0,0,0.3,57,0,0,0,0,0,0,0,0,0,2.9,3.6,-50.2,309.8,,Manual Takeoff,Auto Fly,Takeoff (RC Assisted),16,5,TRUE,,Mavic Mini,TRUE,FALSE,,Smart,RC,TRUE,TRUE,FALSE,,,TRUE,,FALSE,FALSE,FALSE,FALSE,FALSE,FALSE,FALSE,FALSE,FALSE,FALSE,0,Follow Yaw,0,0,-46.2,313.8,FALSE,FALSE,FALSE,FALSE,FALSE,FALSE,,TRUE,Normal,,100,1024,1024,1024,1024,1,FALSE,FALSE,FALSE,FALSE,FALSE,0,FALSE,FALSE,FALSE,FALSE,37,7.265,754,2075,7.251,FALSE,3.635,3.63,0.005,FALSE,FALSE,NA,120,120,120,0,0,0,0,5,2733.4,683.37,,Idle,0,20,FALSE,5,TRUE,7,Go Home,FALSE,FALSE,FALSE,FALSE,FALSE,FALSE,FALSE,FALSE,FALSE,FALSE,FALSE,FALSE,6.97288848,79.91593338,1.1,123.7,328,TRUE,1,1,FALSE,FALSE,FALSE,FALSE,,TRUE,FALSE,FALSE,Course Lock,49.2,14.3,16.4,Calm,40,,1.12.8,Mavic Mini,1SDCH7G0169R0K,1SFLH6Q0AB03DJ,1SRCH7F014TAHX,1U5X071EXP6C8G,73.8,0.6,13.1,15.744702,4.47388,0,0,Mavic Mini,1SDCH7G0169R0K,1SFLH6Q0AB03DJ,1SRCH7F014TAHX,1U5X071EXP6C8G,DJI Fly,,1.12.8,DE8DA94C-6A61-3686-7E45-505733B7EADD,1SDCH7G0169R0K,,,,,,,,,
3/2/2024,54:11.3,14m 18.9s,858.9,6.97288575,79.91593155,0,0,0.3,57,0.1,0,0,0,0,0,0,0,0,2.9,3.6,-50.2,309.8,,Manual Takeoff,Auto Fly,Takeoff (RC Assisted),16,5,TRUE,,Mavic Mini,TRUE,FALSE,,Smart,RC,TRUE,TRUE,FALSE,,,TRUE,,FALSE,FALSE,FALSE,FALSE,FALSE,FALSE,FALSE,FALSE,FALSE,FALSE,0,Follow Yaw,0,0,-46.2,313.8,FALSE,FALSE,FALSE,FALSE,FALSE,FALSE,,TRUE,Normal,,100,1024,1024,1024,1024,1,FALSE,FALSE,FALSE,FALSE,FALSE,0,FALSE,FALSE,FALSE,FALSE,37,7.239,754,2075,7.251,FALSE,3.632,3.607,0.025,FALSE,FALSE,NA,120,120,120,0,0,0,0,5,2733.4,683.37,,Idle,0,20,FALSE,5,TRUE,7,Go Home,FALSE,FALSE,FALSE,FALSE,FALSE,FALSE,FALSE,FALSE,FALSE,FALSE,FALSE,FALSE,6.97288848,79.91593338,1.1,123.7,328,TRUE,1,1,FALSE,FALSE,FALSE,FALSE,,TRUE,FALSE,FALSE,Course Lock,49.2,14.3,16.4,Calm,40,,1.12.8,Mavic Mini,1SDCH7G0169R0K,1SFLH6Q0AB03DJ,1SRCH7F014TAHX,1U5X071EXP6C8G,73.8,0.6,13.1,15.744702,4.47388,0,0,Mavic Mini,1SDCH7G0169R0K,1SFLH6Q0AB03DJ,1SRCH7F014TAHX,1U5X071EXP6C8G,DJI Fly,,1.12.8,DE8DA94C-6A61-3686-7E45-505733B7EADD,1SDCH7G0169R0K,,,,,,,,,
3/2/2024,54:11.4,14m 19.0s,859,6.972885749,79.91593157,0,0,0.3,57,0.1,0,0,0,0,0,0,0,0,2.9,3.6,-50.2,309.8,,Manual Takeoff,Auto Fly,Takeoff (RC Assisted),16,5,TRUE,,Mavic Mini,TRUE,FALSE,,Smart,RC,TRUE,TRUE,FALSE,,,TRUE,,FALSE,FALSE,FALSE,FALSE,FALSE,FALSE,FALSE,FALSE,FALSE,FALSE,0,Follow Yaw,0,0,-46.2,313.8,FALSE,FALSE,FALSE,FALSE,FALSE,FALSE,,TRUE,Normal,,100,1024,1024,1024,1024,1,FALSE,FALSE,FALSE,FALSE,FALSE,0,FALSE,FALSE,FALSE,FALSE,37,7.239,754,2075,7.251,FALSE,3.632,3.607,0.025,FALSE,FALSE,NA,120,120,120,0,0,0,0,5,2733.4,683.37,,Idle,0,20,FALSE,5,TRUE,7,Go Home,FALSE,FALSE,FALSE,FALSE,FALSE,FALSE,FALSE,FALSE,FALSE,FALSE,FALSE,FALSE,6.97288848,79.91593338,1.1,123.7,328,TRUE,1,1,FALSE,FALSE,FALSE,FALSE,,TRUE,FALSE,FALSE,Course Lock,49.2,14.3,16.4,Calm,40,,1.12.8,Mavic Mini,1SDCH7G0169R0K,1SFLH6Q0AB03DJ,1SRCH7F014TAHX,1U5X071EXP6C8G,73.8,0.6,13.1,15.744702,4.47388,0,0,Mavic Mini,1SDCH7G0169R0K,1SFLH6Q0AB03DJ,1SRCH7F014TAHX,1U5X071EXP6C8G,DJI Fly,,1.12.8,DE8DA94C-6A61-3686-7E45-505733B7EADD,1SDCH7G0169R0K,,,,,,,,,
3/2/2024,54:11.4,14m 19.1s,859.1,6.972885747,79.91593161,0,0,0.3,57,0.1,0,0,0,0,0,0,0,0,2.9,3.6,-50.2,309.8,,Manual Takeoff,Auto Fly,Takeoff (RC Assisted),16,5,TRUE,,Mavic Mini,TRUE,FALSE,,Smart,RC,TRUE,TRUE,FALSE,,,TRUE,,FALSE,FALSE,FALSE,FALSE,FALSE,FALSE,FALSE,FALSE,FALSE,FALSE,0,Follow Yaw,0,0,-46.2,313.8,FALSE,FALSE,FALSE,FALSE,FALSE,FALSE,,TRUE,Normal,,100,1024,1024,1024,1024,1,FALSE,FALSE,FALSE,FALSE,FALSE,0,FALSE,FALSE,FALSE,FALSE,37,7.239,754,2075,7.26,FALSE,3.632,3.607,0.025,FALSE,FALSE,NA,120,120,120,0,0,0,0,5,2789,697.26,,Idle,0,20,FALSE,5,TRUE,7,Go Home,FALSE,FALSE,FALSE,FALSE,FALSE,FALSE,FALSE,FALSE,FALSE,FALSE,FALSE,FALSE,6.97288848,79.91593338,1.1,123.7,328,TRUE,1,1,FALSE,FALSE,FALSE,FALSE,,TRUE,FALSE,FALSE,Course Lock,49.2,14.3,16.4,Calm,40,,1.12.8,Mavic Mini,1SDCH7G0169R0K,1SFLH6Q0AB03DJ,1SRCH7F014TAHX,1U5X071EXP6C8G,73.8,0.6,13.1,15.744702,4.47388,0,0,Mavic Mini,1SDCH7G0169R0K,1SFLH6Q0AB03DJ,1SRCH7F014TAHX,1U5X071EXP6C8G,DJI Fly,,1.12.8,DE8DA94C-6A61-3686-7E45-505733B7EADD,1SDCH7G0169R0K,,,,,,,,,
3/2/2024,54:11.6,14m 19.2s,859.2,6.972885745,79.91593163,0,0,0.3,57,0.1,0,0,0,0,0,0,0,0,2.9,3.6,-50.2,309.8,,Manual Takeoff,Auto Fly,Takeoff (RC Assisted),16,5,TRUE,,Mavic Mini,TRUE,FALSE,,Smart,RC,TRUE,TRUE,FALSE,,,TRUE,,FALSE,FALSE,FALSE,FALSE,FALSE,FALSE,FALSE,FALSE,FALSE,FALSE,0,Follow Yaw,0,0,-46.3,313.7,FALSE,FALSE,FALSE,FALSE,FALSE,FALSE,,TRUE,Normal,,100,1024,1024,1034,1024,1,FALSE,FALSE,FALSE,FALSE,FALSE,0,FALSE,FALSE,FALSE,FALSE,37,7.239,754,2075,7.26,FALSE,3.632,3.607,0.025,FALSE,FALSE,NA,120,120,120,0,0,0,0,5,2789,697.26,,Idle,0,20,FALSE,5,TRUE,7,Go Home,FALSE,FALSE,FALSE,FALSE,FALSE,FALSE,FALSE,FALSE,FALSE,FALSE,FALSE,FALSE,6.97288848,79.91593338,1.1,123.7,328,TRUE,1,1,FALSE,FALSE,FALSE,FALSE,,TRUE,FALSE,FALSE,Course Lock,49.2,14.3,16.4,Calm,40,,1.12.8,Mavic Mini,1SDCH7G0169R0K,1SFLH6Q0AB03DJ,1SRCH7F014TAHX,1U5X071EXP6C8G,73.8,0.6,13.1,15.744702,4.47388,0,0,Mavic Mini,1SDCH7G0169R0K,1SFLH6Q0AB03DJ,1SRCH7F014TAHX,1U5X071EXP6C8G,DJI Fly,,1.12.8,DE8DA94C-6A61-3686-7E45-505733B7EADD,1SDCH7G0169R0K,,,,,,,,,
3/2/2024,54:11.7,14m 19.3s,859.3,6.972885749,79.91593171,0,0,0.3,57,0.1,0,0,0,0,0,0,0,0,2.9,3.6,-50.2,309.8,,Manual Takeoff,Auto Fly,Takeoff (RC Assisted),16,5,TRUE,,Mavic Mini,TRUE,FALSE,,Smart,RC,TRUE,TRUE,FALSE,,,TRUE,,FALSE,FALSE,FALSE,FALSE,FALSE,FALSE,FALSE,FALSE,FALSE,FALSE,0,Follow Yaw,0,0,-46.3,313.7,FALSE,FALSE,FALSE,FALSE,FALSE,FALSE,,TRUE,Normal,,100,1024,1024,1138,1024,1,FALSE,FALSE,FALSE,FALSE,FALSE,0,FALSE,FALSE,FALSE,FALSE,37,7.239,754,2075,7.26,FALSE,3.632,3.607,0.025,FALSE,FALSE,NA,120,120,120,0,0,0,0,5,2789,697.26,,Idle,0,20,FALSE,5,TRUE,7,Go Home,FALSE,FALSE,FALSE,FALSE,FALSE,FALSE,FALSE,FALSE,FALSE,FALSE,FALSE,FALSE,6.97288848,79.91593338,1.1,123.7,328,TRUE,1,1,FALSE,FALSE,FALSE,FALSE,,TRUE,FALSE,FALSE,Course Lock,49.2,14.3,16.4,Calm,40,,1.12.8,Mavic Mini,1SDCH7G0169R0K,1SFLH6Q0AB03DJ,1SRCH7F014TAHX,1U5X071EXP6C8G,73.8,0.6,13.1,15.744702,4.47388,0,0,Mavic Mini,1SDCH7G0169R0K,1SFLH6Q0AB03DJ,1SRCH7F014TAHX,1U5X071EXP6C8G,DJI Fly,,1.12.8,DE8DA94C-6A61-3686-7E45-505733B7EADD,1SDCH7G0169R0K,,,,,,,,,
3/2/2024,54:11.8,14m 19.4s,859.4,6.972885747,79.91593174,0,0,0.3,57,0.1,0,0,0,0,0,0,0,0,2.9,3.6,-50.2,309.8,,Manual Takeoff,Auto Fly,Takeoff (RC Assisted),16,5,TRUE,,Mavic Mini,TRUE,FALSE,,Smart,RC,TRUE,TRUE,FALSE,,,TRUE,,FALSE,FALSE,FALSE,FALSE,FALSE,FALSE,FALSE,FALSE,FALSE,FALSE,0,Follow Yaw,0,0,-46.3,313.7,FALSE,FALSE,FALSE,FALSE,FALSE,FALSE,,TRUE,Normal,,100,1024,1024,1138,1024,1,FALSE,FALSE,FALSE,FALSE,FALSE,0,FALSE,FALSE,FALSE,FALSE,37,7.239,754,2075,7.26,FALSE,3.632,3.607,0.025,FALSE,FALSE,NA,120,120,120,0,0,0,0,5,2789,697.26,,Idle,0,20,FALSE,5,TRUE,7,Go Home,FALSE,FALSE,FALSE,FALSE,FALSE,FALSE,FALSE,FALSE,FALSE,FALSE,FALSE,FALSE,6.97288848,79.91593338,1.1,123.7,328,TRUE,1,1,FALSE,FALSE,FALSE,FALSE,,TRUE,FALSE,FALSE,Course Lock,49.2,14.3,16.4,Calm,40,,1.12.8,Mavic Mini,1SDCH7G0169R0K,1SFLH6Q0AB03DJ,1SRCH7F014TAHX,1U5X071EXP6C8G,73.8,0.6,13.1,15.744702,4.47388,0,0,Mavic Mini,1SDCH7G0169R0K,1SFLH6Q0AB03DJ,1SRCH7F014TAHX,1U5X071EXP6C8G,DJI Fly,,1.12.8,DE8DA94C-6A61-3686-7E45-505733B7EADD,1SDCH7G0169R0K,,,,,,,,,
3/2/2024,54:11.9,14m 19.5s,859.5,6.972885744,79.91593178,0,0,0.3,57,0.2,0,0,0,0,0,0,0,0,2.9,3.6,-50.2,309.8,,Manual Takeoff,Auto Fly,Takeoff (RC Assisted),16,5,TRUE,,Mavic Mini,TRUE,FALSE,,Smart,RC,TRUE,TRUE,FALSE,,,TRUE,,FALSE,FALSE,FALSE,FALSE,FALSE,FALSE,FALSE,FALSE,FALSE,FALSE,0,Follow Yaw,0,0,-46.3,313.7,FALSE,FALSE,FALSE,FALSE,FALSE,FALSE,,TRUE,Normal,,100,1024,1024,1170,1024,1,FALSE,FALSE,FALSE,FALSE,FALSE,0,FALSE,FALSE,FALSE,FALSE,37,7.239,754,2075,7.26,FALSE,3.632,3.607,0.025,FALSE,FALSE,NA,120,120,120,0,0,0,0,5,2789,697.26,,Idle,0,20,FALSE,5,TRUE,7,Go Home,FALSE,FALSE,FALSE,FALSE,FALSE,FALSE,FALSE,FALSE,FALSE,FALSE,FALSE,FALSE,6.97288848,79.91593338,1.1,123.7,328,TRUE,1,1,FALSE,FALSE,FALSE,FALSE,,TRUE,FALSE,FALSE,Course Lock,49.2,14.3,16.4,Calm,40,,1.12.8,Mavic Mini,1SDCH7G0169R0K,1SFLH6Q0AB03DJ,1SRCH7F014TAHX,1U5X071EXP6C8G,73.8,0.6,13.1,15.744702,4.47388,0,0,Mavic Mini,1SDCH7G0169R0K,1SFLH6Q0AB03DJ,1SRCH7F014TAHX,1U5X071EXP6C8G,DJI Fly,,1.12.8,DE8DA94C-6A61-3686-7E45-505733B7EADD,1SDCH7G0169R0K,,,,,,,,,
3/2/2024,54:12.0,14m 19.6s,859.6,6.972885742,79.9159318,0,0,0.3,57,0.2,0,0,0,0,0,0,0,0,2.9,3.6,-50.2,309.8,,Manual Takeoff,Auto Fly,Takeoff (RC Assisted),16,5,TRUE,,Mavic Mini,TRUE,FALSE,,Smart,RC,TRUE,TRUE,FALSE,,,TRUE,,FALSE,FALSE,FALSE,FALSE,FALSE,FALSE,FALSE,FALSE,FALSE,FALSE,0,Follow Yaw,0,0,-46.3,313.7,FALSE,FALSE,FALSE,FALSE,FALSE,FALSE,,TRUE,Normal,,100,1024,1024,1208,1024,1,FALSE,FALSE,FALSE,FALSE,FALSE,0,FALSE,FALSE,FALSE,FALSE,37,7.239,754,2075,7.26,FALSE,3.632,3.607,0.025,FALSE,FALSE,NA,120,120,120,0,0,0,0,5,2789,697.26,,Idle,0,20,FALSE,5,TRUE,7,Go Home,FALSE,FALSE,FALSE,FALSE,FALSE,FALSE,FALSE,FALSE,FALSE,FALSE,FALSE,FALSE,6.97288848,79.91593338,1.1,123.7,328,TRUE,1,1,FALSE,FALSE,FALSE,FALSE,,TRUE,FALSE,FALSE,Course Lock,49.2,14.3,16.4,Calm,40,,1.12.8,Mavic Mini,1SDCH7G0169R0K,1SFLH6Q0AB03DJ,1SRCH7F014TAHX,1U5X071EXP6C8G,73.8,0.6,13.1,15.744702,4.47388,0,0,Mavic Mini,1SDCH7G0169R0K,1SFLH6Q0AB03DJ,1SRCH7F014TAHX,1U5X071EXP6C8G,DJI Fly,,1.12.8,DE8DA94C-6A61-3686-7E45-505733B7EADD,1SDCH7G0169R0K,,,,,6.972830859,79.91593086,5,,
3/2/2024,54:12.1,14m 19.7s,859.7,6.972885739,79.91593181,0,0,0.3,57,0.2,0,0,0,0,0,0,0,0,2.7,2.8,-50.2,309.8,,Manual Takeoff,Auto Fly,Takeoff (RC Assisted),16,5,TRUE,,Mavic Mini,TRUE,FALSE,,Smart,RC,TRUE,TRUE,FALSE,,,TRUE,,FALSE,FALSE,FALSE,FALSE,FALSE,FALSE,FALSE,FALSE,FALSE,FALSE,0,Follow Yaw,0,0,-46.3,313.7,FALSE,FALSE,FALSE,FALSE,FALSE,FALSE,,TRUE,Normal,,100,1024,1024,1239,1024,1,FALSE,FALSE,FALSE,FALSE,FALSE,0,FALSE,FALSE,FALSE,FALSE,37,7.239,754,2075,7.26,FALSE,3.632,3.607,0.025,FALSE,FALSE,NA,120,120,120,0,0,0,0,5,2789,697.26,,Idle,0,20,FALSE,5,TRUE,7,Go Home,FALSE,FALSE,FALSE,FALSE,FALSE,FALSE,FALSE,FALSE,FALSE,FALSE,FALSE,FALSE,6.97288848,79.91593338,1.1,123.7,328,TRUE,1,1,FALSE,FALSE,FALSE,FALSE,,TRUE,FALSE,FALSE,Course Lock,49.2,14.3,16.4,Calm,40,,1.12.8,Mavic Mini,1SDCH7G0169R0K,1SFLH6Q0AB03DJ,1SRCH7F014TAHX,1U5X071EXP6C8G,73.8,0.6,13.1,15.744702,4.47388,0,0,Mavic Mini,1SDCH7G0169R0K,1SFLH6Q0AB03DJ,1SRCH7F014TAHX,1U5X071EXP6C8G,DJI Fly,,1.12.8,DE8DA94C-6A61-3686-7E45-505733B7EADD,1SDCH7G0169R0K,,,,,6.972830859,79.91593086,5,,
3/2/2024,54:12.3,14m 19.8s,859.8,6.972885739,79.91593184,0,0,0.3,57,0.2,0,0,0,0,0,0,0,0,2.4,1.8,-50.4,309.6,,Manual Takeoff,Auto Fly,Takeoff (RC Assisted),16,5,TRUE,,Mavic Mini,TRUE,FALSE,,Smart,RC,TRUE,TRUE,FALSE,,,TRUE,,FALSE,FALSE,FALSE,FALSE,FALSE,FALSE,FALSE,FALSE,FALSE,FALSE,0,Follow Yaw,0,0,-46.3,313.7,FALSE,FALSE,FALSE,FALSE,FALSE,FALSE,,TRUE,Normal,,100,1024,1024,1345,1024,1,FALSE,FALSE,FALSE,FALSE,FALSE,0,FALSE,FALSE,FALSE,FALSE,37,7.239,754,2075,7.26,FALSE,3.632,3.607,0.025,FALSE,FALSE,NA,120,120,120,0,0,0,0,5,2789,697.26,,Idle,0,20,FALSE,5,TRUE,7,Go Home,FALSE,FALSE,FALSE,FALSE,FALSE,FALSE,FALSE,FALSE,FALSE,FALSE,FALSE,FALSE,6.97288848,79.91593338,1.1,123.7,328,TRUE,1,1,FALSE,FALSE,FALSE,FALSE,,TRUE,FALSE,FALSE,Course Lock,49.2,14.3,16.4,Calm,40,,1.12.8,Mavic Mini,1SDCH7G0169R0K,1SFLH6Q0AB03DJ,1SRCH7F014TAHX,1U5X071EXP6C8G,73.8,0.6,13.1,15.744702,4.47388,0,0,Mavic Mini,1SDCH7G0169R0K,1SFLH6Q0AB03DJ,1SRCH7F014TAHX,1U5X071EXP6C8G,DJI Fly,,1.12.8,DE8DA94C-6A61-3686-7E45-505733B7EADD,1SDCH7G0169R0K,,,,,6.972830859,79.91593086,5,,
3/2/2024,54:12.3,14m 19.9s,859.9,6.972885732,79.91593182,0,0,0.3,57,0.2,0,0,0,0,0,0,0,0,2.4,1.4,-50.4,309.6,,Manual Takeoff,Auto Fly,Takeoff (RC Assisted),16,5,TRUE,,Mavic Mini,TRUE,FALSE,,Smart,RC,TRUE,TRUE,FALSE,,,TRUE,,FALSE,FALSE,FALSE,FALSE,FALSE,FALSE,FALSE,FALSE,FALSE,FALSE,0,Follow Yaw,0,0,-46.3,313.7,FALSE,FALSE,FALSE,FALSE,FALSE,FALSE,,TRUE,Normal,,100,1024,1024,1373,1024,1,FALSE,FALSE,FALSE,FALSE,FALSE,0,FALSE,FALSE,FALSE,FALSE,37,7.239,754,2075,7.26,FALSE,3.632,3.607,0.025,FALSE,FALSE,NA,120,120,120,0,0,0,0,5,2789,697.26,,Idle,0,20,FALSE,5,TRUE,7,Go Home,FALSE,FALSE,FALSE,FALSE,FALSE,FALSE,FALSE,FALSE,FALSE,FALSE,FALSE,FALSE,6.97288848,79.91593338,1.1,123.7,328,TRUE,1,1,FALSE,FALSE,FALSE,FALSE,,TRUE,FALSE,FALSE,Course Lock,49.2,14.3,16.4,Calm,40,,1.12.8,Mavic Mini,1SDCH7G0169R0K,1SFLH6Q0AB03DJ,1SRCH7F014TAHX,1U5X071EXP6C8G,73.8,0.6,13.1,15.744702,4.47388,0,0,Mavic Mini,1SDCH7G0169R0K,1SFLH6Q0AB03DJ,1SRCH7F014TAHX,1U5X071EXP6C8G,DJI Fly,,1.12.8,DE8DA94C-6A61-3686-7E45-505733B7EADD,1SDCH7G0169R0K,,,,,6.972830859,79.91593086,5,,
3/2/2024,54:12.5,14m 20.0s,860,6.972885724,79.91593183,0,0,0.3,57,0.2,0,0,0,0,0,0,0,0,2.1,1.1,-50.7,309.3,,Manual Takeoff,Auto Fly,Takeoff (RC Assisted),16,5,TRUE,,Mavic Mini,TRUE,FALSE,,Smart,RC,TRUE,TRUE,FALSE,,,TRUE,,FALSE,FALSE,FALSE,FALSE,FALSE,FALSE,FALSE,FALSE,FALSE,FALSE,0,Follow Yaw,0,0,-46.3,313.7,FALSE,FALSE,FALSE,FALSE,FALSE,FALSE,,TRUE,Normal,,100,1024,1024,1408,1024,1,FALSE,FALSE,FALSE,FALSE,FALSE,0,FALSE,FALSE,FALSE,FALSE,37,7.234,753,2075,7.26,FALSE,3.62,3.614,0.025,FALSE,FALSE,NA,120,120,120,0,0,0,0,5,2789,697.26,,Idle,0,20,FALSE,5,TRUE,7,Go Home,FALSE,FALSE,FALSE,FALSE,FALSE,FALSE,FALSE,FALSE,FALSE,FALSE,FALSE,FALSE,6.97288848,79.91593338,1.1,123.7,328,TRUE,1,1,FALSE,FALSE,FALSE,FALSE,,TRUE,FALSE,FALSE,Course Lock,49.2,14.3,16.4,Calm,40,,1.12.8,Mavic Mini,1SDCH7G0169R0K,1SFLH6Q0AB03DJ,1SRCH7F014TAHX,1U5X071EXP6C8G,73.8,0.6,13.1,15.744702,4.47388,0,0,Mavic Mini,1SDCH7G0169R0K,1SFLH6Q0AB03DJ,1SRCH7F014TAHX,1U5X071EXP6C8G,DJI Fly,,1.12.8,DE8DA94C-6A61-3686-7E45-505733B7EADD,1SDCH7G0169R0K,,,,,6.972830859,79.91593086,5,,
3/2/2024,54:12.6,14m 20.1s,860.1,6.972885722,79.91593186,0,0,0.3,57,0.2,0,0,0,0,0,0,0,0,2.3,1,-52.2,307.8,,Manual Takeoff,Auto Fly,Takeoff (RC Assisted),16,5,TRUE,,Mavic Mini,TRUE,FALSE,,Smart,RC,TRUE,TRUE,FALSE,,,TRUE,,FALSE,FALSE,FALSE,FALSE,FALSE,FALSE,FALSE,FALSE,FALSE,FALSE,0,Follow Yaw,0,0,-47,313,FALSE,FALSE,FALSE,FALSE,FALSE,FALSE,,TRUE,Normal,,100,1024,1024,1415,1024,1,FALSE,FALSE,FALSE,FALSE,FALSE,0,FALSE,FALSE,FALSE,FALSE,37,7.234,753,2075,7.217,FALSE,3.62,3.614,0.025,FALSE,FALSE,NA,120,120,120,0,0,0,0,5,2958.3,739.57,,Idle,0,20,FALSE,5,TRUE,7,Go Home,FALSE,FALSE,FALSE,FALSE,FALSE,FALSE,FALSE,FALSE,FALSE,FALSE,FALSE,FALSE,6.97288848,79.91593338,1.1,123.7,328,TRUE,1,1,FALSE,FALSE,FALSE,FALSE,,TRUE,FALSE,FALSE,Course Lock,49.2,14.3,16.4,Calm,40,,1.12.8,Mavic Mini,1SDCH7G0169R0K,1SFLH6Q0AB03DJ,1SRCH7F014TAHX,1U5X071EXP6C8G,73.8,0.6,13.1,15.744702,4.47388,0,0,Mavic Mini,1SDCH7G0169R0K,1SFLH6Q0AB03DJ,1SRCH7F014TAHX,1U5X071EXP6C8G,DJI Fly,,1.12.8,DE8DA94C-6A61-3686-7E45-505733B7EADD,1SDCH7G0169R0K,,,,,6.972830859,79.91593086,5,,
3/2/2024,54:12.6,14m 20.2s,860.2,6.972885729,79.91593188,0,0,0.3,57,0.2,0,0,0,0,0,0,0,0,2.3,0.1,-53.3,306.7,,Manual Takeoff,Auto Fly,Takeoff (RC Assisted),16,5,TRUE,,Mavic Mini,TRUE,FALSE,,Smart,RC,TRUE,TRUE,FALSE,,,TRUE,,FALSE,FALSE,FALSE,FALSE,FALSE,FALSE,FALSE,FALSE,FALSE,FALSE,0,Follow Yaw,0,0,-48.2,311.8,FALSE,FALSE,FALSE,FALSE,FALSE,FALSE,,TRUE,Normal,,100,1024,1024,1409,1024,1,FALSE,FALSE,FALSE,FALSE,FALSE,0,FALSE,FALSE,FALSE,FALSE,37,7.234,753,2075,7.217,FALSE,3.62,3.614,0.025,FALSE,FALSE,NA,120,120,120,0,0,0,0,5,2958.3,739.57,,Idle,0,20,FALSE,5,TRUE,7,Go Home,FALSE,FALSE,FALSE,FALSE,FALSE,FALSE,FALSE,FALSE,FALSE,FALSE,FALSE,FALSE,6.97288848,79.91593338,1.1,123.7,328,TRUE,1,1,FALSE,FALSE,FALSE,FALSE,,TRUE,FALSE,FALSE,Course Lock,49.2,14.3,16.4,Calm,40,,1.12.8,Mavic Mini,1SDCH7G0169R0K,1SFLH6Q0AB03DJ,1SRCH7F014TAHX,1U5X071EXP6C8G,73.8,0.6,13.1,15.744702,4.47388,0,0,Mavic Mini,1SDCH7G0169R0K,1SFLH6Q0AB03DJ,1SRCH7F014TAHX,1U5X071EXP6C8G,DJI Fly,,1.12.8,DE8DA94C-6A61-3686-7E45-505733B7EADD,1SDCH7G0169R0K,,,,,6.972830859,79.91593086,5,,
3/2/2024,54:12.7,14m 20.3s,860.3,6.972885717,79.91593188,0,0,0.3,57,0.2,0,0,0,0,0,0,0,0,2.2,0,-54.3,305.7,,Manual Takeoff,Auto Fly,Takeoff (RC Assisted),16,5,TRUE,,Mavic Mini,TRUE,FALSE,,Smart,RC,TRUE,TRUE,FALSE,,,TRUE,,FALSE,FALSE,FALSE,FALSE,FALSE,FALSE,FALSE,FALSE,FALSE,FALSE,0,Follow Yaw,0,0,-49.2,310.8,FALSE,FALSE,FALSE,FALSE,FALSE,FALSE,,TRUE,Normal,,100,1024,1024,1409,1024,1,FALSE,FALSE,FALSE,FALSE,FALSE,0,FALSE,FALSE,FALSE,FALSE,37,7.234,753,2075,7.217,FALSE,3.62,3.614,0.025,FALSE,FALSE,NA,120,120,120,0,0,0,0,5,2958.3,739.57,,Idle,0,20,FALSE,5,TRUE,7,Go Home,FALSE,FALSE,FALSE,FALSE,FALSE,FALSE,FALSE,FALSE,FALSE,FALSE,FALSE,FALSE,6.97288848,79.91593338,1.1,123.7,328,TRUE,1,1,FALSE,FALSE,FALSE,FALSE,,TRUE,FALSE,FALSE,Course Lock,49.2,14.3,16.4,Calm,40,,1.12.8,Mavic Mini,1SDCH7G0169R0K,1SFLH6Q0AB03DJ,1SRCH7F014TAHX,1U5X071EXP6C8G,73.8,0.6,13.1,15.744702,4.47388,0,0,Mavic Mini,1SDCH7G0169R0K,1SFLH6Q0AB03DJ,1SRCH7F014TAHX,1U5X071EXP6C8G,DJI Fly,,1.12.8,DE8DA94C-6A61-3686-7E45-505733B7EADD,1SDCH7G0169R0K,,,,,6.972830859,79.91593086,5,,
3/2/2024,54:12.8,14m 20.4s,860.4,6.972885713,79.91593188,0,0,0.3,57,0.2,0,0,0,0,0,0,0,0,0.7,-0.1,-55.2,304.8,,Manual Takeoff,Auto Fly,Takeoff (RC Assisted),16,5,TRUE,,Mavic Mini,TRUE,FALSE,,Smart,RC,TRUE,TRUE,FALSE,,,TRUE,,FALSE,FALSE,FALSE,FALSE,FALSE,FALSE,FALSE,FALSE,FALSE,FALSE,0,Follow Yaw,0,0,-50.1,309.9,FALSE,FALSE,FALSE,FALSE,FALSE,FALSE,,TRUE,Normal,,100,1024,1024,1397,1024,1,FALSE,FALSE,FALSE,FALSE,FALSE,0,FALSE,FALSE,FALSE,FALSE,37,7.234,753,2075,7.217,FALSE,3.62,3.614,0.025,FALSE,FALSE,NA,120,120,120,0,0,0,0,5,2958.3,739.57,,Idle,0,20,FALSE,5,TRUE,7,Go Home,FALSE,FALSE,FALSE,FALSE,FALSE,FALSE,FALSE,FALSE,FALSE,FALSE,FALSE,FALSE,6.97288848,79.91593338,1.1,123.7,328,TRUE,1,1,FALSE,FALSE,FALSE,FALSE,,TRUE,FALSE,FALSE,Course Lock,49.2,14.3,16.4,Calm,40,,1.12.8,Mavic Mini,1SDCH7G0169R0K,1SFLH6Q0AB03DJ,1SRCH7F014TAHX,1U5X071EXP6C8G,73.8,0.6,13.1,15.744702,4.47388,0,0,Mavic Mini,1SDCH7G0169R0K,1SFLH6Q0AB03DJ,1SRCH7F014TAHX,1U5X071EXP6C8G,DJI Fly,,1.12.8,DE8DA94C-6A61-3686-7E45-505733B7EADD,1SDCH7G0169R0K,,,,,6.972830859,79.91593086,5,,
3/2/2024,54:12.9,14m 20.5s,860.5,6.972885728,79.91593188,0,0,0.3,57,0.2,0,0,0,0,0,0,0,0,-0.5,-0.4,-56.3,303.7,,Manual Takeoff,Auto Fly,Takeoff (RC Assisted),16,5,TRUE,,Mavic Mini,TRUE,FALSE,,Smart,RC,TRUE,TRUE,FALSE,,,TRUE,,FALSE,FALSE,FALSE,FALSE,FALSE,FALSE,FALSE,FALSE,FALSE,FALSE,0,Follow Yaw,0,0,-51.1,308.9,FALSE,FALSE,FALSE,FALSE,FALSE,FALSE,,TRUE,Normal,,100,1024,1024,1398,1024,1,FALSE,FALSE,FALSE,FALSE,FALSE,0,FALSE,FALSE,FALSE,FALSE,37,7.234,753,2075,7.217,FALSE,3.62,3.614,0.025,FALSE,FALSE,NA,120,120,120,0,0,0,0,5,2958.3,739.57,,Idle,0,20,FALSE,5,TRUE,7,Go Home,FALSE,FALSE,FALSE,FALSE,FALSE,FALSE,FALSE,FALSE,FALSE,FALSE,FALSE,FALSE,6.97288848,79.91593338,1.1,123.7,328,TRUE,1,1,FALSE,FALSE,FALSE,FALSE,,TRUE,FALSE,FALSE,Course Lock,49.2,14.3,16.4,Calm,40,,1.12.8,Mavic Mini,1SDCH7G0169R0K,1SFLH6Q0AB03DJ,1SRCH7F014TAHX,1U5X071EXP6C8G,73.8,0.6,13.1,15.744702,4.47388,0,0,Mavic Mini,1SDCH7G0169R0K,1SFLH6Q0AB03DJ,1SRCH7F014TAHX,1U5X071EXP6C8G,DJI Fly,,1.12.8,DE8DA94C-6A61-3686-7E45-505733B7EADD,1SDCH7G0169R0K,,,,,6.972830859,79.91593086,5,,
3/2/2024,54:13.1,14m 20.6s,860.6,6.972885795,79.91593198,0,0,0.3,57,0.3,0,0,0,0,0,0,-0.223694,0,-0.4,-0.5,-57,303,,Manual Takeoff,Auto Fly,Takeoff (RC Assisted),16,5,TRUE,,Mavic Mini,TRUE,FALSE,,Smart,RC,TRUE,TRUE,FALSE,,,TRUE,,FALSE,FALSE,FALSE,FALSE,FALSE,FALSE,FALSE,FALSE,FALSE,FALSE,0,Follow Yaw,0,0,-52,308,FALSE,FALSE,FALSE,FALSE,FALSE,FALSE,,TRUE,Normal,,100,1024,1024,1390,1024,1,FALSE,FALSE,FALSE,FALSE,FALSE,0,FALSE,FALSE,FALSE,FALSE,37,7.234,753,2075,7.217,FALSE,3.62,3.614,0.025,FALSE,FALSE,NA,120,120,120,0,0,0,0,5,2958.3,739.57,,Idle,0,20,FALSE,5,TRUE,7,Go Home,FALSE,FALSE,FALSE,FALSE,FALSE,FALSE,FALSE,FALSE,FALSE,FALSE,FALSE,FALSE,6.97288848,79.91593338,1.1,123.7,328,TRUE,1,1,FALSE,FALSE,FALSE,FALSE,,TRUE,FALSE,FALSE,Course Lock,49.2,14.3,16.4,Calm,40,,1.12.8,Mavic Mini,1SDCH7G0169R0K,1SFLH6Q0AB03DJ,1SRCH7F014TAHX,1U5X071EXP6C8G,73.8,0.6,13.1,15.744702,4.47388,0,0,Mavic Mini,1SDCH7G0169R0K,1SFLH6Q0AB03DJ,1SRCH7F014TAHX,1U5X071EXP6C8G,DJI Fly,,1.12.8,DE8DA94C-6A61-3686-7E45-505733B7EADD,1SDCH7G0169R0K,,,,,6.972830859,79.91593086,5,,
3/2/2024,54:13.1,14m 20.7s,860.7,6.972885864,79.91593202,0,0,0.3,57,0.3,0,0,0,0,0,0,-0.447388,0,-0.3,-0.9,-57.3,302.7,,P-GPS,Auto Fly,,16,5,TRUE,,Mavic Mini,TRUE,FALSE,,Smart,RC,FALSE,TRUE,FALSE,,,TRUE,,FALSE,FALSE,FALSE,FALSE,FALSE,FALSE,FALSE,FALSE,FALSE,FALSE,0,Follow Yaw,0,0,-52.3,307.7,FALSE,FALSE,FALSE,FALSE,FALSE,FALSE,,TRUE,Normal,,100,1024,1024,1373,1024,1,FALSE,FALSE,FALSE,FALSE,FALSE,0,FALSE,FALSE,FALSE,FALSE,37,7.234,753,2075,7.217,FALSE,3.62,3.614,0.025,FALSE,FALSE,NA,120,120,120,0,0,0,0,5,2958.3,739.57,,Idle,0,20,FALSE,5,TRUE,7,Go Home,FALSE,FALSE,FALSE,FALSE,FALSE,FALSE,FALSE,FALSE,FALSE,FALSE,FALSE,FALSE,6.97288848,79.91593338,1,123.7,328,TRUE,1,1,FALSE,FALSE,FALSE,FALSE,,TRUE,FALSE,FALSE,Course Lock,49.2,14.3,16.4,Calm,40,,1.12.8,Mavic Mini,1SDCH7G0169R0K,1SFLH6Q0AB03DJ,1SRCH7F014TAHX,1U5X071EXP6C8G,73.8,0.6,13.1,15.744702,4.47388,0,0,Mavic Mini,1SDCH7G0169R0K,1SFLH6Q0AB03DJ,1SRCH7F014TAHX,1U5X071EXP6C8G,DJI Fly,,1.12.8,DE8DA94C-6A61-3686-7E45-505733B7EADD,1SDCH7G0169R0K,,,,,6.972830859,79.91593086,5,Flight mode changed to P-GPS.,
3/2/2024,54:13.2,14m 20.8s,860.8,6.972885951,79.91593203,0,0,0.6,57,0.3,0,0,0,0,0,0,-0.894776,0,0.9,-1.7,-57,303,,P-GPS,Auto Fly,,16,5,TRUE,,Mavic Mini,TRUE,FALSE,,Smart,RC,FALSE,TRUE,FALSE,,,TRUE,,FALSE,FALSE,FALSE,FALSE,FALSE,FALSE,FALSE,FALSE,FALSE,FALSE,0,Follow Yaw,0,0,-52.3,307.7,FALSE,FALSE,FALSE,FALSE,FALSE,FALSE,,TRUE,Normal,,100,1024,1024,1362,1024,1,FALSE,FALSE,FALSE,FALSE,FALSE,0,FALSE,FALSE,FALSE,FALSE,37,7.234,753,2075,7.217,FALSE,3.62,3.614,0.025,FALSE,FALSE,NA,120,120,120,0,0,0,0,5,2958.3,739.57,,Idle,0,20,FALSE,5,TRUE,7,Go Home,FALSE,FALSE,FALSE,FALSE,FALSE,FALSE,FALSE,FALSE,FALSE,FALSE,FALSE,FALSE,6.97288848,79.91593338,1,123.7,328,TRUE,1,1,FALSE,FALSE,FALSE,FALSE,,TRUE,FALSE,FALSE,Course Lock,49.2,14.3,16.4,Calm,40,,1.12.8,Mavic Mini,1SDCH7G0169R0K,1SFLH6Q0AB03DJ,1SRCH7F014TAHX,1U5X071EXP6C8G,73.8,0.6,13.1,15.744702,4.47388,0,0,Mavic Mini,1SDCH7G0169R0K,1SFLH6Q0AB03DJ,1SRCH7F014TAHX,1U5X071EXP6C8G,DJI Fly,,1.12.8,DE8DA94C-6A61-3686-7E45-505733B7EADD,1SDCH7G0169R0K,,,,,6.972830859,79.91593086,5,,
3/2/2024,54:13.3,14m 20.9s,860.9,6.97288604,79.91593201,0,0,0.6,57,0.4,0,0,0,0,0,0,-1.11847,0,1,-1,-56.8,303.2,,P-GPS,Auto Fly,,16,5,TRUE,,Mavic Mini,TRUE,FALSE,,Smart,RC,FALSE,TRUE,FALSE,,,TRUE,,FALSE,FALSE,FALSE,FALSE,FALSE,FALSE,FALSE,FALSE,FALSE,FALSE,0,Follow Yaw,0,0,-52.3,307.7,FALSE,FALSE,FALSE,FALSE,FALSE,FALSE,,TRUE,Normal,,100,1024,1024,1363,1024,1,FALSE,FALSE,FALSE,FALSE,FALSE,0,FALSE,FALSE,FALSE,FALSE,37,7.234,753,2075,7.217,FALSE,3.62,3.614,0.025,FALSE,FALSE,NA,120,120,120,0,0,0,0,5,2958.3,739.57,,Idle,0,20,FALSE,5,TRUE,7,Go Home,FALSE,FALSE,FALSE,FALSE,FALSE,FALSE,FALSE,FALSE,FALSE,FALSE,FALSE,FALSE,6.97288848,79.91593338,1,123.7,328,TRUE,1,1,FALSE,FALSE,FALSE,FALSE,,TRUE,FALSE,FALSE,Course Lock,49.2,14.3,16.4,Calm,40,,1.12.8,Mavic Mini,1SDCH7G0169R0K,1SFLH6Q0AB03DJ,1SRCH7F014TAHX,1U5X071EXP6C8G,73.8,0.6,13.1,15.744702,4.47388,0,0,Mavic Mini,1SDCH7G0169R0K,1SFLH6Q0AB03DJ,1SRCH7F014TAHX,1U5X071EXP6C8G,DJI Fly,,1.12.8,DE8DA94C-6A61-3686-7E45-505733B7EADD,1SDCH7G0169R0K,,,,,6.972830859,79.91593086,5,,
3/2/2024,54:13.4,14m 21.0s,861,6.972886124,79.91593205,0.3,0.3,0.6,57,0.4,0,0,0,0,0,0,-1.342164,0,1.3,-0.4,-56.9,303.1,,P-GPS,Auto Fly,,16,5,TRUE,,Mavic Mini,TRUE,FALSE,,Smart,RC,FALSE,TRUE,FALSE,,,TRUE,,FALSE,FALSE,FALSE,FALSE,FALSE,FALSE,FALSE,FALSE,FALSE,FALSE,0,Follow Yaw,0,0,-52.3,307.7,FALSE,FALSE,FALSE,FALSE,FALSE,FALSE,,TRUE,Normal,,100,1024,1024,1236,1024,1,FALSE,FALSE,FALSE,FALSE,FALSE,0,FALSE,FALSE,FALSE,FALSE,37,7.234,753,2075,7.217,FALSE,3.62,3.614,0.025,FALSE,FALSE,NA,120,120,120,0,0,0,0,5,2958.3,739.57,,Idle,0,20,FALSE,5,TRUE,7,Go Home,FALSE,FALSE,FALSE,FALSE,FALSE,FALSE,FALSE,FALSE,FALSE,FALSE,FALSE,FALSE,6.97288848,79.91593338,0.9,123.7,328,TRUE,1,1,FALSE,FALSE,FALSE,FALSE,,TRUE,FALSE,FALSE,Course Lock,49.2,14.3,16.4,Calm,40,,1.12.8,Mavic Mini,1SDCH7G0169R0K,1SFLH6Q0AB03DJ,1SRCH7F014TAHX,1U5X071EXP6C8G,73.8,0.6,13.1,15.744702,4.47388,0,0,Mavic Mini,1SDCH7G0169R0K,1SFLH6Q0AB03DJ,1SRCH7F014TAHX,1U5X071EXP6C8G,DJI Fly,,1.12.8,DE8DA94C-6A61-3686-7E45-505733B7EADD,1SDCH7G0169R0K,,,,,6.972830859,79.91593086,5,,
3/2/2024,54:13.5,14m 21.1s,861.1,6.972886199,79.91593207,0.3,0.3,0.9,57,0.4,0,0,0,0,0,0,-1.565858,0,1.6,-1,-56.9,303.1,,P-GPS,Auto Fly,,16,5,TRUE,,Mavic Mini,TRUE,FALSE,,Smart,RC,FALSE,TRUE,FALSE,,,TRUE,,FALSE,FALSE,FALSE,FALSE,FALSE,FALSE,FALSE,FALSE,FALSE,FALSE,0,Follow Yaw,0,0,-52.3,307.7,FALSE,FALSE,FALSE,FALSE,FALSE,FALSE,,TRUE,Normal,,100,1024,1024,1091,1024,1,FALSE,FALSE,FALSE,FALSE,FALSE,0,FALSE,FALSE,FALSE,FALSE,37,7.064,751,2075,7.211,FALSE,3.537,3.528,0.025,FALSE,FALSE,NA,120,120,120,0,0,1,0,5,2958.3,739.57,,Idle,0,20,FALSE,5,TRUE,7,Go Home,FALSE,FALSE,FALSE,FALSE,FALSE,FALSE,FALSE,FALSE,FALSE,FALSE,FALSE,FALSE,6.972885817,79.915932,0.1,123.7,328,TRUE,1,1,FALSE,FALSE,FALSE,FALSE,,TRUE,FALSE,FALSE,Course Lock,49.2,14.3,16.4,Calm,40,,1.12.8,Mavic Mini,1SDCH7G0169R0K,1SFLH6Q0AB03DJ,1SRCH7F014TAHX,1U5X071EXP6C8G,73.8,0.6,13.1,15.744702,4.47388,0,0,Mavic Mini,1SDCH7G0169R0K,1SFLH6Q0AB03DJ,1SRCH7F014TAHX,1U5X071EXP6C8G,DJI Fly,,1.12.8,DE8DA94C-6A61-3686-7E45-505733B7EADD,1SDCH7G0169R0K,,,,,6.972830859,79.91593086,5,Home Point updated. RTH altitude adjusted to 15 m! (Code: 120852).,
3/2/2024,54:13.6,14m 21.2s,861.2,6.972886302,79.91593208,0.6,0.6,1.3,58,0.5,0,0,0,0,0,0,-1.789552,0,1.1,-1.1,-56.8,303.2,,P-GPS,Auto Fly,,16,5,TRUE,,Mavic Mini,TRUE,FALSE,,Smart,RC,FALSE,TRUE,FALSE,,,TRUE,,FALSE,FALSE,FALSE,FALSE,FALSE,FALSE,FALSE,FALSE,FALSE,FALSE,0,Follow Yaw,0,0,-52.3,307.7,FALSE,FALSE,FALSE,FALSE,FALSE,FALSE,,TRUE,Normal,,100,1024,1024,1091,1024,1,FALSE,FALSE,FALSE,FALSE,FALSE,0,FALSE,FALSE,FALSE,FALSE,37,7.064,751,2075,7.211,FALSE,3.537,3.528,0.025,FALSE,FALSE,NA,120,120,120,0,0,1,0,5,2958.3,739.57,,Idle,0,20,FALSE,5,TRUE,7,Go Home,FALSE,FALSE,FALSE,FALSE,FALSE,FALSE,FALSE,FALSE,FALSE,FALSE,FALSE,FALSE,6.972885817,79.915932,0.1,123.7,328,TRUE,1,1,FALSE,FALSE,FALSE,FALSE,,TRUE,FALSE,FALSE,Course Lock,49.2,14.3,16.4,Calm,40,,1.12.8,Mavic Mini,1SDCH7G0169R0K,1SFLH6Q0AB03DJ,1SRCH7F014TAHX,1U5X071EXP6C8G,73.8,0.6,13.1,15.744702,4.47388,0,0,Mavic Mini,1SDCH7G0169R0K,1SFLH6Q0AB03DJ,1SRCH7F014TAHX,1U5X071EXP6C8G,DJI Fly,,1.12.8,DE8DA94C-6A61-3686-7E45-505733B7EADD,1SDCH7G0169R0K,,,,,6.972830859,79.91593086,5,,
3/2/2024,54:13.7,14m 21.3s,861.3,6.972886431,79.91593209,0.9,0.9,1.3,58,0.5,0.223694,0.223694,0.223694,0.223694,0,0,-1.789552,0,1.2,-1,-56.9,303.1,2.5,P-GPS,Auto Fly,,16,5,TRUE,,Mavic Mini,TRUE,FALSE,,Smart,RC,FALSE,TRUE,FALSE,,,TRUE,,FALSE,FALSE,FALSE,FALSE,FALSE,FALSE,FALSE,FALSE,FALSE,FALSE,0,Follow Yaw,0,0,-52.3,307.7,FALSE,FALSE,FALSE,FALSE,FALSE,FALSE,,TRUE,Normal,,100,1024,1024,1024,1024,1,FALSE,FALSE,FALSE,FALSE,FALSE,0,FALSE,FALSE,FALSE,FALSE,37,7.064,751,2075,7.211,FALSE,3.537,3.528,0.025,FALSE,FALSE,NA,120,120,120,0,0,1,0,5,2958.3,739.57,,Idle,0,20,FALSE,5,TRUE,7,Go Home,FALSE,FALSE,FALSE,FALSE,FALSE,FALSE,FALSE,FALSE,FALSE,FALSE,FALSE,FALSE,6.972885817,79.915932,0.2,123.7,328,TRUE,1,1,FALSE,FALSE,FALSE,FALSE,,TRUE,FALSE,FALSE,Course Lock,49.2,14.3,16.4,Calm,40,,1.12.8,Mavic Mini,1SDCH7G0169R0K,1SFLH6Q0AB03DJ,1SRCH7F014TAHX,1U5X071EXP6C8G,73.8,0.6,13.1,15.744702,4.47388,0,0,Mavic Mini,1SDCH7G0169R0K,1SFLH6Q0AB03DJ,1SRCH7F014TAHX,1U5X071EXP6C8G,DJI Fly,,1.12.8,DE8DA94C-6A61-3686-7E45-505733B7EADD,1SDCH7G0169R0K,,,,,6.972830859,79.91593086,5,,
3/2/2024,54:13.9,14m 21.4s,861.4,6.972886554,79.91593211,1.3,1.3,1.6,58,0.6,0.223694,0.223694,0.223694,0.223694,0,0,-1.565858,0,1.4,-1.6,-56.8,303.2,6,P-GPS,Auto Fly,,16,5,TRUE,,Mavic Mini,TRUE,FALSE,,Smart,RC,FALSE,TRUE,FALSE,,,TRUE,,FALSE,FALSE,FALSE,FALSE,FALSE,FALSE,FALSE,FALSE,FALSE,FALSE,0,Follow Yaw,0,0,-52.3,307.7,FALSE,FALSE,FALSE,FALSE,FALSE,FALSE,,TRUE,Normal,,100,1024,1024,1024,1024,1,FALSE,FALSE,FALSE,FALSE,FALSE,0,FALSE,FALSE,FALSE,FALSE,37,7.064,751,2075,7.211,FALSE,3.537,3.528,0.025,FALSE,FALSE,NA,120,120,120,0,0,1,0,5,2958.3,739.57,,Idle,0,20,FALSE,5,TRUE,7,Go Home,FALSE,FALSE,FALSE,FALSE,FALSE,FALSE,FALSE,FALSE,FALSE,FALSE,FALSE,FALSE,6.972885817,79.915932,0.2,123.7,328,TRUE,1,1,FALSE,FALSE,FALSE,FALSE,,TRUE,FALSE,FALSE,Course Lock,49.2,14.3,16.4,Calm,40,,1.12.8,Mavic Mini,1SDCH7G0169R0K,1SFLH6Q0AB03DJ,1SRCH7F014TAHX,1U5X071EXP6C8G,73.8,0.6,13.1,15.744702,4.47388,0,0,Mavic Mini,1SDCH7G0169R0K,1SFLH6Q0AB03DJ,1SRCH7F014TAHX,1U5X071EXP6C8G,DJI Fly,,1.12.8,DE8DA94C-6A61-3686-7E45-505733B7EADD,1SDCH7G0169R0K,,,,,6.972830859,79.91593086,5,,
3/2/2024,54:13.9,14m 21.5s,861.5,6.972886778,79.91593211,1.3,1.3,1.9,58,0.6,0.223694,0.223694,0.223694,0.223694,0,0,-1.342164,0,1.5,-1.8,-56.7,303.3,0.7,P-GPS,Auto Fly,,16,5,TRUE,,Mavic Mini,TRUE,FALSE,,Smart,RC,FALSE,TRUE,FALSE,,,TRUE,,FALSE,FALSE,FALSE,FALSE,FALSE,FALSE,FALSE,FALSE,FALSE,FALSE,0,Follow Yaw,0,0,-52.3,307.7,FALSE,FALSE,FALSE,FALSE,FALSE,FALSE,,TRUE,Normal,,100,1024,1024,1024,1024,1,FALSE,FALSE,FALSE,FALSE,FALSE,0,FALSE,FALSE,FALSE,FALSE,37,7.064,751,2075,7.211,FALSE,3.537,3.528,0.025,FALSE,FALSE,NA,120,120,120,0,0,1,0,5,2958.3,739.57,,Idle,0,20,FALSE,5,TRUE,7,Go Home,FALSE,FALSE,FALSE,FALSE,FALSE,FALSE,FALSE,FALSE,FALSE,FALSE,FALSE,FALSE,6.972885817,79.915932,0.3,123.7,328,TRUE,1,1,FALSE,FALSE,FALSE,FALSE,,TRUE,FALSE,FALSE,Course Lock,49.2,14.3,16.4,Calm,40,,1.12.8,Mavic Mini,1SDCH7G0169R0K,1SFLH6Q0AB03DJ,1SRCH7F014TAHX,1U5X071EXP6C8G,73.8,0.6,13.1,15.744702,4.47388,0,0,Mavic Mini,1SDCH7G0169R0K,1SFLH6Q0AB03DJ,1SRCH7F014TAHX,1U5X071EXP6C8G,DJI Fly,,1.12.8,DE8DA94C-6A61-3686-7E45-505733B7EADD,1SDCH7G0169R0K,,,,,6.972830859,79.91593086,5,,
3/2/2024,54:14.1,14m 21.6s,861.6,6.972886839,79.91593213,1.6,1.6,1.9,58,0.7,0.223694,0.223694,0.223694,0.223694,0,0,-0.894776,0,2,-2,-56.6,303.4,15.8,P-GPS,Auto Fly,,16,5,TRUE,,Mavic Mini,TRUE,FALSE,,Smart,RC,FALSE,TRUE,FALSE,,,TRUE,,FALSE,FALSE,FALSE,FALSE,FALSE,FALSE,FALSE,FALSE,FALSE,FALSE,0,Follow Yaw,0,0,-52.3,307.7,FALSE,FALSE,FALSE,FALSE,FALSE,FALSE,,TRUE,Normal,,100,1024,1024,1024,1024,1,FALSE,FALSE,FALSE,FALSE,FALSE,0,FALSE,FALSE,FALSE,FALSE,37,7.064,751,2075,7.211,FALSE,3.537,3.528,0.025,FALSE,FALSE,NA,120,120,120,0,0,1,0,5,2958.3,739.57,,Idle,0,20,FALSE,5,TRUE,7,Go Home,FALSE,FALSE,FALSE,FALSE,FALSE,FALSE,FALSE,FALSE,FALSE,FALSE,FALSE,FALSE,6.972885817,79.915932,0.3,123.7,328,TRUE,1,1,FALSE,FALSE,FALSE,FALSE,,TRUE,FALSE,FALSE,Course Lock,49.2,14.3,16.4,Calm,40,,1.12.8,Mavic Mini,1SDCH7G0169R0K,1SFLH6Q0AB03DJ,1SRCH7F014TAHX,1U5X071EXP6C8G,73.8,0.6,13.1,15.744702,4.47388,0,0,Mavic Mini,1SDCH7G0169R0K,1SFLH6Q0AB03DJ,1SRCH7F014TAHX,1U5X071EXP6C8G,DJI Fly,,1.12.8,DE8DA94C-6A61-3686-7E45-505733B7EADD,1SDCH7G0169R0K,,,,,6.972830859,79.91593086,5,,
3/2/2024,54:14.1,14m 21.7s,861.7,6.972886861,79.91593216,1.6,1.6,2.2,58,0.7,0.223694,0.223694,0.223694,0.223694,0,0,-0.447388,0,2.4,-2.2,-56.5,303.5,39.7,P-GPS,Auto Fly,,16,5,TRUE,,Mavic Mini,TRUE,FALSE,,Smart,RC,FALSE,TRUE,FALSE,,,TRUE,,FALSE,FALSE,FALSE,FALSE,FALSE,FALSE,FALSE,FALSE,FALSE,FALSE,0,Follow Yaw,0,0,-52.3,307.7,FALSE,FALSE,FALSE,FALSE,FALSE,FALSE,,TRUE,Normal,,100,1024,1024,1024,1024,1,FALSE,FALSE,FALSE,FALSE,FALSE,0,FALSE,FALSE,FALSE,FALSE,37,7.064,751,2075,7.211,FALSE,3.537,3.528,0.025,FALSE,FALSE,NA,120,120,120,0,0,1,0,5,2958.3,739.57,,Idle,0,20,FALSE,5,TRUE,7,Go Home,FALSE,FALSE,FALSE,FALSE,FALSE,FALSE,FALSE,FALSE,FALSE,FALSE,FALSE,FALSE,6.972885817,79.915932,0.3,123.7,328,TRUE,1,1,FALSE,FALSE,FALSE,FALSE,,TRUE,FALSE,FALSE,Course Lock,49.2,14.3,16.4,Calm,40,,1.12.8,Mavic Mini,1SDCH7G0169R0K,1SFLH6Q0AB03DJ,1SRCH7F014TAHX,1U5X071EXP6C8G,73.8,0.6,13.1,15.744702,4.47388,0,0,Mavic Mini,1SDCH7G0169R0K,1SFLH6Q0AB03DJ,1SRCH7F014TAHX,1U5X071EXP6C8G,DJI Fly,,1.12.8,DE8DA94C-6A61-3686-7E45-505733B7EADD,1SDCH7G0169R0K,,,,,6.972830859,79.91593086,5,,
3/2/2024,54:14.2,14m 21.8s,861.8,6.972886909,79.91593217,1.6,1.6,2.2,58,0.7,0.223694,0.223694,0.223694,0.223694,0,0,-0.223694,0,2.8,-2.5,-56.5,303.5,9.2,P-GPS,Auto Fly,,16,5,TRUE,,Mavic Mini,TRUE,FALSE,,Smart,RC,FALSE,TRUE,FALSE,,,TRUE,,FALSE,FALSE,FALSE,FALSE,FALSE,FALSE,FALSE,FALSE,FALSE,FALSE,0,Follow Yaw,0,0,-52.3,307.7,FALSE,FALSE,FALSE,FALSE,FALSE,FALSE,,TRUE,Normal,,100,1024,1024,1210,1024,1,FALSE,FALSE,FALSE,FALSE,FALSE,0,FALSE,FALSE,FALSE,FALSE,37,7.064,751,2075,7.211,FALSE,3.537,3.528,0.025,FALSE,FALSE,NA,120,120,120,0,0,1,0,5,2958.3,739.57,,Idle,0,20,FALSE,5,TRUE,7,Go Home,FALSE,FALSE,FALSE,FALSE,FALSE,FALSE,FALSE,FALSE,FALSE,FALSE,FALSE,FALSE,6.972885817,79.915932,0.4,123.7,328,TRUE,1,1,FALSE,FALSE,FALSE,FALSE,,TRUE,FALSE,FALSE,Course Lock,49.2,14.3,16.4,Calm,40,,1.12.8,Mavic Mini,1SDCH7G0169R0K,1SFLH6Q0AB03DJ,1SRCH7F014TAHX,1U5X071EXP6C8G,73.8,0.6,13.1,15.744702,4.47388,0,0,Mavic Mini,1SDCH7G0169R0K,1SFLH6Q0AB03DJ,1SRCH7F014TAHX,1U5X071EXP6C8G,DJI Fly,,1.12.8,DE8DA94C-6A61-3686-7E45-505733B7EADD,1SDCH7G0169R0K,,,,,6.972830859,79.91593086,5,,
3/2/2024,54:14.3,14m 21.9s,861.9,6.972886835,79.91593217,1.6,1.6,2.2,58,0.7,0,0.223694,0,0.223694,0,0,0,0,3,-2.3,-56.5,303.5,,P-GPS,Auto Fly,,16,5,TRUE,,Mavic Mini,TRUE,FALSE,,Smart,RC,FALSE,TRUE,FALSE,,,TRUE,,FALSE,FALSE,FALSE,FALSE,FALSE,FALSE,FALSE,FALSE,FALSE,FALSE,0,Follow Yaw,0,0,-52.3,307.7,FALSE,FALSE,FALSE,FALSE,FALSE,FALSE,,TRUE,Normal,,100,1024,1024,1213,1024,1,FALSE,FALSE,FALSE,FALSE,FALSE,0,FALSE,FALSE,FALSE,FALSE,37,7.064,751,2075,7.211,FALSE,3.537,3.528,0.025,FALSE,FALSE,NA,120,120,120,0,0,1,0,5,2958.3,739.57,,Idle,0,20,FALSE,5,TRUE,7,Go Home,FALSE,FALSE,FALSE,FALSE,FALSE,FALSE,FALSE,FALSE,FALSE,FALSE,FALSE,FALSE,6.972885817,79.915932,0.3,123.7,328,TRUE,1,1,FALSE,FALSE,FALSE,FALSE,,TRUE,FALSE,FALSE,Course Lock,49.2,14.3,16.4,Calm,40,,1.12.8,Mavic Mini,1SDCH7G0169R0K,1SFLH6Q0AB03DJ,1SRCH7F014TAHX,1U5X071EXP6C8G,73.8,0.6,13.1,15.744702,4.47388,0,0,Mavic Mini,1SDCH7G0169R0K,1SFLH6Q0AB03DJ,1SRCH7F014TAHX,1U5X071EXP6C8G,DJI Fly,,1.12.8,DE8DA94C-6A61-3686-7E45-505733B7EADD,1SDCH7G0169R0K,,,,,6.972830859,79.91593086,5,,
3/2/2024,54:14.4,14m 22.0s,862,6.972886894,79.91593217,1.6,1.6,2.2,58,0.7,0,0.223694,0,0.223694,0,0,0,0,2.8,-2.4,-56.6,303.4,,P-GPS,Auto Fly,,16,5,TRUE,,Mavic Mini,TRUE,FALSE,,Smart,RC,FALSE,TRUE,FALSE,,,TRUE,,FALSE,FALSE,FALSE,FALSE,FALSE,FALSE,FALSE,FALSE,FALSE,FALSE,0,Follow Yaw,0,0,-52.3,307.7,FALSE,FALSE,FALSE,FALSE,FALSE,FALSE,,TRUE,Normal,,100,1024,1024,1170,1024,1,FALSE,FALSE,FALSE,FALSE,FALSE,0,FALSE,FALSE,FALSE,FALSE,37,7.064,751,2075,7.211,FALSE,3.537,3.528,0.025,FALSE,FALSE,NA,120,120,120,0,0,1,0,5,2958.3,739.57,,Idle,0,20,FALSE,5,TRUE,7,Go Home,FALSE,FALSE,FALSE,FALSE,FALSE,FALSE,FALSE,FALSE,FALSE,FALSE,FALSE,FALSE,6.972885817,79.915932,0.3,123.7,328,TRUE,1,1,FALSE,FALSE,FALSE,FALSE,,TRUE,FALSE,FALSE,Course Lock,49.2,14.3,16.4,Calm,40,,1.12.8,Mavic Mini,1SDCH7G0169R0K,1SFLH6Q0AB03DJ,1SRCH7F014TAHX,1U5X071EXP6C8G,73.8,0.6,13.1,15.744702,4.47388,0,0,Mavic Mini,1SDCH7G0169R0K,1SFLH6Q0AB03DJ,1SRCH7F014TAHX,1U5X071EXP6C8G,DJI Fly,,1.12.8,DE8DA94C-6A61-3686-7E45-505733B7EADD,1SDCH7G0169R0K,,,,,6.972830859,79.91593086,5,,
3/2/2024,54:14.5,14m 22.1s,862.1,6.972886947,79.91593216,1.6,1.6,2.2,58,0.8,0,0.223694,0,0.223694,0,0,0,0,2.7,-2.1,-56.7,303.3,,P-GPS,Auto Fly,,16,5,TRUE,,Mavic Mini,TRUE,FALSE,,Smart,RC,FALSE,TRUE,FALSE,,,TRUE,,FALSE,FALSE,FALSE,FALSE,FALSE,FALSE,FALSE,FALSE,FALSE,FALSE,0,Follow Yaw,0,0,-52.3,307.7,FALSE,FALSE,FALSE,FALSE,FALSE,FALSE,,TRUE,Normal,,100,1024,1024,1170,1024,1,FALSE,FALSE,FALSE,FALSE,FALSE,0,FALSE,FALSE,FALSE,FALSE,37,7.064,751,2075,7.058,FALSE,3.537,3.528,0.025,FALSE,FALSE,NA,120,120,120,0,0,1,0,5,3526,881.5,,Idle,0,20,FALSE,5,TRUE,7,Go Home,FALSE,FALSE,FALSE,FALSE,FALSE,FALSE,FALSE,FALSE,FALSE,FALSE,FALSE,FALSE,6.972885817,79.915932,0.4,123.7,328,TRUE,1,1,FALSE,FALSE,FALSE,FALSE,,TRUE,FALSE,FALSE,Course Lock,49.2,14.3,16.4,Calm,40,,1.12.8,Mavic Mini,1SDCH7G0169R0K,1SFLH6Q0AB03DJ,1SRCH7F014TAHX,1U5X071EXP6C8G,73.8,0.6,13.1,15.744702,4.47388,0,0,Mavic Mini,1SDCH7G0169R0K,1SFLH6Q0AB03DJ,1SRCH7F014TAHX,1U5X071EXP6C8G,DJI Fly,,1.12.8,DE8DA94C-6A61-3686-7E45-505733B7EADD,1SDCH7G0169R0K,,,,,6.972830859,79.91593086,5,,
3/2/2024,54:14.7,14m 22.2s,862.2,6.972886986,79.91593212,1.6,1.6,2.6,58,0.8,0,0.223694,0,0.223694,0,0,0,0,2.7,-2,-56.6,303.4,,P-GPS,Auto Fly,,16,5,TRUE,,Mavic Mini,TRUE,FALSE,,Smart,RC,FALSE,TRUE,FALSE,,,TRUE,,FALSE,FALSE,FALSE,FALSE,FALSE,FALSE,FALSE,FALSE,FALSE,FALSE,0,Follow Yaw,0,0,-52.3,307.7,FALSE,FALSE,FALSE,FALSE,FALSE,FALSE,,TRUE,Normal,,100,1024,1024,1065,1024,1,FALSE,FALSE,FALSE,FALSE,FALSE,0,FALSE,FALSE,FALSE,FALSE,37,7.095,751,2075,7.058,FALSE,3.555,3.54,0.025,FALSE,FALSE,NA,120,120,120,0,0,1,0,5,3526,881.5,,Idle,0,20,FALSE,5,TRUE,7,Go Home,FALSE,FALSE,FALSE,FALSE,FALSE,FALSE,FALSE,FALSE,FALSE,FALSE,FALSE,FALSE,6.972885817,79.915932,0.4,123.7,328,TRUE,1,1,FALSE,FALSE,FALSE,FALSE,,TRUE,FALSE,FALSE,Course Lock,49.2,14.3,16.4,Calm,40,,1.12.8,Mavic Mini,1SDCH7G0169R0K,1SFLH6Q0AB03DJ,1SRCH7F014TAHX,1U5X071EXP6C8G,73.8,0.6,13.1,15.744702,4.47388,0,0,Mavic Mini,1SDCH7G0169R0K,1SFLH6Q0AB03DJ,1SRCH7F014TAHX,1U5X071EXP6C8G,DJI Fly,,1.12.8,DE8DA94C-6A61-3686-7E45-505733B7EADD,1SDCH7G0169R0K,,,,,6.972830859,79.91593086,5,,
3/2/2024,54:14.7,14m 22.3s,862.3,6.972887072,79.91593193,1.6,1.6,2.6,58,0.9,0,0.223694,0,0.223694,0,0,-0.223694,0,2.8,-1.6,-56.6,303.4,,P-GPS,Auto Fly,,16,5,TRUE,,Mavic Mini,TRUE,FALSE,,Smart,RC,FALSE,TRUE,FALSE,,,TRUE,,FALSE,FALSE,FALSE,FALSE,FALSE,FALSE,FALSE,FALSE,FALSE,FALSE,0,Follow Yaw,0,0,-52.3,307.7,FALSE,FALSE,FALSE,FALSE,FALSE,FALSE,,TRUE,Normal,,100,1024,1024,1024,1024,1,FALSE,FALSE,FALSE,FALSE,FALSE,0,FALSE,FALSE,FALSE,FALSE,37,7.095,750,2075,7.058,FALSE,3.555,3.54,0.025,FALSE,FALSE,NA,120,120,120,0,0,1,0,5,3526,881.5,,Idle,0,20,FALSE,5,TRUE,7,Go Home,FALSE,FALSE,FALSE,FALSE,FALSE,FALSE,FALSE,FALSE,FALSE,FALSE,FALSE,FALSE,6.972885817,79.915932,0.4,123.7,328,TRUE,1,1,FALSE,FALSE,FALSE,FALSE,,TRUE,FALSE,FALSE,Course Lock,49.2,14.3,16.4,Calm,40,,1.12.8,Mavic Mini,1SDCH7G0169R0K,1SFLH6Q0AB03DJ,1SRCH7F014TAHX,1U5X071EXP6C8G,73.8,0.6,13.1,15.744702,4.47388,0,0,Mavic Mini,1SDCH7G0169R0K,1SFLH6Q0AB03DJ,1SRCH7F014TAHX,1U5X071EXP6C8G,DJI Fly,,1.12.8,DE8DA94C-6A61-3686-7E45-505733B7EADD,1SDCH7G0169R0K,,,,,6.972830859,79.91593086,5,,
3/2/2024,54:14.8,14m 22.4s,862.4,6.972887097,79.91593189,1.6,1.6,2.6,58,0.9,0,0.223694,0,0.223694,0,0,-0.223694,0,2.4,-1.7,-56.5,303.5,,P-GPS,Auto Fly,,16,5,TRUE,,Mavic Mini,TRUE,FALSE,,Smart,RC,FALSE,TRUE,FALSE,,,TRUE,,FALSE,FALSE,FALSE,FALSE,FALSE,FALSE,FALSE,FALSE,FALSE,FALSE,0,Follow Yaw,0,0,-52.3,307.7,FALSE,FALSE,FALSE,FALSE,FALSE,FALSE,,TRUE,Normal,,100,1024,1024,1024,1011,1,FALSE,FALSE,FALSE,FALSE,FALSE,0,FALSE,FALSE,FALSE,FALSE,37,7.095,750,2075,7.058,FALSE,3.555,3.54,0.025,FALSE,FALSE,NA,120,120,120,0,0,1,0,5,3526,881.5,,Idle,0,20,FALSE,5,TRUE,7,Go Home,FALSE,FALSE,FALSE,FALSE,FALSE,FALSE,FALSE,FALSE,FALSE,FALSE,FALSE,FALSE,6.972885817,79.915932,0.4,123.7,328,TRUE,1,1,FALSE,FALSE,FALSE,FALSE,,TRUE,FALSE,FALSE,Course Lock,49.2,14.3,16.4,Calm,40,,1.12.8,Mavic Mini,1SDCH7G0169R0K,1SFLH6Q0AB03DJ,1SRCH7F014TAHX,1U5X071EXP6C8G,73.8,0.6,13.1,15.744702,4.47388,0,0,Mavic Mini,1SDCH7G0169R0K,1SFLH6Q0AB03DJ,1SRCH7F014TAHX,1U5X071EXP6C8G,DJI Fly,,1.12.8,DE8DA94C-6A61-3686-7E45-505733B7EADD,1SDCH7G0169R0K,,,,,6.972830859,79.91593086,5,,
3/2/2024,54:14.9,14m 22.5s,862.5,6.972887122,79.91593187,1.6,1.6,2.6,58,0.9,0,0.223694,0,0.223694,0,0,-0.223694,0,2.7,-1.6,-56.5,303.5,,P-GPS,Auto Fly,,16,5,TRUE,,Mavic Mini,TRUE,FALSE,,Smart,RC,FALSE,TRUE,FALSE,,,TRUE,,FALSE,FALSE,FALSE,FALSE,FALSE,FALSE,FALSE,FALSE,FALSE,FALSE,0,Follow Yaw,0,0,-52.3,307.7,FALSE,FALSE,FALSE,FALSE,FALSE,FALSE,,TRUE,Normal,,100,1024,1024,1024,760,1,FALSE,FALSE,FALSE,FALSE,FALSE,0,FALSE,FALSE,FALSE,FALSE,37,7.095,750,2075,7.058,FALSE,3.555,3.54,0.025,FALSE,FALSE,NA,120,120,120,0,0,1,0,5,3526,881.5,,Idle,0,20,FALSE,5,TRUE,7,Go Home,FALSE,FALSE,FALSE,FALSE,FALSE,FALSE,FALSE,FALSE,FALSE,FALSE,FALSE,FALSE,6.972885817,79.915932,0.4,123.7,328,TRUE,1,1,FALSE,FALSE,FALSE,FALSE,,TRUE,FALSE,FALSE,Course Lock,49.2,14.3,16.4,Calm,40,,1.12.8,Mavic Mini,1SDCH7G0169R0K,1SFLH6Q0AB03DJ,1SRCH7F014TAHX,1U5X071EXP6C8G,73.8,0.6,13.1,15.744702,4.47388,0,0,Mavic Mini,1SDCH7G0169R0K,1SFLH6Q0AB03DJ,1SRCH7F014TAHX,1U5X071EXP6C8G,DJI Fly,,1.12.8,DE8DA94C-6A61-3686-7E45-505733B7EADD,1SDCH7G0169R0K,,,,,6.972830859,79.91593086,5,,
3/2/2024,54:14.9,14m 22.6s,862.6,6.972887132,79.91593187,1.6,1.6,2.6,58,0.9,0,0.223694,0,0.223694,0,0,-0.223694,0,2.3,-1.9,-56.5,303.5,,P-GPS,Auto Fly,,16,5,TRUE,,Mavic Mini,TRUE,FALSE,,Smart,RC,FALSE,TRUE,FALSE,,,TRUE,,FALSE,FALSE,FALSE,FALSE,FALSE,FALSE,FALSE,FALSE,FALSE,FALSE,0,Follow Yaw,0,0,-52.3,307.7,FALSE,FALSE,FALSE,FALSE,FALSE,FALSE,,TRUE,Normal,,100,1024,1024,1024,594,1,FALSE,FALSE,FALSE,FALSE,FALSE,0,FALSE,FALSE,FALSE,FALSE,37,7.095,750,2075,7.058,FALSE,3.555,3.54,0.025,FALSE,FALSE,NA,120,120,120,0,0,1,0,5,3526,881.5,,Idle,0,20,FALSE,5,TRUE,7,Go Home,FALSE,FALSE,FALSE,FALSE,FALSE,FALSE,FALSE,FALSE,FALSE,FALSE,FALSE,FALSE,6.972885817,79.915932,0.4,123.7,328,TRUE,1,1,FALSE,FALSE,FALSE,FALSE,,TRUE,FALSE,FALSE,Course Lock,49.2,14.3,16.4,Calm,40,,1.12.8,Mavic Mini,1SDCH7G0169R0K,1SFLH6Q0AB03DJ,1SRCH7F014TAHX,1U5X071EXP6C8G,73.8,0.6,13.1,15.744702,4.47388,0,0,Mavic Mini,1SDCH7G0169R0K,1SFLH6Q0AB03DJ,1SRCH7F014TAHX,1U5X071EXP6C8G,DJI Fly,,1.12.8,DE8DA94C-6A61-3686-7E45-505733B7EADD,1SDCH7G0169R0K,,,,,6.972830859,79.91593086,5,,
3/2/2024,54:15.1,14m 22.7s,862.7,6.972887166,79.9159319,1.6,1.6,2.6,58,0.9,0,0.223694,0,0.223694,0,0,0,0,2.1,-1.9,-56.5,303.5,,P-GPS,Auto Fly,,17,5,TRUE,,Mavic Mini,TRUE,FALSE,,Smart,RC,FALSE,TRUE,FALSE,,,TRUE,,FALSE,FALSE,FALSE,FALSE,FALSE,FALSE,FALSE,FALSE,FALSE,FALSE,0,Follow Yaw,0,0,-52.4,307.6,FALSE,FALSE,FALSE,FALSE,FALSE,FALSE,,TRUE,Normal,,100,1024,1024,1024,571,1,FALSE,FALSE,FALSE,FALSE,FALSE,0,FALSE,FALSE,FALSE,FALSE,37,7.095,750,2075,7.058,FALSE,3.555,3.54,0.025,FALSE,FALSE,NA,120,120,120,0,0,1,0,5,3526,881.5,,Idle,0,20,FALSE,5,TRUE,7,Go Home,FALSE,FALSE,FALSE,FALSE,FALSE,FALSE,FALSE,FALSE,FALSE,FALSE,FALSE,FALSE,6.972885817,79.915932,0.4,123.7,328,TRUE,1,1,FALSE,FALSE,FALSE,FALSE,,TRUE,FALSE,FALSE,Course Lock,49.2,14.3,16.4,Calm,40,,1.12.8,Mavic Mini,1SDCH7G0169R0K,1SFLH6Q0AB03DJ,1SRCH7F014TAHX,1U5X071EXP6C8G,73.8,0.6,13.1,15.744702,4.47388,0,0,Mavic Mini,1SDCH7G0169R0K,1SFLH6Q0AB03DJ,1SRCH7F014TAHX,1U5X071EXP6C8G,DJI Fly,,1.12.8,DE8DA94C-6A61-3686-7E45-505733B7EADD,1SDCH7G0169R0K,,,,,6.972830859,79.91593086,5,,
3/2/2024,54:15.2,14m 22.8s,862.8,6.972887144,79.91593193,1.6,1.6,2.6,58,0.9,0,0.223694,0,0.223694,0,0,0,0,1.5,-2.4,-56.5,303.5,,P-GPS,Auto Fly,,17,5,TRUE,,Mavic Mini,TRUE,FALSE,,Smart,RC,FALSE,TRUE,FALSE,,,TRUE,,FALSE,FALSE,FALSE,FALSE,FALSE,FALSE,FALSE,FALSE,FALSE,FALSE,0,Follow Yaw,0,0,-53.3,306.7,FALSE,FALSE,FALSE,FALSE,FALSE,FALSE,,TRUE,Normal,,100,1024,1024,1024,567,1,FALSE,FALSE,FALSE,FALSE,FALSE,0,FALSE,FALSE,FALSE,FALSE,37,7.095,750,2075,7.058,FALSE,3.555,3.54,0.025,FALSE,FALSE,NA,120,120,120,0,0,1,0,5,3526,881.5,,Idle,0,20,FALSE,5,TRUE,7,Go Home,FALSE,FALSE,FALSE,FALSE,FALSE,FALSE,FALSE,FALSE,FALSE,FALSE,FALSE,FALSE,6.972885817,79.915932,0.4,123.7,328,TRUE,1,1,FALSE,FALSE,FALSE,FALSE,,TRUE,FALSE,FALSE,Course Lock,49.2,14.3,16.4,Calm,40,,1.12.8,Mavic Mini,1SDCH7G0169R0K,1SFLH6Q0AB03DJ,1SRCH7F014TAHX,1U5X071EXP6C8G,73.8,0.6,13.1,15.744702,4.47388,0,0,Mavic Mini,1SDCH7G0169R0K,1SFLH6Q0AB03DJ,1SRCH7F014TAHX,1U5X071EXP6C8G,DJI Fly,,1.12.8,DE8DA94C-6A61-3686-7E45-505733B7EADD,1SDCH7G0169R0K,,,,,6.972830859,79.91593086,5,,
3/2/2024,54:15.3,14m 22.9s,862.9,6.972887108,79.91593199,1.6,1.6,2.6,58,0.9,0,0.223694,0,0.223694,0,0,0,0,1.9,-2.8,-57,303,,P-GPS,Auto Fly,,16,5,TRUE,,Mavic Mini,TRUE,FALSE,,Smart,RC,FALSE,TRUE,FALSE,,,TRUE,,FALSE,FALSE,FALSE,FALSE,FALSE,FALSE,FALSE,FALSE,FALSE,FALSE,0,Follow Yaw,0,0,-55.8,304.2,FALSE,FALSE,FALSE,FALSE,FALSE,FALSE,,TRUE,Normal,,100,1024,1024,1024,567,1,FALSE,FALSE,FALSE,FALSE,FALSE,0,FALSE,FALSE,FALSE,FALSE,37,7.095,750,2075,7.058,FALSE,3.555,3.54,0.025,FALSE,FALSE,NA,120,120,120,0,0,1,0,5,3526,881.5,,Idle,0,20,FALSE,5,TRUE,7,Go Home,FALSE,FALSE,FALSE,FALSE,FALSE,FALSE,FALSE,FALSE,FALSE,FALSE,FALSE,FALSE,6.972885817,79.915932,0.4,123.7,328,TRUE,1,1,FALSE,FALSE,FALSE,FALSE,,TRUE,FALSE,FALSE,Course Lock,49.2,14.3,16.4,Calm,40,,1.12.8,Mavic Mini,1SDCH7G0169R0K,1SFLH6Q0AB03DJ,1SRCH7F014TAHX,1U5X071EXP6C8G,73.8,0.6,13.1,15.744702,4.47388,0,0,Mavic Mini,1SDCH7G0169R0K,1SFLH6Q0AB03DJ,1SRCH7F014TAHX,1U5X071EXP6C8G,DJI Fly,,1.12.8,DE8DA94C-6A61-3686-7E45-505733B7EADD,1SDCH7G0169R0K,,,,,6.972830859,79.91593086,5,,
