CUSTOM.date [local],CUSTOM.updateTime [local],OSD.flyTime,OSD.flyTime [s],OSD.latitude,OSD.longitude,OSD.height [ft],OSD.heightMax [ft],OSD.vpsHeight [ft],OSD.altitude [ft],OSD.mileage [ft],OSD.hSpeed [MPH],OSD.hSpeedMax [MPH],OSD.xSpeed [MPH],OSD.xSpeedMax [MPH],OSD.ySpeed [MPH],OSD.ySpeedMax [MPH],OSD.zSpeed [MPH],OSD.zSpeedMax [MPH],OSD.pitch,OSD.roll,OSD.yaw,OSD.yaw [360],OSD.directionOfTravel,OSD.flycState,OSD.flycCommand,OSD.flightAction,OSD.gpsNum,OSD.gpsLevel,OSD.isGPSUsed,OSD.nonGPSCause,OSD.droneType,OSD.isSwaveWork,OSD.waveError,OSD.goHomeStatus,OSD.batteryType,OSD.ctrlDevice,OSD.isOnGround,OSD.isMotorOn,OSD.isMotorBlocked,OSD.motorStartFailedCause,OSD.motorFailReason,OSD.isImuPreheated,OSD.imuInitFailReason,OSD.isAcceletorOverRange,OSD.isBarometerDeadInAir,OSD.isCompassError,OSD.isGoHomeHeightModified,OSD.canIOCWork,OSD.isNotEnoughForce,OSD.isOutOfLimit,OSD.isPropellerCatapult,OSD.isVibrating,OSD.isVisionUsed,OSD.voltageWarning,GIMBAL.mode,GIMBAL.pitch,GIMBAL.roll,GIMBAL.yaw,GIMBAL.yaw [360],GIMBAL.isPitchAtLimit,GIMBAL.isRollAtLimit,GIMBAL.isYawAtLimit,GIMBAL.isStuck,CAMERA.isPhoto,CAMERA.isVideo,CAMERA.filename,CAMERA.sdCardIsInserted,CAMERA.sdCardState,RC.downlinkSignal,RC.uplinkSignal,RC.aileron,RC.elevator,RC.throttle,RC.rudder,RC.mode,RC.goHomeDepressed,RC.recordDepressed,RC.shutterDepressed,RC.playbackDepressed,RC.wheelDepressed,RC.wheelOffset,RC.custom1Depressed,RC.custom2Depressed,RC.custom3Depressed,RC.custom4Depressed,BATTERY.chargeLevel,BATTERY.currentPV [V],BATTERY.currentCapacity [mAh],BATTERY.fullCapacity [mAh],BATTERY.voltage [V],BATTERY.isCellVoltageEstimated,BATTERY.cellVoltage1 [V],BATTERY.cellVoltage2 [V],BATTERY.maxCellVoltageDeviation,BATTERY.isCellVoltageDeviationHigh,BATTERY.isVoltageLow,BATTERY.current [A],BATTERY.temperature [F],BATTERY.minTemperature [F],BATTERY.maxTemperature [F],BATTERY.usefulTime [s],BATTERY.goHomeTime [s],BATTERY.landTime [s],BATTERY.goHomeBattery,BATTERY.landBattery,BATTERY.safeFlyRadius,BATTERY.volumeConsume,BATTERY.status,BATTERY.goHomeStatus,BATTERY.goHomeCountdown,BATTERY.lowWarning,BATTERY.lowWarningGoHome,BATTERY.seriousLowWarning,BATTERY.seriousLowWarningLanding,BATTERY.timesCharged,MC.failSafeAction,MC.isObstacleAvoidanceEnabled,MC.isCollisionAvoidanceEnabled,MC.isRthObstacleAvoidanceEnabled,MC.isBraking,MC.isAvoidingObstacle,MC.isAvoidingActiveObstacle,MC.isAscentLimitedByObstacle,MC.isLandingConfirmationNeeded,MC.atLowAltitudeLimit,MC.atDistanceLimit,MC.atAirportAltitudeLimit,MC.atAirportBoundary,HOME.latitude,HOME.longitude,HOME.distance [ft],HOME.height [ft],HOME.heightLimit [ft],HOME.isHomeRecord,HOME.goHomeMode,HOME.aircraftHeadDirection,HOME.isDynamicHomePointEnabled,HOME.isReachedLimitDistance,HOME.isReachedLimitHeight,HOME.isCompassCalibrating,HOME.compassCalibrationState,HOME.isMultipleFlightModeEnabled,HOME.isBeginnerMode,HOME.isIOCEnabled,HOME.iocMode,HOME.goHomeHeight [ft],HOME.courseLockAngle,HOME.forceLandingHeight [ft],HOME.wind,HOME.dataRecorderFileIndex,RECOVER.appType,RECOVER.appVersion,RECOVER.aircraftName,RECOVER.aircraftSerial,RECOVER.cameraSerial,RECOVER.rcSerial,RECOVER.batterySerial,DETAILS.totalTime [s],DETAILS.totalDistance [ft],DETAILS.maxHeight [ft],DETAILS.maxHorizontalSpeed [MPH],DETAILS.maxVerticalSpeed [MPH],DETAILS.photoNum,DETAILS.videoTime [s],DETAILS.aircraftName,DETAILS.aircraftSerial,DETAILS.cameraSerial,DETAILS.rcSerial,DETAILS.batterySerial,DETAILS.appName,DETAILS.appType,DETAILS.appVersion,DETAILS.guid,SERIAL.flightController,SERIAL.camera,SERIAL.gimbal,SERIAL.rc,SERIAL.battery,APPGPS.latitude,APPGPS.longitude,APPGPS.accuracy,APP.tip,APP.warning
2/22/2024,12:20.4,0m 0.0s,0,6.974143342,79.9142621,0,0,0.3,52,0,0,0,0,0,0,0,0,0,0.1,1.5,-28,332,,Starting Motors,Drop Calibration,Takeoff (RC Assisted),8,4,TRUE,,Mavic Mini,FALSE,FALSE,,Smart,RC,TRUE,TRUE,FALSE,,,TRUE,,FALSE,FALSE,FALSE,FALSE,FALSE,FALSE,FALSE,FALSE,FALSE,FALSE,0,Follow Yaw,0,0,-25.2,334.8,FALSE,FALSE,FALSE,FALSE,FALSE,FALSE,,TRUE,Normal,,,1024,1024,1024,1024,2,FALSE,FALSE,FALSE,FALSE,FALSE,0,FALSE,FALSE,FALSE,FALSE,98,8.221,2019,2056,8.221,TRUE,4.111,4.111,,FALSE,FALSE,NA,81.3,81.3,81.3,,,,,,,,,Idle,,,TRUE,,FALSE,6,Go Home,FALSE,FALSE,FALSE,FALSE,FALSE,FALSE,FALSE,FALSE,FALSE,FALSE,FALSE,FALSE,,,,,,FALSE,,,FALSE,FALSE,FALSE,FALSE,,FALSE,FALSE,FALSE,,,,,Calm,,,1.12.8,Mavic Mini,1SDCH7G0169R0K,1SFLH6Q0AB03DJ,1SRCH7F014TAHX,1U5X071EXP6C9Y,84.8,0.4,13.1,8.142685,2.684328,0,0,Mavic Mini,1SDCH7G0169R0K,1SFLH6Q0AB03DJ,1SRCH7F014TAHX,1U5X071EXP6C9Y,DJI Fly,,1.12.8,B3706471-75DF-5FFE-C660-DE8DFD53BA69,1SDCH7G0169R0K,,,,,,,,Flight mode changed to Starting Motors.,
2/22/2024,12:20.5,0m 0.1s,0.1,6.974143313,79.91426208,0,0,0.3,52,0,0,0,0,0,0,0,0,0,0.1,1.5,-28,332,,Starting Motors,Drop Calibration,Takeoff (RC Assisted),8,4,TRUE,,Mavic Mini,FALSE,FALSE,,Smart,RC,TRUE,TRUE,FALSE,,,TRUE,,FALSE,FALSE,FALSE,FALSE,FALSE,FALSE,FALSE,FALSE,FALSE,FALSE,0,Follow Yaw,0,0,-25.2,334.8,FALSE,FALSE,FALSE,FALSE,FALSE,FALSE,,TRUE,Normal,,100,1024,1024,1024,1024,2,FALSE,FALSE,FALSE,FALSE,FALSE,0,FALSE,FALSE,FALSE,FALSE,98,8.224,2018,2056,8.224,FALSE,4.114,4.11,0.004,FALSE,FALSE,NA,81.3,81.3,81.3,,,,,,,,,Idle,,,TRUE,,FALSE,6,Go Home,FALSE,FALSE,FALSE,FALSE,FALSE,FALSE,FALSE,FALSE,FALSE,FALSE,FALSE,FALSE,,,,,,FALSE,,,FALSE,FALSE,FALSE,FALSE,,FALSE,FALSE,FALSE,,,,,Calm,,,1.12.8,Mavic Mini,1SDCH7G0169R0K,1SFLH6Q0AB03DJ,1SRCH7F014TAHX,1U5X071EXP6C9Y,84.8,0.4,13.1,8.142685,2.684328,0,0,Mavic Mini,1SDCH7G0169R0K,1SFLH6Q0AB03DJ,1SRCH7F014TAHX,1U5X071EXP6C9Y,DJI Fly,,1.12.8,B3706471-75DF-5FFE-C660-DE8DFD53BA69,1SDCH7G0169R0K,,,,,,,,,
2/22/2024,12:20.7,0m 0.2s,0.2,6.97414327,79.91426208,0,0,0.3,52,0,0,0,0,0,0,0,0,0,0.1,1.5,-28,332,,Starting Motors,Drop Calibration,Takeoff (RC Assisted),8,4,TRUE,,Mavic Mini,TRUE,FALSE,,Smart,RC,TRUE,TRUE,FALSE,,,TRUE,,FALSE,FALSE,FALSE,FALSE,FALSE,FALSE,FALSE,FALSE,FALSE,FALSE,0,Follow Yaw,0,0,-25.2,334.8,FALSE,FALSE,FALSE,FALSE,FALSE,FALSE,,TRUE,Normal,,100,1024,1024,1024,1024,2,FALSE,FALSE,FALSE,FALSE,FALSE,0,FALSE,FALSE,FALSE,FALSE,98,8.224,2018,2056,8.224,FALSE,4.114,4.11,0.004,FALSE,FALSE,NA,81.3,81.3,81.3,,,,,,,,,Idle,,,TRUE,,FALSE,6,Go Home,FALSE,FALSE,FALSE,FALSE,FALSE,FALSE,FALSE,FALSE,FALSE,FALSE,FALSE,FALSE,,,,,,FALSE,,,FALSE,FALSE,FALSE,FALSE,,FALSE,FALSE,FALSE,,,,,Calm,,,1.12.8,Mavic Mini,1SDCH7G0169R0K,1SFLH6Q0AB03DJ,1SRCH7F014TAHX,1U5X071EXP6C9Y,84.8,0.4,13.1,8.142685,2.684328,0,0,Mavic Mini,1SDCH7G0169R0K,1SFLH6Q0AB03DJ,1SRCH7F014TAHX,1U5X071EXP6C9Y,DJI Fly,,1.12.8,B3706471-75DF-5FFE-C660-DE8DFD53BA69,1SDCH7G0169R0K,,,,,,,,,
2/22/2024,12:20.8,0m 0.3s,0.3,6.974143252,79.91426205,0,0,0.3,52,0,0,0,0,0,0,0,0,0,0.1,1.4,-28,332,,Starting Motors,Drop Calibration,Takeoff (RC Assisted),8,4,TRUE,,Mavic Mini,TRUE,FALSE,,Smart,RC,TRUE,TRUE,FALSE,,,TRUE,,FALSE,FALSE,FALSE,FALSE,FALSE,FALSE,FALSE,FALSE,FALSE,FALSE,0,Follow Yaw,0,0,-25.2,334.8,FALSE,FALSE,FALSE,FALSE,FALSE,FALSE,,TRUE,Normal,,100,1024,1024,1024,1024,2,FALSE,FALSE,FALSE,FALSE,FALSE,0,FALSE,FALSE,FALSE,FALSE,98,8.224,2018,2056,8.224,FALSE,4.114,4.11,0.004,FALSE,FALSE,NA,81.3,81.3,81.3,,,,,,,,,Idle,,,TRUE,,FALSE,6,Go Home,FALSE,FALSE,FALSE,FALSE,FALSE,FALSE,FALSE,FALSE,FALSE,FALSE,FALSE,FALSE,,,,,,FALSE,,,FALSE,FALSE,FALSE,FALSE,,FALSE,FALSE,FALSE,,,,,Calm,,,1.12.8,Mavic Mini,1SDCH7G0169R0K,1SFLH6Q0AB03DJ,1SRCH7F014TAHX,1U5X071EXP6C9Y,84.8,0.4,13.1,8.142685,2.684328,0,0,Mavic Mini,1SDCH7G0169R0K,1SFLH6Q0AB03DJ,1SRCH7F014TAHX,1U5X071EXP6C9Y,DJI Fly,,1.12.8,B3706471-75DF-5FFE-C660-DE8DFD53BA69,1SDCH7G0169R0K,,,,,,,,,
2/22/2024,12:20.9,0m 0.4s,0.4,6.974143248,79.91426201,0,0,0.3,52,0,0,0,0,0,0,0,0,0,0.1,1.5,-28,332,,Starting Motors,Drop Calibration,Takeoff (RC Assisted),8,4,TRUE,,Mavic Mini,TRUE,FALSE,,Smart,RC,TRUE,TRUE,FALSE,,,TRUE,,FALSE,FALSE,FALSE,FALSE,FALSE,FALSE,FALSE,FALSE,FALSE,FALSE,0,Follow Yaw,0,0,-25.2,334.8,FALSE,FALSE,FALSE,FALSE,FALSE,FALSE,,TRUE,Normal,,100,1024,1024,1024,1024,2,FALSE,FALSE,FALSE,FALSE,FALSE,0,FALSE,FALSE,FALSE,FALSE,98,8.224,2018,2056,8.224,FALSE,4.114,4.11,0.004,FALSE,FALSE,NA,81.3,81.3,81.3,,,,,,,,,Idle,,,TRUE,,FALSE,6,Go Home,FALSE,FALSE,FALSE,FALSE,FALSE,FALSE,FALSE,FALSE,FALSE,FALSE,FALSE,FALSE,,,,,,FALSE,,,FALSE,FALSE,FALSE,FALSE,,FALSE,FALSE,FALSE,,,,,Calm,,,1.12.8,Mavic Mini,1SDCH7G0169R0K,1SFLH6Q0AB03DJ,1SRCH7F014TAHX,1U5X071EXP6C9Y,84.8,0.4,13.1,8.142685,2.684328,0,0,Mavic Mini,1SDCH7G0169R0K,1SFLH6Q0AB03DJ,1SRCH7F014TAHX,1U5X071EXP6C9Y,DJI Fly,,1.12.8,B3706471-75DF-5FFE-C660-DE8DFD53BA69,1SDCH7G0169R0K,,,,,,,,,
2/22/2024,12:21.0,0m 0.5s,0.5,6.974143234,79.91426204,0,0,0.3,52,0,0,0,0,0,0,0,0,0,0.1,1.5,-28.1,331.9,,Starting Motors,Drop Calibration,Takeoff (RC Assisted),8,4,TRUE,,Mavic Mini,TRUE,FALSE,,Smart,RC,TRUE,TRUE,FALSE,,,TRUE,,FALSE,FALSE,FALSE,FALSE,FALSE,FALSE,FALSE,FALSE,FALSE,FALSE,0,Follow Yaw,0,0,-25.2,334.8,FALSE,FALSE,FALSE,FALSE,FALSE,FALSE,,TRUE,Normal,,100,1024,1024,1024,1024,2,FALSE,FALSE,FALSE,FALSE,FALSE,0,FALSE,FALSE,FALSE,FALSE,98,8.224,2018,2056,8.224,FALSE,4.114,4.11,0.004,FALSE,FALSE,NA,81.3,81.3,81.3,,,,,,,,,Idle,,,TRUE,,FALSE,6,Go Home,FALSE,FALSE,FALSE,FALSE,FALSE,FALSE,FALSE,FALSE,FALSE,FALSE,FALSE,FALSE,,,,,,FALSE,,,FALSE,FALSE,FALSE,FALSE,,FALSE,FALSE,FALSE,,,,,Calm,,,1.12.8,Mavic Mini,1SDCH7G0169R0K,1SFLH6Q0AB03DJ,1SRCH7F014TAHX,1U5X071EXP6C9Y,84.8,0.4,13.1,8.142685,2.684328,0,0,Mavic Mini,1SDCH7G0169R0K,1SFLH6Q0AB03DJ,1SRCH7F014TAHX,1U5X071EXP6C9Y,DJI Fly,,1.12.8,B3706471-75DF-5FFE-C660-DE8DFD53BA69,1SDCH7G0169R0K,,,,,,,,,
2/22/2024,12:21.0,0m 0.6s,0.6,6.974143189,79.91426199,0,0,0.3,52,0,0,0,0,0,0,0,0,0,0,1.4,-28.1,331.9,,Starting Motors,Drop Calibration,Takeoff (RC Assisted),8,4,TRUE,,Mavic Mini,TRUE,FALSE,,Smart,RC,TRUE,TRUE,FALSE,,,TRUE,,FALSE,FALSE,FALSE,FALSE,FALSE,FALSE,FALSE,FALSE,FALSE,FALSE,0,Follow Yaw,0,0,-25.2,334.8,FALSE,FALSE,FALSE,FALSE,FALSE,FALSE,,TRUE,Normal,,100,1024,1024,1024,1024,2,FALSE,FALSE,FALSE,FALSE,FALSE,0,FALSE,FALSE,FALSE,FALSE,98,8.224,2018,2056,8.224,FALSE,4.114,4.11,0.004,FALSE,FALSE,NA,81.3,81.3,81.3,,,,,,,,,Idle,,,TRUE,,FALSE,6,Go Home,FALSE,FALSE,FALSE,FALSE,FALSE,FALSE,FALSE,FALSE,FALSE,FALSE,FALSE,FALSE,,,,,,FALSE,,,FALSE,FALSE,FALSE,FALSE,,FALSE,FALSE,FALSE,,,,,Calm,,,1.12.8,Mavic Mini,1SDCH7G0169R0K,1SFLH6Q0AB03DJ,1SRCH7F014TAHX,1U5X071EXP6C9Y,84.8,0.4,13.1,8.142685,2.684328,0,0,Mavic Mini,1SDCH7G0169R0K,1SFLH6Q0AB03DJ,1SRCH7F014TAHX,1U5X071EXP6C9Y,DJI Fly,,1.12.8,B3706471-75DF-5FFE-C660-DE8DFD53BA69,1SDCH7G0169R0K,,,,,,,,,
2/22/2024,12:21.1,0m 0.7s,0.7,6.974143168,79.91426193,0,0,0.3,52,0,0,0,0,0,0,0,0,0,0,1.4,-28,332,,Starting Motors,Drop Calibration,Takeoff (RC Assisted),8,4,TRUE,,Mavic Mini,TRUE,FALSE,,Smart,RC,TRUE,TRUE,FALSE,,,TRUE,,FALSE,FALSE,FALSE,FALSE,FALSE,FALSE,FALSE,FALSE,FALSE,FALSE,0,Follow Yaw,0,0,-25.2,334.8,FALSE,FALSE,FALSE,FALSE,FALSE,FALSE,,TRUE,Normal,,100,1024,1024,1024,1024,2,FALSE,FALSE,FALSE,FALSE,FALSE,0,FALSE,FALSE,FALSE,FALSE,98,8.224,2018,2056,8.224,FALSE,4.114,4.11,0.004,FALSE,FALSE,NA,81.3,81.3,81.3,,,,,,,,,Idle,,,TRUE,,FALSE,6,Go Home,FALSE,FALSE,FALSE,FALSE,FALSE,FALSE,FALSE,FALSE,FALSE,FALSE,FALSE,FALSE,,,,,,FALSE,,,FALSE,FALSE,FALSE,FALSE,,FALSE,FALSE,FALSE,,,,,Calm,,,1.12.8,Mavic Mini,1SDCH7G0169R0K,1SFLH6Q0AB03DJ,1SRCH7F014TAHX,1U5X071EXP6C9Y,84.8,0.4,13.1,8.142685,2.684328,0,0,Mavic Mini,1SDCH7G0169R0K,1SFLH6Q0AB03DJ,1SRCH7F014TAHX,1U5X071EXP6C9Y,DJI Fly,,1.12.8,B3706471-75DF-5FFE-C660-DE8DFD53BA69,1SDCH7G0169R0K,,,,,,,,,
2/22/2024,12:21.2,0m 0.8s,0.8,6.974143159,79.91426187,0,0,0.3,52,0.1,0,0,0,0,0,0,0,0,0,1.4,-28,332,,Starting Motors,Drop Calibration,Takeoff (RC Assisted),8,4,TRUE,,Mavic Mini,TRUE,FALSE,,Smart,RC,TRUE,TRUE,FALSE,,,TRUE,,FALSE,FALSE,FALSE,FALSE,FALSE,FALSE,FALSE,FALSE,FALSE,FALSE,0,Follow Yaw,0,0,-25.2,334.8,FALSE,FALSE,FALSE,FALSE,FALSE,FALSE,,TRUE,Normal,,100,1024,1024,1024,1024,2,FALSE,FALSE,FALSE,FALSE,FALSE,0,FALSE,FALSE,FALSE,FALSE,98,8.224,2018,2056,8.206,FALSE,4.114,4.11,0.004,FALSE,FALSE,NA,81.3,81.3,81.3,0,2,0,0,5,2388.4,597.1,,Idle,0,20,FALSE,5,TRUE,6,Go Home,FALSE,FALSE,FALSE,FALSE,FALSE,FALSE,FALSE,FALSE,FALSE,FALSE,FALSE,FALSE,6.974154005,79.91427651,6.6,101,328,TRUE,1,1,FALSE,FALSE,FALSE,FALSE,,TRUE,FALSE,FALSE,Course Lock,49.2,,16.4,Calm,33,,1.12.8,Mavic Mini,1SDCH7G0169R0K,1SFLH6Q0AB03DJ,1SRCH7F014TAHX,1U5X071EXP6C9Y,84.8,0.4,13.1,8.142685,2.684328,0,0,Mavic Mini,1SDCH7G0169R0K,1SFLH6Q0AB03DJ,1SRCH7F014TAHX,1U5X071EXP6C9Y,DJI Fly,,1.12.8,B3706471-75DF-5FFE-C660-DE8DFD53BA69,1SDCH7G0169R0K,,,,,,,,Data Recorder File Index is 33.; Set Return to Home (RTH) altitude to 15 m (49 ft).; Set maximum flight altitude to 100 m (328 ft).,
2/22/2024,12:21.3,0m 0.9s,0.9,6.974143118,79.91426185,0,0,0.3,52,0.1,0,0,0,0,0,0,0,0,0,1.3,-28,332,,Starting Motors,Drop Calibration,Takeoff (RC Assisted),8,4,TRUE,,Mavic Mini,TRUE,FALSE,,Smart,RC,TRUE,TRUE,FALSE,,,TRUE,,FALSE,FALSE,FALSE,FALSE,FALSE,FALSE,FALSE,FALSE,FALSE,FALSE,0,Follow Yaw,0,0,-25.2,334.8,FALSE,FALSE,FALSE,FALSE,FALSE,FALSE,,TRUE,Normal,,100,1024,1024,1024,1024,2,FALSE,FALSE,FALSE,FALSE,FALSE,0,FALSE,FALSE,FALSE,FALSE,98,8.224,2018,2056,8.206,FALSE,4.114,4.11,0.004,FALSE,FALSE,NA,81.3,81.3,81.3,0,2,0,0,5,2388.4,597.1,,Idle,0,20,FALSE,5,TRUE,6,Go Home,FALSE,FALSE,FALSE,FALSE,FALSE,FALSE,FALSE,FALSE,FALSE,FALSE,FALSE,FALSE,6.974154005,79.91427651,6.6,101,328,TRUE,1,1,FALSE,FALSE,FALSE,FALSE,,TRUE,FALSE,FALSE,Course Lock,49.2,,16.4,Calm,33,,1.12.8,Mavic Mini,1SDCH7G0169R0K,1SFLH6Q0AB03DJ,1SRCH7F014TAHX,1U5X071EXP6C9Y,84.8,0.4,13.1,8.142685,2.684328,0,0,Mavic Mini,1SDCH7G0169R0K,1SFLH6Q0AB03DJ,1SRCH7F014TAHX,1U5X071EXP6C9Y,DJI Fly,,1.12.8,B3706471-75DF-5FFE-C660-DE8DFD53BA69,1SDCH7G0169R0K,,,,,,,,,
2/22/2024,12:21.4,0m 1.0s,1,6.974143059,79.91426187,0,0,0.3,52,0.1,0,0,0,0,0,0,0,0,0,1.3,-28,332,,Starting Motors,Drop Calibration,Takeoff (RC Assisted),8,4,TRUE,,Mavic Mini,TRUE,FALSE,,Smart,RC,TRUE,TRUE,FALSE,,,TRUE,,FALSE,FALSE,FALSE,FALSE,FALSE,FALSE,FALSE,FALSE,FALSE,FALSE,0,Follow Yaw,0,0,-25.2,334.8,FALSE,FALSE,FALSE,FALSE,FALSE,FALSE,,TRUE,Normal,,100,1024,1024,1024,1024,2,FALSE,FALSE,FALSE,FALSE,FALSE,0,FALSE,FALSE,FALSE,FALSE,98,8.224,2018,2056,8.206,FALSE,4.114,4.11,0.004,FALSE,FALSE,NA,81.3,81.3,81.3,0,2,0,0,5,2388.4,597.1,,Idle,0,20,FALSE,5,TRUE,6,Go Home,FALSE,FALSE,FALSE,FALSE,FALSE,FALSE,FALSE,FALSE,FALSE,FALSE,FALSE,FALSE,6.974154005,79.91427651,6.6,101,328,TRUE,1,1,FALSE,FALSE,FALSE,FALSE,,TRUE,FALSE,FALSE,Course Lock,49.2,,16.4,Calm,33,,1.12.8,Mavic Mini,1SDCH7G0169R0K,1SFLH6Q0AB03DJ,1SRCH7F014TAHX,1U5X071EXP6C9Y,84.8,0.4,13.1,8.142685,2.684328,0,0,Mavic Mini,1SDCH7G0169R0K,1SFLH6Q0AB03DJ,1SRCH7F014TAHX,1U5X071EXP6C9Y,DJI Fly,,1.12.8,B3706471-75DF-5FFE-C660-DE8DFD53BA69,1SDCH7G0169R0K,,,,,,,,,
2/22/2024,12:21.5,0m 1.1s,1.1,6.974143034,79.91426185,0,0,0.3,52,0.1,0,0,0,0,0,0,0,0,0,1.3,-28,332,,Manual Takeoff,Drop Calibration,Takeoff (RC Assisted),8,4,TRUE,,Mavic Mini,TRUE,FALSE,,Smart,RC,TRUE,TRUE,FALSE,,,TRUE,,FALSE,FALSE,FALSE,FALSE,FALSE,FALSE,FALSE,FALSE,FALSE,FALSE,0,Follow Yaw,0,0,-25.2,334.8,FALSE,FALSE,FALSE,FALSE,FALSE,FALSE,,TRUE,Normal,,100,1024,1024,1024,1024,2,FALSE,FALSE,FALSE,FALSE,FALSE,0,FALSE,FALSE,FALSE,FALSE,98,8.224,2018,2056,8.206,FALSE,4.114,4.11,0.004,FALSE,FALSE,NA,81.3,81.3,81.3,0,2,0,0,5,2388.4,597.1,,Idle,0,20,FALSE,5,TRUE,6,Go Home,FALSE,FALSE,FALSE,FALSE,FALSE,FALSE,FALSE,FALSE,FALSE,FALSE,FALSE,FALSE,6.974154005,79.91427651,6.6,101,328,TRUE,1,1,FALSE,FALSE,FALSE,FALSE,,TRUE,FALSE,FALSE,Course Lock,49.2,,16.4,Calm,33,,1.12.8,Mavic Mini,1SDCH7G0169R0K,1SFLH6Q0AB03DJ,1SRCH7F014TAHX,1U5X071EXP6C9Y,84.8,0.4,13.1,8.142685,2.684328,0,0,Mavic Mini,1SDCH7G0169R0K,1SFLH6Q0AB03DJ,1SRCH7F014TAHX,1U5X071EXP6C9Y,DJI Fly,,1.12.8,B3706471-75DF-5FFE-C660-DE8DFD53BA69,1SDCH7G0169R0K,,,,,,,,Flight mode changed to Manual Takeoff.,
2/22/2024,12:21.6,0m 1.2s,1.2,6.974143026,79.91426181,0,0,0.3,52,0.1,0,0,0,0,0,0,0,0,0,1.3,-28,332,,Manual Takeoff,Drop Calibration,Takeoff (RC Assisted),8,4,TRUE,,Mavic Mini,TRUE,FALSE,,Smart,RC,TRUE,TRUE,FALSE,,,TRUE,,FALSE,FALSE,FALSE,FALSE,FALSE,FALSE,FALSE,FALSE,FALSE,FALSE,0,Follow Yaw,0,0,-25.2,334.8,FALSE,FALSE,FALSE,FALSE,FALSE,FALSE,,TRUE,Normal,,100,1024,1024,1024,1024,2,FALSE,FALSE,FALSE,FALSE,FALSE,0,FALSE,FALSE,FALSE,FALSE,98,8.161,2018,2056,8.206,FALSE,4.083,4.079,0.004,FALSE,FALSE,NA,81.3,81.3,81.3,0,2,0,0,5,2388.4,597.1,,Idle,0,20,FALSE,5,TRUE,6,Go Home,FALSE,FALSE,FALSE,FALSE,FALSE,FALSE,FALSE,FALSE,FALSE,FALSE,FALSE,FALSE,6.974154005,79.91427651,6.6,101,328,TRUE,1,1,FALSE,FALSE,FALSE,FALSE,,TRUE,FALSE,FALSE,Course Lock,49.2,,16.4,Calm,33,,1.12.8,Mavic Mini,1SDCH7G0169R0K,1SFLH6Q0AB03DJ,1SRCH7F014TAHX,1U5X071EXP6C9Y,84.8,0.4,13.1,8.142685,2.684328,0,0,Mavic Mini,1SDCH7G0169R0K,1SFLH6Q0AB03DJ,1SRCH7F014TAHX,1U5X071EXP6C9Y,DJI Fly,,1.12.8,B3706471-75DF-5FFE-C660-DE8DFD53BA69,1SDCH7G0169R0K,,,,,,,,,
2/22/2024,12:21.7,0m 1.3s,1.3,6.974142996,79.91426171,0,0,0.3,52,0.2,0,0,0,0,0,0,0,0,0,1.4,-28,332,,Manual Takeoff,Drop Calibration,Takeoff (RC Assisted),8,4,TRUE,,Mavic Mini,TRUE,FALSE,,Smart,RC,TRUE,TRUE,FALSE,,,TRUE,,FALSE,FALSE,FALSE,FALSE,FALSE,FALSE,FALSE,FALSE,FALSE,FALSE,0,Follow Yaw,0,0,-25.2,334.8,FALSE,FALSE,FALSE,FALSE,FALSE,FALSE,,TRUE,Normal,,100,1024,1024,1024,1024,2,FALSE,FALSE,FALSE,FALSE,FALSE,0,FALSE,FALSE,FALSE,FALSE,98,8.161,2018,2056,8.206,FALSE,4.083,4.079,0.004,FALSE,FALSE,NA,81.3,81.3,81.3,0,2,0,0,5,2388.4,597.1,,Idle,0,20,FALSE,5,TRUE,6,Go Home,FALSE,FALSE,FALSE,FALSE,FALSE,FALSE,FALSE,FALSE,FALSE,FALSE,FALSE,FALSE,6.974154005,79.91427651,6.6,101,328,TRUE,1,1,FALSE,FALSE,FALSE,FALSE,,TRUE,FALSE,FALSE,Course Lock,49.2,,16.4,Calm,33,,1.12.8,Mavic Mini,1SDCH7G0169R0K,1SFLH6Q0AB03DJ,1SRCH7F014TAHX,1U5X071EXP6C9Y,84.8,0.4,13.1,8.142685,2.684328,0,0,Mavic Mini,1SDCH7G0169R0K,1SFLH6Q0AB03DJ,1SRCH7F014TAHX,1U5X071EXP6C9Y,DJI Fly,,1.12.8,B3706471-75DF-5FFE-C660-DE8DFD53BA69,1SDCH7G0169R0K,,,,,,,,,
2/22/2024,12:21.9,0m 1.4s,1.4,6.974142949,79.91426166,0,0,0.3,52,0.2,0,0,0,0,0,0,0,0,0,1.4,-28,332,,Manual Takeoff,Drop Calibration,Takeoff (RC Assisted),8,4,TRUE,,Mavic Mini,TRUE,FALSE,,Smart,RC,TRUE,TRUE,FALSE,,,TRUE,,FALSE,FALSE,FALSE,FALSE,FALSE,FALSE,FALSE,FALSE,FALSE,FALSE,0,Follow Yaw,0,0,-25.2,334.8,FALSE,FALSE,FALSE,FALSE,FALSE,FALSE,,TRUE,Normal,,100,1024,1024,1024,1024,2,FALSE,FALSE,FALSE,FALSE,FALSE,0,FALSE,FALSE,FALSE,FALSE,98,8.161,2018,2056,8.206,FALSE,4.083,4.079,0.004,FALSE,FALSE,NA,81.3,81.3,81.3,0,2,0,0,5,2388.4,597.1,,Idle,0,20,FALSE,5,TRUE,6,Go Home,FALSE,FALSE,FALSE,FALSE,FALSE,FALSE,FALSE,FALSE,FALSE,FALSE,FALSE,FALSE,6.974154005,79.91427651,6.7,101,328,TRUE,1,1,FALSE,FALSE,FALSE,FALSE,,TRUE,FALSE,FALSE,Course Lock,49.2,,16.4,Calm,33,,1.12.8,Mavic Mini,1SDCH7G0169R0K,1SFLH6Q0AB03DJ,1SRCH7F014TAHX,1U5X071EXP6C9Y,84.8,0.4,13.1,8.142685,2.684328,0,0,Mavic Mini,1SDCH7G0169R0K,1SFLH6Q0AB03DJ,1SRCH7F014TAHX,1U5X071EXP6C9Y,DJI Fly,,1.12.8,B3706471-75DF-5FFE-C660-DE8DFD53BA69,1SDCH7G0169R0K,,,,,,,,,
2/22/2024,12:22.0,0m 1.5s,1.5,6.974142928,79.91426163,0,0,0.3,52,0.2,0,0,0,0,0,0,0,0,0,1.4,-28,332,,Manual Takeoff,Drop Calibration,Takeoff (RC Assisted),8,4,TRUE,,Mavic Mini,TRUE,FALSE,,Smart,RC,TRUE,TRUE,FALSE,,,TRUE,,FALSE,FALSE,FALSE,FALSE,FALSE,FALSE,FALSE,FALSE,FALSE,FALSE,0,Follow Yaw,0,0,-25.2,334.8,FALSE,FALSE,FALSE,FALSE,FALSE,FALSE,,TRUE,Normal,,100,1024,1024,1024,1024,2,FALSE,FALSE,FALSE,FALSE,FALSE,0,FALSE,FALSE,FALSE,FALSE,98,8.161,2018,2056,8.206,FALSE,4.083,4.079,0.004,FALSE,FALSE,NA,81.3,81.3,81.3,0,2,0,0,5,2388.4,597.1,,Idle,0,20,FALSE,5,TRUE,6,Go Home,FALSE,FALSE,FALSE,FALSE,FALSE,FALSE,FALSE,FALSE,FALSE,FALSE,FALSE,FALSE,6.974154005,79.91427651,6.7,101,328,TRUE,1,1,FALSE,FALSE,FALSE,FALSE,,TRUE,FALSE,FALSE,Course Lock,49.2,,16.4,Calm,33,,1.12.8,Mavic Mini,1SDCH7G0169R0K,1SFLH6Q0AB03DJ,1SRCH7F014TAHX,1U5X071EXP6C9Y,84.8,0.4,13.1,8.142685,2.684328,0,0,Mavic Mini,1SDCH7G0169R0K,1SFLH6Q0AB03DJ,1SRCH7F014TAHX,1U5X071EXP6C9Y,DJI Fly,,1.12.8,B3706471-75DF-5FFE-C660-DE8DFD53BA69,1SDCH7G0169R0K,,,,,,,,,
2/22/2024,12:22.1,0m 1.6s,1.6,6.97414292,79.91426162,0,0,0.3,52,0.2,0,0,0,0,0,0,0,0,0,1.4,-28,332,,Manual Takeoff,Drop Calibration,Takeoff (RC Assisted),8,4,TRUE,,Mavic Mini,TRUE,FALSE,,Smart,RC,TRUE,TRUE,FALSE,,,TRUE,,FALSE,FALSE,FALSE,FALSE,FALSE,FALSE,FALSE,FALSE,FALSE,FALSE,0,Follow Yaw,0,0,-25.2,334.8,FALSE,FALSE,FALSE,FALSE,FALSE,FALSE,,TRUE,Normal,,100,1024,1024,1024,1024,2,FALSE,FALSE,FALSE,FALSE,FALSE,0,FALSE,FALSE,FALSE,FALSE,98,8.161,2018,2056,8.206,FALSE,4.083,4.079,0.004,FALSE,FALSE,NA,81.3,81.3,81.3,0,2,0,0,5,2388.4,597.1,,Idle,0,20,FALSE,5,TRUE,6,Go Home,FALSE,FALSE,FALSE,FALSE,FALSE,FALSE,FALSE,FALSE,FALSE,FALSE,FALSE,FALSE,6.974154005,79.91427651,6.7,101,328,TRUE,1,1,FALSE,FALSE,FALSE,FALSE,,TRUE,FALSE,FALSE,Course Lock,49.2,,16.4,Calm,33,,1.12.8,Mavic Mini,1SDCH7G0169R0K,1SFLH6Q0AB03DJ,1SRCH7F014TAHX,1U5X071EXP6C9Y,84.8,0.4,13.1,8.142685,2.684328,0,0,Mavic Mini,1SDCH7G0169R0K,1SFLH6Q0AB03DJ,1SRCH7F014TAHX,1U5X071EXP6C9Y,DJI Fly,,1.12.8,B3706471-75DF-5FFE-C660-DE8DFD53BA69,1SDCH7G0169R0K,,,,,,,,,
2/22/2024,12:22.2,0m 1.7s,1.7,6.974143009,79.91426176,0,0,0.3,52,0.3,0,0,0,0,0,0,0,0,0,1.4,-28,332,,Manual Takeoff,Drop Calibration,Takeoff (RC Assisted),8,4,TRUE,,Mavic Mini,TRUE,FALSE,,Smart,RC,TRUE,TRUE,FALSE,,,TRUE,,FALSE,FALSE,FALSE,FALSE,FALSE,FALSE,FALSE,FALSE,FALSE,FALSE,0,Follow Yaw,0,0,-25.2,334.8,FALSE,FALSE,FALSE,FALSE,FALSE,FALSE,,TRUE,Normal,,100,1024,1024,1024,1024,2,FALSE,FALSE,FALSE,FALSE,FALSE,0,FALSE,FALSE,FALSE,FALSE,98,8.161,2018,2056,8.206,FALSE,4.083,4.079,0.004,FALSE,FALSE,NA,81.3,81.3,81.3,0,2,0,0,5,2388.4,597.1,,Idle,0,20,FALSE,5,TRUE,6,Go Home,FALSE,FALSE,FALSE,FALSE,FALSE,FALSE,FALSE,FALSE,FALSE,FALSE,FALSE,FALSE,6.974154005,79.91427651,6.6,101,328,TRUE,1,1,FALSE,FALSE,FALSE,FALSE,,TRUE,FALSE,FALSE,Course Lock,49.2,,16.4,Calm,33,,1.12.8,Mavic Mini,1SDCH7G0169R0K,1SFLH6Q0AB03DJ,1SRCH7F014TAHX,1U5X071EXP6C9Y,84.8,0.4,13.1,8.142685,2.684328,0,0,Mavic Mini,1SDCH7G0169R0K,1SFLH6Q0AB03DJ,1SRCH7F014TAHX,1U5X071EXP6C9Y,DJI Fly,,1.12.8,B3706471-75DF-5FFE-C660-DE8DFD53BA69,1SDCH7G0169R0K,,,,,,,,,
2/22/2024,12:22.3,0m 1.8s,1.8,6.974143014,79.91426176,0,0,0.3,52,0.3,0,0,0,0,0,0,0,0,0,1.4,-28,332,,Manual Takeoff,Drop Calibration,Takeoff (RC Assisted),8,4,TRUE,,Mavic Mini,TRUE,FALSE,,Smart,RC,TRUE,TRUE,FALSE,,,TRUE,,FALSE,FALSE,FALSE,FALSE,FALSE,FALSE,FALSE,FALSE,FALSE,FALSE,0,Follow Yaw,0,0,-25.2,334.8,FALSE,FALSE,FALSE,FALSE,FALSE,FALSE,,TRUE,Normal,,100,1024,1024,1024,1024,2,FALSE,FALSE,FALSE,FALSE,FALSE,0,FALSE,FALSE,FALSE,FALSE,98,8.161,2018,2056,8.167,FALSE,4.083,4.079,0.004,FALSE,FALSE,NA,81.3,81.3,81.3,0,2,0,0,5,2430.7,607.67,,Idle,0,20,FALSE,5,TRUE,6,Go Home,FALSE,FALSE,FALSE,FALSE,FALSE,FALSE,FALSE,FALSE,FALSE,FALSE,FALSE,FALSE,6.974154005,79.91427651,6.6,101,328,TRUE,1,1,FALSE,FALSE,FALSE,FALSE,,TRUE,FALSE,FALSE,Course Lock,49.2,,16.4,Calm,33,,1.12.8,Mavic Mini,1SDCH7G0169R0K,1SFLH6Q0AB03DJ,1SRCH7F014TAHX,1U5X071EXP6C9Y,84.8,0.4,13.1,8.142685,2.684328,0,0,Mavic Mini,1SDCH7G0169R0K,1SFLH6Q0AB03DJ,1SRCH7F014TAHX,1U5X071EXP6C9Y,DJI Fly,,1.12.8,B3706471-75DF-5FFE-C660-DE8DFD53BA69,1SDCH7G0169R0K,,,,,,,,,
2/22/2024,12:22.3,0m 1.9s,1.9,6.974142989,79.91426177,0,0,0.3,52,0.3,0,0,0,0,0,0,0,0,0,1.4,-28,332,,Manual Takeoff,Drop Calibration,Takeoff (RC Assisted),8,4,TRUE,,Mavic Mini,TRUE,FALSE,,Smart,RC,TRUE,TRUE,FALSE,,,TRUE,,FALSE,FALSE,FALSE,FALSE,FALSE,FALSE,FALSE,FALSE,FALSE,FALSE,0,Follow Yaw,0,0,-25.2,334.8,FALSE,FALSE,FALSE,FALSE,FALSE,FALSE,,TRUE,Normal,,100,1024,1024,1024,1024,2,FALSE,FALSE,FALSE,FALSE,FALSE,0,FALSE,FALSE,FALSE,FALSE,98,8.161,2018,2056,8.167,FALSE,4.083,4.079,0.004,FALSE,FALSE,NA,81.3,81.3,81.3,0,2,0,0,5,2430.7,607.67,,Idle,0,20,FALSE,5,TRUE,6,Go Home,FALSE,FALSE,FALSE,FALSE,FALSE,FALSE,FALSE,FALSE,FALSE,FALSE,FALSE,FALSE,6.974154005,79.91427651,6.6,101,328,TRUE,1,1,FALSE,FALSE,FALSE,FALSE,,TRUE,FALSE,FALSE,Course Lock,49.2,,16.4,Calm,33,,1.12.8,Mavic Mini,1SDCH7G0169R0K,1SFLH6Q0AB03DJ,1SRCH7F014TAHX,1U5X071EXP6C9Y,84.8,0.4,13.1,8.142685,2.684328,0,0,Mavic Mini,1SDCH7G0169R0K,1SFLH6Q0AB03DJ,1SRCH7F014TAHX,1U5X071EXP6C9Y,DJI Fly,,1.12.8,B3706471-75DF-5FFE-C660-DE8DFD53BA69,1SDCH7G0169R0K,,,,,,,,,
2/22/2024,12:22.4,0m 2.0s,2,6.974142947,79.91426179,0,0,0.3,52,0.3,0,0,0,0,0,0,0,0,0,1.4,-28,332,,Manual Takeoff,Drop Calibration,Takeoff (RC Assisted),8,4,TRUE,,Mavic Mini,TRUE,FALSE,,Smart,RC,TRUE,TRUE,FALSE,,,TRUE,,FALSE,FALSE,FALSE,FALSE,FALSE,FALSE,FALSE,FALSE,FALSE,FALSE,0,Follow Yaw,0,0,-25.2,334.8,FALSE,FALSE,FALSE,FALSE,FALSE,FALSE,,TRUE,Normal,,100,1024,1024,1025,1024,2,FALSE,FALSE,FALSE,FALSE,FALSE,0,FALSE,FALSE,FALSE,FALSE,98,8.161,2018,2056,8.167,FALSE,4.083,4.079,0.004,FALSE,FALSE,NA,81.3,81.3,81.3,0,2,0,0,5,2430.7,607.67,,Idle,0,20,FALSE,5,TRUE,6,Go Home,FALSE,FALSE,FALSE,FALSE,FALSE,FALSE,FALSE,FALSE,FALSE,FALSE,FALSE,FALSE,6.974154005,79.91427651,6.6,101,328,TRUE,1,1,FALSE,FALSE,FALSE,FALSE,,TRUE,FALSE,FALSE,Course Lock,49.2,,16.4,Calm,33,,1.12.8,Mavic Mini,1SDCH7G0169R0K,1SFLH6Q0AB03DJ,1SRCH7F014TAHX,1U5X071EXP6C9Y,84.8,0.4,13.1,8.142685,2.684328,0,0,Mavic Mini,1SDCH7G0169R0K,1SFLH6Q0AB03DJ,1SRCH7F014TAHX,1U5X071EXP6C9Y,DJI Fly,,1.12.8,B3706471-75DF-5FFE-C660-DE8DFD53BA69,1SDCH7G0169R0K,,,,,,,,,
2/22/2024,12:22.6,0m 2.1s,2.1,6.97414296,79.91426179,0,0,0.3,52,0.3,0,0,0,0,0,0,0,0,0,1.4,-28,332,,Manual Takeoff,Drop Calibration,Takeoff (RC Assisted),8,4,TRUE,,Mavic Mini,TRUE,FALSE,,Smart,RC,TRUE,TRUE,FALSE,,,TRUE,,FALSE,FALSE,FALSE,FALSE,FALSE,FALSE,FALSE,FALSE,FALSE,FALSE,0,Follow Yaw,0,0,-25.2,334.8,FALSE,FALSE,FALSE,FALSE,FALSE,FALSE,,TRUE,Normal,,100,1024,1024,1133,1024,2,FALSE,FALSE,FALSE,FALSE,FALSE,0,FALSE,FALSE,FALSE,FALSE,98,8.161,2018,2056,8.167,FALSE,4.083,4.079,0.004,FALSE,FALSE,NA,81.3,81.3,81.3,0,2,0,0,5,2430.7,607.67,,Idle,0,20,FALSE,5,TRUE,6,Go Home,FALSE,FALSE,FALSE,FALSE,FALSE,FALSE,FALSE,FALSE,FALSE,FALSE,FALSE,FALSE,6.974154005,79.91427651,6.6,101,328,TRUE,1,1,FALSE,FALSE,FALSE,FALSE,,TRUE,FALSE,FALSE,Course Lock,49.2,,16.4,Calm,33,,1.12.8,Mavic Mini,1SDCH7G0169R0K,1SFLH6Q0AB03DJ,1SRCH7F014TAHX,1U5X071EXP6C9Y,84.8,0.4,13.1,8.142685,2.684328,0,0,Mavic Mini,1SDCH7G0169R0K,1SFLH6Q0AB03DJ,1SRCH7F014TAHX,1U5X071EXP6C9Y,DJI Fly,,1.12.8,B3706471-75DF-5FFE-C660-DE8DFD53BA69,1SDCH7G0169R0K,,,,,6.974057802,79.91426102,5,,
2/22/2024,12:22.6,0m 2.2s,2.2,6.97414307,79.91426187,0,0,0.3,52,0.4,0,0,0,0,0,0,0,0,0,1.4,-28,332,,Manual Takeoff,Drop Calibration,Takeoff (RC Assisted),8,4,TRUE,,Mavic Mini,TRUE,FALSE,,Smart,RC,TRUE,TRUE,FALSE,,,TRUE,,FALSE,FALSE,FALSE,FALSE,FALSE,FALSE,FALSE,FALSE,FALSE,FALSE,0,Follow Yaw,0,0,-25.2,334.8,FALSE,FALSE,FALSE,FALSE,FALSE,FALSE,,TRUE,Normal,,100,1024,1024,1276,1024,2,FALSE,FALSE,FALSE,FALSE,FALSE,0,FALSE,FALSE,FALSE,FALSE,98,8.161,2018,2056,8.167,FALSE,4.083,4.079,0.004,FALSE,FALSE,NA,81.3,81.3,81.3,0,2,0,0,5,2430.7,607.67,,Idle,0,20,FALSE,5,TRUE,6,Go Home,FALSE,FALSE,FALSE,FALSE,FALSE,FALSE,FALSE,FALSE,FALSE,FALSE,FALSE,FALSE,6.974154005,79.91427651,6.6,101,328,TRUE,1,1,FALSE,FALSE,FALSE,FALSE,,TRUE,FALSE,FALSE,Course Lock,49.2,,16.4,Calm,33,,1.12.8,Mavic Mini,1SDCH7G0169R0K,1SFLH6Q0AB03DJ,1SRCH7F014TAHX,1U5X071EXP6C9Y,84.8,0.4,13.1,8.142685,2.684328,0,0,Mavic Mini,1SDCH7G0169R0K,1SFLH6Q0AB03DJ,1SRCH7F014TAHX,1U5X071EXP6C9Y,DJI Fly,,1.12.8,B3706471-75DF-5FFE-C660-DE8DFD53BA69,1SDCH7G0169R0K,,,,,6.974057802,79.91426102,5,,
2/22/2024,12:22.7,0m 2.3s,2.3,6.974143102,79.91426188,0,0,0.3,52,0.4,0,0,0,0,0,0,0,0,0,1.4,-28,332,,Manual Takeoff,Drop Calibration,Takeoff (RC Assisted),8,4,TRUE,,Mavic Mini,TRUE,FALSE,,Smart,RC,TRUE,TRUE,FALSE,,,TRUE,,FALSE,FALSE,FALSE,FALSE,FALSE,FALSE,FALSE,FALSE,FALSE,FALSE,0,Follow Yaw,0,0,-25.2,334.8,FALSE,FALSE,FALSE,FALSE,FALSE,FALSE,,TRUE,Normal,,100,1024,1024,1343,1024,2,FALSE,FALSE,FALSE,FALSE,FALSE,0,FALSE,FALSE,FALSE,FALSE,98,8.161,2018,2056,8.167,FALSE,4.083,4.079,0.004,FALSE,FALSE,NA,81.3,81.3,81.3,0,2,0,0,5,2430.7,607.67,,Idle,0,20,FALSE,5,TRUE,6,Go Home,FALSE,FALSE,FALSE,FALSE,FALSE,FALSE,FALSE,FALSE,FALSE,FALSE,FALSE,FALSE,6.974154005,79.91427651,6.6,101,328,TRUE,1,1,FALSE,FALSE,FALSE,FALSE,,TRUE,FALSE,FALSE,Course Lock,49.2,,16.4,Calm,33,,1.12.8,Mavic Mini,1SDCH7G0169R0K,1SFLH6Q0AB03DJ,1SRCH7F014TAHX,1U5X071EXP6C9Y,84.8,0.4,13.1,8.142685,2.684328,0,0,Mavic Mini,1SDCH7G0169R0K,1SFLH6Q0AB03DJ,1SRCH7F014TAHX,1U5X071EXP6C9Y,DJI Fly,,1.12.8,B3706471-75DF-5FFE-C660-DE8DFD53BA69,1SDCH7G0169R0K,,,,,6.974057802,79.91426102,5,,
2/22/2024,12:22.9,0m 2.4s,2.4,6.974143129,79.91426188,0,0,0.3,52,0.4,0,0,0,0,0,0,0,0,0,1.3,-28,332,,Manual Takeoff,Drop Calibration,Takeoff (RC Assisted),8,4,TRUE,,Mavic Mini,TRUE,FALSE,,Smart,RC,TRUE,TRUE,FALSE,,,TRUE,,FALSE,FALSE,FALSE,FALSE,FALSE,FALSE,FALSE,FALSE,FALSE,FALSE,0,Follow Yaw,0,0,-25.2,334.8,FALSE,FALSE,FALSE,FALSE,FALSE,FALSE,,TRUE,Normal,,100,1024,1024,1367,1024,2,FALSE,FALSE,FALSE,FALSE,FALSE,0,FALSE,FALSE,FALSE,FALSE,98,8.206,2018,2056,8.167,FALSE,4.105,4.101,0.004,FALSE,FALSE,NA,81.3,81.3,81.3,0,2,0,0,5,2430.7,607.67,,Idle,0,20,FALSE,5,TRUE,6,Go Home,FALSE,FALSE,FALSE,FALSE,FALSE,FALSE,FALSE,FALSE,FALSE,FALSE,FALSE,FALSE,6.974154005,79.91427651,6.6,101,328,TRUE,1,1,FALSE,FALSE,FALSE,FALSE,,TRUE,FALSE,FALSE,Course Lock,49.2,,16.4,Calm,33,,1.12.8,Mavic Mini,1SDCH7G0169R0K,1SFLH6Q0AB03DJ,1SRCH7F014TAHX,1U5X071EXP6C9Y,84.8,0.4,13.1,8.142685,2.684328,0,0,Mavic Mini,1SDCH7G0169R0K,1SFLH6Q0AB03DJ,1SRCH7F014TAHX,1U5X071EXP6C9Y,DJI Fly,,1.12.8,B3706471-75DF-5FFE-C660-DE8DFD53BA69,1SDCH7G0169R0K,,,,,6.974057802,79.91426102,5,,
2/22/2024,12:23.0,0m 2.5s,2.5,6.974143144,79.91426188,0,0,0.3,52,0.4,0,0,0,0,0,0,0,0,0,1.1,-28.1,331.9,,Manual Takeoff,Drop Calibration,Takeoff (RC Assisted),8,4,TRUE,,Mavic Mini,TRUE,FALSE,,Smart,RC,TRUE,TRUE,FALSE,,,TRUE,,FALSE,FALSE,FALSE,FALSE,FALSE,FALSE,FALSE,FALSE,FALSE,FALSE,0,Follow Yaw,0,0,-25.2,334.8,FALSE,FALSE,FALSE,FALSE,FALSE,FALSE,,TRUE,Normal,,100,1024,1024,1366,1024,2,FALSE,FALSE,FALSE,FALSE,FALSE,0,FALSE,FALSE,FALSE,FALSE,98,8.206,2018,2056,8.167,FALSE,4.105,4.101,0.004,FALSE,FALSE,NA,81.3,81.3,81.3,0,2,0,0,5,2430.7,607.67,,Idle,0,20,FALSE,5,TRUE,6,Go Home,FALSE,FALSE,FALSE,FALSE,FALSE,FALSE,FALSE,FALSE,FALSE,FALSE,FALSE,FALSE,6.974154005,79.91427651,6.6,101,328,TRUE,1,1,FALSE,FALSE,FALSE,FALSE,,TRUE,FALSE,FALSE,Course Lock,49.2,,16.4,Calm,33,,1.12.8,Mavic Mini,1SDCH7G0169R0K,1SFLH6Q0AB03DJ,1SRCH7F014TAHX,1U5X071EXP6C9Y,84.8,0.4,13.1,8.142685,2.684328,0,0,Mavic Mini,1SDCH7G0169R0K,1SFLH6Q0AB03DJ,1SRCH7F014TAHX,1U5X071EXP6C9Y,DJI Fly,,1.12.8,B3706471-75DF-5FFE-C660-DE8DFD53BA69,1SDCH7G0169R0K,,,,,6.974057802,79.91426102,5,,
2/22/2024,12:23.0,0m 2.6s,2.6,6.974143175,79.91426188,0,0,0.3,52,0.4,0,0,0,0,0,0,0,0,0,1.1,-28.5,331.5,,Manual Takeoff,Drop Calibration,Takeoff (RC Assisted),8,4,TRUE,,Mavic Mini,TRUE,FALSE,,Smart,RC,TRUE,TRUE,FALSE,,,TRUE,,FALSE,FALSE,FALSE,FALSE,FALSE,FALSE,FALSE,FALSE,FALSE,FALSE,0,Follow Yaw,0,0,-25.3,334.7,FALSE,FALSE,FALSE,FALSE,FALSE,FALSE,,TRUE,Normal,,100,1024,1024,1366,1024,2,FALSE,FALSE,FALSE,FALSE,FALSE,0,FALSE,FALSE,FALSE,FALSE,98,8.206,2018,2056,8.167,FALSE,4.105,4.101,0.004,FALSE,FALSE,NA,81.3,81.3,81.3,0,2,0,0,5,2430.7,607.67,,Idle,0,20,FALSE,5,TRUE,6,Go Home,FALSE,FALSE,FALSE,FALSE,FALSE,FALSE,FALSE,FALSE,FALSE,FALSE,FALSE,FALSE,6.974154005,79.91427651,6.6,101,328,TRUE,1,1,FALSE,FALSE,FALSE,FALSE,,TRUE,FALSE,FALSE,Course Lock,49.2,,16.4,Calm,33,,1.12.8,Mavic Mini,1SDCH7G0169R0K,1SFLH6Q0AB03DJ,1SRCH7F014TAHX,1U5X071EXP6C9Y,84.8,0.4,13.1,8.142685,2.684328,0,0,Mavic Mini,1SDCH7G0169R0K,1SFLH6Q0AB03DJ,1SRCH7F014TAHX,1U5X071EXP6C9Y,DJI Fly,,1.12.8,B3706471-75DF-5FFE-C660-DE8DFD53BA69,1SDCH7G0169R0K,,,,,6.974057802,79.91426102,5,,
2/22/2024,12:23.1,0m 2.7s,2.7,6.974143185,79.91426191,0,0,0.3,52,0.4,0,0,0,0,0,0,0,0,0,1.1,-28.9,331.1,,Manual Takeoff,Drop Calibration,Takeoff (RC Assisted),8,4,TRUE,,Mavic Mini,TRUE,FALSE,,Smart,RC,TRUE,TRUE,FALSE,,,TRUE,,FALSE,FALSE,FALSE,FALSE,FALSE,FALSE,FALSE,FALSE,FALSE,FALSE,0,Follow Yaw,0,0,-25.5,334.5,FALSE,FALSE,FALSE,FALSE,FALSE,FALSE,,TRUE,Normal,,100,1024,1024,1366,1024,2,FALSE,FALSE,FALSE,FALSE,FALSE,0,FALSE,FALSE,FALSE,FALSE,98,8.206,2018,2056,8.167,FALSE,4.105,4.101,0.004,FALSE,FALSE,NA,81.3,81.3,81.3,0,2,0,0,5,2430.7,607.67,,Idle,0,20,FALSE,5,TRUE,6,Go Home,FALSE,FALSE,FALSE,FALSE,FALSE,FALSE,FALSE,FALSE,FALSE,FALSE,FALSE,FALSE,6.974154005,79.91427651,6.5,101,328,TRUE,1,1,FALSE,FALSE,FALSE,FALSE,,TRUE,FALSE,FALSE,Course Lock,49.2,,16.4,Calm,33,,1.12.8,Mavic Mini,1SDCH7G0169R0K,1SFLH6Q0AB03DJ,1SRCH7F014TAHX,1U5X071EXP6C9Y,84.8,0.4,13.1,8.142685,2.684328,0,0,Mavic Mini,1SDCH7G0169R0K,1SFLH6Q0AB03DJ,1SRCH7F014TAHX,1U5X071EXP6C9Y,DJI Fly,,1.12.8,B3706471-75DF-5FFE-C660-DE8DFD53BA69,1SDCH7G0169R0K,,,,,6.974057802,79.91426102,5,,
2/22/2024,12:23.2,0m 2.8s,2.8,6.974143193,79.91426196,0,0,0.3,52,0.4,0,0,0,0,0,0,0,0,-0.3,1.2,-29.6,330.4,,Manual Takeoff,Drop Calibration,Takeoff (RC Assisted),8,4,TRUE,,Mavic Mini,TRUE,FALSE,,Smart,RC,TRUE,TRUE,FALSE,,,TRUE,,FALSE,FALSE,FALSE,FALSE,FALSE,FALSE,FALSE,FALSE,FALSE,FALSE,0,Follow Yaw,0,0,-26,334,FALSE,FALSE,FALSE,FALSE,FALSE,FALSE,,TRUE,Normal,,100,1024,1024,1368,1024,2,FALSE,FALSE,FALSE,FALSE,FALSE,0,FALSE,FALSE,FALSE,FALSE,98,8.206,2018,2056,8.148,FALSE,4.105,4.101,0.004,FALSE,FALSE,NA,81.3,81.3,81.3,0,2,0,0,5,2576.2,644.06,,Idle,0,20,FALSE,5,TRUE,6,Go Home,FALSE,FALSE,FALSE,FALSE,FALSE,FALSE,FALSE,FALSE,FALSE,FALSE,FALSE,FALSE,6.974154005,79.91427651,6.5,101,328,TRUE,1,1,FALSE,FALSE,FALSE,FALSE,,TRUE,FALSE,FALSE,Course Lock,49.2,,16.4,Calm,33,,1.12.8,Mavic Mini,1SDCH7G0169R0K,1SFLH6Q0AB03DJ,1SRCH7F014TAHX,1U5X071EXP6C9Y,84.8,0.4,13.1,8.142685,2.684328,0,0,Mavic Mini,1SDCH7G0169R0K,1SFLH6Q0AB03DJ,1SRCH7F014TAHX,1U5X071EXP6C9Y,DJI Fly,,1.12.8,B3706471-75DF-5FFE-C660-DE8DFD53BA69,1SDCH7G0169R0K,,,,,6.974057802,79.91426102,5,,
2/22/2024,12:23.4,0m 2.9s,2.9,6.974143217,79.91426199,0,0,0.3,52,0.4,0,0,0,0,0,0,0,0,-0.9,1,-30.2,329.8,,Manual Takeoff,Drop Calibration,Takeoff (RC Assisted),8,4,TRUE,,Mavic Mini,TRUE,FALSE,,Smart,RC,TRUE,TRUE,FALSE,,,TRUE,,FALSE,FALSE,FALSE,FALSE,FALSE,FALSE,FALSE,FALSE,FALSE,FALSE,0,Follow Yaw,0,0,-26.6,333.4,FALSE,FALSE,FALSE,FALSE,FALSE,FALSE,,TRUE,Normal,,100,1024,1024,1366,1024,2,FALSE,FALSE,FALSE,FALSE,FALSE,0,FALSE,FALSE,FALSE,FALSE,98,8.206,2018,2056,8.148,FALSE,4.105,4.101,0.004,FALSE,FALSE,NA,81.3,81.3,81.3,0,2,0,0,5,2576.2,644.06,,Idle,0,20,FALSE,5,TRUE,6,Go Home,FALSE,FALSE,FALSE,FALSE,FALSE,FALSE,FALSE,FALSE,FALSE,FALSE,FALSE,FALSE,6.974154005,79.91427651,6.5,101,328,TRUE,1,1,FALSE,FALSE,FALSE,FALSE,,TRUE,FALSE,FALSE,Course Lock,49.2,,16.4,Calm,33,,1.12.8,Mavic Mini,1SDCH7G0169R0K,1SFLH6Q0AB03DJ,1SRCH7F014TAHX,1U5X071EXP6C9Y,84.8,0.4,13.1,8.142685,2.684328,0,0,Mavic Mini,1SDCH7G0169R0K,1SFLH6Q0AB03DJ,1SRCH7F014TAHX,1U5X071EXP6C9Y,DJI Fly,,1.12.8,B3706471-75DF-5FFE-C660-DE8DFD53BA69,1SDCH7G0169R0K,,,,,6.974057802,79.91426102,5,,
2/22/2024,12:23.4,0m 3.0s,3,6.974143274,79.91426209,0,0,0.3,52,0.5,0.223694,0.223694,0.223694,0.223694,0,0,0,0,-2.2,0,-31.2,328.8,53.7,Manual Takeoff,Drop Calibration,Takeoff (RC Assisted),8,4,TRUE,,Mavic Mini,TRUE,FALSE,,Smart,RC,TRUE,TRUE,FALSE,,,TRUE,,FALSE,FALSE,FALSE,FALSE,FALSE,FALSE,FALSE,FALSE,FALSE,FALSE,0,Follow Yaw,0,0,-27.3,332.7,FALSE,FALSE,FALSE,FALSE,FALSE,FALSE,,TRUE,Normal,,100,1024,1024,1362,1024,2,FALSE,FALSE,FALSE,FALSE,FALSE,0,FALSE,FALSE,FALSE,FALSE,98,8.206,2018,2056,8.148,FALSE,4.105,4.101,0.004,FALSE,FALSE,NA,81.3,81.3,81.3,0,2,0,0,5,2576.2,644.06,,Idle,0,20,FALSE,5,TRUE,6,Go Home,FALSE,FALSE,FALSE,FALSE,FALSE,FALSE,FALSE,FALSE,FALSE,FALSE,FALSE,FALSE,6.974154005,79.91427651,6.5,101,328,TRUE,1,1,FALSE,FALSE,FALSE,FALSE,,TRUE,FALSE,FALSE,Course Lock,49.2,,16.4,Calm,33,,1.12.8,Mavic Mini,1SDCH7G0169R0K,1SFLH6Q0AB03DJ,1SRCH7F014TAHX,1U5X071EXP6C9Y,84.8,0.4,13.1,8.142685,2.684328,0,0,Mavic Mini,1SDCH7G0169R0K,1SFLH6Q0AB03DJ,1SRCH7F014TAHX,1U5X071EXP6C9Y,DJI Fly,,1.12.8,B3706471-75DF-5FFE-C660-DE8DFD53BA69,1SDCH7G0169R0K,,,,,6.974057802,79.91426102,5,,
2/22/2024,12:23.5,0m 3.1s,3.1,6.97414339,79.91426209,0,0,0.3,52,0.5,0.447388,0.447388,0.447388,0.447388,0,0,-0.223694,0,-2.3,-0.5,-31.9,328.1,357.4,Tripod,Drop Calibration,,8,4,TRUE,,Mavic Mini,TRUE,FALSE,,Smart,RC,FALSE,TRUE,FALSE,,,TRUE,,FALSE,FALSE,FALSE,FALSE,FALSE,FALSE,FALSE,FALSE,FALSE,FALSE,0,Follow Yaw,0,0,-28.2,331.8,FALSE,FALSE,FALSE,FALSE,FALSE,FALSE,,TRUE,Normal,,100,1024,1024,1338,1024,2,FALSE,FALSE,FALSE,FALSE,FALSE,0,FALSE,FALSE,FALSE,FALSE,98,8.206,2018,2056,8.148,FALSE,4.105,4.101,0.004,FALSE,FALSE,NA,81.3,81.3,81.3,0,2,0,0,5,2576.2,644.06,,Idle,0,20,FALSE,5,TRUE,6,Go Home,FALSE,FALSE,FALSE,FALSE,FALSE,FALSE,FALSE,FALSE,TRUE,FALSE,FALSE,FALSE,6.974154005,79.91427651,6.5,101,328,TRUE,1,1,FALSE,FALSE,FALSE,FALSE,,TRUE,FALSE,FALSE,Course Lock,49.2,,16.4,Calm,33,,1.12.8,Mavic Mini,1SDCH7G0169R0K,1SFLH6Q0AB03DJ,1SRCH7F014TAHX,1U5X071EXP6C9Y,84.8,0.4,13.1,8.142685,2.684328,0,0,Mavic Mini,1SDCH7G0169R0K,1SFLH6Q0AB03DJ,1SRCH7F014TAHX,1U5X071EXP6C9Y,DJI Fly,,1.12.8,B3706471-75DF-5FFE-C660-DE8DFD53BA69,1SDCH7G0169R0K,,,,,6.974057802,79.91426102,5,Flight mode changed to Tripod.,
2/22/2024,12:23.7,0m 3.2s,3.2,6.974143559,79.91426204,0,0,0.3,52,0.6,0.447388,0.447388,0.447388,0.447388,0,0,-0.671082,0,1.7,-0.9,-32.4,327.6,347.4,Tripod,Drop Calibration,,8,4,TRUE,,Mavic Mini,TRUE,FALSE,,Smart,RC,FALSE,TRUE,FALSE,,,TRUE,,FALSE,FALSE,FALSE,FALSE,FALSE,FALSE,FALSE,FALSE,FALSE,FALSE,0,Follow Yaw,0,0,-28.7,331.3,FALSE,FALSE,FALSE,FALSE,FALSE,FALSE,,TRUE,Normal,,100,1024,1024,1345,1024,2,FALSE,FALSE,FALSE,FALSE,FALSE,0,FALSE,FALSE,FALSE,FALSE,98,8.206,2018,2056,8.148,FALSE,4.105,4.101,0.004,FALSE,FALSE,NA,81.3,81.3,81.3,0,2,0,0,5,2576.2,644.06,,Idle,0,20,FALSE,5,TRUE,6,Go Home,FALSE,FALSE,FALSE,FALSE,FALSE,FALSE,FALSE,FALSE,TRUE,FALSE,FALSE,FALSE,6.974154005,79.91427651,6.4,101,328,TRUE,1,1,FALSE,FALSE,FALSE,FALSE,,TRUE,FALSE,FALSE,Course Lock,49.2,,16.4,Calm,33,,1.12.8,Mavic Mini,1SDCH7G0169R0K,1SFLH6Q0AB03DJ,1SRCH7F014TAHX,1U5X071EXP6C9Y,84.8,0.4,13.1,8.142685,2.684328,0,0,Mavic Mini,1SDCH7G0169R0K,1SFLH6Q0AB03DJ,1SRCH7F014TAHX,1U5X071EXP6C9Y,DJI Fly,,1.12.8,B3706471-75DF-5FFE-C660-DE8DFD53BA69,1SDCH7G0169R0K,,,,,6.974057802,79.91426102,5,,
2/22/2024,12:23.8,0m 3.3s,3.3,6.974143751,79.91426193,0,0,0.6,52,0.7,0.447388,0.447388,0.447388,0.447388,0,0,-0.894776,0,3.8,-0.7,-32.5,327.5,337.2,Tripod,Drop Calibration,,8,4,TRUE,,Mavic Mini,TRUE,FALSE,,Smart,RC,FALSE,TRUE,FALSE,,,TRUE,,FALSE,FALSE,FALSE,FALSE,FALSE,FALSE,FALSE,FALSE,FALSE,FALSE,0,Follow Yaw,0,0,-28.7,331.3,FALSE,FALSE,FALSE,FALSE,FALSE,FALSE,,TRUE,Normal,,100,1024,1024,1345,1024,2,FALSE,FALSE,FALSE,FALSE,FALSE,0,FALSE,FALSE,FALSE,FALSE,98,8.206,2018,2056,8.148,FALSE,4.105,4.101,0.004,FALSE,FALSE,NA,81.3,81.3,81.3,0,2,0,0,5,2576.2,644.06,,Idle,0,20,FALSE,5,TRUE,6,Go Home,FALSE,FALSE,FALSE,FALSE,FALSE,FALSE,FALSE,FALSE,TRUE,FALSE,FALSE,FALSE,6.974154005,79.91427651,6.4,101,328,TRUE,1,1,FALSE,FALSE,FALSE,FALSE,,TRUE,FALSE,FALSE,Course Lock,49.2,,16.4,Calm,33,,1.12.8,Mavic Mini,1SDCH7G0169R0K,1SFLH6Q0AB03DJ,1SRCH7F014TAHX,1U5X071EXP6C9Y,84.8,0.4,13.1,8.142685,2.684328,0,0,Mavic Mini,1SDCH7G0169R0K,1SFLH6Q0AB03DJ,1SRCH7F014TAHX,1U5X071EXP6C9Y,DJI Fly,,1.12.8,B3706471-75DF-5FFE-C660-DE8DFD53BA69,1SDCH7G0169R0K,,,,,6.974057802,79.91426102,5,,
2/22/2024,12:23.9,0m 3.4s,3.4,6.974143842,79.91426169,0.3,0.3,0.6,52,0.8,0.447388,0.447388,0.447388,0.447388,0,0,-1.11847,0,4.3,-1,-32.2,327.8,295.5,Tripod,Drop Calibration,,8,4,TRUE,,Mavic Mini,TRUE,FALSE,,Smart,RC,FALSE,TRUE,FALSE,,,TRUE,,FALSE,FALSE,FALSE,FALSE,FALSE,FALSE,FALSE,FALSE,FALSE,FALSE,0,Follow Yaw,0,0,-28.7,331.3,FALSE,FALSE,FALSE,FALSE,FALSE,FALSE,,TRUE,Normal,,100,1024,1024,1349,1024,2,FALSE,FALSE,FALSE,FALSE,FALSE,0,FALSE,FALSE,FALSE,FALSE,98,8.206,2018,2056,8.148,FALSE,4.105,4.101,0.004,FALSE,FALSE,NA,81.3,81.3,81.3,0,2,0,0,5,2576.2,644.06,,Idle,0,20,FALSE,5,TRUE,6,Go Home,FALSE,FALSE,FALSE,FALSE,FALSE,FALSE,FALSE,FALSE,TRUE,FALSE,FALSE,FALSE,6.974154005,79.91427651,6.5,101,328,TRUE,1,1,FALSE,FALSE,FALSE,FALSE,,TRUE,FALSE,FALSE,Course Lock,49.2,,16.4,Calm,33,,1.12.8,Mavic Mini,1SDCH7G0169R0K,1SFLH6Q0AB03DJ,1SRCH7F014TAHX,1U5X071EXP6C9Y,84.8,0.4,13.1,8.142685,2.684328,0,0,Mavic Mini,1SDCH7G0169R0K,1SFLH6Q0AB03DJ,1SRCH7F014TAHX,1U5X071EXP6C9Y,DJI Fly,,1.12.8,B3706471-75DF-5FFE-C660-DE8DFD53BA69,1SDCH7G0169R0K,,,,,6.974057802,79.91426102,5,,
2/22/2024,12:24.0,0m 3.5s,3.5,6.974144069,79.91426162,0.3,0.3,0.6,52,0.8,0.447388,0.447388,0.447388,0.447388,0,0,-1.342164,0,3.6,-1.1,-31.9,328.1,347.6,Tripod,Drop Calibration,,8,4,TRUE,,Mavic Mini,TRUE,FALSE,,Smart,RC,FALSE,TRUE,FALSE,,,TRUE,,FALSE,FALSE,FALSE,FALSE,FALSE,FALSE,FALSE,FALSE,FALSE,FALSE,0,Follow Yaw,0,0,-28.7,331.3,FALSE,FALSE,FALSE,FALSE,FALSE,FALSE,,TRUE,Normal,,100,1024,1024,1350,1024,2,FALSE,FALSE,FALSE,FALSE,FALSE,0,FALSE,FALSE,FALSE,FALSE,98,7.96,2016,2056,8.148,FALSE,3.982,3.978,0.004,FALSE,FALSE,NA,81.5,81.3,81.5,0,2,0,0,5,2576.2,644.06,,Idle,0,20,FALSE,5,TRUE,6,Go Home,FALSE,FALSE,FALSE,FALSE,FALSE,FALSE,FALSE,FALSE,TRUE,FALSE,FALSE,FALSE,6.974154005,79.91427651,6.4,101,328,TRUE,1,1,FALSE,FALSE,FALSE,FALSE,,TRUE,FALSE,FALSE,Course Lock,49.2,,16.4,Calm,33,,1.12.8,Mavic Mini,1SDCH7G0169R0K,1SFLH6Q0AB03DJ,1SRCH7F014TAHX,1U5X071EXP6C9Y,84.8,0.4,13.1,8.142685,2.684328,0,0,Mavic Mini,1SDCH7G0169R0K,1SFLH6Q0AB03DJ,1SRCH7F014TAHX,1U5X071EXP6C9Y,DJI Fly,,1.12.8,B3706471-75DF-5FFE-C660-DE8DFD53BA69,1SDCH7G0169R0K,,,,,6.974057802,79.91426102,5,,
2/22/2024,12:24.1,0m 3.6s,3.6,6.97414432,79.91426159,0.6,0.6,0.9,52,0.9,0.223694,0.447388,0.223694,0.447388,0,0,-1.342164,0,2.8,-1.6,-31.7,328.3,355.2,Tripod,Drop Calibration,,8,4,TRUE,,Mavic Mini,TRUE,FALSE,,Smart,RC,FALSE,TRUE,FALSE,,,TRUE,,FALSE,FALSE,FALSE,FALSE,FALSE,FALSE,FALSE,FALSE,FALSE,FALSE,0,Follow Yaw,0,0,-28.7,331.3,FALSE,FALSE,FALSE,FALSE,FALSE,FALSE,,TRUE,Normal,,100,1024,1024,1350,1024,2,FALSE,FALSE,FALSE,FALSE,FALSE,0,FALSE,FALSE,FALSE,FALSE,98,7.96,2016,2056,8.148,FALSE,3.982,3.978,0.004,FALSE,FALSE,NA,81.5,81.3,81.5,0,2,0,0,5,2576.2,644.06,,Idle,0,20,FALSE,5,TRUE,6,Go Home,FALSE,FALSE,FALSE,FALSE,FALSE,FALSE,FALSE,FALSE,TRUE,FALSE,FALSE,FALSE,6.974154005,79.91427651,6.4,101,328,TRUE,1,1,FALSE,FALSE,FALSE,FALSE,,TRUE,FALSE,FALSE,Course Lock,49.2,,16.4,Calm,33,,1.12.8,Mavic Mini,1SDCH7G0169R0K,1SFLH6Q0AB03DJ,1SRCH7F014TAHX,1U5X071EXP6C9Y,84.8,0.4,13.1,8.142685,2.684328,0,0,Mavic Mini,1SDCH7G0169R0K,1SFLH6Q0AB03DJ,1SRCH7F014TAHX,1U5X071EXP6C9Y,DJI Fly,,1.12.8,B3706471-75DF-5FFE-C660-DE8DFD53BA69,1SDCH7G0169R0K,,,,,6.974057802,79.91426102,5,,
2/22/2024,12:24.2,0m 3.7s,3.7,6.974144552,79.91426155,0.6,0.6,1.3,52,1,0.223694,0.447388,0.223694,0.447388,0,0,-1.342164,0,3.3,-1.9,-31.7,328.3,352,Tripod,Drop Calibration,,8,4,TRUE,,Mavic Mini,TRUE,FALSE,,Smart,RC,FALSE,TRUE,FALSE,,,TRUE,,FALSE,FALSE,FALSE,FALSE,FALSE,FALSE,FALSE,FALSE,FALSE,FALSE,0,Follow Yaw,0,0,-28.7,331.3,FALSE,FALSE,FALSE,FALSE,FALSE,FALSE,,TRUE,Normal,,100,1024,1024,1373,1024,2,FALSE,FALSE,FALSE,FALSE,FALSE,0,FALSE,FALSE,FALSE,FALSE,98,7.96,2016,2056,8.148,FALSE,3.982,3.978,0.004,FALSE,FALSE,NA,81.5,81.3,81.5,0,2,0,0,5,2576.2,644.06,,Idle,0,20,FALSE,5,TRUE,6,Go Home,FALSE,FALSE,FALSE,FALSE,FALSE,FALSE,FALSE,FALSE,TRUE,FALSE,FALSE,FALSE,6.974154005,79.91427651,6.4,101,328,TRUE,1,1,FALSE,FALSE,FALSE,FALSE,,TRUE,FALSE,FALSE,Course Lock,49.2,,16.4,Calm,33,,1.12.8,Mavic Mini,1SDCH7G0169R0K,1SFLH6Q0AB03DJ,1SRCH7F014TAHX,1U5X071EXP6C9Y,84.8,0.4,13.1,8.142685,2.684328,0,0,Mavic Mini,1SDCH7G0169R0K,1SFLH6Q0AB03DJ,1SRCH7F014TAHX,1U5X071EXP6C9Y,DJI Fly,,1.12.8,B3706471-75DF-5FFE-C660-DE8DFD53BA69,1SDCH7G0169R0K,,,,,6.974057802,79.91426102,5,,
2/22/2024,12:24.3,0m 3.8s,3.8,6.974144776,79.9142615,0.9,0.9,1.3,53,1.1,0.223694,0.447388,0.223694,0.447388,0,0,-1.11847,0,3.1,-1.8,-31.6,328.4,350.5,Tripod,Drop Calibration,,8,4,TRUE,,Mavic Mini,TRUE,FALSE,,Smart,RC,FALSE,TRUE,FALSE,,,TRUE,,FALSE,FALSE,FALSE,FALSE,FALSE,FALSE,FALSE,FALSE,FALSE,FALSE,0,Follow Yaw,0,0,-28.7,331.3,FALSE,FALSE,FALSE,FALSE,FALSE,FALSE,,TRUE,Normal,,100,1024,1024,1376,1024,2,FALSE,FALSE,FALSE,FALSE,FALSE,0,FALSE,FALSE,FALSE,FALSE,98,7.96,2016,2056,8.111,FALSE,3.982,3.978,0.004,FALSE,FALSE,NA,81.5,81.3,81.5,0,0,0,0,5,3026.1,756.52,,Idle,0,20,FALSE,5,TRUE,6,Go Home,FALSE,FALSE,FALSE,FALSE,FALSE,FALSE,FALSE,FALSE,TRUE,FALSE,FALSE,FALSE,6.974143363,79.91426209,0.5,101,328,TRUE,1,1,FALSE,FALSE,FALSE,FALSE,,TRUE,FALSE,FALSE,Course Lock,49.2,,16.4,Calm,33,,1.12.8,Mavic Mini,1SDCH7G0169R0K,1SFLH6Q0AB03DJ,1SRCH7F014TAHX,1U5X071EXP6C9Y,84.8,0.4,13.1,8.142685,2.684328,0,0,Mavic Mini,1SDCH7G0169R0K,1SFLH6Q0AB03DJ,1SRCH7F014TAHX,1U5X071EXP6C9Y,DJI Fly,,1.12.8,B3706471-75DF-5FFE-C660-DE8DFD53BA69,1SDCH7G0169R0K,,,,,6.974057802,79.91426102,5,Home Point Updated.,
2/22/2024,12:24.4,0m 3.9s,3.9,6.974145227,79.91426139,0.9,0.9,1.6,53,1.3,0.223694,0.447388,0.223694,0.447388,0,0,-1.11847,0,3.1,-1.2,-31.6,328.4,348.7,Tripod,Drop Calibration,,8,4,TRUE,,Mavic Mini,TRUE,FALSE,,Smart,RC,FALSE,TRUE,FALSE,,,TRUE,,FALSE,FALSE,FALSE,FALSE,FALSE,FALSE,FALSE,FALSE,FALSE,FALSE,0,Follow Yaw,0,0,-28.7,331.3,FALSE,FALSE,FALSE,FALSE,FALSE,FALSE,,TRUE,Normal,,100,1024,1024,1383,1024,2,FALSE,FALSE,FALSE,FALSE,FALSE,0,FALSE,FALSE,FALSE,FALSE,98,7.96,2016,2056,8.111,FALSE,3.982,3.978,0.004,FALSE,FALSE,NA,81.5,81.3,81.5,0,0,0,0,5,3026.1,756.52,,Idle,0,20,FALSE,5,TRUE,6,Go Home,FALSE,FALSE,FALSE,FALSE,FALSE,FALSE,FALSE,FALSE,TRUE,FALSE,FALSE,FALSE,6.974143363,79.91426209,0.7,101,328,TRUE,1,1,FALSE,FALSE,FALSE,FALSE,,TRUE,FALSE,FALSE,Course Lock,49.2,,16.4,Calm,33,,1.12.8,Mavic Mini,1SDCH7G0169R0K,1SFLH6Q0AB03DJ,1SRCH7F014TAHX,1U5X071EXP6C9Y,84.8,0.4,13.1,8.142685,2.684328,0,0,Mavic Mini,1SDCH7G0169R0K,1SFLH6Q0AB03DJ,1SRCH7F014TAHX,1U5X071EXP6C9Y,DJI Fly,,1.12.8,B3706471-75DF-5FFE-C660-DE8DFD53BA69,1SDCH7G0169R0K,,,,,6.974057802,79.91426102,5,Home Point updated. RTH altitude adjusted to 15 m! (Code: 120852).,
2/22/2024,12:24.4,0m 4.0s,4,6.974145374,79.91426139,0.9,0.9,1.6,53,1.3,0,0.447388,0,0.447388,0,0,-1.11847,0,2.9,-1.3,-31.6,328.4,,Tripod,Drop Calibration,,8,4,TRUE,,Mavic Mini,TRUE,FALSE,,Smart,RC,FALSE,TRUE,FALSE,,,TRUE,,FALSE,FALSE,FALSE,FALSE,FALSE,FALSE,FALSE,FALSE,FALSE,FALSE,0,Follow Yaw,0,0,-28.7,331.3,FALSE,FALSE,FALSE,FALSE,FALSE,FALSE,,TRUE,Normal,,100,1024,1024,1411,1024,2,FALSE,FALSE,FALSE,FALSE,FALSE,0,FALSE,FALSE,FALSE,FALSE,98,7.96,2016,2056,8.111,FALSE,3.982,3.978,0.004,FALSE,FALSE,NA,81.5,81.3,81.5,0,0,0,0,5,3026.1,756.52,,Idle,0,20,FALSE,5,TRUE,6,Go Home,FALSE,FALSE,FALSE,FALSE,FALSE,FALSE,FALSE,FALSE,TRUE,FALSE,FALSE,FALSE,6.974143363,79.91426209,0.7,101,328,TRUE,1,1,FALSE,FALSE,FALSE,FALSE,,TRUE,FALSE,FALSE,Course Lock,49.2,,16.4,Calm,33,,1.12.8,Mavic Mini,1SDCH7G0169R0K,1SFLH6Q0AB03DJ,1SRCH7F014TAHX,1U5X071EXP6C9Y,84.8,0.4,13.1,8.142685,2.684328,0,0,Mavic Mini,1SDCH7G0169R0K,1SFLH6Q0AB03DJ,1SRCH7F014TAHX,1U5X071EXP6C9Y,DJI Fly,,1.12.8,B3706471-75DF-5FFE-C660-DE8DFD53BA69,1SDCH7G0169R0K,,,,,6.974057802,79.91426102,5,,
2/22/2024,12:24.5,0m 4.1s,4.1,6.974145456,79.91426145,1.3,1.3,1.9,53,1.4,0,0.447388,0,0.447388,0,0,-1.11847,0,2.1,-1.8,-31.6,328.4,,Tripod,Drop Calibration,,8,4,TRUE,,Mavic Mini,TRUE,FALSE,,Smart,RC,FALSE,TRUE,FALSE,,,TRUE,,FALSE,FALSE,FALSE,FALSE,FALSE,FALSE,FALSE,FALSE,FALSE,FALSE,0,Follow Yaw,0,0,-28.7,331.3,FALSE,FALSE,FALSE,FALSE,FALSE,FALSE,,TRUE,Normal,,100,1024,1024,1435,1024,2,FALSE,FALSE,FALSE,FALSE,FALSE,0,FALSE,FALSE,FALSE,FALSE,98,7.96,2016,2056,8.111,FALSE,3.982,3.978,0.004,FALSE,FALSE,NA,81.5,81.3,81.5,0,0,0,0,5,3026.1,756.52,,Idle,0,20,FALSE,5,TRUE,6,Go Home,FALSE,FALSE,FALSE,FALSE,FALSE,FALSE,FALSE,FALSE,TRUE,FALSE,FALSE,FALSE,6.974143363,79.91426209,0.7,101,328,TRUE,1,1,FALSE,FALSE,FALSE,FALSE,,TRUE,FALSE,FALSE,Course Lock,49.2,,16.4,Calm,33,,1.12.8,Mavic Mini,1SDCH7G0169R0K,1SFLH6Q0AB03DJ,1SRCH7F014TAHX,1U5X071EXP6C9Y,84.8,0.4,13.1,8.142685,2.684328,0,0,Mavic Mini,1SDCH7G0169R0K,1SFLH6Q0AB03DJ,1SRCH7F014TAHX,1U5X071EXP6C9Y,DJI Fly,,1.12.8,B3706471-75DF-5FFE-C660-DE8DFD53BA69,1SDCH7G0169R0K,,,,,6.974052354,79.91425406,5,,
2/22/2024,12:24.7,0m 4.2s,4.2,6.974145513,79.91426154,1.3,1.3,1.9,53,1.4,0,0.447388,0,0.447388,0,0,-1.11847,0,1.9,-2.3,-31.6,328.4,,Tripod,Drop Calibration,,8,4,TRUE,,Mavic Mini,TRUE,FALSE,,Smart,RC,FALSE,TRUE,FALSE,,,TRUE,,FALSE,FALSE,FALSE,FALSE,FALSE,FALSE,FALSE,FALSE,FALSE,FALSE,0,Follow Yaw,0,0,-28.7,331.3,FALSE,FALSE,FALSE,FALSE,FALSE,FALSE,,TRUE,Normal,,100,1024,1024,1478,1024,2,FALSE,FALSE,FALSE,FALSE,FALSE,0,FALSE,FALSE,FALSE,FALSE,98,7.96,2016,2056,8.111,FALSE,3.982,3.978,0.004,FALSE,FALSE,NA,81.5,81.3,81.5,0,0,0,0,5,3026.1,756.52,,Idle,0,20,FALSE,5,TRUE,6,Go Home,FALSE,FALSE,FALSE,FALSE,FALSE,FALSE,FALSE,FALSE,TRUE,FALSE,FALSE,FALSE,6.974143363,79.91426209,0.8,101,328,TRUE,1,1,FALSE,FALSE,FALSE,FALSE,,TRUE,FALSE,FALSE,Course Lock,49.2,,16.4,Calm,33,,1.12.8,Mavic Mini,1SDCH7G0169R0K,1SFLH6Q0AB03DJ,1SRCH7F014TAHX,1U5X071EXP6C9Y,84.8,0.4,13.1,8.142685,2.684328,0,0,Mavic Mini,1SDCH7G0169R0K,1SFLH6Q0AB03DJ,1SRCH7F014TAHX,1U5X071EXP6C9Y,DJI Fly,,1.12.8,B3706471-75DF-5FFE-C660-DE8DFD53BA69,1SDCH7G0169R0K,,,,,6.974052354,79.91425406,5,,
2/22/2024,12:24.7,0m 4.3s,4.3,6.974145444,79.91426171,1.6,1.6,2.2,53,1.5,0,0.447388,0,0.447388,0,0,-1.342164,0,1.4,-2.9,-31.6,328.4,,Tripod,Drop Calibration,,8,4,TRUE,,Mavic Mini,TRUE,FALSE,,Smart,RC,FALSE,TRUE,FALSE,,,TRUE,,FALSE,FALSE,FALSE,FALSE,FALSE,FALSE,FALSE,FALSE,FALSE,FALSE,0,Follow Yaw,0,0,-28.7,331.3,FALSE,FALSE,FALSE,FALSE,FALSE,FALSE,,TRUE,Normal,,100,1024,1024,1481,1024,2,FALSE,FALSE,FALSE,FALSE,FALSE,0,FALSE,FALSE,FALSE,FALSE,98,7.96,2016,2056,8.111,FALSE,3.982,3.978,0.004,FALSE,FALSE,NA,81.5,81.3,81.5,0,0,0,0,5,3026.1,756.52,,Idle,0,20,FALSE,5,TRUE,6,Go Home,FALSE,FALSE,FALSE,FALSE,FALSE,FALSE,FALSE,FALSE,TRUE,FALSE,FALSE,FALSE,6.974143363,79.91426209,0.7,101,328,TRUE,1,1,FALSE,FALSE,FALSE,FALSE,,TRUE,FALSE,FALSE,Course Lock,49.2,,16.4,Calm,33,,1.12.8,Mavic Mini,1SDCH7G0169R0K,1SFLH6Q0AB03DJ,1SRCH7F014TAHX,1U5X071EXP6C9Y,84.8,0.4,13.1,8.142685,2.684328,0,0,Mavic Mini,1SDCH7G0169R0K,1SFLH6Q0AB03DJ,1SRCH7F014TAHX,1U5X071EXP6C9Y,DJI Fly,,1.12.8,B3706471-75DF-5FFE-C660-DE8DFD53BA69,1SDCH7G0169R0K,,,,,6.974052354,79.91425406,5,,
2/22/2024,12:24.8,0m 4.4s,4.4,6.974145455,79.91426182,1.6,1.6,2.6,53,1.5,0,0.447388,0,0.447388,0,0,-1.342164,0,1.5,-2.9,-31.6,328.4,,Tripod,Drop Calibration,,8,4,TRUE,,Mavic Mini,TRUE,FALSE,,Smart,RC,FALSE,TRUE,FALSE,,,TRUE,,FALSE,FALSE,FALSE,FALSE,FALSE,FALSE,FALSE,FALSE,FALSE,FALSE,0,Follow Yaw,0,0,-28.7,331.3,FALSE,FALSE,FALSE,FALSE,FALSE,FALSE,,TRUE,Normal,,100,1024,1024,1482,1024,2,FALSE,FALSE,FALSE,FALSE,FALSE,0,FALSE,FALSE,FALSE,FALSE,98,7.96,2016,2056,8.111,FALSE,3.982,3.978,0.004,FALSE,FALSE,NA,81.5,81.3,81.5,0,0,0,0,5,3026.1,756.52,,Idle,0,20,FALSE,5,TRUE,6,Go Home,FALSE,FALSE,FALSE,FALSE,FALSE,FALSE,FALSE,FALSE,TRUE,FALSE,FALSE,FALSE,6.974143363,79.91426209,0.7,101,328,TRUE,1,1,FALSE,FALSE,FALSE,FALSE,,TRUE,FALSE,FALSE,Course Lock,49.2,,16.4,Calm,33,,1.12.8,Mavic Mini,1SDCH7G0169R0K,1SFLH6Q0AB03DJ,1SRCH7F014TAHX,1U5X071EXP6C9Y,84.8,0.4,13.1,8.142685,2.684328,0,0,Mavic Mini,1SDCH7G0169R0K,1SFLH6Q0AB03DJ,1SRCH7F014TAHX,1U5X071EXP6C9Y,DJI Fly,,1.12.8,B3706471-75DF-5FFE-C660-DE8DFD53BA69,1SDCH7G0169R0K,,,,,6.974052354,79.91425406,5,,
2/22/2024,12:24.9,0m 4.5s,4.5,6.974145481,79.91426187,1.9,1.9,2.6,54,1.5,0,0.447388,0,0.447388,0,0,-1.565858,0,1.4,-2.8,-31.6,328.4,,Tripod,Drop Calibration,,8,4,TRUE,,Mavic Mini,TRUE,FALSE,,Smart,RC,FALSE,TRUE,FALSE,,,TRUE,,FALSE,FALSE,FALSE,FALSE,FALSE,FALSE,FALSE,FALSE,FALSE,FALSE,0,Follow Yaw,0,0,-28.7,331.3,FALSE,FALSE,FALSE,FALSE,FALSE,FALSE,,TRUE,Normal,,100,1024,1024,1482,1024,2,FALSE,FALSE,FALSE,FALSE,FALSE,0,FALSE,FALSE,FALSE,FALSE,98,7.96,2016,2056,8.111,FALSE,3.982,3.978,0.004,FALSE,FALSE,NA,81.5,81.3,81.5,0,0,0,0,5,3026.1,756.52,,Idle,0,20,FALSE,5,TRUE,6,Go Home,FALSE,FALSE,FALSE,FALSE,FALSE,FALSE,FALSE,FALSE,TRUE,FALSE,FALSE,FALSE,6.974143363,79.91426209,0.7,101,328,TRUE,1,1,FALSE,FALSE,FALSE,FALSE,,TRUE,FALSE,FALSE,Course Lock,49.2,,16.4,Calm,33,,1.12.8,Mavic Mini,1SDCH7G0169R0K,1SFLH6Q0AB03DJ,1SRCH7F014TAHX,1U5X071EXP6C9Y,84.8,0.4,13.1,8.142685,2.684328,0,0,Mavic Mini,1SDCH7G0169R0K,1SFLH6Q0AB03DJ,1SRCH7F014TAHX,1U5X071EXP6C9Y,DJI Fly,,1.12.8,B3706471-75DF-5FFE-C660-DE8DFD53BA69,1SDCH7G0169R0K,,,,,6.974052354,79.91425406,5,,
2/22/2024,12:25.1,0m 4.6s,4.6,6.974145522,79.91426187,2.2,2.2,2.9,54,1.6,0,0.447388,0,0.447388,0,0,-1.565858,0,1.6,-2.8,-31.6,328.4,,Tripod,Drop Calibration,,8,4,TRUE,,Mavic Mini,TRUE,FALSE,,Smart,RC,FALSE,TRUE,FALSE,,,TRUE,,FALSE,FALSE,FALSE,FALSE,FALSE,FALSE,FALSE,FALSE,FALSE,FALSE,0,Follow Yaw,0,0,-28.7,331.3,FALSE,FALSE,FALSE,FALSE,FALSE,FALSE,,TRUE,Normal,,100,1024,1024,1472,1024,2,FALSE,FALSE,FALSE,FALSE,FALSE,0,FALSE,FALSE,FALSE,FALSE,98,7.96,2016,2056,8.111,FALSE,3.982,3.978,0.004,FALSE,FALSE,NA,81.5,81.3,81.5,0,0,0,0,5,3026.1,756.52,,Idle,0,20,FALSE,5,TRUE,6,Go Home,FALSE,FALSE,FALSE,FALSE,FALSE,FALSE,FALSE,FALSE,TRUE,FALSE,FALSE,FALSE,6.974143363,79.91426209,0.7,101,328,TRUE,1,1,FALSE,FALSE,FALSE,FALSE,,TRUE,FALSE,FALSE,Course Lock,49.2,,16.4,Calm,33,,1.12.8,Mavic Mini,1SDCH7G0169R0K,1SFLH6Q0AB03DJ,1SRCH7F014TAHX,1U5X071EXP6C9Y,84.8,0.4,13.1,8.142685,2.684328,0,0,Mavic Mini,1SDCH7G0169R0K,1SFLH6Q0AB03DJ,1SRCH7F014TAHX,1U5X071EXP6C9Y,DJI Fly,,1.12.8,B3706471-75DF-5FFE-C660-DE8DFD53BA69,1SDCH7G0169R0K,,,,,6.974052354,79.91425406,5,,
2/22/2024,12:25.2,0m 4.7s,4.7,6.974145379,79.91426178,2.2,2.2,3.2,54,1.6,0,0.447388,0,0.447388,0,0,-1.789552,0,1.7,-2.9,-31.5,328.5,,Tripod,Drop Calibration,,8,4,TRUE,,Mavic Mini,TRUE,FALSE,,Smart,RC,FALSE,TRUE,FALSE,,,TRUE,,FALSE,FALSE,FALSE,FALSE,FALSE,FALSE,FALSE,FALSE,FALSE,FALSE,0,Follow Yaw,0,0,-28.7,331.3,FALSE,FALSE,FALSE,FALSE,FALSE,FALSE,,TRUE,Normal,,100,1024,1024,1494,1024,2,FALSE,FALSE,FALSE,FALSE,FALSE,0,FALSE,FALSE,FALSE,FALSE,98,7.939,2015,2056,8.111,FALSE,3.975,3.964,0.011,FALSE,FALSE,NA,81.7,81.3,81.6,0,0,0,0,5,3026.1,756.52,,Idle,0,20,FALSE,5,TRUE,6,Go Home,FALSE,FALSE,FALSE,FALSE,FALSE,FALSE,FALSE,FALSE,TRUE,FALSE,FALSE,FALSE,6.974143363,79.91426209,0.7,101,328,TRUE,1,1,FALSE,FALSE,FALSE,FALSE,,TRUE,FALSE,FALSE,Course Lock,49.2,,16.4,Calm,33,,1.12.8,Mavic Mini,1SDCH7G0169R0K,1SFLH6Q0AB03DJ,1SRCH7F014TAHX,1U5X071EXP6C9Y,84.8,0.4,13.1,8.142685,2.684328,0,0,Mavic Mini,1SDCH7G0169R0K,1SFLH6Q0AB03DJ,1SRCH7F014TAHX,1U5X071EXP6C9Y,DJI Fly,,1.12.8,B3706471-75DF-5FFE-C660-DE8DFD53BA69,1SDCH7G0169R0K,,,,,6.974052354,79.91425406,5,,
2/22/2024,12:25.2,0m 4.8s,4.8,6.974145397,79.9142617,2.6,2.6,3.6,54,1.6,0,0.447388,0,0.447388,0,0,-1.789552,0,1.8,-2.8,-31.5,328.5,,Tripod,Drop Calibration,,8,4,TRUE,,Mavic Mini,TRUE,FALSE,,Smart,RC,FALSE,TRUE,FALSE,,,TRUE,,FALSE,FALSE,FALSE,FALSE,FALSE,FALSE,FALSE,FALSE,FALSE,FALSE,0,Follow Yaw,0,0,-28.7,331.3,FALSE,FALSE,FALSE,FALSE,FALSE,FALSE,,TRUE,Normal,,100,1024,1024,1544,1024,2,FALSE,FALSE,FALSE,FALSE,FALSE,0,FALSE,FALSE,FALSE,FALSE,98,7.939,2015,2056,7.952,FALSE,3.975,3.964,0.011,FALSE,FALSE,NA,81.7,81.3,81.6,0,0,0,0,5,4185.3,1046.33,,Idle,0,20,FALSE,5,TRUE,6,Go Home,FALSE,FALSE,FALSE,FALSE,FALSE,FALSE,FALSE,FALSE,TRUE,FALSE,FALSE,FALSE,6.974143363,79.91426209,0.7,101,328,TRUE,1,1,FALSE,FALSE,FALSE,FALSE,,TRUE,FALSE,FALSE,Course Lock,49.2,,16.4,Calm,33,,1.12.8,Mavic Mini,1SDCH7G0169R0K,1SFLH6Q0AB03DJ,1SRCH7F014TAHX,1U5X071EXP6C9Y,84.8,0.4,13.1,8.142685,2.684328,0,0,Mavic Mini,1SDCH7G0169R0K,1SFLH6Q0AB03DJ,1SRCH7F014TAHX,1U5X071EXP6C9Y,DJI Fly,,1.12.8,B3706471-75DF-5FFE-C660-DE8DFD53BA69,1SDCH7G0169R0K,,,,,6.974052354,79.91425406,5,,
2/22/2024,12:25.3,0m 4.9s,4.9,6.974145481,79.91426167,2.9,2.9,3.9,55,1.7,0,0.447388,0,0.447388,0,0,-2.013246,0,1.9,-2.6,-31.6,328.4,,Tripod,Drop Calibration,,8,4,TRUE,,Mavic Mini,TRUE,FALSE,,Smart,RC,FALSE,TRUE,FALSE,,,TRUE,,FALSE,FALSE,FALSE,FALSE,FALSE,FALSE,FALSE,FALSE,FALSE,FALSE,0,Follow Yaw,0,0,-28.7,331.3,FALSE,FALSE,FALSE,FALSE,FALSE,FALSE,,TRUE,Normal,,100,1024,1024,1542,1024,2,FALSE,FALSE,FALSE,FALSE,FALSE,0,FALSE,FALSE,FALSE,FALSE,98,7.939,2015,2056,7.952,FALSE,3.975,3.964,0.011,FALSE,FALSE,NA,81.7,81.3,81.6,0,0,0,0,5,4185.3,1046.33,,Idle,0,20,FALSE,5,TRUE,6,Go Home,FALSE,FALSE,FALSE,FALSE,FALSE,FALSE,FALSE,FALSE,TRUE,FALSE,FALSE,FALSE,6.974143363,79.91426209,0.7,101,328,TRUE,1,1,FALSE,FALSE,FALSE,FALSE,,TRUE,FALSE,FALSE,Course Lock,49.2,,16.4,Calm,33,,1.12.8,Mavic Mini,1SDCH7G0169R0K,1SFLH6Q0AB03DJ,1SRCH7F014TAHX,1U5X071EXP6C9Y,84.8,0.4,13.1,8.142685,2.684328,0,0,Mavic Mini,1SDCH7G0169R0K,1SFLH6Q0AB03DJ,1SRCH7F014TAHX,1U5X071EXP6C9Y,DJI Fly,,1.12.8,B3706471-75DF-5FFE-C660-DE8DFD53BA69,1SDCH7G0169R0K,,,,,6.974052354,79.91425406,5,,
2/22/2024,12:25.4,0m 5.0s,5,6.9741456,79.91426166,3.2,3.2,4.2,55,1.7,0,0.447388,0,0.447388,0,0,-2.013246,0,1.6,-2.7,-31.6,328.4,,Tripod,Drop Calibration,,8,4,TRUE,,Mavic Mini,TRUE,FALSE,,Smart,RC,FALSE,TRUE,FALSE,,,TRUE,,FALSE,FALSE,FALSE,FALSE,FALSE,FALSE,FALSE,FALSE,FALSE,FALSE,0,Follow Yaw,0,0,-28.7,331.3,FALSE,FALSE,FALSE,FALSE,FALSE,FALSE,,TRUE,Normal,,100,1024,1024,1551,1024,2,FALSE,FALSE,FALSE,FALSE,FALSE,0,FALSE,FALSE,FALSE,FALSE,98,7.939,2015,2056,7.952,FALSE,3.975,3.964,0.011,FALSE,FALSE,NA,81.7,81.3,81.6,0,0,0,0,5,4185.3,1046.33,,Idle,0,20,FALSE,5,TRUE,6,Go Home,FALSE,FALSE,FALSE,FALSE,FALSE,FALSE,FALSE,FALSE,TRUE,FALSE,FALSE,FALSE,6.974143363,79.91426209,0.8,101,328,TRUE,1,1,FALSE,FALSE,FALSE,FALSE,,TRUE,FALSE,FALSE,Course Lock,49.2,,16.4,Calm,33,,1.12.8,Mavic Mini,1SDCH7G0169R0K,1SFLH6Q0AB03DJ,1SRCH7F014TAHX,1U5X071EXP6C9Y,84.8,0.4,13.1,8.142685,2.684328,0,0,Mavic Mini,1SDCH7G0169R0K,1SFLH6Q0AB03DJ,1SRCH7F014TAHX,1U5X071EXP6C9Y,DJI Fly,,1.12.8,B3706471-75DF-5FFE-C660-DE8DFD53BA69,1SDCH7G0169R0K,,,,,6.974052354,79.91425406,5,,
2/22/2024,12:25.5,0m 5.1s,5.1,6.974145824,79.91426158,3.6,3.6,4.5,55,1.8,0,0.447388,0,0.447388,0,0,-2.23694,0,1.9,-2.6,-31.6,328.4,,Tripod,Drop Calibration,,8,4,TRUE,,Mavic Mini,TRUE,FALSE,,Smart,RC,FALSE,TRUE,FALSE,,,TRUE,,FALSE,FALSE,FALSE,FALSE,FALSE,FALSE,FALSE,FALSE,FALSE,FALSE,0,Follow Yaw,0,0,-28.7,331.3,FALSE,FALSE,FALSE,FALSE,FALSE,FALSE,,TRUE,Normal,,100,1024,1024,1550,1024,2,FALSE,FALSE,FALSE,FALSE,FALSE,0,FALSE,FALSE,FALSE,FALSE,98,7.939,2015,2056,7.952,FALSE,3.975,3.964,0.011,FALSE,FALSE,NA,81.7,81.3,81.6,0,0,0,0,5,4185.3,1046.33,,Idle,0,20,FALSE,5,TRUE,6,Go Home,FALSE,FALSE,FALSE,FALSE,FALSE,FALSE,FALSE,FALSE,TRUE,FALSE,FALSE,FALSE,6.974143363,79.91426209,0.9,101,328,TRUE,1,1,FALSE,FALSE,FALSE,FALSE,,TRUE,FALSE,FALSE,Course Lock,49.2,,16.4,Calm,33,,1.12.8,Mavic Mini,1SDCH7G0169R0K,1SFLH6Q0AB03DJ,1SRCH7F014TAHX,1U5X071EXP6C9Y,84.8,0.4,13.1,8.142685,2.684328,0,0,Mavic Mini,1SDCH7G0169R0K,1SFLH6Q0AB03DJ,1SRCH7F014TAHX,1U5X071EXP6C9Y,DJI Fly,,1.12.8,B3706471-75DF-5FFE-C660-DE8DFD53BA69,1SDCH7G0169R0K,,,,,6.974052354,79.91425406,5,,
2/22/2024,12:25.6,0m 5.2s,5.2,6.974145878,79.91426148,3.9,3.9,4.9,56,1.9,0,0.447388,0,0.447388,0,0,-2.23694,0,1.9,-2.4,-31.6,328.4,,Tripod,Drop Calibration,,8,4,TRUE,,Mavic Mini,TRUE,FALSE,,Smart,RC,FALSE,TRUE,FALSE,,,TRUE,,FALSE,FALSE,FALSE,FALSE,FALSE,FALSE,FALSE,FALSE,FALSE,FALSE,0,Follow Yaw,0,0,-28.7,331.3,FALSE,FALSE,FALSE,FALSE,FALSE,FALSE,,TRUE,Normal,,100,1024,1024,1550,1024,2,FALSE,FALSE,FALSE,FALSE,FALSE,0,FALSE,FALSE,FALSE,FALSE,98,7.939,2015,2056,7.952,FALSE,3.975,3.964,0.011,FALSE,FALSE,NA,81.7,81.3,81.6,0,0,0,0,5,4185.3,1046.33,,Idle,0,20,FALSE,5,TRUE,6,Go Home,FALSE,FALSE,FALSE,FALSE,FALSE,FALSE,FALSE,FALSE,TRUE,FALSE,FALSE,FALSE,6.974143363,79.91426209,0.9,101,328,TRUE,1,1,FALSE,FALSE,FALSE,FALSE,,TRUE,FALSE,FALSE,Course Lock,49.2,,16.4,Calm,33,,1.12.8,Mavic Mini,1SDCH7G0169R0K,1SFLH6Q0AB03DJ,1SRCH7F014TAHX,1U5X071EXP6C9Y,84.8,0.4,13.1,8.142685,2.684328,0,0,Mavic Mini,1SDCH7G0169R0K,1SFLH6Q0AB03DJ,1SRCH7F014TAHX,1U5X071EXP6C9Y,DJI Fly,,1.12.8,B3706471-75DF-5FFE-C660-DE8DFD53BA69,1SDCH7G0169R0K,,,,,6.974052354,79.91425406,5,,
