CUSTOM.date [local],CUSTOM.updateTime [local],OSD.flyTime,OSD.flyTime [s],OSD.latitude,OSD.longitude,OSD.height [ft],OSD.heightMax [ft],OSD.vpsHeight [ft],OSD.altitude [ft],OSD.mileage [ft],OSD.hSpeed [MPH],OSD.hSpeedMax [MPH],OSD.xSpeed [MPH],OSD.xSpeedMax [MPH],OSD.ySpeed [MPH],OSD.ySpeedMax [MPH],OSD.zSpeed [MPH],OSD.zSpeedMax [MPH],OSD.pitch,OSD.roll,OSD.yaw,OSD.yaw [360],OSD.directionOfTravel,OSD.flycState,OSD.flycCommand,OSD.flightAction,OSD.gpsNum,OSD.gpsLevel,OSD.isGPSUsed,OSD.nonGPSCause,OSD.droneType,OSD.isSwaveWork,OSD.waveError,OSD.goHomeStatus,OSD.batteryType,OSD.ctrlDevice,OSD.isOnGround,OSD.isMotorOn,OSD.isMotorBlocked,OSD.motorStartFailedCause,OSD.motorFailReason,OSD.isImuPreheated,OSD.imuInitFailReason,OSD.isAcceletorOverRange,OSD.isBarometerDeadInAir,OSD.isCompassError,OSD.isGoHomeHeightModified,OSD.canIOCWork,OSD.isNotEnoughForce,OSD.isOutOfLimit,OSD.isPropellerCatapult,OSD.isVibrating,OSD.isVisionUsed,OSD.voltageWarning,GIMBAL.mode,GIMBAL.pitch,GIMBAL.roll,GIMBAL.yaw,GIMBAL.yaw [360],GIMBAL.isPitchAtLimit,GIMBAL.isRollAtLimit,GIMBAL.isYawAtLimit,GIMBAL.isStuck,CAMERA.isPhoto,CAMERA.isVideo,CAMERA.filename,CAMERA.sdCardIsInserted,CAMERA.sdCardState,RC.downlinkSignal,RC.uplinkSignal,RC.aileron,RC.elevator,RC.throttle,RC.rudder,RC.mode,RC.goHomeDepressed,RC.recordDepressed,RC.shutterDepressed,RC.playbackDepressed,RC.wheelDepressed,RC.wheelOffset,RC.custom1Depressed,RC.custom2Depressed,RC.custom3Depressed,RC.custom4Depressed,BATTERY.chargeLevel,BATTERY.currentPV [V],BATTERY.currentCapacity [mAh],BATTERY.fullCapacity [mAh],BATTERY.voltage [V],BATTERY.isCellVoltageEstimated,BATTERY.cellVoltage1 [V],BATTERY.cellVoltage2 [V],BATTERY.maxCellVoltageDeviation,BATTERY.isCellVoltageDeviationHigh,BATTERY.isVoltageLow,BATTERY.current [A],BATTERY.temperature [F],BATTERY.minTemperature [F],BATTERY.maxTemperature [F],BATTERY.usefulTime [s],BATTERY.goHomeTime [s],BATTERY.landTime [s],BATTERY.goHomeBattery,BATTERY.landBattery,BATTERY.safeFlyRadius,BATTERY.volumeConsume,BATTERY.status,BATTERY.goHomeStatus,BATTERY.goHomeCountdown,BATTERY.lowWarning,BATTERY.lowWarningGoHome,BATTERY.seriousLowWarning,BATTERY.seriousLowWarningLanding,BATTERY.timesCharged,MC.failSafeAction,MC.isObstacleAvoidanceEnabled,MC.isCollisionAvoidanceEnabled,MC.isRthObstacleAvoidanceEnabled,MC.isBraking,MC.isAvoidingObstacle,MC.isAvoidingActiveObstacle,MC.isAscentLimitedByObstacle,MC.isLandingConfirmationNeeded,MC.atLowAltitudeLimit,MC.atDistanceLimit,MC.atAirportAltitudeLimit,MC.atAirportBoundary,HOME.latitude,HOME.longitude,HOME.distance [ft],HOME.height [ft],HOME.heightLimit [ft],HOME.isHomeRecord,HOME.goHomeMode,HOME.aircraftHeadDirection,HOME.isDynamicHomePointEnabled,HOME.isReachedLimitDistance,HOME.isReachedLimitHeight,HOME.isCompassCalibrating,HOME.compassCalibrationState,HOME.isMultipleFlightModeEnabled,HOME.isBeginnerMode,HOME.isIOCEnabled,HOME.iocMode,HOME.goHomeHeight [ft],HOME.courseLockAngle,HOME.forceLandingHeight [ft],HOME.wind,HOME.dataRecorderFileIndex,RECOVER.appType,RECOVER.appVersion,RECOVER.aircraftName,RECOVER.aircraftSerial,RECOVER.cameraSerial,RECOVER.rcSerial,RECOVER.batterySerial,DETAILS.totalTime [s],DETAILS.totalDistance [ft],DETAILS.maxHeight [ft],DETAILS.maxHorizontalSpeed [MPH],DETAILS.maxVerticalSpeed [MPH],DETAILS.photoNum,DETAILS.videoTime [s],DETAILS.aircraftName,DETAILS.aircraftSerial,DETAILS.cameraSerial,DETAILS.rcSerial,DETAILS.batterySerial,DETAILS.appName,DETAILS.appType,DETAILS.appVersion,DETAILS.guid,SERIAL.flightController,SERIAL.camera,SERIAL.gimbal,SERIAL.rc,SERIAL.battery,APPGPS.latitude,APPGPS.longitude,APPGPS.accuracy,APP.tip,APP.warning
2/27/2024,06:52.6,3m 12.5s,192.5,6.974169901,79.9145186,0,0,0.3,61,0,0,0,0,0,0,0,0,0,7.9,2.1,158.3,158.3,,Starting Motors,Other,Takeoff (RC Assisted),11,4,TRUE,,Mavic Mini,FALSE,FALSE,,Smart,RC,TRUE,TRUE,FALSE,,,TRUE,,FALSE,FALSE,FALSE,FALSE,FALSE,FALSE,FALSE,FALSE,FALSE,FALSE,0,Follow Yaw,0,0,156.3,156.3,FALSE,FALSE,FALSE,FALSE,FALSE,FALSE,,TRUE,Normal,,,1024,1024,1024,1024,1,FALSE,FALSE,FALSE,FALSE,FALSE,0,FALSE,FALSE,FALSE,FALSE,85,7.893,1749,2063,7.893,TRUE,3.947,3.947,,FALSE,FALSE,NA,96.4,96.4,96.4,,,,,,,,,Idle,,,TRUE,,FALSE,6,Go Home,FALSE,FALSE,FALSE,FALSE,FALSE,FALSE,FALSE,FALSE,FALSE,FALSE,FALSE,FALSE,,,,,,FALSE,,,FALSE,FALSE,FALSE,FALSE,,FALSE,FALSE,FALSE,,,,,Calm,,,1.12.8,Mavic Mini,1SDCH7G0169R0K,1SFLH6Q0AB03DJ,1SRCH7F014TAHX,1U5X071EXP6C9Y,58.7,0.1,3.2,4.906056,4.250186,0,341,Mavic Mini,1SDCH7G0169R0K,1SFLH6Q0AB03DJ,1SRCH7F014TAHX,1U5X071EXP6C9Y,DJI Fly,,1.12.8,A3F1BC60-C06F-52E9-47FF-F2B63CCD996E,1SDCH7G0169R0K,,,,,,,,Flight mode changed to Starting Motors.,
2/27/2024,03:40.2,3m 12.6s,192.6,6.974169896,79.91451853,0,0,0.3,61,0,0,0,0,0,0,0,0,0,7.9,2.1,158.3,158.3,,Starting Motors,Other,Takeoff (RC Assisted),11,4,TRUE,,Mavic Mini,FALSE,FALSE,,Smart,RC,TRUE,TRUE,FALSE,,,TRUE,,FALSE,FALSE,FALSE,FALSE,FALSE,FALSE,FALSE,FALSE,FALSE,FALSE,0,Follow Yaw,0,0,156.3,156.3,FALSE,FALSE,FALSE,FALSE,FALSE,FALSE,,TRUE,Normal,,100,1024,1024,1024,1024,1,FALSE,FALSE,FALSE,FALSE,FALSE,0,FALSE,FALSE,FALSE,FALSE,85,7.893,1749,2063,7.893,TRUE,3.947,3.947,,FALSE,FALSE,NA,96.4,96.4,96.4,,,,,,,,,Idle,,,TRUE,,FALSE,6,Go Home,FALSE,FALSE,FALSE,FALSE,FALSE,FALSE,FALSE,FALSE,FALSE,FALSE,FALSE,FALSE,,,,,,FALSE,,,FALSE,FALSE,FALSE,FALSE,,FALSE,FALSE,FALSE,,,,,Calm,,,1.12.8,Mavic Mini,1SDCH7G0169R0K,1SFLH6Q0AB03DJ,1SRCH7F014TAHX,1U5X071EXP6C9Y,58.7,0.1,3.2,4.906056,4.250186,0,341,Mavic Mini,1SDCH7G0169R0K,1SFLH6Q0AB03DJ,1SRCH7F014TAHX,1U5X071EXP6C9Y,DJI Fly,,1.12.8,A3F1BC60-C06F-52E9-47FF-F2B63CCD996E,1SDCH7G0169R0K,,,,,,,,,
2/27/2024,03:40.3,3m 12.7s,192.7,6.974169941,79.91451842,0,0,0.3,61,0,0,0,0,0,0,0,0,0,7.9,2.1,158.3,158.3,,Starting Motors,Other,Takeoff (RC Assisted),11,4,TRUE,,Mavic Mini,TRUE,FALSE,,Smart,RC,TRUE,TRUE,FALSE,,,TRUE,,FALSE,FALSE,FALSE,FALSE,FALSE,FALSE,FALSE,FALSE,FALSE,FALSE,0,Follow Yaw,0,0,156.3,156.3,FALSE,FALSE,FALSE,FALSE,FALSE,FALSE,,TRUE,Normal,,100,1024,1024,1024,1024,1,FALSE,FALSE,FALSE,FALSE,FALSE,0,FALSE,FALSE,FALSE,FALSE,85,7.897,1749,2063,7.897,FALSE,3.953,3.944,0.009,FALSE,FALSE,NA,96.4,96.4,96.4,,,,,,,,,Idle,,,TRUE,,FALSE,6,Go Home,FALSE,FALSE,FALSE,FALSE,FALSE,FALSE,FALSE,FALSE,FALSE,FALSE,FALSE,FALSE,,,,,,FALSE,,,FALSE,FALSE,FALSE,FALSE,,FALSE,FALSE,FALSE,,,,,Calm,,,1.12.8,Mavic Mini,1SDCH7G0169R0K,1SFLH6Q0AB03DJ,1SRCH7F014TAHX,1U5X071EXP6C9Y,58.7,0.1,3.2,4.906056,4.250186,0,341,Mavic Mini,1SDCH7G0169R0K,1SFLH6Q0AB03DJ,1SRCH7F014TAHX,1U5X071EXP6C9Y,DJI Fly,,1.12.8,A3F1BC60-C06F-52E9-47FF-F2B63CCD996E,1SDCH7G0169R0K,,,,,,,,,
2/27/2024,03:40.4,3m 12.8s,192.8,6.974169953,79.91451832,0,0,0.3,61,0,0,0,0,0,0,0,0,0,7.9,2.1,158.3,158.3,,Starting Motors,Other,Takeoff (RC Assisted),11,4,TRUE,,Mavic Mini,TRUE,FALSE,,Smart,RC,TRUE,TRUE,FALSE,,,TRUE,,FALSE,FALSE,FALSE,FALSE,FALSE,FALSE,FALSE,FALSE,FALSE,FALSE,0,Follow Yaw,0,0,156.3,156.3,FALSE,FALSE,FALSE,FALSE,FALSE,FALSE,,TRUE,Normal,,100,1024,1024,1024,1024,1,FALSE,FALSE,FALSE,FALSE,FALSE,0,FALSE,FALSE,FALSE,FALSE,85,7.897,1749,2063,7.897,FALSE,3.953,3.944,0.009,FALSE,FALSE,NA,96.4,96.4,96.4,,,,,,,,,Idle,,,TRUE,,FALSE,6,Go Home,FALSE,FALSE,FALSE,FALSE,FALSE,FALSE,FALSE,FALSE,FALSE,FALSE,FALSE,FALSE,,,,,,FALSE,,,FALSE,FALSE,FALSE,FALSE,,FALSE,FALSE,FALSE,,,,,Calm,,,1.12.8,Mavic Mini,1SDCH7G0169R0K,1SFLH6Q0AB03DJ,1SRCH7F014TAHX,1U5X071EXP6C9Y,58.7,0.1,3.2,4.906056,4.250186,0,341,Mavic Mini,1SDCH7G0169R0K,1SFLH6Q0AB03DJ,1SRCH7F014TAHX,1U5X071EXP6C9Y,DJI Fly,,1.12.8,A3F1BC60-C06F-52E9-47FF-F2B63CCD996E,1SDCH7G0169R0K,,,,,,,,,
2/27/2024,03:40.6,3m 12.9s,192.9,6.974169967,79.91451822,0,0,0.3,61,0.1,0,0,0,0,0,0,0,0,7.8,2.2,158.3,158.3,,Starting Motors,Other,Takeoff (RC Assisted),11,4,TRUE,,Mavic Mini,TRUE,FALSE,,Smart,RC,TRUE,TRUE,FALSE,,,TRUE,,FALSE,FALSE,FALSE,FALSE,FALSE,FALSE,FALSE,FALSE,FALSE,FALSE,0,Follow Yaw,0,0,156.3,156.3,FALSE,FALSE,FALSE,FALSE,FALSE,FALSE,,TRUE,Normal,,100,1024,1024,1024,1024,1,FALSE,FALSE,FALSE,FALSE,FALSE,0,FALSE,FALSE,FALSE,FALSE,85,7.897,1749,2063,7.897,FALSE,3.953,3.944,0.009,FALSE,FALSE,NA,96.4,96.4,96.4,,,,,,,,,Idle,,,TRUE,,FALSE,6,Go Home,FALSE,FALSE,FALSE,FALSE,FALSE,FALSE,FALSE,FALSE,FALSE,FALSE,FALSE,FALSE,,,,,,FALSE,,,FALSE,FALSE,FALSE,FALSE,,FALSE,FALSE,FALSE,,,,,Calm,,,1.12.8,Mavic Mini,1SDCH7G0169R0K,1SFLH6Q0AB03DJ,1SRCH7F014TAHX,1U5X071EXP6C9Y,58.7,0.1,3.2,4.906056,4.250186,0,341,Mavic Mini,1SDCH7G0169R0K,1SFLH6Q0AB03DJ,1SRCH7F014TAHX,1U5X071EXP6C9Y,DJI Fly,,1.12.8,A3F1BC60-C06F-52E9-47FF-F2B63CCD996E,1SDCH7G0169R0K,,,,,,,,,
2/27/2024,03:40.7,3m 13.0s,193,6.974169983,79.91451811,0,0,0.3,61,0.1,0,0,0,0,0,0,0,0,7.9,2.1,158.2,158.2,,Starting Motors,Other,Takeoff (RC Assisted),11,4,TRUE,,Mavic Mini,TRUE,FALSE,,Smart,RC,TRUE,TRUE,FALSE,,,TRUE,,FALSE,FALSE,FALSE,FALSE,FALSE,FALSE,FALSE,FALSE,FALSE,FALSE,0,Follow Yaw,0,0,156.3,156.3,FALSE,FALSE,FALSE,FALSE,FALSE,FALSE,,TRUE,Normal,,100,1024,1024,1024,1024,1,FALSE,FALSE,FALSE,FALSE,FALSE,0,FALSE,FALSE,FALSE,FALSE,85,7.897,1749,2063,7.897,FALSE,3.953,3.944,0.009,FALSE,FALSE,NA,96.4,96.4,96.4,,,,,,,,,Idle,,,TRUE,,FALSE,6,Go Home,FALSE,FALSE,FALSE,FALSE,FALSE,FALSE,FALSE,FALSE,FALSE,FALSE,FALSE,FALSE,,,,,,FALSE,,,FALSE,FALSE,FALSE,FALSE,,FALSE,FALSE,FALSE,,,,,Calm,,,1.12.8,Mavic Mini,1SDCH7G0169R0K,1SFLH6Q0AB03DJ,1SRCH7F014TAHX,1U5X071EXP6C9Y,58.7,0.1,3.2,4.906056,4.250186,0,341,Mavic Mini,1SDCH7G0169R0K,1SFLH6Q0AB03DJ,1SRCH7F014TAHX,1U5X071EXP6C9Y,DJI Fly,,1.12.8,A3F1BC60-C06F-52E9-47FF-F2B63CCD996E,1SDCH7G0169R0K,,,,,,,,,
2/27/2024,03:40.7,3m 13.1s,193.1,6.974169973,79.91451802,0,0,0.3,61,0.1,0,0,0,0,0,0,0,0,7.9,2.1,158.2,158.2,,Starting Motors,Other,Takeoff (RC Assisted),11,4,TRUE,,Mavic Mini,TRUE,FALSE,,Smart,RC,TRUE,TRUE,FALSE,,,TRUE,,FALSE,FALSE,FALSE,FALSE,FALSE,FALSE,FALSE,FALSE,FALSE,FALSE,0,Follow Yaw,0,0,156.4,156.4,FALSE,FALSE,FALSE,FALSE,FALSE,FALSE,,TRUE,Normal,,100,1024,1024,1024,1024,1,FALSE,FALSE,FALSE,FALSE,FALSE,0,FALSE,FALSE,FALSE,FALSE,85,7.897,1749,2063,7.897,FALSE,3.953,3.944,0.009,FALSE,FALSE,NA,96.4,96.4,96.4,,,,,,,,,Idle,,,TRUE,,FALSE,6,Go Home,FALSE,FALSE,FALSE,FALSE,FALSE,FALSE,FALSE,FALSE,FALSE,FALSE,FALSE,FALSE,,,,,,FALSE,,,FALSE,FALSE,FALSE,FALSE,,FALSE,FALSE,FALSE,,,,,Calm,,,1.12.8,Mavic Mini,1SDCH7G0169R0K,1SFLH6Q0AB03DJ,1SRCH7F014TAHX,1U5X071EXP6C9Y,58.7,0.1,3.2,4.906056,4.250186,0,341,Mavic Mini,1SDCH7G0169R0K,1SFLH6Q0AB03DJ,1SRCH7F014TAHX,1U5X071EXP6C9Y,DJI Fly,,1.12.8,A3F1BC60-C06F-52E9-47FF-F2B63CCD996E,1SDCH7G0169R0K,,,,,,,,,
2/27/2024,03:40.8,3m 13.2s,193.2,6.974169872,79.91451795,0,0,0.3,61,0.2,0,0,0,0,0,0,0,0,7.9,2,157.8,157.8,,Starting Motors,Other,Takeoff (RC Assisted),11,4,TRUE,,Mavic Mini,TRUE,FALSE,,Smart,RC,TRUE,TRUE,FALSE,,,TRUE,,FALSE,FALSE,FALSE,FALSE,FALSE,FALSE,FALSE,FALSE,FALSE,FALSE,0,Follow Yaw,0,0,156.2,156.2,FALSE,FALSE,FALSE,FALSE,FALSE,FALSE,,TRUE,Normal,,100,1024,1024,1024,1024,1,FALSE,FALSE,FALSE,FALSE,FALSE,0,FALSE,FALSE,FALSE,FALSE,85,7.897,1749,2063,7.883,FALSE,3.953,3.944,0.009,FALSE,FALSE,NA,96.4,96.4,96.4,0,1,0,0,5,1818.2,454.56,,Idle,0,20,FALSE,5,TRUE,6,Go Home,FALSE,FALSE,FALSE,FALSE,FALSE,FALSE,FALSE,FALSE,FALSE,FALSE,FALSE,FALSE,6.974176063,79.91452735,4,182.4,328,TRUE,1,1,FALSE,FALSE,FALSE,FALSE,,TRUE,FALSE,FALSE,Course Lock,49.2,254.5,16.4,Calm,39,,1.12.8,Mavic Mini,1SDCH7G0169R0K,1SFLH6Q0AB03DJ,1SRCH7F014TAHX,1U5X071EXP6C9Y,58.7,0.1,3.2,4.906056,4.250186,0,341,Mavic Mini,1SDCH7G0169R0K,1SFLH6Q0AB03DJ,1SRCH7F014TAHX,1U5X071EXP6C9Y,DJI Fly,,1.12.8,A3F1BC60-C06F-52E9-47FF-F2B63CCD996E,1SDCH7G0169R0K,,,,,,,,Data Recorder File Index is 39.; Set Return to Home (RTH) altitude to 15 m (49 ft).; Set maximum flight altitude to 100 m (328 ft).,
2/27/2024,03:40.9,3m 13.3s,193.3,6.974169848,79.9145179,0,0,0.3,61,0.2,0,0,0,0,0,0,0,0,8,2,157.7,157.7,,Starting Motors,Other,Takeoff (RC Assisted),12,4,TRUE,,Mavic Mini,TRUE,FALSE,,Smart,RC,TRUE,TRUE,FALSE,,,TRUE,,FALSE,FALSE,FALSE,FALSE,FALSE,FALSE,FALSE,FALSE,FALSE,FALSE,0,Follow Yaw,0,0,156.1,156.1,FALSE,FALSE,FALSE,FALSE,FALSE,FALSE,,TRUE,Normal,,100,1024,1024,1024,1024,1,FALSE,FALSE,FALSE,FALSE,FALSE,0,FALSE,FALSE,FALSE,FALSE,85,7.897,1749,2063,7.883,FALSE,3.953,3.944,0.009,FALSE,FALSE,NA,96.4,96.4,96.4,0,1,0,0,5,1818.2,454.56,,Idle,0,20,FALSE,5,TRUE,6,Go Home,FALSE,FALSE,FALSE,FALSE,FALSE,FALSE,FALSE,FALSE,FALSE,FALSE,FALSE,FALSE,6.974176063,79.91452735,4.1,182.4,328,TRUE,1,1,FALSE,FALSE,FALSE,FALSE,,TRUE,FALSE,FALSE,Course Lock,49.2,254.5,16.4,Calm,39,,1.12.8,Mavic Mini,1SDCH7G0169R0K,1SFLH6Q0AB03DJ,1SRCH7F014TAHX,1U5X071EXP6C9Y,58.7,0.1,3.2,4.906056,4.250186,0,341,Mavic Mini,1SDCH7G0169R0K,1SFLH6Q0AB03DJ,1SRCH7F014TAHX,1U5X071EXP6C9Y,DJI Fly,,1.12.8,A3F1BC60-C06F-52E9-47FF-F2B63CCD996E,1SDCH7G0169R0K,,,,,,,,,
2/27/2024,03:41.0,3m 13.4s,193.4,6.974169842,79.91451786,0,0,0.3,61,0.2,0,0,0,0,0,0,0,0,8,2,157.7,157.7,,Starting Motors,Other,Takeoff (RC Assisted),12,4,TRUE,,Mavic Mini,TRUE,FALSE,,Smart,RC,TRUE,TRUE,FALSE,,,TRUE,,FALSE,FALSE,FALSE,FALSE,FALSE,FALSE,FALSE,FALSE,FALSE,FALSE,0,Follow Yaw,0,0,156,156,FALSE,FALSE,FALSE,FALSE,FALSE,FALSE,,TRUE,Normal,,100,1024,1024,1024,1024,1,FALSE,FALSE,FALSE,FALSE,FALSE,0,FALSE,FALSE,FALSE,FALSE,85,7.897,1749,2063,7.883,FALSE,3.953,3.944,0.009,FALSE,FALSE,NA,96.4,96.4,96.4,0,1,0,0,5,1818.2,454.56,,Idle,0,20,FALSE,5,TRUE,6,Go Home,FALSE,FALSE,FALSE,FALSE,FALSE,FALSE,FALSE,FALSE,FALSE,FALSE,FALSE,FALSE,6.974176063,79.91452735,4.1,182.4,328,TRUE,1,1,FALSE,FALSE,FALSE,FALSE,,TRUE,FALSE,FALSE,Course Lock,49.2,254.5,16.4,Calm,39,,1.12.8,Mavic Mini,1SDCH7G0169R0K,1SFLH6Q0AB03DJ,1SRCH7F014TAHX,1U5X071EXP6C9Y,58.7,0.1,3.2,4.906056,4.250186,0,341,Mavic Mini,1SDCH7G0169R0K,1SFLH6Q0AB03DJ,1SRCH7F014TAHX,1U5X071EXP6C9Y,DJI Fly,,1.12.8,A3F1BC60-C06F-52E9-47FF-F2B63CCD996E,1SDCH7G0169R0K,,,,,,,,,
2/27/2024,03:41.1,3m 13.5s,193.5,6.974169823,79.9145178,0,0,0.3,61,0.2,0,0,0,0,0,0,0,0,8,2,157.7,157.7,,Starting Motors,Other,Takeoff (RC Assisted),12,4,TRUE,,Mavic Mini,TRUE,FALSE,,Smart,RC,TRUE,TRUE,FALSE,,,TRUE,,FALSE,FALSE,FALSE,FALSE,FALSE,FALSE,FALSE,FALSE,FALSE,FALSE,0,Follow Yaw,0,0,155.9,155.9,FALSE,FALSE,FALSE,FALSE,FALSE,FALSE,,TRUE,Normal,,100,1024,1024,1024,1024,1,FALSE,FALSE,FALSE,FALSE,FALSE,0,FALSE,FALSE,FALSE,FALSE,85,7.897,1749,2063,7.883,FALSE,3.953,3.944,0.009,FALSE,FALSE,NA,96.4,96.4,96.4,0,1,0,0,5,1818.2,454.56,,Idle,0,20,FALSE,5,TRUE,6,Go Home,FALSE,FALSE,FALSE,FALSE,FALSE,FALSE,FALSE,FALSE,FALSE,FALSE,FALSE,FALSE,6.974176063,79.91452735,4.1,182.4,328,TRUE,1,1,FALSE,FALSE,FALSE,FALSE,,TRUE,FALSE,FALSE,Course Lock,49.2,254.5,16.4,Calm,39,,1.12.8,Mavic Mini,1SDCH7G0169R0K,1SFLH6Q0AB03DJ,1SRCH7F014TAHX,1U5X071EXP6C9Y,58.7,0.1,3.2,4.906056,4.250186,0,341,Mavic Mini,1SDCH7G0169R0K,1SFLH6Q0AB03DJ,1SRCH7F014TAHX,1U5X071EXP6C9Y,DJI Fly,,1.12.8,A3F1BC60-C06F-52E9-47FF-F2B63CCD996E,1SDCH7G0169R0K,,,,,,,,,
2/27/2024,03:41.2,3m 13.6s,193.6,6.974169707,79.91451775,0,0,0.3,61,0.3,0,0,0,0,0,0,0,0,7.9,2,157.7,157.7,,Manual Takeoff,Other,Takeoff (RC Assisted),12,4,TRUE,,Mavic Mini,TRUE,FALSE,,Smart,RC,TRUE,TRUE,FALSE,,,TRUE,,FALSE,FALSE,FALSE,FALSE,FALSE,FALSE,FALSE,FALSE,FALSE,FALSE,0,Follow Yaw,0,0,155.9,155.9,FALSE,FALSE,FALSE,FALSE,FALSE,FALSE,,TRUE,Normal,,100,1024,1024,1024,1024,1,FALSE,FALSE,FALSE,FALSE,FALSE,0,FALSE,FALSE,FALSE,FALSE,85,7.897,1749,2063,7.883,FALSE,3.953,3.944,0.009,FALSE,FALSE,NA,96.4,96.4,96.4,0,1,0,0,5,1818.2,454.56,,Idle,0,20,FALSE,5,TRUE,6,Go Home,FALSE,FALSE,FALSE,FALSE,FALSE,FALSE,FALSE,FALSE,FALSE,FALSE,FALSE,FALSE,6.974176063,79.91452735,4.1,182.4,328,TRUE,1,1,FALSE,FALSE,FALSE,FALSE,,TRUE,FALSE,FALSE,Course Lock,49.2,254.5,16.4,Calm,39,,1.12.8,Mavic Mini,1SDCH7G0169R0K,1SFLH6Q0AB03DJ,1SRCH7F014TAHX,1U5X071EXP6C9Y,58.7,0.1,3.2,4.906056,4.250186,0,341,Mavic Mini,1SDCH7G0169R0K,1SFLH6Q0AB03DJ,1SRCH7F014TAHX,1U5X071EXP6C9Y,DJI Fly,,1.12.8,A3F1BC60-C06F-52E9-47FF-F2B63CCD996E,1SDCH7G0169R0K,,,,,,,,Flight mode changed to Manual Takeoff.,
2/27/2024,03:41.3,3m 13.7s,193.7,6.974169679,79.9145177,0,0,0.3,61,0.3,0,0,0,0,0,0,0,0,7.9,2.1,157.7,157.7,,Manual Takeoff,Other,Takeoff (RC Assisted),12,4,TRUE,,Mavic Mini,TRUE,FALSE,,Smart,RC,TRUE,TRUE,FALSE,,,TRUE,,FALSE,FALSE,FALSE,FALSE,FALSE,FALSE,FALSE,FALSE,FALSE,FALSE,0,Follow Yaw,0,0,155.9,155.9,FALSE,FALSE,FALSE,FALSE,FALSE,FALSE,,TRUE,Normal,,100,1024,1024,1024,1024,1,FALSE,FALSE,FALSE,FALSE,FALSE,0,FALSE,FALSE,FALSE,FALSE,85,7.897,1749,2063,7.883,FALSE,3.953,3.944,0.009,FALSE,FALSE,NA,96.4,96.4,96.4,0,1,0,0,5,1818.2,454.56,,Idle,0,20,FALSE,5,TRUE,6,Go Home,FALSE,FALSE,FALSE,FALSE,FALSE,FALSE,FALSE,FALSE,FALSE,FALSE,FALSE,FALSE,6.974176063,79.91452735,4.1,182.4,328,TRUE,1,1,FALSE,FALSE,FALSE,FALSE,,TRUE,FALSE,FALSE,Course Lock,49.2,254.5,16.4,Calm,39,,1.12.8,Mavic Mini,1SDCH7G0169R0K,1SFLH6Q0AB03DJ,1SRCH7F014TAHX,1U5X071EXP6C9Y,58.7,0.1,3.2,4.906056,4.250186,0,341,Mavic Mini,1SDCH7G0169R0K,1SFLH6Q0AB03DJ,1SRCH7F014TAHX,1U5X071EXP6C9Y,DJI Fly,,1.12.8,A3F1BC60-C06F-52E9-47FF-F2B63CCD996E,1SDCH7G0169R0K,,,,,,,,,
2/27/2024,03:41.4,3m 13.8s,193.8,6.974169673,79.9145177,0,0,0.3,61,0.3,0,0,0,0,0,0,0,0,7.9,2.1,157.7,157.7,,Manual Takeoff,Other,Takeoff (RC Assisted),12,4,TRUE,,Mavic Mini,TRUE,FALSE,,Smart,RC,TRUE,TRUE,FALSE,,,TRUE,,FALSE,FALSE,FALSE,FALSE,FALSE,FALSE,FALSE,FALSE,FALSE,FALSE,0,Follow Yaw,0,0,155.9,155.9,FALSE,FALSE,FALSE,FALSE,FALSE,FALSE,,TRUE,Normal,,100,1024,1024,847,1024,1,FALSE,FALSE,FALSE,FALSE,FALSE,0,FALSE,FALSE,FALSE,FALSE,85,7.85,1749,2063,7.883,FALSE,3.926,3.924,0.009,FALSE,FALSE,NA,96.6,96.4,96.6,0,1,0,0,5,1818.2,454.56,,Idle,0,20,FALSE,5,TRUE,6,Go Home,FALSE,FALSE,FALSE,FALSE,FALSE,FALSE,FALSE,FALSE,FALSE,FALSE,FALSE,FALSE,6.974176063,79.91452735,4.2,182.4,328,TRUE,1,1,FALSE,FALSE,FALSE,FALSE,,TRUE,FALSE,FALSE,Course Lock,49.2,254.5,16.4,Calm,39,,1.12.8,Mavic Mini,1SDCH7G0169R0K,1SFLH6Q0AB03DJ,1SRCH7F014TAHX,1U5X071EXP6C9Y,58.7,0.1,3.2,4.906056,4.250186,0,341,Mavic Mini,1SDCH7G0169R0K,1SFLH6Q0AB03DJ,1SRCH7F014TAHX,1U5X071EXP6C9Y,DJI Fly,,1.12.8,A3F1BC60-C06F-52E9-47FF-F2B63CCD996E,1SDCH7G0169R0K,,,,,,,,,
2/27/2024,03:41.5,3m 13.9s,193.9,6.974169652,79.91451769,0,0,0.3,61,0.3,0,0,0,0,0,0,0,0,8,2,157.7,157.7,,Manual Takeoff,Other,Takeoff (RC Assisted),12,4,TRUE,,Mavic Mini,TRUE,FALSE,,Smart,RC,TRUE,TRUE,FALSE,,,TRUE,,FALSE,FALSE,FALSE,FALSE,FALSE,FALSE,FALSE,FALSE,FALSE,FALSE,0,Follow Yaw,0,0,155.9,155.9,FALSE,FALSE,FALSE,FALSE,FALSE,FALSE,,TRUE,Normal,,100,1024,1024,685,1024,1,FALSE,FALSE,FALSE,FALSE,FALSE,0,FALSE,FALSE,FALSE,FALSE,85,7.85,1749,2063,7.883,FALSE,3.926,3.924,0.009,FALSE,FALSE,NA,96.6,96.4,96.6,0,1,0,0,5,1818.2,454.56,,Idle,0,20,FALSE,5,TRUE,6,Go Home,FALSE,FALSE,FALSE,FALSE,FALSE,FALSE,FALSE,FALSE,FALSE,FALSE,FALSE,FALSE,6.974176063,79.91452735,4.2,182.4,328,TRUE,1,1,FALSE,FALSE,FALSE,FALSE,,TRUE,FALSE,FALSE,Course Lock,49.2,254.5,16.4,Calm,39,,1.12.8,Mavic Mini,1SDCH7G0169R0K,1SFLH6Q0AB03DJ,1SRCH7F014TAHX,1U5X071EXP6C9Y,58.7,0.1,3.2,4.906056,4.250186,0,341,Mavic Mini,1SDCH7G0169R0K,1SFLH6Q0AB03DJ,1SRCH7F014TAHX,1U5X071EXP6C9Y,DJI Fly,,1.12.8,A3F1BC60-C06F-52E9-47FF-F2B63CCD996E,1SDCH7G0169R0K,,,,,,,,,
2/27/2024,03:41.6,3m 14.0s,194,6.974169583,79.91451777,0,0,0.3,61,0.4,0,0,0,0,0,0,0,0,8,2,157.7,157.7,,Manual Takeoff,Other,Takeoff (RC Assisted),12,4,TRUE,,Mavic Mini,TRUE,FALSE,,Smart,RC,TRUE,TRUE,FALSE,,,TRUE,,FALSE,FALSE,FALSE,FALSE,FALSE,FALSE,FALSE,FALSE,FALSE,FALSE,0,Follow Yaw,0,0,155.9,155.9,FALSE,FALSE,FALSE,FALSE,FALSE,FALSE,,TRUE,Normal,,100,1024,1024,364,1024,1,FALSE,FALSE,FALSE,FALSE,FALSE,0,FALSE,FALSE,FALSE,FALSE,85,7.85,1749,2063,7.883,FALSE,3.926,3.924,0.009,FALSE,FALSE,NA,96.6,96.4,96.6,0,1,0,0,5,1818.2,454.56,,Idle,0,20,FALSE,5,TRUE,6,Go Home,FALSE,FALSE,FALSE,FALSE,FALSE,FALSE,FALSE,FALSE,FALSE,FALSE,FALSE,FALSE,6.974176063,79.91452735,4.1,182.4,328,TRUE,1,1,FALSE,FALSE,FALSE,FALSE,,TRUE,FALSE,FALSE,Course Lock,49.2,254.5,16.4,Calm,39,,1.12.8,Mavic Mini,1SDCH7G0169R0K,1SFLH6Q0AB03DJ,1SRCH7F014TAHX,1U5X071EXP6C9Y,58.7,0.1,3.2,4.906056,4.250186,0,341,Mavic Mini,1SDCH7G0169R0K,1SFLH6Q0AB03DJ,1SRCH7F014TAHX,1U5X071EXP6C9Y,DJI Fly,,1.12.8,A3F1BC60-C06F-52E9-47FF-F2B63CCD996E,1SDCH7G0169R0K,,,,,,,,,
2/27/2024,03:41.7,3m 14.1s,194.1,6.974169563,79.91451771,0,0,0.3,61,0.4,0,0,0,0,0,0,0,0,7.9,2,157.7,157.7,,Manual Takeoff,Other,Takeoff (RC Assisted),12,4,TRUE,,Mavic Mini,TRUE,FALSE,,Smart,RC,TRUE,TRUE,FALSE,,,TRUE,,FALSE,FALSE,FALSE,FALSE,FALSE,FALSE,FALSE,FALSE,FALSE,FALSE,0,Follow Yaw,0,0,155.9,155.9,FALSE,FALSE,FALSE,FALSE,FALSE,FALSE,,TRUE,Normal,,100,1024,1024,364,1024,1,FALSE,FALSE,FALSE,FALSE,FALSE,0,FALSE,FALSE,FALSE,FALSE,85,7.85,1749,2063,7.883,FALSE,3.926,3.924,0.009,FALSE,FALSE,NA,96.6,96.4,96.6,0,1,0,0,5,1818.2,454.56,,Idle,0,20,FALSE,5,TRUE,6,Go Home,FALSE,FALSE,FALSE,FALSE,FALSE,FALSE,FALSE,FALSE,FALSE,FALSE,FALSE,FALSE,6.974176063,79.91452735,4.2,182.4,328,TRUE,1,1,FALSE,FALSE,FALSE,FALSE,,TRUE,FALSE,FALSE,Course Lock,49.2,254.5,16.4,Calm,39,,1.12.8,Mavic Mini,1SDCH7G0169R0K,1SFLH6Q0AB03DJ,1SRCH7F014TAHX,1U5X071EXP6C9Y,58.7,0.1,3.2,4.906056,4.250186,0,341,Mavic Mini,1SDCH7G0169R0K,1SFLH6Q0AB03DJ,1SRCH7F014TAHX,1U5X071EXP6C9Y,DJI Fly,,1.12.8,A3F1BC60-C06F-52E9-47FF-F2B63CCD996E,1SDCH7G0169R0K,,,,,,,,,
2/27/2024,03:41.8,3m 14.2s,194.2,6.974169564,79.91451762,0,0,0.3,61,0.4,0,0,0,0,0,0,0,0,7.9,2,157.8,157.8,,Manual Takeoff,Other,Takeoff (RC Assisted),12,4,TRUE,,Mavic Mini,TRUE,FALSE,,Smart,RC,TRUE,TRUE,FALSE,,,TRUE,,FALSE,FALSE,FALSE,FALSE,FALSE,FALSE,FALSE,FALSE,FALSE,FALSE,0,Follow Yaw,0,0,155.9,155.9,FALSE,FALSE,FALSE,FALSE,FALSE,FALSE,,TRUE,Normal,,100,1024,1024,681,1024,1,FALSE,FALSE,FALSE,FALSE,FALSE,0,FALSE,FALSE,FALSE,FALSE,85,7.85,1749,2063,7.868,FALSE,3.926,3.924,0.009,FALSE,FALSE,NA,96.6,96.4,96.6,0,1,0,0,5,1870.7,467.69,,Idle,0,20,FALSE,5,TRUE,6,Go Home,FALSE,FALSE,FALSE,FALSE,FALSE,FALSE,FALSE,FALSE,FALSE,FALSE,FALSE,FALSE,6.974176063,79.91452735,4.2,182.4,328,TRUE,1,1,FALSE,FALSE,FALSE,FALSE,,TRUE,FALSE,FALSE,Course Lock,49.2,254.5,16.4,Calm,39,,1.12.8,Mavic Mini,1SDCH7G0169R0K,1SFLH6Q0AB03DJ,1SRCH7F014TAHX,1U5X071EXP6C9Y,58.7,0.1,3.2,4.906056,4.250186,0,341,Mavic Mini,1SDCH7G0169R0K,1SFLH6Q0AB03DJ,1SRCH7F014TAHX,1U5X071EXP6C9Y,DJI Fly,,1.12.8,A3F1BC60-C06F-52E9-47FF-F2B63CCD996E,1SDCH7G0169R0K,,,,,,,,,
2/27/2024,03:41.9,3m 14.3s,194.3,6.974169549,79.91451753,0,0,0.3,61,0.4,0,0,0,0,0,0,0,0,7.9,2,157.8,157.8,,Manual Takeoff,Other,Takeoff (RC Assisted),12,4,TRUE,,Mavic Mini,TRUE,FALSE,,Smart,RC,TRUE,TRUE,FALSE,,,TRUE,,FALSE,FALSE,FALSE,FALSE,FALSE,FALSE,FALSE,FALSE,FALSE,FALSE,0,Follow Yaw,0,0,155.9,155.9,FALSE,FALSE,FALSE,FALSE,FALSE,FALSE,,TRUE,Normal,,100,1024,1024,1024,1024,1,FALSE,FALSE,FALSE,FALSE,FALSE,0,FALSE,FALSE,FALSE,FALSE,85,7.85,1749,2063,7.868,FALSE,3.926,3.924,0.009,FALSE,FALSE,NA,96.6,96.4,96.6,0,1,0,0,5,1870.7,467.69,,Idle,0,20,FALSE,5,TRUE,6,Go Home,FALSE,FALSE,FALSE,FALSE,FALSE,FALSE,FALSE,FALSE,FALSE,FALSE,FALSE,FALSE,6.974176063,79.91452735,4.2,182.4,328,TRUE,1,1,FALSE,FALSE,FALSE,FALSE,,TRUE,FALSE,FALSE,Course Lock,49.2,254.5,16.4,Calm,39,,1.12.8,Mavic Mini,1SDCH7G0169R0K,1SFLH6Q0AB03DJ,1SRCH7F014TAHX,1U5X071EXP6C9Y,58.7,0.1,3.2,4.906056,4.250186,0,341,Mavic Mini,1SDCH7G0169R0K,1SFLH6Q0AB03DJ,1SRCH7F014TAHX,1U5X071EXP6C9Y,DJI Fly,,1.12.8,A3F1BC60-C06F-52E9-47FF-F2B63CCD996E,1SDCH7G0169R0K,,,,,,,,,
2/27/2024,03:42.1,3m 14.4s,194.4,6.974169479,79.91451738,0,0,0.3,61,0.5,0,0,0,0,0,0,0,0,7.9,2,157.7,157.7,,Manual Takeoff,Other,Takeoff (RC Assisted),12,4,TRUE,,Mavic Mini,TRUE,FALSE,,Smart,RC,TRUE,TRUE,FALSE,,,TRUE,,FALSE,FALSE,FALSE,FALSE,FALSE,FALSE,FALSE,FALSE,FALSE,FALSE,0,Follow Yaw,0,0,155.9,155.9,FALSE,FALSE,FALSE,FALSE,FALSE,FALSE,,TRUE,Normal,,100,1024,1024,1262,1056,1,FALSE,FALSE,FALSE,FALSE,FALSE,0,FALSE,FALSE,FALSE,FALSE,85,7.85,1749,2063,7.868,FALSE,3.926,3.924,0.009,FALSE,FALSE,NA,96.6,96.4,96.6,0,1,0,0,5,1870.7,467.69,,Idle,0,20,FALSE,5,TRUE,6,Go Home,FALSE,FALSE,FALSE,FALSE,FALSE,FALSE,FALSE,FALSE,FALSE,FALSE,FALSE,FALSE,6.974176063,79.91452735,4.3,182.4,328,TRUE,1,1,FALSE,FALSE,FALSE,FALSE,,TRUE,FALSE,FALSE,Course Lock,49.2,254.5,16.4,Calm,39,,1.12.8,Mavic Mini,1SDCH7G0169R0K,1SFLH6Q0AB03DJ,1SRCH7F014TAHX,1U5X071EXP6C9Y,58.7,0.1,3.2,4.906056,4.250186,0,341,Mavic Mini,1SDCH7G0169R0K,1SFLH6Q0AB03DJ,1SRCH7F014TAHX,1U5X071EXP6C9Y,DJI Fly,,1.12.8,A3F1BC60-C06F-52E9-47FF-F2B63CCD996E,1SDCH7G0169R0K,,,,,,,,,
2/27/2024,03:42.2,3m 14.5s,194.5,6.974169434,79.9145173,0,0,0.3,61,0.5,0,0,0,0,0,0,0,0,7.9,2,157.7,157.7,,Manual Takeoff,Other,Takeoff (RC Assisted),12,4,TRUE,,Mavic Mini,TRUE,FALSE,,Smart,RC,TRUE,TRUE,FALSE,,,TRUE,,FALSE,FALSE,FALSE,FALSE,FALSE,FALSE,FALSE,FALSE,FALSE,FALSE,0,Follow Yaw,0,0,155.9,155.9,FALSE,FALSE,FALSE,FALSE,FALSE,FALSE,,TRUE,Normal,,100,1024,1024,1684,1072,1,FALSE,FALSE,FALSE,FALSE,FALSE,0,FALSE,FALSE,FALSE,FALSE,85,7.85,1749,2063,7.868,FALSE,3.926,3.924,0.009,FALSE,FALSE,NA,96.6,96.4,96.6,0,1,0,0,5,1870.7,467.69,,Idle,0,20,FALSE,5,TRUE,6,Go Home,FALSE,FALSE,FALSE,FALSE,FALSE,FALSE,FALSE,FALSE,FALSE,FALSE,FALSE,FALSE,6.974176063,79.91452735,4.3,182.4,328,TRUE,1,1,FALSE,FALSE,FALSE,FALSE,,TRUE,FALSE,FALSE,Course Lock,49.2,254.5,16.4,Calm,39,,1.12.8,Mavic Mini,1SDCH7G0169R0K,1SFLH6Q0AB03DJ,1SRCH7F014TAHX,1U5X071EXP6C9Y,58.7,0.1,3.2,4.906056,4.250186,0,341,Mavic Mini,1SDCH7G0169R0K,1SFLH6Q0AB03DJ,1SRCH7F014TAHX,1U5X071EXP6C9Y,DJI Fly,,1.12.8,A3F1BC60-C06F-52E9-47FF-F2B63CCD996E,1SDCH7G0169R0K,,,,,6.974113374,79.91452136,5,,
2/27/2024,03:42.2,3m 14.6s,194.6,6.974169379,79.9145172,0,0,0.3,61,0.6,0,0,0,0,0,0,0,0,8,2,157.7,157.7,,Manual Takeoff,Other,Takeoff (RC Assisted),12,4,TRUE,,Mavic Mini,TRUE,FALSE,,Smart,RC,TRUE,TRUE,FALSE,,,TRUE,,FALSE,FALSE,FALSE,FALSE,FALSE,FALSE,FALSE,FALSE,FALSE,FALSE,0,Follow Yaw,0,0,155.8,155.8,FALSE,FALSE,FALSE,FALSE,FALSE,FALSE,,TRUE,Normal,,100,1024,1024,1684,1078,1,FALSE,FALSE,FALSE,FALSE,FALSE,0,FALSE,FALSE,FALSE,FALSE,85,7.85,1749,2063,7.868,FALSE,3.926,3.924,0.009,FALSE,FALSE,NA,96.6,96.4,96.6,0,1,0,0,5,1870.7,467.69,,Idle,0,20,FALSE,5,TRUE,6,Go Home,FALSE,FALSE,FALSE,FALSE,FALSE,FALSE,FALSE,FALSE,FALSE,FALSE,FALSE,FALSE,6.974176063,79.91452735,4.4,182.4,328,TRUE,1,1,FALSE,FALSE,FALSE,FALSE,,TRUE,FALSE,FALSE,Course Lock,49.2,254.5,16.4,Calm,39,,1.12.8,Mavic Mini,1SDCH7G0169R0K,1SFLH6Q0AB03DJ,1SRCH7F014TAHX,1U5X071EXP6C9Y,58.7,0.1,3.2,4.906056,4.250186,0,341,Mavic Mini,1SDCH7G0169R0K,1SFLH6Q0AB03DJ,1SRCH7F014TAHX,1U5X071EXP6C9Y,DJI Fly,,1.12.8,A3F1BC60-C06F-52E9-47FF-F2B63CCD996E,1SDCH7G0169R0K,,,,,6.974113374,79.91452136,5,,
2/27/2024,03:42.4,3m 14.7s,194.7,6.974169324,79.91451711,0,0,0.3,61,0.6,0,0,0,0,0,0,0,0,7.9,2,157.7,157.7,,Manual Takeoff,Other,Takeoff (RC Assisted),12,4,TRUE,,Mavic Mini,TRUE,FALSE,,Smart,RC,TRUE,TRUE,FALSE,,,TRUE,,FALSE,FALSE,FALSE,FALSE,FALSE,FALSE,FALSE,FALSE,FALSE,FALSE,0,Follow Yaw,0,0,155.8,155.8,FALSE,FALSE,FALSE,FALSE,FALSE,FALSE,,TRUE,Normal,,100,1024,1024,1684,1078,1,FALSE,FALSE,FALSE,FALSE,FALSE,0,FALSE,FALSE,FALSE,FALSE,85,7.85,1749,2063,7.868,FALSE,3.926,3.924,0.009,FALSE,FALSE,NA,96.6,96.4,96.6,0,1,0,0,5,1870.7,467.69,,Idle,0,20,FALSE,5,TRUE,6,Go Home,FALSE,FALSE,FALSE,FALSE,FALSE,FALSE,FALSE,FALSE,FALSE,FALSE,FALSE,FALSE,6.974176063,79.91452735,4.4,182.4,328,TRUE,1,1,FALSE,FALSE,FALSE,FALSE,,TRUE,FALSE,FALSE,Course Lock,49.2,254.5,16.4,Calm,39,,1.12.8,Mavic Mini,1SDCH7G0169R0K,1SFLH6Q0AB03DJ,1SRCH7F014TAHX,1U5X071EXP6C9Y,58.7,0.1,3.2,4.906056,4.250186,0,341,Mavic Mini,1SDCH7G0169R0K,1SFLH6Q0AB03DJ,1SRCH7F014TAHX,1U5X071EXP6C9Y,DJI Fly,,1.12.8,A3F1BC60-C06F-52E9-47FF-F2B63CCD996E,1SDCH7G0169R0K,,,,,6.974113374,79.91452136,5,,
2/27/2024,03:42.5,3m 14.8s,194.8,6.974169268,79.91451705,0,0,0.3,61,0.6,0,0,0,0,0,0,0,0,7.9,1.9,157.7,157.7,,Manual Takeoff,Other,Takeoff (RC Assisted),12,4,TRUE,,Mavic Mini,TRUE,FALSE,,Smart,RC,TRUE,TRUE,FALSE,,,TRUE,,FALSE,FALSE,FALSE,FALSE,FALSE,FALSE,FALSE,FALSE,FALSE,FALSE,0,Follow Yaw,0,0,155.8,155.8,FALSE,FALSE,FALSE,FALSE,FALSE,FALSE,,TRUE,Normal,,100,1024,1024,1684,1087,1,FALSE,FALSE,FALSE,FALSE,FALSE,0,FALSE,FALSE,FALSE,FALSE,85,7.85,1749,2063,7.868,FALSE,3.926,3.924,0.009,FALSE,FALSE,NA,96.6,96.4,96.6,0,1,0,0,5,1870.7,467.69,,Idle,0,20,FALSE,5,TRUE,6,Go Home,FALSE,FALSE,FALSE,FALSE,FALSE,FALSE,FALSE,FALSE,FALSE,FALSE,FALSE,FALSE,6.974176063,79.91452735,4.4,182.4,328,TRUE,1,1,FALSE,FALSE,FALSE,FALSE,,TRUE,FALSE,FALSE,Course Lock,49.2,254.5,16.4,Calm,39,,1.12.8,Mavic Mini,1SDCH7G0169R0K,1SFLH6Q0AB03DJ,1SRCH7F014TAHX,1U5X071EXP6C9Y,58.7,0.1,3.2,4.906056,4.250186,0,341,Mavic Mini,1SDCH7G0169R0K,1SFLH6Q0AB03DJ,1SRCH7F014TAHX,1U5X071EXP6C9Y,DJI Fly,,1.12.8,A3F1BC60-C06F-52E9-47FF-F2B63CCD996E,1SDCH7G0169R0K,,,,,6.974113374,79.91452136,5,,
2/27/2024,03:42.6,3m 14.9s,194.9,6.974169127,79.91451693,0,0,0.3,61,0.7,0,0,0,0,0,0,0,0,7.6,2,157.6,157.6,,Manual Takeoff,Other,Takeoff (RC Assisted),13,4,TRUE,,Mavic Mini,TRUE,FALSE,,Smart,RC,TRUE,TRUE,FALSE,,,TRUE,,FALSE,FALSE,FALSE,FALSE,FALSE,FALSE,FALSE,FALSE,FALSE,FALSE,0,Follow Yaw,0,0,155.8,155.8,FALSE,FALSE,FALSE,FALSE,FALSE,FALSE,,TRUE,Normal,,100,1024,1024,1684,1077,1,FALSE,FALSE,FALSE,FALSE,FALSE,0,FALSE,FALSE,FALSE,FALSE,85,7.85,1749,2063,7.868,FALSE,3.926,3.924,0.009,FALSE,FALSE,NA,96.6,96.4,96.6,0,1,0,0,5,1870.7,467.69,,Idle,0,20,FALSE,5,TRUE,6,Go Home,FALSE,FALSE,FALSE,FALSE,FALSE,FALSE,FALSE,FALSE,FALSE,FALSE,FALSE,FALSE,6.974176063,79.91452735,4.5,182.4,328,TRUE,1,1,FALSE,FALSE,FALSE,FALSE,,TRUE,FALSE,FALSE,Course Lock,49.2,254.5,16.4,Calm,39,,1.12.8,Mavic Mini,1SDCH7G0169R0K,1SFLH6Q0AB03DJ,1SRCH7F014TAHX,1U5X071EXP6C9Y,58.7,0.1,3.2,4.906056,4.250186,0,341,Mavic Mini,1SDCH7G0169R0K,1SFLH6Q0AB03DJ,1SRCH7F014TAHX,1U5X071EXP6C9Y,DJI Fly,,1.12.8,A3F1BC60-C06F-52E9-47FF-F2B63CCD996E,1SDCH7G0169R0K,,,,,6.974113374,79.91452136,5,,
2/27/2024,03:42.6,3m 15.0s,195,6.974169069,79.91451684,0,0,0.3,61,0.8,0,0,0,0,0,0,0,0,6.9,2.2,157.3,157.3,,Manual Takeoff,Other,Takeoff (RC Assisted),13,4,TRUE,,Mavic Mini,TRUE,FALSE,,Smart,RC,TRUE,TRUE,FALSE,,,TRUE,,FALSE,FALSE,FALSE,FALSE,FALSE,FALSE,FALSE,FALSE,FALSE,FALSE,0,Follow Yaw,0,0,155.8,155.8,FALSE,FALSE,FALSE,FALSE,FALSE,FALSE,,TRUE,Normal,,100,1024,1024,1684,1074,1,FALSE,FALSE,FALSE,FALSE,FALSE,0,FALSE,FALSE,FALSE,FALSE,85,7.863,1748,2063,7.868,FALSE,3.938,3.925,0.013,FALSE,FALSE,NA,96.6,96.4,96.6,0,1,0,0,5,1870.7,467.69,,Idle,0,20,FALSE,5,TRUE,6,Go Home,FALSE,FALSE,FALSE,FALSE,FALSE,FALSE,FALSE,FALSE,FALSE,FALSE,FALSE,FALSE,6.974176063,79.91452735,4.5,182.4,328,TRUE,1,1,FALSE,FALSE,FALSE,FALSE,,TRUE,FALSE,FALSE,Course Lock,49.2,254.5,16.4,Calm,39,,1.12.8,Mavic Mini,1SDCH7G0169R0K,1SFLH6Q0AB03DJ,1SRCH7F014TAHX,1U5X071EXP6C9Y,58.7,0.1,3.2,4.906056,4.250186,0,341,Mavic Mini,1SDCH7G0169R0K,1SFLH6Q0AB03DJ,1SRCH7F014TAHX,1U5X071EXP6C9Y,DJI Fly,,1.12.8,A3F1BC60-C06F-52E9-47FF-F2B63CCD996E,1SDCH7G0169R0K,,,,,6.974113374,79.91452136,5,,
2/27/2024,03:42.8,3m 15.1s,195.1,6.974169045,79.91451672,0,0,0.3,61,0.8,0,0,0,0,0,0,0,0,6.2,2.2,156.3,156.3,,Manual Takeoff,Other,Takeoff (RC Assisted),13,4,TRUE,,Mavic Mini,TRUE,FALSE,,Smart,RC,TRUE,TRUE,FALSE,,,TRUE,,FALSE,FALSE,FALSE,FALSE,FALSE,FALSE,FALSE,FALSE,FALSE,FALSE,0,Follow Yaw,0,0,155.4,155.4,FALSE,FALSE,FALSE,FALSE,FALSE,FALSE,,TRUE,Normal,,100,1024,1024,1684,1070,1,FALSE,FALSE,FALSE,FALSE,FALSE,0,FALSE,FALSE,FALSE,FALSE,85,7.863,1748,2063,7.868,FALSE,3.938,3.925,0.013,FALSE,FALSE,NA,96.6,96.4,96.6,0,1,0,0,5,1870.7,467.69,,Idle,0,20,FALSE,5,TRUE,6,Go Home,FALSE,FALSE,FALSE,FALSE,FALSE,FALSE,FALSE,FALSE,FALSE,FALSE,FALSE,FALSE,6.974176063,79.91452735,4.6,182.4,328,TRUE,1,1,FALSE,FALSE,FALSE,FALSE,,TRUE,FALSE,FALSE,Course Lock,49.2,254.5,16.4,Calm,39,,1.12.8,Mavic Mini,1SDCH7G0169R0K,1SFLH6Q0AB03DJ,1SRCH7F014TAHX,1U5X071EXP6C9Y,58.7,0.1,3.2,4.906056,4.250186,0,341,Mavic Mini,1SDCH7G0169R0K,1SFLH6Q0AB03DJ,1SRCH7F014TAHX,1U5X071EXP6C9Y,DJI Fly,,1.12.8,A3F1BC60-C06F-52E9-47FF-F2B63CCD996E,1SDCH7G0169R0K,,,,,6.974113374,79.91452136,5,,
2/27/2024,03:42.8,3m 15.2s,195.2,6.974169058,79.91451657,0,0,0.3,61,0.9,0,0,0,0,0,0,0,0,4.2,2.1,155.6,155.6,,Manual Takeoff,Other,Takeoff (RC Assisted),13,4,TRUE,,Mavic Mini,TRUE,FALSE,,Smart,RC,TRUE,TRUE,FALSE,,,TRUE,,FALSE,FALSE,FALSE,FALSE,FALSE,FALSE,FALSE,FALSE,FALSE,FALSE,0,Follow Yaw,0,0,154.7,154.7,FALSE,FALSE,FALSE,FALSE,FALSE,FALSE,,TRUE,Normal,,100,1024,1024,1684,1049,1,FALSE,FALSE,FALSE,FALSE,FALSE,0,FALSE,FALSE,FALSE,FALSE,85,7.863,1748,2063,7.813,FALSE,3.938,3.925,0.013,FALSE,FALSE,NA,96.6,96.4,96.6,0,1,0,0,5,2108.6,527.15,,Idle,0,20,FALSE,5,TRUE,6,Go Home,FALSE,FALSE,FALSE,FALSE,FALSE,FALSE,FALSE,FALSE,FALSE,FALSE,FALSE,FALSE,6.974176063,79.91452735,4.6,182.4,328,TRUE,1,1,FALSE,FALSE,FALSE,FALSE,,TRUE,FALSE,FALSE,Course Lock,49.2,254.5,16.4,Calm,39,,1.12.8,Mavic Mini,1SDCH7G0169R0K,1SFLH6Q0AB03DJ,1SRCH7F014TAHX,1U5X071EXP6C9Y,58.7,0.1,3.2,4.906056,4.250186,0,341,Mavic Mini,1SDCH7G0169R0K,1SFLH6Q0AB03DJ,1SRCH7F014TAHX,1U5X071EXP6C9Y,DJI Fly,,1.12.8,A3F1BC60-C06F-52E9-47FF-F2B63CCD996E,1SDCH7G0169R0K,,,,,6.974113374,79.91452136,5,,
2/27/2024,03:42.9,3m 15.3s,195.3,6.974169108,79.91451631,0,0,0.3,61,0.9,0.223694,0.223694,0,0,-0.223694,0,-0.223694,0,0.6,0,154.9,154.9,284,Manual Takeoff,Other,Takeoff (RC Assisted),13,4,TRUE,,Mavic Mini,TRUE,FALSE,,Smart,RC,TRUE,TRUE,FALSE,,,TRUE,,FALSE,FALSE,FALSE,FALSE,FALSE,FALSE,FALSE,FALSE,FALSE,FALSE,0,Follow Yaw,0,0,154.2,154.2,FALSE,FALSE,FALSE,FALSE,FALSE,FALSE,,TRUE,Normal,,100,1024,1024,1684,1047,1,FALSE,FALSE,FALSE,FALSE,FALSE,0,FALSE,FALSE,FALSE,FALSE,85,7.863,1748,2063,7.813,FALSE,3.938,3.925,0.013,FALSE,FALSE,NA,96.6,96.4,96.6,0,1,0,0,5,2108.6,527.15,,Idle,0,20,FALSE,5,TRUE,6,Go Home,FALSE,FALSE,FALSE,FALSE,FALSE,FALSE,FALSE,FALSE,FALSE,FALSE,FALSE,FALSE,6.974176063,79.91452735,4.7,182.4,328,TRUE,1,1,FALSE,FALSE,FALSE,FALSE,,TRUE,FALSE,FALSE,Course Lock,49.2,254.5,16.4,Calm,39,,1.12.8,Mavic Mini,1SDCH7G0169R0K,1SFLH6Q0AB03DJ,1SRCH7F014TAHX,1U5X071EXP6C9Y,58.7,0.1,3.2,4.906056,4.250186,0,341,Mavic Mini,1SDCH7G0169R0K,1SFLH6Q0AB03DJ,1SRCH7F014TAHX,1U5X071EXP6C9Y,DJI Fly,,1.12.8,A3F1BC60-C06F-52E9-47FF-F2B63CCD996E,1SDCH7G0169R0K,,,,,6.974113374,79.91452136,5,,
2/27/2024,03:43.0,3m 15.4s,195.4,6.974169094,79.9145161,0,0,0.3,61,1,0.223694,0.223694,0,0,-0.223694,0,-0.447388,0,-0.2,-0.6,154.1,154.1,265.1,P-GPS,Other,,13,4,TRUE,,Mavic Mini,TRUE,FALSE,,Smart,RC,FALSE,TRUE,FALSE,,,TRUE,,FALSE,FALSE,FALSE,FALSE,FALSE,FALSE,FALSE,FALSE,FALSE,FALSE,0,Follow Yaw,0,0,153.4,153.4,FALSE,FALSE,FALSE,FALSE,FALSE,FALSE,,TRUE,Normal,,100,1024,1024,1684,1046,1,FALSE,FALSE,FALSE,FALSE,FALSE,0,FALSE,FALSE,FALSE,FALSE,85,7.863,1748,2063,7.813,FALSE,3.938,3.925,0.013,FALSE,FALSE,NA,96.6,96.4,96.6,0,1,0,0,5,2108.6,527.15,,Idle,0,20,FALSE,5,TRUE,6,Go Home,FALSE,FALSE,FALSE,FALSE,FALSE,FALSE,FALSE,FALSE,FALSE,FALSE,FALSE,FALSE,6.974176063,79.91452735,4.8,182.4,328,TRUE,1,1,FALSE,FALSE,FALSE,FALSE,,TRUE,FALSE,FALSE,Course Lock,49.2,254.5,16.4,Calm,39,,1.12.8,Mavic Mini,1SDCH7G0169R0K,1SFLH6Q0AB03DJ,1SRCH7F014TAHX,1U5X071EXP6C9Y,58.7,0.1,3.2,4.906056,4.250186,0,341,Mavic Mini,1SDCH7G0169R0K,1SFLH6Q0AB03DJ,1SRCH7F014TAHX,1U5X071EXP6C9Y,DJI Fly,,1.12.8,A3F1BC60-C06F-52E9-47FF-F2B63CCD996E,1SDCH7G0169R0K,,,,,6.974113374,79.91452136,5,Flight mode changed to P-GPS.,
2/27/2024,03:43.1,3m 15.5s,195.5,6.974169059,79.9145159,0,0,0.6,61,1.1,0,0.223694,0,0,0,0,-0.671082,0,-0.2,-1.9,154.3,154.3,,P-GPS,Other,,13,4,TRUE,,Mavic Mini,TRUE,FALSE,,Smart,RC,FALSE,TRUE,FALSE,,,TRUE,,FALSE,FALSE,FALSE,FALSE,FALSE,FALSE,FALSE,FALSE,FALSE,FALSE,0,Follow Yaw,0,0,153.4,153.4,FALSE,FALSE,FALSE,FALSE,FALSE,FALSE,,TRUE,Normal,,100,1024,1024,1684,1046,1,FALSE,FALSE,FALSE,FALSE,FALSE,0,FALSE,FALSE,FALSE,FALSE,85,7.863,1748,2063,7.813,FALSE,3.938,3.925,0.013,FALSE,FALSE,NA,96.6,96.4,96.6,0,1,0,0,5,2108.6,527.15,,Idle,0,20,FALSE,5,TRUE,6,Go Home,FALSE,FALSE,FALSE,FALSE,FALSE,FALSE,FALSE,FALSE,FALSE,FALSE,FALSE,FALSE,6.974176063,79.91452735,4.8,182.4,328,TRUE,1,1,FALSE,FALSE,FALSE,FALSE,,TRUE,FALSE,FALSE,Course Lock,49.2,254.5,16.4,Calm,39,,1.12.8,Mavic Mini,1SDCH7G0169R0K,1SFLH6Q0AB03DJ,1SRCH7F014TAHX,1U5X071EXP6C9Y,58.7,0.1,3.2,4.906056,4.250186,0,341,Mavic Mini,1SDCH7G0169R0K,1SFLH6Q0AB03DJ,1SRCH7F014TAHX,1U5X071EXP6C9Y,DJI Fly,,1.12.8,A3F1BC60-C06F-52E9-47FF-F2B63CCD996E,1SDCH7G0169R0K,,,,,6.974113374,79.91452136,5,,
2/27/2024,03:43.2,3m 15.6s,195.6,6.974168994,79.91451574,0,0,0.6,61,1.2,0,0.223694,0,0,0,0,-1.11847,0,0.2,-1.2,154.6,154.6,,P-GPS,Other,,13,4,TRUE,,Mavic Mini,TRUE,FALSE,,Smart,RC,FALSE,TRUE,FALSE,,,TRUE,,FALSE,FALSE,FALSE,FALSE,FALSE,FALSE,FALSE,FALSE,FALSE,FALSE,0,Follow Yaw,0,0,153.4,153.4,FALSE,FALSE,FALSE,FALSE,FALSE,FALSE,,TRUE,Normal,,100,1024,1024,1684,1046,1,FALSE,FALSE,FALSE,FALSE,FALSE,0,FALSE,FALSE,FALSE,FALSE,85,7.863,1748,2063,7.813,FALSE,3.938,3.925,0.013,FALSE,FALSE,NA,96.6,96.4,96.6,0,1,0,0,5,2108.6,527.15,,Idle,0,20,FALSE,5,TRUE,6,Go Home,FALSE,FALSE,FALSE,FALSE,FALSE,FALSE,FALSE,FALSE,FALSE,FALSE,FALSE,FALSE,6.974176063,79.91452735,4.9,182.4,328,TRUE,1,1,FALSE,FALSE,FALSE,FALSE,,TRUE,FALSE,FALSE,Course Lock,49.2,254.5,16.4,Calm,39,,1.12.8,Mavic Mini,1SDCH7G0169R0K,1SFLH6Q0AB03DJ,1SRCH7F014TAHX,1U5X071EXP6C9Y,58.7,0.1,3.2,4.906056,4.250186,0,341,Mavic Mini,1SDCH7G0169R0K,1SFLH6Q0AB03DJ,1SRCH7F014TAHX,1U5X071EXP6C9Y,DJI Fly,,1.12.8,A3F1BC60-C06F-52E9-47FF-F2B63CCD996E,1SDCH7G0169R0K,,,,,6.974113374,79.91452136,5,,
2/27/2024,03:43.3,3m 15.7s,195.7,6.974168923,79.91451557,0.3,0.3,0.6,61,1.2,0,0.223694,0,0,0,0,-1.789552,0,0.8,-0.6,154.6,154.6,,P-GPS,Other,,13,4,TRUE,,Mavic Mini,TRUE,FALSE,,Smart,RC,FALSE,TRUE,FALSE,,,TRUE,,FALSE,FALSE,FALSE,FALSE,FALSE,FALSE,FALSE,FALSE,FALSE,FALSE,0,Follow Yaw,0,0,153.4,153.4,FALSE,FALSE,FALSE,FALSE,FALSE,FALSE,,TRUE,Normal,,100,1024,1024,1684,1045,1,FALSE,FALSE,FALSE,FALSE,FALSE,0,FALSE,FALSE,FALSE,FALSE,85,7.863,1748,2063,7.813,FALSE,3.938,3.925,0.013,FALSE,FALSE,NA,96.6,96.4,96.6,0,1,0,0,5,2108.6,527.15,,Idle,0,20,FALSE,5,TRUE,6,Go Home,FALSE,FALSE,FALSE,FALSE,FALSE,FALSE,FALSE,FALSE,FALSE,FALSE,FALSE,FALSE,6.974176063,79.91452735,4.9,182.4,328,TRUE,1,1,FALSE,FALSE,FALSE,FALSE,,TRUE,FALSE,FALSE,Course Lock,49.2,254.5,16.4,Calm,39,,1.12.8,Mavic Mini,1SDCH7G0169R0K,1SFLH6Q0AB03DJ,1SRCH7F014TAHX,1U5X071EXP6C9Y,58.7,0.1,3.2,4.906056,4.250186,0,341,Mavic Mini,1SDCH7G0169R0K,1SFLH6Q0AB03DJ,1SRCH7F014TAHX,1U5X071EXP6C9Y,DJI Fly,,1.12.8,A3F1BC60-C06F-52E9-47FF-F2B63CCD996E,1SDCH7G0169R0K,,,,,6.974113374,79.91452136,5,,
2/27/2024,03:43.4,3m 15.8s,195.8,6.974168846,79.91451533,0.6,0.6,0.9,61,1.3,0,0.223694,0,0,0,0,-2.23694,0,1.3,-0.3,154.6,154.6,,P-GPS,Other,,13,4,TRUE,,Mavic Mini,TRUE,FALSE,,Smart,RC,FALSE,TRUE,FALSE,,,TRUE,,FALSE,FALSE,FALSE,FALSE,FALSE,FALSE,FALSE,FALSE,FALSE,FALSE,0,Follow Yaw,0,0,153.4,153.4,FALSE,FALSE,FALSE,FALSE,FALSE,FALSE,,TRUE,Normal,,100,1024,1024,1684,1038,1,FALSE,FALSE,FALSE,FALSE,FALSE,0,FALSE,FALSE,FALSE,FALSE,85,7.863,1748,2063,7.813,FALSE,3.938,3.925,0.013,FALSE,FALSE,NA,96.6,96.4,96.6,0,1,0,0,5,2108.6,527.15,,Idle,0,20,FALSE,5,TRUE,6,Go Home,FALSE,FALSE,FALSE,FALSE,FALSE,FALSE,FALSE,FALSE,FALSE,FALSE,FALSE,FALSE,6.974176063,79.91452735,5,182.4,328,TRUE,1,1,FALSE,FALSE,FALSE,FALSE,,TRUE,FALSE,FALSE,Course Lock,49.2,254.5,16.4,Calm,39,,1.12.8,Mavic Mini,1SDCH7G0169R0K,1SFLH6Q0AB03DJ,1SRCH7F014TAHX,1U5X071EXP6C9Y,58.7,0.1,3.2,4.906056,4.250186,0,341,Mavic Mini,1SDCH7G0169R0K,1SFLH6Q0AB03DJ,1SRCH7F014TAHX,1U5X071EXP6C9Y,DJI Fly,,1.12.8,A3F1BC60-C06F-52E9-47FF-F2B63CCD996E,1SDCH7G0169R0K,,,,,6.974113374,79.91452136,5,,
2/27/2024,03:43.5,3m 15.9s,195.9,6.974168769,79.91451516,0.9,0.9,1.3,62,1.4,0,0.223694,0,0,0,0,-2.908022,0,1.5,-0.3,154.6,154.6,,P-GPS,Other,,13,4,TRUE,,Mavic Mini,TRUE,FALSE,,Smart,RC,FALSE,TRUE,FALSE,,,TRUE,,FALSE,FALSE,FALSE,FALSE,FALSE,FALSE,FALSE,FALSE,FALSE,FALSE,0,Follow Yaw,0,0,153.4,153.4,FALSE,FALSE,FALSE,FALSE,FALSE,FALSE,,TRUE,Normal,,100,1024,1024,1684,1028,1,FALSE,FALSE,FALSE,FALSE,FALSE,0,FALSE,FALSE,FALSE,FALSE,85,7.863,1748,2063,7.813,FALSE,3.938,3.925,0.013,FALSE,FALSE,NA,96.6,96.4,96.6,0,1,0,0,5,2108.6,527.15,,Idle,0,20,FALSE,5,TRUE,6,Go Home,FALSE,FALSE,FALSE,FALSE,FALSE,FALSE,FALSE,FALSE,FALSE,FALSE,FALSE,FALSE,6.974176063,79.91452735,5.1,182.4,328,TRUE,1,1,FALSE,FALSE,FALSE,FALSE,,TRUE,FALSE,FALSE,Course Lock,49.2,254.5,16.4,Calm,39,,1.12.8,Mavic Mini,1SDCH7G0169R0K,1SFLH6Q0AB03DJ,1SRCH7F014TAHX,1U5X071EXP6C9Y,58.7,0.1,3.2,4.906056,4.250186,0,341,Mavic Mini,1SDCH7G0169R0K,1SFLH6Q0AB03DJ,1SRCH7F014TAHX,1U5X071EXP6C9Y,DJI Fly,,1.12.8,A3F1BC60-C06F-52E9-47FF-F2B63CCD996E,1SDCH7G0169R0K,,,,,6.974113374,79.91452136,5,,
2/27/2024,03:43.6,3m 16.0s,196,6.974168694,79.91451505,1.3,1.3,1.9,62,1.4,0,0.223694,0,0,0,0,-3.579104,0,1.7,-0.3,154.7,154.7,,P-GPS,Other,,13,4,TRUE,,Mavic Mini,TRUE,FALSE,,Smart,RC,FALSE,TRUE,FALSE,,,TRUE,,FALSE,FALSE,FALSE,FALSE,FALSE,FALSE,FALSE,FALSE,FALSE,FALSE,0,Follow Yaw,0,0,153.4,153.4,FALSE,FALSE,FALSE,FALSE,FALSE,FALSE,,TRUE,Normal,,100,1024,1024,1662,1027,1,FALSE,FALSE,FALSE,FALSE,FALSE,0,FALSE,FALSE,FALSE,FALSE,85,7.863,1748,2063,7.813,FALSE,3.938,3.925,0.013,FALSE,FALSE,NA,96.6,96.4,96.6,0,1,0,0,5,2108.6,527.15,,Idle,0,20,FALSE,5,TRUE,6,Go Home,FALSE,FALSE,FALSE,FALSE,FALSE,FALSE,FALSE,FALSE,FALSE,FALSE,FALSE,FALSE,6.974176063,79.91452735,5.2,182.4,328,TRUE,1,1,FALSE,FALSE,FALSE,FALSE,,TRUE,FALSE,FALSE,Course Lock,49.2,254.5,16.4,Calm,39,,1.12.8,Mavic Mini,1SDCH7G0169R0K,1SFLH6Q0AB03DJ,1SRCH7F014TAHX,1U5X071EXP6C9Y,58.7,0.1,3.2,4.906056,4.250186,0,341,Mavic Mini,1SDCH7G0169R0K,1SFLH6Q0AB03DJ,1SRCH7F014TAHX,1U5X071EXP6C9Y,DJI Fly,,1.12.8,A3F1BC60-C06F-52E9-47FF-F2B63CCD996E,1SDCH7G0169R0K,,,,,6.974113374,79.91452136,5,,
2/27/2024,03:43.7,3m 16.1s,196.1,6.974168618,79.9145152,1.9,1.9,2.2,63,1.5,0,0.223694,0,0,0,0,-4.026492,0,1.8,-0.6,154.7,154.7,,P-GPS,Other,,13,4,TRUE,,Mavic Mini,TRUE,FALSE,,Smart,RC,FALSE,TRUE,FALSE,,,TRUE,,FALSE,FALSE,FALSE,FALSE,FALSE,FALSE,FALSE,FALSE,FALSE,FALSE,0,Follow Yaw,0,0,153.4,153.4,FALSE,FALSE,FALSE,FALSE,FALSE,FALSE,,TRUE,Normal,,100,1024,1024,1154,1024,1,FALSE,FALSE,FALSE,FALSE,FALSE,0,FALSE,FALSE,FALSE,FALSE,85,7.616,1746,2063,7.813,FALSE,3.813,3.803,0.013,FALSE,FALSE,NA,96.8,96.4,96.8,0,1,0,0,5,2108.6,527.15,,Idle,0,20,FALSE,5,TRUE,6,Go Home,FALSE,FALSE,FALSE,FALSE,FALSE,FALSE,FALSE,FALSE,FALSE,FALSE,FALSE,FALSE,6.974176063,79.91452735,5.1,182.4,328,TRUE,1,1,FALSE,FALSE,FALSE,FALSE,,TRUE,FALSE,FALSE,Course Lock,49.2,254.5,16.4,Calm,39,,1.12.8,Mavic Mini,1SDCH7G0169R0K,1SFLH6Q0AB03DJ,1SRCH7F014TAHX,1U5X071EXP6C9Y,58.7,0.1,3.2,4.906056,4.250186,0,341,Mavic Mini,1SDCH7G0169R0K,1SFLH6Q0AB03DJ,1SRCH7F014TAHX,1U5X071EXP6C9Y,DJI Fly,,1.12.8,A3F1BC60-C06F-52E9-47FF-F2B63CCD996E,1SDCH7G0169R0K,,,,,6.974113374,79.91452136,5,,
2/27/2024,03:43.8,3m 16.2s,196.2,6.974168523,79.91451524,2.6,2.6,2.9,63,1.5,0,0.223694,0,0,0,0,-4.250186,0,1.6,-0.7,154.7,154.7,,P-GPS,Other,,13,4,TRUE,,Mavic Mini,TRUE,FALSE,,Smart,RC,FALSE,TRUE,FALSE,,,TRUE,,FALSE,FALSE,FALSE,FALSE,FALSE,FALSE,FALSE,FALSE,FALSE,FALSE,0,Follow Yaw,0,0,153.4,153.4,FALSE,FALSE,FALSE,FALSE,FALSE,FALSE,,TRUE,Normal,,100,1024,1024,1024,1024,1,FALSE,FALSE,FALSE,FALSE,FALSE,0,FALSE,FALSE,FALSE,FALSE,85,7.616,1746,2063,7.835,FALSE,3.813,3.803,0.013,FALSE,FALSE,NA,96.8,96.4,96.8,0,0,0,0,5,2855.5,713.88,,Idle,0,20,FALSE,5,TRUE,6,Go Home,FALSE,FALSE,FALSE,FALSE,FALSE,FALSE,FALSE,FALSE,FALSE,FALSE,FALSE,FALSE,6.9741691,79.91451619,0.4,182.4,328,TRUE,1,1,FALSE,FALSE,FALSE,FALSE,,TRUE,FALSE,FALSE,Course Lock,49.2,254.5,16.4,Calm,39,,1.12.8,Mavic Mini,1SDCH7G0169R0K,1SFLH6Q0AB03DJ,1SRCH7F014TAHX,1U5X071EXP6C9Y,58.7,0.1,3.2,4.906056,4.250186,0,341,Mavic Mini,1SDCH7G0169R0K,1SFLH6Q0AB03DJ,1SRCH7F014TAHX,1U5X071EXP6C9Y,DJI Fly,,1.12.8,A3F1BC60-C06F-52E9-47FF-F2B63CCD996E,1SDCH7G0169R0K,,,,,6.974113374,79.91452136,5,Home Point Updated.,
2/27/2024,03:43.9,3m 16.3s,196.3,6.974168425,79.91451526,3.2,3.2,3.6,64,1.6,0,0.223694,0,0,0,0,-4.250186,0,1.3,-0.5,154.8,154.8,,P-GPS,Other,,13,4,TRUE,,Mavic Mini,TRUE,FALSE,,Smart,RC,FALSE,TRUE,FALSE,,,TRUE,,FALSE,FALSE,FALSE,FALSE,FALSE,FALSE,FALSE,FALSE,FALSE,FALSE,0,Follow Yaw,0,0,153.4,153.4,FALSE,FALSE,FALSE,FALSE,FALSE,FALSE,,TRUE,Normal,,100,1024,1024,1024,1024,1,FALSE,FALSE,FALSE,FALSE,FALSE,0,FALSE,FALSE,FALSE,FALSE,85,7.616,1746,2063,7.835,FALSE,3.813,3.803,0.013,FALSE,FALSE,NA,96.8,96.4,96.8,0,0,0,0,5,2855.5,713.88,,Idle,0,20,FALSE,5,TRUE,6,Go Home,FALSE,FALSE,FALSE,FALSE,FALSE,FALSE,FALSE,FALSE,FALSE,FALSE,FALSE,FALSE,6.9741691,79.91451619,0.4,182.4,328,TRUE,1,1,FALSE,FALSE,FALSE,FALSE,,TRUE,FALSE,FALSE,Course Lock,49.2,254.5,16.4,Calm,39,,1.12.8,Mavic Mini,1SDCH7G0169R0K,1SFLH6Q0AB03DJ,1SRCH7F014TAHX,1U5X071EXP6C9Y,58.7,0.1,3.2,4.906056,4.250186,0,341,Mavic Mini,1SDCH7G0169R0K,1SFLH6Q0AB03DJ,1SRCH7F014TAHX,1U5X071EXP6C9Y,DJI Fly,,1.12.8,A3F1BC60-C06F-52E9-47FF-F2B63CCD996E,1SDCH7G0169R0K,,,,,6.974113374,79.91452136,5,,
2/27/2024,03:44.0,3m 16.4s,196.4,6.974168307,79.91451524,3.6,3.6,4.2,64,1.6,0,0.223694,0,0,0,0,-4.026492,0,1.5,-0.3,154.8,154.8,,P-GPS,Other,,13,4,TRUE,,Mavic Mini,TRUE,FALSE,,Smart,RC,FALSE,TRUE,FALSE,,,TRUE,,FALSE,FALSE,FALSE,FALSE,FALSE,FALSE,FALSE,FALSE,FALSE,FALSE,0,Follow Yaw,0,0,153.4,153.4,FALSE,FALSE,FALSE,FALSE,FALSE,FALSE,,TRUE,Normal,,100,1024,1024,1024,1024,1,FALSE,FALSE,FALSE,FALSE,FALSE,0,FALSE,FALSE,FALSE,FALSE,85,7.616,1746,2063,7.835,FALSE,3.813,3.803,0.013,FALSE,FALSE,NA,96.8,96.4,96.8,0,0,0,0,5,2855.5,713.88,,Idle,0,20,FALSE,5,TRUE,6,Go Home,FALSE,FALSE,FALSE,FALSE,FALSE,FALSE,FALSE,FALSE,FALSE,FALSE,FALSE,FALSE,6.9741691,79.91451619,0.4,182.4,328,TRUE,1,1,FALSE,FALSE,FALSE,FALSE,,TRUE,FALSE,FALSE,Course Lock,49.2,254.5,16.4,Calm,39,,1.12.8,Mavic Mini,1SDCH7G0169R0K,1SFLH6Q0AB03DJ,1SRCH7F014TAHX,1U5X071EXP6C9Y,58.7,0.1,3.2,4.906056,4.250186,0,341,Mavic Mini,1SDCH7G0169R0K,1SFLH6Q0AB03DJ,1SRCH7F014TAHX,1U5X071EXP6C9Y,DJI Fly,,1.12.8,A3F1BC60-C06F-52E9-47FF-F2B63CCD996E,1SDCH7G0169R0K,,,,,6.974113374,79.91452136,5,,
2/27/2024,03:44.2,3m 16.5s,196.5,6.974168174,79.91451525,4.2,4.2,4.9,65,1.7,0,0.223694,0,0,0,0,-3.579104,0,1.6,-0.2,154.8,154.8,,P-GPS,Other,,13,4,TRUE,,Mavic Mini,TRUE,FALSE,,Smart,RC,FALSE,TRUE,FALSE,,,TRUE,,FALSE,FALSE,FALSE,FALSE,FALSE,FALSE,FALSE,FALSE,FALSE,FALSE,0,Follow Yaw,0,0,153.4,153.4,FALSE,FALSE,FALSE,FALSE,FALSE,FALSE,,TRUE,Normal,,100,1024,1024,1024,1024,1,FALSE,FALSE,FALSE,FALSE,FALSE,0,FALSE,FALSE,FALSE,FALSE,85,7.616,1746,2063,7.835,FALSE,3.813,3.803,0.013,FALSE,FALSE,NA,96.8,96.4,96.8,0,0,0,0,5,2855.5,713.88,,Idle,0,20,FALSE,5,TRUE,6,Go Home,FALSE,FALSE,FALSE,FALSE,FALSE,FALSE,FALSE,FALSE,FALSE,FALSE,FALSE,FALSE,6.9741691,79.91451619,0.4,182.4,328,TRUE,1,1,FALSE,FALSE,FALSE,FALSE,,TRUE,FALSE,FALSE,Course Lock,49.2,254.5,16.4,Calm,39,,1.12.8,Mavic Mini,1SDCH7G0169R0K,1SFLH6Q0AB03DJ,1SRCH7F014TAHX,1U5X071EXP6C9Y,58.7,0.1,3.2,4.906056,4.250186,0,341,Mavic Mini,1SDCH7G0169R0K,1SFLH6Q0AB03DJ,1SRCH7F014TAHX,1U5X071EXP6C9Y,DJI Fly,,1.12.8,A3F1BC60-C06F-52E9-47FF-F2B63CCD996E,1SDCH7G0169R0K,,,,,6.974108932,79.91452052,5,Home Point updated. RTH altitude adjusted to 15 m! (Code: 120852).,
2/27/2024,03:44.2,3m 16.6s,196.6,6.974167881,79.91451539,4.5,4.5,5.2,65,1.8,0,0.223694,0,0,0,0,-2.908022,0,1,0.1,154.9,154.9,,P-GPS,Other,,13,4,TRUE,,Mavic Mini,TRUE,FALSE,,Smart,RC,FALSE,TRUE,FALSE,,,TRUE,,FALSE,FALSE,FALSE,FALSE,FALSE,FALSE,FALSE,FALSE,FALSE,FALSE,0,Follow Yaw,0,0,153.4,153.4,FALSE,FALSE,FALSE,FALSE,FALSE,FALSE,,TRUE,Normal,,100,1024,1024,1024,1024,1,FALSE,FALSE,FALSE,FALSE,FALSE,0,FALSE,FALSE,FALSE,FALSE,85,7.616,1746,2063,7.835,FALSE,3.813,3.803,0.013,FALSE,FALSE,NA,96.8,96.4,96.8,0,0,0,0,5,2855.5,713.88,,Idle,0,20,FALSE,5,TRUE,6,Go Home,FALSE,FALSE,FALSE,FALSE,FALSE,FALSE,FALSE,FALSE,FALSE,FALSE,FALSE,FALSE,6.9741691,79.91451619,0.5,182.4,328,TRUE,1,1,FALSE,FALSE,FALSE,FALSE,,TRUE,FALSE,FALSE,Course Lock,49.2,254.5,16.4,Calm,39,,1.12.8,Mavic Mini,1SDCH7G0169R0K,1SFLH6Q0AB03DJ,1SRCH7F014TAHX,1U5X071EXP6C9Y,58.7,0.1,3.2,4.906056,4.250186,0,341,Mavic Mini,1SDCH7G0169R0K,1SFLH6Q0AB03DJ,1SRCH7F014TAHX,1U5X071EXP6C9Y,DJI Fly,,1.12.8,A3F1BC60-C06F-52E9-47FF-F2B63CCD996E,1SDCH7G0169R0K,,,,,6.974108932,79.91452052,5,,
2/27/2024,03:44.4,3m 16.7s,196.7,6.97416776,79.9145155,4.9,4.9,5.9,66,1.8,0,0.223694,0,0,0,0,-2.23694,0,1.2,0.2,154.9,154.9,,P-GPS,Other,,14,4,TRUE,,Mavic Mini,TRUE,FALSE,,Smart,RC,FALSE,TRUE,FALSE,,,TRUE,,FALSE,FALSE,FALSE,FALSE,FALSE,FALSE,FALSE,FALSE,FALSE,FALSE,0,Follow Yaw,0,0,153.4,153.4,FALSE,FALSE,FALSE,FALSE,FALSE,FALSE,,TRUE,Normal,,100,1024,1024,1024,1024,1,FALSE,FALSE,FALSE,FALSE,FALSE,0,FALSE,FALSE,FALSE,FALSE,85,7.616,1746,2063,7.835,FALSE,3.813,3.803,0.013,FALSE,FALSE,NA,96.8,96.4,96.8,0,0,0,0,5,2855.5,713.88,,Idle,0,20,FALSE,5,TRUE,6,Go Home,FALSE,FALSE,FALSE,FALSE,FALSE,FALSE,FALSE,FALSE,FALSE,FALSE,FALSE,FALSE,6.9741691,79.91451619,0.5,182.4,328,TRUE,1,1,FALSE,FALSE,FALSE,FALSE,,TRUE,FALSE,FALSE,Course Lock,49.2,254.5,16.4,Calm,39,,1.12.8,Mavic Mini,1SDCH7G0169R0K,1SFLH6Q0AB03DJ,1SRCH7F014TAHX,1U5X071EXP6C9Y,58.7,0.1,3.2,4.906056,4.250186,0,341,Mavic Mini,1SDCH7G0169R0K,1SFLH6Q0AB03DJ,1SRCH7F014TAHX,1U5X071EXP6C9Y,DJI Fly,,1.12.8,A3F1BC60-C06F-52E9-47FF-F2B63CCD996E,1SDCH7G0169R0K,,,,,6.974108932,79.91452052,5,,
2/27/2024,03:44.5,3m 16.8s,196.8,6.974167676,79.91451569,5.2,5.2,6.2,66,1.9,0,0.223694,0,0,0,0,-1.565858,0,1.2,0.3,154.9,154.9,,P-GPS,Other,,14,4,TRUE,,Mavic Mini,TRUE,FALSE,,Smart,RC,FALSE,TRUE,FALSE,,,TRUE,,FALSE,FALSE,FALSE,FALSE,FALSE,FALSE,FALSE,FALSE,FALSE,FALSE,0,Follow Yaw,0,0,153.4,153.4,FALSE,FALSE,FALSE,FALSE,FALSE,FALSE,,TRUE,Normal,,100,1024,742,1024,1024,1,FALSE,FALSE,FALSE,FALSE,FALSE,0,FALSE,FALSE,FALSE,FALSE,85,7.616,1746,2063,7.835,FALSE,3.813,3.803,0.013,FALSE,FALSE,NA,96.8,96.4,96.8,0,0,0,0,5,2855.5,713.88,,Idle,0,20,FALSE,5,TRUE,6,Go Home,FALSE,FALSE,FALSE,FALSE,FALSE,FALSE,FALSE,FALSE,FALSE,FALSE,FALSE,FALSE,6.9741691,79.91451619,0.5,182.4,328,TRUE,1,1,FALSE,FALSE,FALSE,FALSE,,TRUE,FALSE,FALSE,Course Lock,49.2,254.5,16.4,Calm,39,,1.12.8,Mavic Mini,1SDCH7G0169R0K,1SFLH6Q0AB03DJ,1SRCH7F014TAHX,1U5X071EXP6C9Y,58.7,0.1,3.2,4.906056,4.250186,0,341,Mavic Mini,1SDCH7G0169R0K,1SFLH6Q0AB03DJ,1SRCH7F014TAHX,1U5X071EXP6C9Y,DJI Fly,,1.12.8,A3F1BC60-C06F-52E9-47FF-F2B63CCD996E,1SDCH7G0169R0K,,,,,6.974108932,79.91452052,5,,
2/27/2024,03:44.6,3m 16.9s,196.9,6.974167583,79.91451584,5.2,5.2,6.2,66,2,0,0.223694,0,0,0,0,-0.894776,0,1.2,0.3,154.9,154.9,,P-GPS,Other,,13,4,TRUE,,Mavic Mini,TRUE,FALSE,,Smart,RC,FALSE,TRUE,FALSE,,,TRUE,,FALSE,FALSE,FALSE,FALSE,FALSE,FALSE,FALSE,FALSE,FALSE,FALSE,0,Follow Yaw,0,0,153.4,153.4,FALSE,FALSE,FALSE,FALSE,FALSE,FALSE,,TRUE,Normal,,100,1024,644,1024,1024,1,FALSE,FALSE,FALSE,FALSE,FALSE,0,FALSE,FALSE,FALSE,FALSE,85,7.616,1746,2063,7.835,FALSE,3.813,3.803,0.013,FALSE,FALSE,NA,96.8,96.4,96.8,0,0,0,0,5,2855.5,713.88,,Idle,0,20,FALSE,5,TRUE,6,Go Home,FALSE,FALSE,FALSE,FALSE,FALSE,FALSE,FALSE,FALSE,FALSE,FALSE,FALSE,FALSE,6.9741691,79.91451619,0.5,182.4,328,TRUE,1,1,FALSE,FALSE,FALSE,FALSE,,TRUE,FALSE,FALSE,Course Lock,49.2,254.5,16.4,Calm,39,,1.12.8,Mavic Mini,1SDCH7G0169R0K,1SFLH6Q0AB03DJ,1SRCH7F014TAHX,1U5X071EXP6C9Y,58.7,0.1,3.2,4.906056,4.250186,0,341,Mavic Mini,1SDCH7G0169R0K,1SFLH6Q0AB03DJ,1SRCH7F014TAHX,1U5X071EXP6C9Y,DJI Fly,,1.12.8,A3F1BC60-C06F-52E9-47FF-F2B63CCD996E,1SDCH7G0169R0K,,,,,6.974108932,79.91452052,5,,
2/27/2024,03:44.6,3m 17.0s,197,6.974167567,79.91451633,5.5,5.5,6.5,66,2.2,0,0.223694,0,0,0,0,-0.447388,0,3.6,0.2,154.9,154.9,,P-GPS,Other,,13,4,TRUE,,Mavic Mini,TRUE,FALSE,,Smart,RC,FALSE,TRUE,FALSE,,,TRUE,,FALSE,FALSE,FALSE,FALSE,FALSE,FALSE,FALSE,FALSE,FALSE,FALSE,0,Follow Yaw,0,0,153.4,153.4,FALSE,FALSE,FALSE,FALSE,FALSE,FALSE,,TRUE,Normal,,100,1024,652,1024,1024,1,FALSE,FALSE,FALSE,FALSE,FALSE,0,FALSE,FALSE,FALSE,FALSE,85,7.616,1746,2063,7.835,FALSE,3.813,3.803,0.013,FALSE,FALSE,NA,96.8,96.4,96.8,0,0,0,0,5,2855.5,713.88,,Idle,0,20,FALSE,5,TRUE,6,Go Home,FALSE,FALSE,FALSE,FALSE,FALSE,FALSE,FALSE,FALSE,FALSE,FALSE,FALSE,FALSE,6.9741691,79.91451619,0.5,182.4,328,TRUE,1,1,FALSE,FALSE,FALSE,FALSE,,TRUE,FALSE,FALSE,Course Lock,49.2,254.5,16.4,Calm,39,,1.12.8,Mavic Mini,1SDCH7G0169R0K,1SFLH6Q0AB03DJ,1SRCH7F014TAHX,1U5X071EXP6C9Y,58.7,0.1,3.2,4.906056,4.250186,0,341,Mavic Mini,1SDCH7G0169R0K,1SFLH6Q0AB03DJ,1SRCH7F014TAHX,1U5X071EXP6C9Y,DJI Fly,,1.12.8,A3F1BC60-C06F-52E9-47FF-F2B63CCD996E,1SDCH7G0169R0K,,,,,6.974108932,79.91452052,5,,
2/27/2024,03:44.8,3m 17.1s,197.1,6.974167471,79.91451641,5.5,5.5,6.5,66,2.2,0,0.223694,0,0,0,0,0,0,7.8,0.1,154.9,154.9,,P-GPS,Other,,13,4,TRUE,,Mavic Mini,TRUE,FALSE,,Smart,RC,FALSE,TRUE,FALSE,,,TRUE,,FALSE,FALSE,FALSE,FALSE,FALSE,FALSE,FALSE,FALSE,FALSE,FALSE,0,Follow Yaw,0,0,153.4,153.4,FALSE,FALSE,FALSE,FALSE,FALSE,FALSE,,TRUE,Normal,,100,1024,718,1024,1024,1,FALSE,FALSE,FALSE,FALSE,FALSE,0,FALSE,FALSE,FALSE,FALSE,85,7.616,1746,2063,7.835,FALSE,3.813,3.803,0.013,FALSE,FALSE,NA,96.8,96.4,96.8,0,0,0,0,5,2855.5,713.88,,Idle,0,20,FALSE,5,TRUE,6,Go Home,FALSE,FALSE,FALSE,FALSE,FALSE,FALSE,FALSE,FALSE,FALSE,FALSE,FALSE,FALSE,6.9741691,79.91451619,0.5,182.4,328,TRUE,1,1,FALSE,FALSE,FALSE,FALSE,,TRUE,FALSE,FALSE,Course Lock,49.2,254.5,16.4,Calm,39,,1.12.8,Mavic Mini,1SDCH7G0169R0K,1SFLH6Q0AB03DJ,1SRCH7F014TAHX,1U5X071EXP6C9Y,58.7,0.1,3.2,4.906056,4.250186,0,341,Mavic Mini,1SDCH7G0169R0K,1SFLH6Q0AB03DJ,1SRCH7F014TAHX,1U5X071EXP6C9Y,DJI Fly,,1.12.8,A3F1BC60-C06F-52E9-47FF-F2B63CCD996E,1SDCH7G0169R0K,,,,,6.974108932,79.91452052,5,,
2/27/2024,03:44.8,3m 17.2s,197.2,6.974167425,79.91451643,5.5,5.5,6.5,66,2.2,0.223694,0.223694,0.223694,0.223694,0,0,0,0,9.4,0,154.8,154.8,160.3,P-GPS,Other,,13,4,TRUE,,Mavic Mini,TRUE,FALSE,,Smart,RC,FALSE,TRUE,FALSE,,,TRUE,,FALSE,FALSE,FALSE,FALSE,FALSE,FALSE,FALSE,FALSE,FALSE,FALSE,0,Follow Yaw,0,0,153.4,153.4,FALSE,FALSE,FALSE,FALSE,FALSE,FALSE,,TRUE,Normal,,100,1024,1024,1024,1024,1,FALSE,FALSE,FALSE,FALSE,FALSE,0,FALSE,FALSE,FALSE,FALSE,85,7.74,1745,2063,7.623,FALSE,3.875,3.865,0.013,FALSE,FALSE,NA,96.8,96.4,96.8,0,0,0,0,5,2855.5,713.88,,Idle,0,20,FALSE,5,TRUE,6,Go Home,FALSE,FALSE,FALSE,FALSE,FALSE,FALSE,FALSE,FALSE,FALSE,FALSE,FALSE,FALSE,6.9741691,79.91451619,0.6,182.4,328,TRUE,1,1,FALSE,FALSE,FALSE,FALSE,,TRUE,FALSE,FALSE,Course Lock,49.2,254.5,16.4,Calm,39,,1.12.8,Mavic Mini,1SDCH7G0169R0K,1SFLH6Q0AB03DJ,1SRCH7F014TAHX,1U5X071EXP6C9Y,58.7,0.1,3.2,4.906056,4.250186,0,341,Mavic Mini,1SDCH7G0169R0K,1SFLH6Q0AB03DJ,1SRCH7F014TAHX,1U5X071EXP6C9Y,DJI Fly,,1.12.8,A3F1BC60-C06F-52E9-47FF-F2B63CCD996E,1SDCH7G0169R0K,,,,,6.974108932,79.91452052,5,,
2/27/2024,03:44.9,3m 17.3s,197.3,6.974167424,79.91451638,5.2,5.5,6.5,66,2.2,0.447388,0.447388,0.447388,0.447388,0,0,0,0,9,0,154.8,154.8,268,P-GPS,Other,,13,4,TRUE,,Mavic Mini,TRUE,FALSE,,Smart,RC,FALSE,TRUE,FALSE,,,TRUE,,FALSE,FALSE,FALSE,FALSE,FALSE,FALSE,FALSE,FALSE,FALSE,FALSE,0,Follow Yaw,0,0,153.4,153.4,FALSE,FALSE,FALSE,FALSE,FALSE,FALSE,,TRUE,Normal,,100,1024,1024,1024,1024,1,FALSE,FALSE,FALSE,FALSE,FALSE,0,FALSE,FALSE,FALSE,FALSE,85,7.74,1745,2063,7.623,FALSE,3.875,3.865,0.013,FALSE,FALSE,NA,96.8,96.4,96.8,0,0,0,0,5,2855.5,713.88,,Idle,0,20,FALSE,5,TRUE,6,Go Home,FALSE,FALSE,FALSE,FALSE,FALSE,FALSE,FALSE,FALSE,FALSE,FALSE,FALSE,FALSE,6.9741691,79.91451619,0.6,182.4,328,TRUE,1,1,FALSE,FALSE,FALSE,FALSE,,TRUE,FALSE,FALSE,Course Lock,49.2,254.5,16.4,Calm,39,,1.12.8,Mavic Mini,1SDCH7G0169R0K,1SFLH6Q0AB03DJ,1SRCH7F014TAHX,1U5X071EXP6C9Y,58.7,0.1,3.2,4.906056,4.250186,0,341,Mavic Mini,1SDCH7G0169R0K,1SFLH6Q0AB03DJ,1SRCH7F014TAHX,1U5X071EXP6C9Y,DJI Fly,,1.12.8,A3F1BC60-C06F-52E9-47FF-F2B63CCD996E,1SDCH7G0169R0K,,,,,6.974108932,79.91452052,5,,
2/27/2024,03:45.1,3m 17.4s,197.4,6.97416732,79.91451608,5.2,5.5,6.5,66,2.4,0.500194,0.500194,0.447388,0.447388,-0.223694,0,0,0,6.2,0,154.8,154.8,245.4,P-GPS,Other,,13,4,TRUE,,Mavic Mini,TRUE,FALSE,,Smart,RC,FALSE,TRUE,FALSE,,,TRUE,,FALSE,FALSE,FALSE,FALSE,FALSE,FALSE,FALSE,FALSE,FALSE,FALSE,0,Follow Yaw,0,0,153.4,153.4,FALSE,FALSE,FALSE,FALSE,FALSE,FALSE,,TRUE,Normal,,100,1024,1024,1024,1024,1,FALSE,FALSE,FALSE,FALSE,FALSE,0,FALSE,FALSE,FALSE,FALSE,85,7.74,1745,2063,7.623,FALSE,3.875,3.865,0.013,FALSE,FALSE,NA,96.8,96.4,96.8,0,0,0,0,5,2855.5,713.88,,Idle,0,20,FALSE,5,TRUE,6,Go Home,FALSE,FALSE,FALSE,FALSE,FALSE,FALSE,FALSE,FALSE,FALSE,FALSE,FALSE,FALSE,6.9741691,79.91451619,0.6,182.4,328,TRUE,1,1,FALSE,FALSE,FALSE,FALSE,,TRUE,FALSE,FALSE,Course Lock,49.2,254.5,16.4,Calm,39,,1.12.8,Mavic Mini,1SDCH7G0169R0K,1SFLH6Q0AB03DJ,1SRCH7F014TAHX,1U5X071EXP6C9Y,58.7,0.1,3.2,4.906056,4.250186,0,341,Mavic Mini,1SDCH7G0169R0K,1SFLH6Q0AB03DJ,1SRCH7F014TAHX,1U5X071EXP6C9Y,DJI Fly,,1.12.8,A3F1BC60-C06F-52E9-47FF-F2B63CCD996E,1SDCH7G0169R0K,,,,,6.974108932,79.91452052,5,,
2/27/2024,03:45.1,3m 17.5s,197.5,6.974167467,79.91451593,5.2,5.5,6.5,66,2.4,0.707382,0.707382,0.671082,0.671082,-0.223694,0,0,0,-0.6,0,154.7,154.7,321.6,P-GPS,Other,,13,4,TRUE,,Mavic Mini,TRUE,FALSE,,Smart,RC,FALSE,TRUE,FALSE,,,TRUE,,FALSE,FALSE,FALSE,FALSE,FALSE,FALSE,FALSE,FALSE,FALSE,FALSE,0,Follow Yaw,0,0,153.4,153.4,FALSE,FALSE,FALSE,FALSE,FALSE,FALSE,,TRUE,Normal,,100,1024,1024,1024,1024,1,FALSE,FALSE,FALSE,FALSE,FALSE,0,FALSE,FALSE,FALSE,FALSE,85,7.74,1745,2063,7.623,FALSE,3.875,3.865,0.013,FALSE,FALSE,NA,96.8,96.4,96.8,0,0,0,0,5,2855.5,713.88,,Idle,0,20,FALSE,5,TRUE,6,Go Home,FALSE,FALSE,FALSE,FALSE,FALSE,FALSE,FALSE,FALSE,FALSE,FALSE,FALSE,FALSE,6.9741691,79.91451619,0.6,182.4,328,TRUE,1,1,FALSE,FALSE,FALSE,FALSE,,TRUE,FALSE,FALSE,Course Lock,49.2,254.5,16.4,Calm,39,,1.12.8,Mavic Mini,1SDCH7G0169R0K,1SFLH6Q0AB03DJ,1SRCH7F014TAHX,1U5X071EXP6C9Y,58.7,0.1,3.2,4.906056,4.250186,0,341,Mavic Mini,1SDCH7G0169R0K,1SFLH6Q0AB03DJ,1SRCH7F014TAHX,1U5X071EXP6C9Y,DJI Fly,,1.12.8,A3F1BC60-C06F-52E9-47FF-F2B63CCD996E,1SDCH7G0169R0K,,,,,6.974108932,79.91452052,5,,
2/27/2024,03:45.2,3m 17.6s,197.6,6.974167675,79.9145158,5.2,5.5,6.5,66,2.5,0.500194,0.707382,0.447388,0.671082,-0.223694,0,0,0,-2,0,154.8,154.8,334,P-GPS,Other,,13,4,TRUE,,Mavic Mini,TRUE,FALSE,,Smart,RC,FALSE,TRUE,FALSE,,,TRUE,,FALSE,FALSE,FALSE,FALSE,FALSE,FALSE,FALSE,FALSE,FALSE,FALSE,0,Follow Yaw,0,0,153.4,153.4,FALSE,FALSE,FALSE,FALSE,FALSE,FALSE,,TRUE,Normal,,100,1024,1119,1024,1024,1,FALSE,FALSE,FALSE,FALSE,FALSE,0,FALSE,FALSE,FALSE,FALSE,85,7.74,1745,2063,7.623,FALSE,3.875,3.865,0.013,FALSE,FALSE,NA,96.8,96.4,96.8,0,0,0,0,5,2855.5,713.88,,Idle,0,20,FALSE,5,TRUE,6,Go Home,FALSE,FALSE,FALSE,FALSE,FALSE,FALSE,FALSE,FALSE,FALSE,FALSE,FALSE,FALSE,6.9741691,79.91451619,0.5,182.4,328,TRUE,1,1,FALSE,FALSE,FALSE,FALSE,,TRUE,FALSE,FALSE,Course Lock,49.2,254.5,16.4,Calm,39,,1.12.8,Mavic Mini,1SDCH7G0169R0K,1SFLH6Q0AB03DJ,1SRCH7F014TAHX,1U5X071EXP6C9Y,58.7,0.1,3.2,4.906056,4.250186,0,341,Mavic Mini,1SDCH7G0169R0K,1SFLH6Q0AB03DJ,1SRCH7F014TAHX,1U5X071EXP6C9Y,DJI Fly,,1.12.8,A3F1BC60-C06F-52E9-47FF-F2B63CCD996E,1SDCH7G0169R0K,,,,,6.974108932,79.91452052,5,,
2/27/2024,03:45.3,3m 17.7s,197.7,6.97416784,79.91451568,5.2,5.5,6.5,66,2.6,0.223694,0.707382,0.223694,0.671082,0,0,0,0,-1.7,0,154.8,154.8,330.3,P-GPS,Other,,13,4,TRUE,,Mavic Mini,TRUE,FALSE,,Smart,RC,FALSE,TRUE,FALSE,,,TRUE,,FALSE,FALSE,FALSE,FALSE,FALSE,FALSE,FALSE,FALSE,FALSE,FALSE,0,Follow Yaw,0,0,153.4,153.4,FALSE,FALSE,FALSE,FALSE,FALSE,FALSE,,TRUE,Normal,,100,1024,1175,1024,1024,1,FALSE,FALSE,FALSE,FALSE,FALSE,0,FALSE,FALSE,FALSE,FALSE,85,7.74,1745,2063,7.623,FALSE,3.875,3.865,0.013,FALSE,FALSE,NA,96.8,96.4,96.8,0,0,0,0,5,2855.5,713.88,,Idle,0,20,FALSE,5,TRUE,6,Go Home,FALSE,FALSE,FALSE,FALSE,FALSE,FALSE,FALSE,FALSE,FALSE,FALSE,FALSE,FALSE,6.9741691,79.91451619,0.4,182.4,328,TRUE,1,1,FALSE,FALSE,FALSE,FALSE,,TRUE,FALSE,FALSE,Course Lock,49.2,254.5,16.4,Calm,39,,1.12.8,Mavic Mini,1SDCH7G0169R0K,1SFLH6Q0AB03DJ,1SRCH7F014TAHX,1U5X071EXP6C9Y,58.7,0.1,3.2,4.906056,4.250186,0,341,Mavic Mini,1SDCH7G0169R0K,1SFLH6Q0AB03DJ,1SRCH7F014TAHX,1U5X071EXP6C9Y,DJI Fly,,1.12.8,A3F1BC60-C06F-52E9-47FF-F2B63CCD996E,1SDCH7G0169R0K,,,,,6.974108932,79.91452052,5,,
2/27/2024,03:45.4,3m 17.8s,197.8,6.974168217,79.91451542,5.2,5.5,6.5,66,2.8,0,0.707382,0,0.671082,0,0,0,0,-0.9,-0.1,154.9,154.9,,P-GPS,Other,,13,4,TRUE,,Mavic Mini,TRUE,FALSE,,Smart,RC,FALSE,TRUE,FALSE,,,TRUE,,FALSE,FALSE,FALSE,FALSE,FALSE,FALSE,FALSE,FALSE,FALSE,FALSE,0,Follow Yaw,0,0,153.4,153.4,FALSE,FALSE,FALSE,FALSE,FALSE,FALSE,,TRUE,Normal,,100,1024,1414,1024,1024,1,FALSE,FALSE,FALSE,FALSE,FALSE,0,FALSE,FALSE,FALSE,FALSE,85,7.74,1745,2063,7.623,FALSE,3.875,3.865,0.013,FALSE,FALSE,NA,96.8,96.4,96.8,0,0,0,0,5,2855.5,713.88,,Idle,0,20,FALSE,5,TRUE,6,Go Home,FALSE,FALSE,FALSE,FALSE,FALSE,FALSE,FALSE,FALSE,FALSE,FALSE,FALSE,FALSE,6.9741691,79.91451619,0.4,182.4,328,TRUE,1,1,FALSE,FALSE,FALSE,FALSE,,TRUE,FALSE,FALSE,Course Lock,49.2,254.5,16.4,Calm,39,,1.12.8,Mavic Mini,1SDCH7G0169R0K,1SFLH6Q0AB03DJ,1SRCH7F014TAHX,1U5X071EXP6C9Y,58.7,0.1,3.2,4.906056,4.250186,0,341,Mavic Mini,1SDCH7G0169R0K,1SFLH6Q0AB03DJ,1SRCH7F014TAHX,1U5X071EXP6C9Y,DJI Fly,,1.12.8,A3F1BC60-C06F-52E9-47FF-F2B63CCD996E,1SDCH7G0169R0K,,,,,6.974108932,79.91452052,5,,
