CUSTOM.date [local],CUSTOM.updateTime [local],OSD.flyTime,OSD.flyTime [s],OSD.latitude,OSD.longitude,OSD.height [ft],OSD.heightMax [ft],OSD.vpsHeight [ft],OSD.altitude [ft],OSD.mileage [ft],OSD.hSpeed [MPH],OSD.hSpeedMax [MPH],OSD.xSpeed [MPH],OSD.xSpeedMax [MPH],OSD.ySpeed [MPH],OSD.ySpeedMax [MPH],OSD.zSpeed [MPH],OSD.zSpeedMax [MPH],OSD.pitch,OSD.roll,OSD.yaw,OSD.yaw [360],OSD.directionOfTravel,OSD.flycState,OSD.flycCommand,OSD.flightAction,OSD.gpsNum,OSD.gpsLevel,OSD.isGPSUsed,OSD.nonGPSCause,OSD.droneType,OSD.isSwaveWork,OSD.waveError,OSD.goHomeStatus,OSD.batteryType,OSD.ctrlDevice,OSD.isOnGround,OSD.isMotorOn,OSD.isMotorBlocked,OSD.motorStartFailedCause,OSD.motorFailReason,OSD.isImuPreheated,OSD.imuInitFailReason,OSD.isAcceletorOverRange,OSD.isBarometerDeadInAir,OSD.isCompassError,OSD.isGoHomeHeightModified,OSD.canIOCWork,OSD.isNotEnoughForce,OSD.isOutOfLimit,OSD.isPropellerCatapult,OSD.isVibrating,OSD.isVisionUsed,OSD.voltageWarning,GIMBAL.mode,GIMBAL.pitch,GIMBAL.roll,GIMBAL.yaw,GIMBAL.yaw [360],GIMBAL.isPitchAtLimit,GIMBAL.isRollAtLimit,GIMBAL.isYawAtLimit,GIMBAL.isStuck,CAMERA.isPhoto,CAMERA.isVideo,CAMERA.filename,CAMERA.sdCardIsInserted,CAMERA.sdCardState,RC.downlinkSignal,RC.uplinkSignal,RC.aileron,RC.elevator,RC.throttle,RC.rudder,RC.mode,RC.goHomeDepressed,RC.recordDepressed,RC.shutterDepressed,RC.playbackDepressed,RC.wheelDepressed,RC.wheelOffset,RC.custom1Depressed,RC.custom2Depressed,RC.custom3Depressed,RC.custom4Depressed,BATTERY.chargeLevel,BATTERY.currentPV [V],BATTERY.currentCapacity [mAh],BATTERY.fullCapacity [mAh],BATTERY.voltage [V],BATTERY.isCellVoltageEstimated,BATTERY.cellVoltage1 [V],BATTERY.cellVoltage2 [V],BATTERY.maxCellVoltageDeviation,BATTERY.isCellVoltageDeviationHigh,BATTERY.isVoltageLow,BATTERY.current [A],BATTERY.temperature [F],BATTERY.minTemperature [F],BATTERY.maxTemperature [F],BATTERY.usefulTime [s],BATTERY.goHomeTime [s],BATTERY.landTime [s],BATTERY.goHomeBattery,BATTERY.landBattery,BATTERY.safeFlyRadius,BATTERY.volumeConsume,BATTERY.status,BATTERY.goHomeStatus,BATTERY.goHomeCountdown,BATTERY.lowWarning,BATTERY.lowWarningGoHome,BATTERY.seriousLowWarning,BATTERY.seriousLowWarningLanding,BATTERY.timesCharged,MC.failSafeAction,MC.isObstacleAvoidanceEnabled,MC.isCollisionAvoidanceEnabled,MC.isRthObstacleAvoidanceEnabled,MC.isBraking,MC.isAvoidingObstacle,MC.isAvoidingActiveObstacle,MC.isAscentLimitedByObstacle,MC.isLandingConfirmationNeeded,MC.atLowAltitudeLimit,MC.atDistanceLimit,MC.atAirportAltitudeLimit,MC.atAirportBoundary,HOME.latitude,HOME.longitude,HOME.distance [ft],HOME.height [ft],HOME.heightLimit [ft],HOME.isHomeRecord,HOME.goHomeMode,HOME.aircraftHeadDirection,HOME.isDynamicHomePointEnabled,HOME.isReachedLimitDistance,HOME.isReachedLimitHeight,HOME.isCompassCalibrating,HOME.compassCalibrationState,HOME.isMultipleFlightModeEnabled,HOME.isBeginnerMode,HOME.isIOCEnabled,HOME.iocMode,HOME.goHomeHeight [ft],HOME.courseLockAngle,HOME.forceLandingHeight [ft],HOME.wind,HOME.dataRecorderFileIndex,RECOVER.appType,RECOVER.appVersion,RECOVER.aircraftName,RECOVER.aircraftSerial,RECOVER.cameraSerial,RECOVER.rcSerial,RECOVER.batterySerial,DETAILS.totalTime [s],DETAILS.totalDistance [ft],DETAILS.maxHeight [ft],DETAILS.maxHorizontalSpeed [MPH],DETAILS.maxVerticalSpeed [MPH],DETAILS.photoNum,DETAILS.videoTime [s],DETAILS.aircraftName,DETAILS.aircraftSerial,DETAILS.cameraSerial,DETAILS.rcSerial,DETAILS.batterySerial,DETAILS.appName,DETAILS.appType,DETAILS.appVersion,DETAILS.guid,SERIAL.flightController,SERIAL.camera,SERIAL.gimbal,SERIAL.rc,SERIAL.battery,APPGPS.latitude,APPGPS.longitude,APPGPS.accuracy,APP.tip,APP.warning
2/21/2024,42:42.4,8m 57.1s,537.1,6.974133466,79.91426818,0,0,,52,0,0,0,0,0,0,0,0,0,2.8,2.5,-69.4,290.6,,Tripod,Other,Takeoff (RC Assisted),14,5,TRUE,,Mavic Mini,FALSE,FALSE,,Smart,RC,TRUE,TRUE,FALSE,,,TRUE,,FALSE,FALSE,FALSE,FALSE,FALSE,FALSE,FALSE,FALSE,FALSE,FALSE,0,Follow Yaw,0,0,-57.8,302.2,FALSE,FALSE,FALSE,FALSE,FALSE,FALSE,,TRUE,Normal,,,364,364,364,1684,2,FALSE,FALSE,FALSE,FALSE,FALSE,0,FALSE,FALSE,FALSE,FALSE,38,7.247,776,2051,7.245,TRUE,3.623,3.623,,FALSE,FALSE,NA,110.1,110.1,110.1,0,0,0,0,5,2623,655.76,,Idle,0,20,FALSE,5,TRUE,10,Go Home,FALSE,FALSE,FALSE,FALSE,FALSE,FALSE,FALSE,FALSE,FALSE,FALSE,FALSE,FALSE,6.974134248,79.91427099,1,139.6,328,TRUE,1,1,FALSE,FALSE,FALSE,FALSE,,TRUE,FALSE,FALSE,Course Lock,49.2,,16.4,Calm,29,,1.12.8,Mavic Mini,1SDCH7G0169R0K,1SFLH6Q0AB03DJ,1SRCH7F014TAHX,1U5X071EXP5ZJG,64.7,0.2,6.5,6.714622,3.35541,0,0,Mavic Mini,1SDCH7G0169R0K,1SFLH6Q0AB03DJ,1SRCH7F014TAHX,1U5X071EXP5ZJG,DJI Fly,,1.12.8,7EF899E1-F8EF-44A4-2160-097E9C2FA4EF,1SDCH7G0169R0K,,,,,,,,Data Recorder File Index is 29.; Set Return to Home (RTH) altitude to 15 m (49 ft).; Set maximum flight altitude to 100 m (328 ft).; Flight mode changed to Tripod.,
2/21/2024,33:45.4,8m 57.2s,537.2,6.974133413,79.91426805,0,0,,52,0,0,0,0,0,0,0,0,0,2.8,2.5,-69.4,290.6,,Starting Motors,Other,Takeoff (RC Assisted),14,5,TRUE,,Mavic Mini,FALSE,FALSE,,Smart,RC,TRUE,TRUE,FALSE,,,TRUE,,FALSE,FALSE,FALSE,FALSE,FALSE,FALSE,FALSE,FALSE,FALSE,FALSE,0,Follow Yaw,0,0,-57.8,302.2,FALSE,FALSE,FALSE,FALSE,FALSE,FALSE,,TRUE,Normal,,,376,629,398,1593,2,FALSE,FALSE,FALSE,FALSE,FALSE,0,FALSE,FALSE,FALSE,FALSE,38,7.247,776,2051,7.245,TRUE,3.623,3.623,,FALSE,FALSE,NA,110.1,110.1,110.1,0,0,0,0,5,2623,655.76,,Idle,0,20,FALSE,5,TRUE,10,Go Home,FALSE,FALSE,FALSE,FALSE,FALSE,FALSE,FALSE,FALSE,FALSE,FALSE,FALSE,FALSE,6.974134248,79.91427099,1.1,139.6,328,TRUE,1,1,FALSE,FALSE,FALSE,FALSE,,TRUE,FALSE,FALSE,Course Lock,49.2,,16.4,Calm,29,,1.12.8,Mavic Mini,1SDCH7G0169R0K,1SFLH6Q0AB03DJ,1SRCH7F014TAHX,1U5X071EXP5ZJG,64.7,0.2,6.5,6.714622,3.35541,0,0,Mavic Mini,1SDCH7G0169R0K,1SFLH6Q0AB03DJ,1SRCH7F014TAHX,1U5X071EXP5ZJG,DJI Fly,,1.12.8,7EF899E1-F8EF-44A4-2160-097E9C2FA4EF,1SDCH7G0169R0K,,,,,,,,Flight mode changed to Starting Motors.,
2/21/2024,33:45.5,8m 57.3s,537.3,6.974133401,79.91426801,0,0,0.3,52,0,0,0,0,0,0,0,0,0,2.8,2.5,-69.4,290.6,,Starting Motors,Other,Takeoff (RC Assisted),14,5,TRUE,,Mavic Mini,TRUE,FALSE,,Smart,RC,TRUE,TRUE,FALSE,,,TRUE,,FALSE,FALSE,FALSE,FALSE,FALSE,FALSE,FALSE,FALSE,FALSE,FALSE,0,Follow Yaw,0,0,-57.8,302.2,FALSE,FALSE,FALSE,FALSE,FALSE,FALSE,,TRUE,Normal,,,1024,1024,1024,1024,2,FALSE,FALSE,FALSE,FALSE,FALSE,0,FALSE,FALSE,FALSE,FALSE,38,7.25,775,2051,7.245,FALSE,3.626,3.624,0.002,FALSE,FALSE,NA,110.3,110.1,110.3,0,0,0,0,5,2623,655.76,,Idle,0,20,FALSE,5,TRUE,10,Go Home,FALSE,FALSE,FALSE,FALSE,FALSE,FALSE,FALSE,FALSE,FALSE,FALSE,FALSE,FALSE,6.974134248,79.91427099,1.1,139.6,328,TRUE,1,1,FALSE,FALSE,FALSE,FALSE,,TRUE,FALSE,FALSE,Course Lock,49.2,,16.4,Calm,29,,1.12.8,Mavic Mini,1SDCH7G0169R0K,1SFLH6Q0AB03DJ,1SRCH7F014TAHX,1U5X071EXP5ZJG,64.7,0.2,6.5,6.714622,3.35541,0,0,Mavic Mini,1SDCH7G0169R0K,1SFLH6Q0AB03DJ,1SRCH7F014TAHX,1U5X071EXP5ZJG,DJI Fly,,1.12.8,7EF899E1-F8EF-44A4-2160-097E9C2FA4EF,1SDCH7G0169R0K,,,,,,,,,
2/21/2024,33:45.5,8m 57.4s,537.4,6.974133356,79.91426796,0,0,0.3,52,0,0,0,0,0,0,0,0,0,2.8,2.5,-69.3,290.7,,Starting Motors,Other,Takeoff (RC Assisted),14,5,TRUE,,Mavic Mini,TRUE,FALSE,,Smart,RC,TRUE,TRUE,FALSE,,,TRUE,,FALSE,FALSE,FALSE,FALSE,FALSE,FALSE,FALSE,FALSE,FALSE,FALSE,0,Follow Yaw,0,0,-57.8,302.2,FALSE,FALSE,FALSE,FALSE,FALSE,FALSE,,TRUE,Normal,,,1024,1024,1024,1024,2,FALSE,FALSE,FALSE,FALSE,FALSE,0,FALSE,FALSE,FALSE,FALSE,38,7.25,775,2051,7.245,FALSE,3.626,3.624,0.002,FALSE,FALSE,NA,110.3,110.1,110.3,0,0,0,0,5,2623,655.76,,Idle,0,20,FALSE,5,TRUE,10,Go Home,FALSE,FALSE,FALSE,FALSE,FALSE,FALSE,FALSE,FALSE,FALSE,FALSE,FALSE,FALSE,6.974134248,79.91427099,1.1,139.6,328,TRUE,1,1,FALSE,FALSE,FALSE,FALSE,,TRUE,FALSE,FALSE,Course Lock,49.2,,16.4,Calm,29,,1.12.8,Mavic Mini,1SDCH7G0169R0K,1SFLH6Q0AB03DJ,1SRCH7F014TAHX,1U5X071EXP5ZJG,64.7,0.2,6.5,6.714622,3.35541,0,0,Mavic Mini,1SDCH7G0169R0K,1SFLH6Q0AB03DJ,1SRCH7F014TAHX,1U5X071EXP5ZJG,DJI Fly,,1.12.8,7EF899E1-F8EF-44A4-2160-097E9C2FA4EF,1SDCH7G0169R0K,,,,,,,,,
2/21/2024,33:45.7,8m 57.5s,537.5,6.974133306,79.91426792,0,0,0.3,52,0,0,0,0,0,0,0,0,0,2.8,2.5,-69.4,290.6,,Starting Motors,Other,Takeoff (RC Assisted),14,5,TRUE,,Mavic Mini,TRUE,FALSE,,Smart,RC,TRUE,TRUE,FALSE,,,TRUE,,FALSE,FALSE,FALSE,FALSE,FALSE,FALSE,FALSE,FALSE,FALSE,FALSE,0,Follow Yaw,0,0,-57.8,302.2,FALSE,FALSE,FALSE,FALSE,FALSE,FALSE,,TRUE,Normal,,100,1024,1024,1024,1024,2,FALSE,FALSE,FALSE,FALSE,FALSE,0,FALSE,FALSE,FALSE,FALSE,38,7.25,775,2051,7.245,FALSE,3.626,3.624,0.002,FALSE,FALSE,NA,110.3,110.1,110.3,0,0,0,0,5,2623,655.76,,Idle,0,20,FALSE,5,TRUE,10,Go Home,FALSE,FALSE,FALSE,FALSE,FALSE,FALSE,FALSE,FALSE,FALSE,FALSE,FALSE,FALSE,6.974134248,79.91427099,1.1,139.6,328,TRUE,1,1,FALSE,FALSE,FALSE,FALSE,,TRUE,FALSE,FALSE,Course Lock,49.2,,16.4,Calm,29,,1.12.8,Mavic Mini,1SDCH7G0169R0K,1SFLH6Q0AB03DJ,1SRCH7F014TAHX,1U5X071EXP5ZJG,64.7,0.2,6.5,6.714622,3.35541,0,0,Mavic Mini,1SDCH7G0169R0K,1SFLH6Q0AB03DJ,1SRCH7F014TAHX,1U5X071EXP5ZJG,DJI Fly,,1.12.8,7EF899E1-F8EF-44A4-2160-097E9C2FA4EF,1SDCH7G0169R0K,,,,,,,,,
2/21/2024,33:45.7,8m 57.6s,537.6,6.974133288,79.91426794,0,0,0.3,52,0,0,0,0,0,0,0,0,0,2.8,2.5,-69.4,290.6,,Starting Motors,Other,Takeoff (RC Assisted),14,5,TRUE,,Mavic Mini,TRUE,FALSE,,Smart,RC,TRUE,TRUE,FALSE,,,TRUE,,FALSE,FALSE,FALSE,FALSE,FALSE,FALSE,FALSE,FALSE,FALSE,FALSE,0,Follow Yaw,0,0,-57.8,302.2,FALSE,FALSE,FALSE,FALSE,FALSE,FALSE,,TRUE,Normal,,100,1024,1024,1024,1024,2,FALSE,FALSE,FALSE,FALSE,FALSE,0,FALSE,FALSE,FALSE,FALSE,38,7.25,775,2051,7.245,FALSE,3.626,3.624,0.002,FALSE,FALSE,NA,110.3,110.1,110.3,0,0,0,0,5,2623,655.76,,Idle,0,20,FALSE,5,TRUE,10,Go Home,FALSE,FALSE,FALSE,FALSE,FALSE,FALSE,FALSE,FALSE,FALSE,FALSE,FALSE,FALSE,6.974134248,79.91427099,1.1,139.6,328,TRUE,1,1,FALSE,FALSE,FALSE,FALSE,,TRUE,FALSE,FALSE,Course Lock,49.2,,16.4,Calm,29,,1.12.8,Mavic Mini,1SDCH7G0169R0K,1SFLH6Q0AB03DJ,1SRCH7F014TAHX,1U5X071EXP5ZJG,64.7,0.2,6.5,6.714622,3.35541,0,0,Mavic Mini,1SDCH7G0169R0K,1SFLH6Q0AB03DJ,1SRCH7F014TAHX,1U5X071EXP5ZJG,DJI Fly,,1.12.8,7EF899E1-F8EF-44A4-2160-097E9C2FA4EF,1SDCH7G0169R0K,,,,,,,,,
2/21/2024,33:45.8,8m 57.7s,537.7,6.974133278,79.91426794,0,0,0.3,52,0,0,0,0,0,0,0,0,0,2.8,2.5,-69.4,290.6,,Starting Motors,Other,Takeoff (RC Assisted),14,5,TRUE,,Mavic Mini,TRUE,FALSE,,Smart,RC,TRUE,TRUE,FALSE,,,TRUE,,FALSE,FALSE,FALSE,FALSE,FALSE,FALSE,FALSE,FALSE,FALSE,FALSE,0,Follow Yaw,0,0,-57.8,302.2,FALSE,FALSE,FALSE,FALSE,FALSE,FALSE,,TRUE,Normal,,100,1024,1024,1024,1024,2,FALSE,FALSE,FALSE,FALSE,FALSE,0,FALSE,FALSE,FALSE,FALSE,38,7.25,775,2051,7.245,FALSE,3.626,3.624,0.002,FALSE,FALSE,NA,110.3,110.1,110.3,0,0,0,0,5,2623,655.76,,Idle,0,20,FALSE,5,TRUE,10,Go Home,FALSE,FALSE,FALSE,FALSE,FALSE,FALSE,FALSE,FALSE,FALSE,FALSE,FALSE,FALSE,6.974134248,79.91427099,1.1,139.6,328,TRUE,1,1,FALSE,FALSE,FALSE,FALSE,,TRUE,FALSE,FALSE,Course Lock,49.2,,16.4,Calm,29,,1.12.8,Mavic Mini,1SDCH7G0169R0K,1SFLH6Q0AB03DJ,1SRCH7F014TAHX,1U5X071EXP5ZJG,64.7,0.2,6.5,6.714622,3.35541,0,0,Mavic Mini,1SDCH7G0169R0K,1SFLH6Q0AB03DJ,1SRCH7F014TAHX,1U5X071EXP5ZJG,DJI Fly,,1.12.8,7EF899E1-F8EF-44A4-2160-097E9C2FA4EF,1SDCH7G0169R0K,,,,,,,,,
2/21/2024,33:45.9,8m 57.8s,537.8,6.974133284,79.91426792,0,0,0.3,52,0,0,0,0,0,0,0,0,0,2.8,2.5,-69.4,290.6,,Starting Motors,Other,Takeoff (RC Assisted),14,5,TRUE,,Mavic Mini,TRUE,FALSE,,Smart,RC,TRUE,TRUE,FALSE,,,TRUE,,FALSE,FALSE,FALSE,FALSE,FALSE,FALSE,FALSE,FALSE,FALSE,FALSE,0,Follow Yaw,0,0,-57.9,302.1,FALSE,FALSE,FALSE,FALSE,FALSE,FALSE,,TRUE,Normal,,100,1024,1024,1024,1024,2,FALSE,FALSE,FALSE,FALSE,FALSE,0,FALSE,FALSE,FALSE,FALSE,38,7.25,775,2051,7.245,FALSE,3.626,3.624,0.002,FALSE,FALSE,NA,110.3,110.1,110.3,0,0,0,0,5,2623,655.76,,Idle,0,20,FALSE,5,TRUE,10,Go Home,FALSE,FALSE,FALSE,FALSE,FALSE,FALSE,FALSE,FALSE,FALSE,FALSE,FALSE,FALSE,6.974134248,79.91427099,1.1,139.6,328,TRUE,1,1,FALSE,FALSE,FALSE,FALSE,,TRUE,FALSE,FALSE,Course Lock,49.2,,16.4,Calm,29,,1.12.8,Mavic Mini,1SDCH7G0169R0K,1SFLH6Q0AB03DJ,1SRCH7F014TAHX,1U5X071EXP5ZJG,64.7,0.2,6.5,6.714622,3.35541,0,0,Mavic Mini,1SDCH7G0169R0K,1SFLH6Q0AB03DJ,1SRCH7F014TAHX,1U5X071EXP5ZJG,DJI Fly,,1.12.8,7EF899E1-F8EF-44A4-2160-097E9C2FA4EF,1SDCH7G0169R0K,,,,,,,,,
2/21/2024,33:46.0,8m 57.9s,537.9,6.97413329,79.9142679,0,0,0.3,52,0,0,0,0,0,0,0,0,0,2.8,2.5,-69.4,290.6,,Starting Motors,Other,Takeoff (RC Assisted),14,5,TRUE,,Mavic Mini,TRUE,FALSE,,Smart,RC,TRUE,TRUE,FALSE,,,TRUE,,FALSE,FALSE,FALSE,FALSE,FALSE,FALSE,FALSE,FALSE,FALSE,FALSE,0,Follow Yaw,0,0,-57.9,302.1,FALSE,FALSE,FALSE,FALSE,FALSE,FALSE,,TRUE,Normal,,100,1024,1024,1024,1024,2,FALSE,FALSE,FALSE,FALSE,FALSE,0,FALSE,FALSE,FALSE,FALSE,38,7.25,775,2051,7.245,FALSE,3.626,3.624,0.002,FALSE,FALSE,NA,110.3,110.1,110.3,0,0,0,0,5,2623,655.76,,Idle,0,20,FALSE,5,TRUE,10,Go Home,FALSE,FALSE,FALSE,FALSE,FALSE,FALSE,FALSE,FALSE,FALSE,FALSE,FALSE,FALSE,6.974134248,79.91427099,1.1,139.6,328,TRUE,1,1,FALSE,FALSE,FALSE,FALSE,,TRUE,FALSE,FALSE,Course Lock,49.2,,16.4,Calm,29,,1.12.8,Mavic Mini,1SDCH7G0169R0K,1SFLH6Q0AB03DJ,1SRCH7F014TAHX,1U5X071EXP5ZJG,64.7,0.2,6.5,6.714622,3.35541,0,0,Mavic Mini,1SDCH7G0169R0K,1SFLH6Q0AB03DJ,1SRCH7F014TAHX,1U5X071EXP5ZJG,DJI Fly,,1.12.8,7EF899E1-F8EF-44A4-2160-097E9C2FA4EF,1SDCH7G0169R0K,,,,,,,,,
2/21/2024,33:46.1,8m 58.0s,538,6.974133299,79.9142679,0,0,0.3,52,0.1,0,0,0,0,0,0,0,0,2.8,2.5,-69.5,290.5,,Starting Motors,Other,Takeoff (RC Assisted),14,5,TRUE,,Mavic Mini,TRUE,FALSE,,Smart,RC,TRUE,TRUE,FALSE,,,TRUE,,FALSE,FALSE,FALSE,FALSE,FALSE,FALSE,FALSE,FALSE,FALSE,FALSE,0,Follow Yaw,0,0,-57.9,302.1,FALSE,FALSE,FALSE,FALSE,FALSE,FALSE,,TRUE,Normal,,100,1024,1024,1024,1024,2,FALSE,FALSE,FALSE,FALSE,FALSE,0,FALSE,FALSE,FALSE,FALSE,38,7.25,775,2051,7.245,FALSE,3.626,3.624,0.002,FALSE,FALSE,NA,110.3,110.1,110.3,0,0,0,0,5,2623,655.76,,Idle,0,20,FALSE,5,TRUE,10,Go Home,FALSE,FALSE,FALSE,FALSE,FALSE,FALSE,FALSE,FALSE,FALSE,FALSE,FALSE,FALSE,6.974134248,79.91427099,1.1,139.6,328,TRUE,1,1,FALSE,FALSE,FALSE,FALSE,,TRUE,FALSE,FALSE,Course Lock,49.2,,16.4,Calm,29,,1.12.8,Mavic Mini,1SDCH7G0169R0K,1SFLH6Q0AB03DJ,1SRCH7F014TAHX,1U5X071EXP5ZJG,64.7,0.2,6.5,6.714622,3.35541,0,0,Mavic Mini,1SDCH7G0169R0K,1SFLH6Q0AB03DJ,1SRCH7F014TAHX,1U5X071EXP5ZJG,DJI Fly,,1.12.8,7EF899E1-F8EF-44A4-2160-097E9C2FA4EF,1SDCH7G0169R0K,,,,,,,,,
2/21/2024,33:46.2,8m 58.1s,538.1,6.974133374,79.91426792,0,0,0.3,52,0.1,0,0,0,0,0,0,0,0,2.9,2.5,-69.5,290.5,,Starting Motors,Other,Takeoff (RC Assisted),14,5,TRUE,,Mavic Mini,TRUE,FALSE,,Smart,RC,TRUE,TRUE,FALSE,,,TRUE,,FALSE,FALSE,FALSE,FALSE,FALSE,FALSE,FALSE,FALSE,FALSE,FALSE,0,Follow Yaw,0,0,-57.9,302.1,FALSE,FALSE,FALSE,FALSE,FALSE,FALSE,,TRUE,Normal,,100,1024,1024,1024,1024,2,FALSE,FALSE,FALSE,FALSE,FALSE,0,FALSE,FALSE,FALSE,FALSE,38,7.25,775,2051,7.241,FALSE,3.626,3.624,0.002,FALSE,FALSE,NA,110.3,110.1,110.3,0,0,0,0,5,2295.5,573.89,,Idle,0,20,FALSE,5,TRUE,10,Go Home,FALSE,FALSE,FALSE,FALSE,FALSE,FALSE,FALSE,FALSE,FALSE,FALSE,FALSE,FALSE,6.974134248,79.91427099,1.1,139.6,328,TRUE,1,1,FALSE,FALSE,FALSE,FALSE,,TRUE,FALSE,FALSE,Course Lock,49.2,,16.4,Calm,29,,1.12.8,Mavic Mini,1SDCH7G0169R0K,1SFLH6Q0AB03DJ,1SRCH7F014TAHX,1U5X071EXP5ZJG,64.7,0.2,6.5,6.714622,3.35541,0,0,Mavic Mini,1SDCH7G0169R0K,1SFLH6Q0AB03DJ,1SRCH7F014TAHX,1U5X071EXP5ZJG,DJI Fly,,1.12.8,7EF899E1-F8EF-44A4-2160-097E9C2FA4EF,1SDCH7G0169R0K,,,,,,,,,
2/21/2024,33:46.3,8m 58.2s,538.2,6.974133332,79.91426789,0,0,0.3,52,0.1,0,0,0,0,0,0,0,0,2.8,2.5,-69.5,290.5,,Starting Motors,Other,Takeoff (RC Assisted),14,5,TRUE,,Mavic Mini,TRUE,FALSE,,Smart,RC,TRUE,TRUE,FALSE,,,TRUE,,FALSE,FALSE,FALSE,FALSE,FALSE,FALSE,FALSE,FALSE,FALSE,FALSE,0,Follow Yaw,0,0,-57.9,302.1,FALSE,FALSE,FALSE,FALSE,FALSE,FALSE,,TRUE,Normal,,100,1024,1024,1024,1024,2,FALSE,FALSE,FALSE,FALSE,FALSE,0,FALSE,FALSE,FALSE,FALSE,38,7.25,775,2051,7.241,FALSE,3.626,3.624,0.002,FALSE,FALSE,NA,110.3,110.1,110.3,0,0,0,0,5,2295.5,573.89,,Idle,0,20,FALSE,5,TRUE,10,Go Home,FALSE,FALSE,FALSE,FALSE,FALSE,FALSE,FALSE,FALSE,FALSE,FALSE,FALSE,FALSE,6.974134248,79.91427099,1.1,139.6,328,TRUE,1,1,FALSE,FALSE,FALSE,FALSE,,TRUE,FALSE,FALSE,Course Lock,49.2,,16.4,Calm,29,,1.12.8,Mavic Mini,1SDCH7G0169R0K,1SFLH6Q0AB03DJ,1SRCH7F014TAHX,1U5X071EXP5ZJG,64.7,0.2,6.5,6.714622,3.35541,0,0,Mavic Mini,1SDCH7G0169R0K,1SFLH6Q0AB03DJ,1SRCH7F014TAHX,1U5X071EXP5ZJG,DJI Fly,,1.12.8,7EF899E1-F8EF-44A4-2160-097E9C2FA4EF,1SDCH7G0169R0K,,,,,,,,,
2/21/2024,33:46.5,8m 58.3s,538.3,6.974133283,79.91426786,0,0,0.3,52,0.1,0,0,0,0,0,0,0,0,2.8,2.5,-69.6,290.4,,Manual Takeoff,Other,Takeoff (RC Assisted),14,5,TRUE,,Mavic Mini,TRUE,FALSE,,Smart,RC,TRUE,TRUE,FALSE,,,TRUE,,FALSE,FALSE,FALSE,FALSE,FALSE,FALSE,FALSE,FALSE,FALSE,FALSE,0,Follow Yaw,0,0,-58,302,FALSE,FALSE,FALSE,FALSE,FALSE,FALSE,,TRUE,Normal,,100,1024,1024,1024,1024,2,FALSE,FALSE,FALSE,FALSE,FALSE,0,FALSE,FALSE,FALSE,FALSE,38,7.25,775,2051,7.241,FALSE,3.626,3.624,0.002,FALSE,FALSE,NA,110.3,110.1,110.3,0,0,0,0,5,2295.5,573.89,,Idle,0,20,FALSE,5,TRUE,10,Go Home,FALSE,FALSE,FALSE,FALSE,FALSE,FALSE,FALSE,FALSE,FALSE,FALSE,FALSE,FALSE,6.974134248,79.91427099,1.1,139.6,328,TRUE,1,1,FALSE,FALSE,FALSE,FALSE,,TRUE,FALSE,FALSE,Course Lock,49.2,,16.4,Calm,29,,1.12.8,Mavic Mini,1SDCH7G0169R0K,1SFLH6Q0AB03DJ,1SRCH7F014TAHX,1U5X071EXP5ZJG,64.7,0.2,6.5,6.714622,3.35541,0,0,Mavic Mini,1SDCH7G0169R0K,1SFLH6Q0AB03DJ,1SRCH7F014TAHX,1U5X071EXP5ZJG,DJI Fly,,1.12.8,7EF899E1-F8EF-44A4-2160-097E9C2FA4EF,1SDCH7G0169R0K,,,,,,,,Flight mode changed to Manual Takeoff.,
2/21/2024,33:46.6,8m 58.4s,538.4,6.974133265,79.91426782,0,0,0.3,52,0.1,0,0,0,0,0,0,0,0,2.8,2.5,-69.6,290.4,,Manual Takeoff,Other,Takeoff (RC Assisted),14,5,TRUE,,Mavic Mini,TRUE,FALSE,,Smart,RC,TRUE,TRUE,FALSE,,,TRUE,,FALSE,FALSE,FALSE,FALSE,FALSE,FALSE,FALSE,FALSE,FALSE,FALSE,0,Follow Yaw,0,0,-58,302,FALSE,FALSE,FALSE,FALSE,FALSE,FALSE,,TRUE,Normal,,100,1024,1024,1024,1024,2,FALSE,FALSE,FALSE,FALSE,FALSE,0,FALSE,FALSE,FALSE,FALSE,38,7.228,775,2051,7.241,FALSE,3.622,3.606,0.016,FALSE,FALSE,NA,110.3,110.1,110.3,0,0,0,0,5,2295.5,573.89,,Idle,0,20,FALSE,5,TRUE,10,Go Home,FALSE,FALSE,FALSE,FALSE,FALSE,FALSE,FALSE,FALSE,FALSE,FALSE,FALSE,FALSE,6.974134248,79.91427099,1.2,139.6,328,TRUE,1,1,FALSE,FALSE,FALSE,FALSE,,TRUE,FALSE,FALSE,Course Lock,49.2,,16.4,Calm,29,,1.12.8,Mavic Mini,1SDCH7G0169R0K,1SFLH6Q0AB03DJ,1SRCH7F014TAHX,1U5X071EXP5ZJG,64.7,0.2,6.5,6.714622,3.35541,0,0,Mavic Mini,1SDCH7G0169R0K,1SFLH6Q0AB03DJ,1SRCH7F014TAHX,1U5X071EXP5ZJG,DJI Fly,,1.12.8,7EF899E1-F8EF-44A4-2160-097E9C2FA4EF,1SDCH7G0169R0K,,,,,,,,,
2/21/2024,33:46.7,8m 58.5s,538.5,6.974133205,79.91426766,0,0,0.3,52,0.2,0,0,0,0,0,0,0,0,2.8,2.5,-69.6,290.4,,Manual Takeoff,Other,Takeoff (RC Assisted),14,5,TRUE,,Mavic Mini,TRUE,FALSE,,Smart,RC,TRUE,TRUE,FALSE,,,TRUE,,FALSE,FALSE,FALSE,FALSE,FALSE,FALSE,FALSE,FALSE,FALSE,FALSE,0,Follow Yaw,0,0,-58,302,FALSE,FALSE,FALSE,FALSE,FALSE,FALSE,,TRUE,Normal,,100,1024,1024,1024,1024,2,FALSE,FALSE,FALSE,FALSE,FALSE,0,FALSE,FALSE,FALSE,FALSE,38,7.228,775,2051,7.241,FALSE,3.622,3.606,0.016,FALSE,FALSE,NA,110.3,110.1,110.3,0,0,0,0,5,2295.5,573.89,,Idle,0,20,FALSE,5,TRUE,10,Go Home,FALSE,FALSE,FALSE,FALSE,FALSE,FALSE,FALSE,FALSE,FALSE,FALSE,FALSE,FALSE,6.974134248,79.91427099,1.2,139.6,328,TRUE,1,1,FALSE,FALSE,FALSE,FALSE,,TRUE,FALSE,FALSE,Course Lock,49.2,,16.4,Calm,29,,1.12.8,Mavic Mini,1SDCH7G0169R0K,1SFLH6Q0AB03DJ,1SRCH7F014TAHX,1U5X071EXP5ZJG,64.7,0.2,6.5,6.714622,3.35541,0,0,Mavic Mini,1SDCH7G0169R0K,1SFLH6Q0AB03DJ,1SRCH7F014TAHX,1U5X071EXP5ZJG,DJI Fly,,1.12.8,7EF899E1-F8EF-44A4-2160-097E9C2FA4EF,1SDCH7G0169R0K,,,,,,,,,
2/21/2024,33:46.8,8m 58.6s,538.6,6.974133157,79.91426761,0,0,0.3,52,0.2,0,0,0,0,0,0,0,0,2.8,2.5,-69.6,290.4,,Manual Takeoff,Other,Takeoff (RC Assisted),14,5,TRUE,,Mavic Mini,TRUE,FALSE,,Smart,RC,TRUE,TRUE,FALSE,,,TRUE,,FALSE,FALSE,FALSE,FALSE,FALSE,FALSE,FALSE,FALSE,FALSE,FALSE,0,Follow Yaw,0,0,-58,302,FALSE,FALSE,FALSE,FALSE,FALSE,FALSE,,TRUE,Normal,,100,1024,1024,1024,1024,2,FALSE,FALSE,FALSE,FALSE,FALSE,0,FALSE,FALSE,FALSE,FALSE,38,7.228,775,2051,7.241,FALSE,3.622,3.606,0.016,FALSE,FALSE,NA,110.3,110.1,110.3,0,0,0,0,5,2295.5,573.89,,Idle,0,20,FALSE,5,TRUE,10,Go Home,FALSE,FALSE,FALSE,FALSE,FALSE,FALSE,FALSE,FALSE,FALSE,FALSE,FALSE,FALSE,6.974134248,79.91427099,1.2,139.6,328,TRUE,1,1,FALSE,FALSE,FALSE,FALSE,,TRUE,FALSE,FALSE,Course Lock,49.2,,16.4,Calm,29,,1.12.8,Mavic Mini,1SDCH7G0169R0K,1SFLH6Q0AB03DJ,1SRCH7F014TAHX,1U5X071EXP5ZJG,64.7,0.2,6.5,6.714622,3.35541,0,0,Mavic Mini,1SDCH7G0169R0K,1SFLH6Q0AB03DJ,1SRCH7F014TAHX,1U5X071EXP5ZJG,DJI Fly,,1.12.8,7EF899E1-F8EF-44A4-2160-097E9C2FA4EF,1SDCH7G0169R0K,,,,,,,,,
2/21/2024,33:46.9,8m 58.7s,538.7,6.974133105,79.91426756,0,0,0.3,52,0.2,0,0,0,0,0,0,0,0,2.8,2.4,-69.6,290.4,,Manual Takeoff,Other,Takeoff (RC Assisted),14,5,TRUE,,Mavic Mini,TRUE,FALSE,,Smart,RC,TRUE,TRUE,FALSE,,,TRUE,,FALSE,FALSE,FALSE,FALSE,FALSE,FALSE,FALSE,FALSE,FALSE,FALSE,0,Follow Yaw,0,0,-58.1,301.9,FALSE,FALSE,FALSE,FALSE,FALSE,FALSE,,TRUE,Normal,,100,1024,1024,1024,1024,2,FALSE,FALSE,FALSE,FALSE,FALSE,0,FALSE,FALSE,FALSE,FALSE,38,7.228,775,2051,7.241,FALSE,3.622,3.606,0.016,FALSE,FALSE,NA,110.3,110.1,110.3,0,0,0,0,5,2295.5,573.89,,Idle,0,20,FALSE,5,TRUE,10,Go Home,FALSE,FALSE,FALSE,FALSE,FALSE,FALSE,FALSE,FALSE,FALSE,FALSE,FALSE,FALSE,6.974134248,79.91427099,1.3,139.6,328,TRUE,1,1,FALSE,FALSE,FALSE,FALSE,,TRUE,FALSE,FALSE,Course Lock,49.2,,16.4,Calm,29,,1.12.8,Mavic Mini,1SDCH7G0169R0K,1SFLH6Q0AB03DJ,1SRCH7F014TAHX,1U5X071EXP5ZJG,64.7,0.2,6.5,6.714622,3.35541,0,0,Mavic Mini,1SDCH7G0169R0K,1SFLH6Q0AB03DJ,1SRCH7F014TAHX,1U5X071EXP5ZJG,DJI Fly,,1.12.8,7EF899E1-F8EF-44A4-2160-097E9C2FA4EF,1SDCH7G0169R0K,,,,,,,,,
2/21/2024,33:47.0,8m 58.8s,538.8,6.97413309,79.91426756,0,0,0.3,52,0.3,0,0,0,0,0,0,0,0,2.8,2.5,-69.6,290.4,,Manual Takeoff,Other,Takeoff (RC Assisted),14,5,TRUE,,Mavic Mini,TRUE,FALSE,,Smart,RC,TRUE,TRUE,FALSE,,,TRUE,,FALSE,FALSE,FALSE,FALSE,FALSE,FALSE,FALSE,FALSE,FALSE,FALSE,0,Follow Yaw,0,0,-58.1,301.9,FALSE,FALSE,FALSE,FALSE,FALSE,FALSE,,TRUE,Normal,,100,1024,1024,1024,1024,2,FALSE,FALSE,FALSE,FALSE,FALSE,0,FALSE,FALSE,FALSE,FALSE,38,7.228,775,2051,7.241,FALSE,3.622,3.606,0.016,FALSE,FALSE,NA,110.3,110.1,110.3,0,0,0,0,5,2295.5,573.89,,Idle,0,20,FALSE,5,TRUE,10,Go Home,FALSE,FALSE,FALSE,FALSE,FALSE,FALSE,FALSE,FALSE,FALSE,FALSE,FALSE,FALSE,6.974134248,79.91427099,1.3,139.6,328,TRUE,1,1,FALSE,FALSE,FALSE,FALSE,,TRUE,FALSE,FALSE,Course Lock,49.2,,16.4,Calm,29,,1.12.8,Mavic Mini,1SDCH7G0169R0K,1SFLH6Q0AB03DJ,1SRCH7F014TAHX,1U5X071EXP5ZJG,64.7,0.2,6.5,6.714622,3.35541,0,0,Mavic Mini,1SDCH7G0169R0K,1SFLH6Q0AB03DJ,1SRCH7F014TAHX,1U5X071EXP5ZJG,DJI Fly,,1.12.8,7EF899E1-F8EF-44A4-2160-097E9C2FA4EF,1SDCH7G0169R0K,,,,,,,,,
2/21/2024,33:47.1,8m 58.9s,538.9,6.974133063,79.91426756,0,0,0.3,52,0.3,0,0,0,0,0,0,0,0,2.8,2.5,-69.6,290.4,,Manual Takeoff,Other,Takeoff (RC Assisted),14,5,TRUE,,Mavic Mini,TRUE,FALSE,,Smart,RC,TRUE,TRUE,FALSE,,,TRUE,,FALSE,FALSE,FALSE,FALSE,FALSE,FALSE,FALSE,FALSE,FALSE,FALSE,0,Follow Yaw,0,0,-58.1,301.9,FALSE,FALSE,FALSE,FALSE,FALSE,FALSE,,TRUE,Normal,,100,1024,1024,1112,1024,2,FALSE,FALSE,FALSE,FALSE,FALSE,0,FALSE,FALSE,FALSE,FALSE,38,7.228,775,2051,7.241,FALSE,3.622,3.606,0.016,FALSE,FALSE,NA,110.3,110.1,110.3,0,0,0,0,5,2295.5,573.89,,Idle,0,20,FALSE,5,TRUE,10,Go Home,FALSE,FALSE,FALSE,FALSE,FALSE,FALSE,FALSE,FALSE,FALSE,FALSE,FALSE,FALSE,6.974134248,79.91427099,1.3,139.6,328,TRUE,1,1,FALSE,FALSE,FALSE,FALSE,,TRUE,FALSE,FALSE,Course Lock,49.2,,16.4,Calm,29,,1.12.8,Mavic Mini,1SDCH7G0169R0K,1SFLH6Q0AB03DJ,1SRCH7F014TAHX,1U5X071EXP5ZJG,64.7,0.2,6.5,6.714622,3.35541,0,0,Mavic Mini,1SDCH7G0169R0K,1SFLH6Q0AB03DJ,1SRCH7F014TAHX,1U5X071EXP5ZJG,DJI Fly,,1.12.8,7EF899E1-F8EF-44A4-2160-097E9C2FA4EF,1SDCH7G0169R0K,,,,,,,,,
2/21/2024,33:47.2,8m 59.0s,539,6.974133022,79.91426753,0,0,0.3,52,0.3,0,0,0,0,0,0,0,0,2.8,2.4,-69.6,290.4,,Manual Takeoff,Other,Takeoff (RC Assisted),14,5,TRUE,,Mavic Mini,TRUE,FALSE,,Smart,RC,TRUE,TRUE,FALSE,,,TRUE,,FALSE,FALSE,FALSE,FALSE,FALSE,FALSE,FALSE,FALSE,FALSE,FALSE,0,Follow Yaw,0,0,-58.1,301.9,FALSE,FALSE,FALSE,FALSE,FALSE,FALSE,,TRUE,Normal,,100,1024,1024,1271,1024,2,FALSE,FALSE,FALSE,FALSE,FALSE,0,FALSE,FALSE,FALSE,FALSE,38,7.228,775,2051,7.241,FALSE,3.622,3.606,0.016,FALSE,FALSE,NA,110.3,110.1,110.3,0,0,0,0,5,2295.5,573.89,,Idle,0,20,FALSE,5,TRUE,10,Go Home,FALSE,FALSE,FALSE,FALSE,FALSE,FALSE,FALSE,FALSE,FALSE,FALSE,FALSE,FALSE,6.974134248,79.91427099,1.3,139.6,328,TRUE,1,1,FALSE,FALSE,FALSE,FALSE,,TRUE,FALSE,FALSE,Course Lock,49.2,,16.4,Calm,29,,1.12.8,Mavic Mini,1SDCH7G0169R0K,1SFLH6Q0AB03DJ,1SRCH7F014TAHX,1U5X071EXP5ZJG,64.7,0.2,6.5,6.714622,3.35541,0,0,Mavic Mini,1SDCH7G0169R0K,1SFLH6Q0AB03DJ,1SRCH7F014TAHX,1U5X071EXP5ZJG,DJI Fly,,1.12.8,7EF899E1-F8EF-44A4-2160-097E9C2FA4EF,1SDCH7G0169R0K,,,,,,,,,
2/21/2024,33:47.3,8m 59.1s,539.1,6.974132975,79.91426751,0,0,0.3,52,0.3,0,0,0,0,0,0,0,0,2.8,2.4,-69.6,290.4,,Manual Takeoff,Other,Takeoff (RC Assisted),13,5,TRUE,,Mavic Mini,TRUE,FALSE,,Smart,RC,TRUE,TRUE,FALSE,,,TRUE,,FALSE,FALSE,FALSE,FALSE,FALSE,FALSE,FALSE,FALSE,FALSE,FALSE,0,Follow Yaw,0,0,-58.1,301.9,FALSE,FALSE,FALSE,FALSE,FALSE,FALSE,,TRUE,Normal,,100,1024,1024,1314,1024,2,FALSE,FALSE,FALSE,FALSE,FALSE,0,FALSE,FALSE,FALSE,FALSE,38,7.228,775,2051,7.23,FALSE,3.622,3.606,0.016,FALSE,FALSE,NA,110.3,110.1,110.3,0,0,0,0,5,2165.5,541.38,,Idle,0,20,FALSE,5,TRUE,10,Go Home,FALSE,FALSE,FALSE,FALSE,FALSE,FALSE,FALSE,FALSE,FALSE,FALSE,FALSE,FALSE,6.974134248,79.91427099,1.3,139.6,328,TRUE,1,1,FALSE,FALSE,FALSE,FALSE,,TRUE,FALSE,FALSE,Course Lock,49.2,,16.4,Calm,29,,1.12.8,Mavic Mini,1SDCH7G0169R0K,1SFLH6Q0AB03DJ,1SRCH7F014TAHX,1U5X071EXP5ZJG,64.7,0.2,6.5,6.714622,3.35541,0,0,Mavic Mini,1SDCH7G0169R0K,1SFLH6Q0AB03DJ,1SRCH7F014TAHX,1U5X071EXP5ZJG,DJI Fly,,1.12.8,7EF899E1-F8EF-44A4-2160-097E9C2FA4EF,1SDCH7G0169R0K,,,,,6.974144471,79.91426689,10,,
2/21/2024,33:47.4,8m 59.2s,539.2,6.974132963,79.91426751,0,0,0.3,52,0.3,0,0,0,0,0,0,0,0,2.5,1.6,-69.7,290.3,,Manual Takeoff,Other,Takeoff (RC Assisted),13,5,TRUE,,Mavic Mini,TRUE,FALSE,,Smart,RC,TRUE,TRUE,FALSE,,,TRUE,,FALSE,FALSE,FALSE,FALSE,FALSE,FALSE,FALSE,FALSE,FALSE,FALSE,0,Follow Yaw,0,0,-58.1,301.9,FALSE,FALSE,FALSE,FALSE,FALSE,FALSE,,TRUE,Normal,,100,1024,1024,1362,1024,2,FALSE,FALSE,FALSE,FALSE,FALSE,0,FALSE,FALSE,FALSE,FALSE,38,7.228,775,2051,7.23,FALSE,3.622,3.606,0.016,FALSE,FALSE,NA,110.3,110.1,110.3,0,0,0,0,5,2165.5,541.38,,Idle,0,20,FALSE,5,TRUE,10,Go Home,FALSE,FALSE,FALSE,FALSE,FALSE,FALSE,FALSE,FALSE,FALSE,FALSE,FALSE,FALSE,6.974134248,79.91427099,1.3,139.6,328,TRUE,1,1,FALSE,FALSE,FALSE,FALSE,,TRUE,FALSE,FALSE,Course Lock,49.2,,16.4,Calm,29,,1.12.8,Mavic Mini,1SDCH7G0169R0K,1SFLH6Q0AB03DJ,1SRCH7F014TAHX,1U5X071EXP5ZJG,64.7,0.2,6.5,6.714622,3.35541,0,0,Mavic Mini,1SDCH7G0169R0K,1SFLH6Q0AB03DJ,1SRCH7F014TAHX,1U5X071EXP5ZJG,DJI Fly,,1.12.8,7EF899E1-F8EF-44A4-2160-097E9C2FA4EF,1SDCH7G0169R0K,,,,,6.974144471,79.91426689,10,,
2/21/2024,33:47.5,8m 59.3s,539.3,6.974132951,79.91426752,0,0,0.3,52,0.3,0,0,0,0,0,0,0,0,2.3,1.1,-69.7,290.3,,Manual Takeoff,Other,Takeoff (RC Assisted),13,5,TRUE,,Mavic Mini,TRUE,FALSE,,Smart,RC,TRUE,TRUE,FALSE,,,TRUE,,FALSE,FALSE,FALSE,FALSE,FALSE,FALSE,FALSE,FALSE,FALSE,FALSE,0,Follow Yaw,0,0,-58.1,301.9,FALSE,FALSE,FALSE,FALSE,FALSE,FALSE,,TRUE,Normal,,100,1024,1024,1348,1024,2,FALSE,FALSE,FALSE,FALSE,FALSE,0,FALSE,FALSE,FALSE,FALSE,38,7.228,775,2051,7.23,FALSE,3.622,3.606,0.016,FALSE,FALSE,NA,110.3,110.1,110.3,0,0,0,0,5,2165.5,541.38,,Idle,0,20,FALSE,5,TRUE,10,Go Home,FALSE,FALSE,FALSE,FALSE,FALSE,FALSE,FALSE,FALSE,FALSE,FALSE,FALSE,FALSE,6.974134248,79.91427099,1.3,139.6,328,TRUE,1,1,FALSE,FALSE,FALSE,FALSE,,TRUE,FALSE,FALSE,Course Lock,49.2,,16.4,Calm,29,,1.12.8,Mavic Mini,1SDCH7G0169R0K,1SFLH6Q0AB03DJ,1SRCH7F014TAHX,1U5X071EXP5ZJG,64.7,0.2,6.5,6.714622,3.35541,0,0,Mavic Mini,1SDCH7G0169R0K,1SFLH6Q0AB03DJ,1SRCH7F014TAHX,1U5X071EXP5ZJG,DJI Fly,,1.12.8,7EF899E1-F8EF-44A4-2160-097E9C2FA4EF,1SDCH7G0169R0K,,,,,6.974144471,79.91426689,10,,
2/21/2024,33:47.6,8m 59.4s,539.4,6.974132904,79.91426749,0,0,0.3,52,0.3,0,0,0,0,0,0,0,0,2.3,0.7,-69.7,290.3,,Manual Takeoff,Other,Takeoff (RC Assisted),13,5,TRUE,,Mavic Mini,TRUE,FALSE,,Smart,RC,TRUE,TRUE,FALSE,,,TRUE,,FALSE,FALSE,FALSE,FALSE,FALSE,FALSE,FALSE,FALSE,FALSE,FALSE,0,Follow Yaw,0,0,-58.1,301.9,FALSE,FALSE,FALSE,FALSE,FALSE,FALSE,,TRUE,Normal,,100,1024,1024,1348,1024,2,FALSE,FALSE,FALSE,FALSE,FALSE,0,FALSE,FALSE,FALSE,FALSE,38,7.228,775,2051,7.23,FALSE,3.622,3.606,0.016,FALSE,FALSE,NA,110.3,110.1,110.3,0,0,0,0,5,2165.5,541.38,,Idle,0,20,FALSE,5,TRUE,10,Go Home,FALSE,FALSE,FALSE,FALSE,FALSE,FALSE,FALSE,FALSE,FALSE,FALSE,FALSE,FALSE,6.974134248,79.91427099,1.3,139.6,328,TRUE,1,1,FALSE,FALSE,FALSE,FALSE,,TRUE,FALSE,FALSE,Course Lock,49.2,,16.4,Calm,29,,1.12.8,Mavic Mini,1SDCH7G0169R0K,1SFLH6Q0AB03DJ,1SRCH7F014TAHX,1U5X071EXP5ZJG,64.7,0.2,6.5,6.714622,3.35541,0,0,Mavic Mini,1SDCH7G0169R0K,1SFLH6Q0AB03DJ,1SRCH7F014TAHX,1U5X071EXP5ZJG,DJI Fly,,1.12.8,7EF899E1-F8EF-44A4-2160-097E9C2FA4EF,1SDCH7G0169R0K,,,,,6.974144471,79.91426689,10,,
2/21/2024,33:47.6,8m 59.5s,539.5,6.974132852,79.91426745,0,0,0.3,52,0.4,0,0,0,0,0,0,0,0,2.3,0.5,-70.1,289.9,,Manual Takeoff,Other,Takeoff (RC Assisted),14,5,TRUE,,Mavic Mini,TRUE,FALSE,,Smart,RC,TRUE,TRUE,FALSE,,,TRUE,,FALSE,FALSE,FALSE,FALSE,FALSE,FALSE,FALSE,FALSE,FALSE,FALSE,0,Follow Yaw,0,0,-58.1,301.9,FALSE,FALSE,FALSE,FALSE,FALSE,FALSE,,TRUE,Normal,,100,1024,1024,1354,1024,2,FALSE,FALSE,FALSE,FALSE,FALSE,0,FALSE,FALSE,FALSE,FALSE,38,7.208,775,2051,7.23,FALSE,3.606,3.602,0.016,FALSE,FALSE,NA,110.3,110.1,110.3,0,0,0,0,5,2165.5,541.38,,Idle,0,20,FALSE,5,TRUE,10,Go Home,FALSE,FALSE,FALSE,FALSE,FALSE,FALSE,FALSE,FALSE,FALSE,FALSE,FALSE,FALSE,6.974134248,79.91427099,1.3,139.6,328,TRUE,1,1,FALSE,FALSE,FALSE,FALSE,,TRUE,FALSE,FALSE,Course Lock,49.2,,16.4,Calm,29,,1.12.8,Mavic Mini,1SDCH7G0169R0K,1SFLH6Q0AB03DJ,1SRCH7F014TAHX,1U5X071EXP5ZJG,64.7,0.2,6.5,6.714622,3.35541,0,0,Mavic Mini,1SDCH7G0169R0K,1SFLH6Q0AB03DJ,1SRCH7F014TAHX,1U5X071EXP5ZJG,DJI Fly,,1.12.8,7EF899E1-F8EF-44A4-2160-097E9C2FA4EF,1SDCH7G0169R0K,,,,,6.974144471,79.91426689,10,,
2/21/2024,33:47.7,8m 59.6s,539.6,6.97413284,79.91426745,0,0,0.3,52,0.4,0,0,0,0,0,0,0,0,2.2,0.2,-70.5,289.5,,Manual Takeoff,Other,Takeoff (RC Assisted),14,5,TRUE,,Mavic Mini,TRUE,FALSE,,Smart,RC,TRUE,TRUE,FALSE,,,TRUE,,FALSE,FALSE,FALSE,FALSE,FALSE,FALSE,FALSE,FALSE,FALSE,FALSE,0,Follow Yaw,0,0,-58.4,301.6,FALSE,FALSE,FALSE,FALSE,FALSE,FALSE,,TRUE,Normal,,100,1024,1024,1354,1024,2,FALSE,FALSE,FALSE,FALSE,FALSE,0,FALSE,FALSE,FALSE,FALSE,38,7.208,775,2051,7.23,FALSE,3.606,3.602,0.016,FALSE,FALSE,NA,110.3,110.1,110.3,0,0,0,0,5,2165.5,541.38,,Idle,0,20,FALSE,5,TRUE,10,Go Home,FALSE,FALSE,FALSE,FALSE,FALSE,FALSE,FALSE,FALSE,FALSE,FALSE,FALSE,FALSE,6.974134248,79.91427099,1.3,139.6,328,TRUE,1,1,FALSE,FALSE,FALSE,FALSE,,TRUE,FALSE,FALSE,Course Lock,49.2,,16.4,Calm,29,,1.12.8,Mavic Mini,1SDCH7G0169R0K,1SFLH6Q0AB03DJ,1SRCH7F014TAHX,1U5X071EXP5ZJG,64.7,0.2,6.5,6.714622,3.35541,0,0,Mavic Mini,1SDCH7G0169R0K,1SFLH6Q0AB03DJ,1SRCH7F014TAHX,1U5X071EXP5ZJG,DJI Fly,,1.12.8,7EF899E1-F8EF-44A4-2160-097E9C2FA4EF,1SDCH7G0169R0K,,,,,6.974144471,79.91426689,10,,
2/21/2024,33:47.8,8m 59.7s,539.7,6.974132825,79.91426746,0,0,0.3,52,0.4,0,0,0,0,0,0,0,0,2.2,0,-71.1,288.9,,Manual Takeoff,Other,Takeoff (RC Assisted),14,5,TRUE,,Mavic Mini,TRUE,FALSE,,Smart,RC,TRUE,TRUE,FALSE,,,TRUE,,FALSE,FALSE,FALSE,FALSE,FALSE,FALSE,FALSE,FALSE,FALSE,FALSE,0,Follow Yaw,0,0,-58.8,301.2,FALSE,FALSE,FALSE,FALSE,FALSE,FALSE,,TRUE,Normal,,100,1024,1024,1344,1024,2,FALSE,FALSE,FALSE,FALSE,FALSE,0,FALSE,FALSE,FALSE,FALSE,38,7.208,775,2051,7.23,FALSE,3.606,3.602,0.016,FALSE,FALSE,NA,110.3,110.1,110.3,0,0,0,0,5,2165.5,541.38,,Idle,0,20,FALSE,5,TRUE,10,Go Home,FALSE,FALSE,FALSE,FALSE,FALSE,FALSE,FALSE,FALSE,FALSE,FALSE,FALSE,FALSE,6.974134248,79.91427099,1.3,139.6,328,TRUE,1,1,FALSE,FALSE,FALSE,FALSE,,TRUE,FALSE,FALSE,Course Lock,49.2,,16.4,Calm,29,,1.12.8,Mavic Mini,1SDCH7G0169R0K,1SFLH6Q0AB03DJ,1SRCH7F014TAHX,1U5X071EXP5ZJG,64.7,0.2,6.5,6.714622,3.35541,0,0,Mavic Mini,1SDCH7G0169R0K,1SFLH6Q0AB03DJ,1SRCH7F014TAHX,1U5X071EXP5ZJG,DJI Fly,,1.12.8,7EF899E1-F8EF-44A4-2160-097E9C2FA4EF,1SDCH7G0169R0K,,,,,6.974144471,79.91426689,10,,
2/21/2024,33:48.0,8m 59.8s,539.8,6.974132896,79.91426734,0,0,0.3,52,0.4,0,0,0,0,0,0,0,0,0.9,-0.3,-71.7,288.3,,Manual Takeoff,Other,Takeoff (RC Assisted),14,5,TRUE,,Mavic Mini,TRUE,FALSE,,Smart,RC,TRUE,TRUE,FALSE,,,TRUE,,FALSE,FALSE,FALSE,FALSE,FALSE,FALSE,FALSE,FALSE,FALSE,FALSE,0,Follow Yaw,0,0,-59.4,300.6,FALSE,FALSE,FALSE,FALSE,FALSE,FALSE,,TRUE,Normal,,100,1024,1024,1334,1024,2,FALSE,FALSE,FALSE,FALSE,FALSE,0,FALSE,FALSE,FALSE,FALSE,38,7.208,775,2051,7.23,FALSE,3.606,3.602,0.016,FALSE,FALSE,NA,110.3,110.1,110.3,0,0,0,0,5,2165.5,541.38,,Idle,0,20,FALSE,5,TRUE,10,Go Home,FALSE,FALSE,FALSE,FALSE,FALSE,FALSE,FALSE,FALSE,FALSE,FALSE,FALSE,FALSE,6.974134248,79.91427099,1.4,139.6,328,TRUE,1,1,FALSE,FALSE,FALSE,FALSE,,TRUE,FALSE,FALSE,Course Lock,49.2,,16.4,Calm,29,,1.12.8,Mavic Mini,1SDCH7G0169R0K,1SFLH6Q0AB03DJ,1SRCH7F014TAHX,1U5X071EXP5ZJG,64.7,0.2,6.5,6.714622,3.35541,0,0,Mavic Mini,1SDCH7G0169R0K,1SFLH6Q0AB03DJ,1SRCH7F014TAHX,1U5X071EXP5ZJG,DJI Fly,,1.12.8,7EF899E1-F8EF-44A4-2160-097E9C2FA4EF,1SDCH7G0169R0K,,,,,6.974144471,79.91426689,10,,
2/21/2024,33:48.0,8m 59.9s,539.9,6.974132913,79.9142673,0,0,0.3,52,0.4,0,0,0,0,0,0,0,0,-0.4,-0.6,-72.3,287.7,,Manual Takeoff,Other,Takeoff (RC Assisted),13,5,TRUE,,Mavic Mini,TRUE,FALSE,,Smart,RC,TRUE,TRUE,FALSE,,,TRUE,,FALSE,FALSE,FALSE,FALSE,FALSE,FALSE,FALSE,FALSE,FALSE,FALSE,0,Follow Yaw,0,0,-59.9,300.1,FALSE,FALSE,FALSE,FALSE,FALSE,FALSE,,TRUE,Normal,,100,1024,1024,1306,1024,2,FALSE,FALSE,FALSE,FALSE,FALSE,0,FALSE,FALSE,FALSE,FALSE,38,7.208,775,2051,7.23,FALSE,3.606,3.602,0.016,FALSE,FALSE,NA,110.3,110.1,110.3,0,0,0,0,5,2165.5,541.38,,Idle,0,20,FALSE,5,TRUE,10,Go Home,FALSE,FALSE,FALSE,FALSE,FALSE,FALSE,FALSE,FALSE,FALSE,FALSE,FALSE,FALSE,6.974134248,79.91427099,1.4,139.6,328,TRUE,1,1,FALSE,FALSE,FALSE,FALSE,,TRUE,FALSE,FALSE,Course Lock,49.2,,16.4,Calm,29,,1.12.8,Mavic Mini,1SDCH7G0169R0K,1SFLH6Q0AB03DJ,1SRCH7F014TAHX,1U5X071EXP5ZJG,64.7,0.2,6.5,6.714622,3.35541,0,0,Mavic Mini,1SDCH7G0169R0K,1SFLH6Q0AB03DJ,1SRCH7F014TAHX,1U5X071EXP5ZJG,DJI Fly,,1.12.8,7EF899E1-F8EF-44A4-2160-097E9C2FA4EF,1SDCH7G0169R0K,,,,,6.974144471,79.91426689,10,,
2/21/2024,33:48.2,9m 0.0s,540,6.974132954,79.91426727,0,0,0.3,52,0.4,0,0,0,0,0,0,-0.223694,0,-0.7,-0.6,-72.8,287.2,,Manual Takeoff,Other,Takeoff (RC Assisted),13,5,TRUE,,Mavic Mini,TRUE,FALSE,,Smart,RC,TRUE,TRUE,FALSE,,,TRUE,,FALSE,FALSE,FALSE,FALSE,FALSE,FALSE,FALSE,FALSE,FALSE,FALSE,0,Follow Yaw,0,0,-60.4,299.6,FALSE,FALSE,FALSE,FALSE,FALSE,FALSE,,TRUE,Normal,,100,1024,1024,1308,1024,2,FALSE,FALSE,FALSE,FALSE,FALSE,0,FALSE,FALSE,FALSE,FALSE,38,7.208,775,2051,7.23,FALSE,3.606,3.602,0.016,FALSE,FALSE,NA,110.3,110.1,110.3,0,0,0,0,5,2165.5,541.38,,Idle,0,20,FALSE,5,TRUE,10,Go Home,FALSE,FALSE,FALSE,FALSE,FALSE,FALSE,FALSE,FALSE,FALSE,FALSE,FALSE,FALSE,6.974134248,79.91427099,1.4,139.6,328,TRUE,1,1,FALSE,FALSE,FALSE,FALSE,,TRUE,FALSE,FALSE,Course Lock,49.2,,16.4,Calm,29,,1.12.8,Mavic Mini,1SDCH7G0169R0K,1SFLH6Q0AB03DJ,1SRCH7F014TAHX,1U5X071EXP5ZJG,64.7,0.2,6.5,6.714622,3.35541,0,0,Mavic Mini,1SDCH7G0169R0K,1SFLH6Q0AB03DJ,1SRCH7F014TAHX,1U5X071EXP5ZJG,DJI Fly,,1.12.8,7EF899E1-F8EF-44A4-2160-097E9C2FA4EF,1SDCH7G0169R0K,,,,,6.974144471,79.91426689,10,,
2/21/2024,33:48.3,9m 0.1s,540.1,6.974133014,79.91426722,0,0,0.3,52,0.5,0,0,0,0,0,0,-0.447388,0,-0.2,-0.5,-73.1,286.9,,Tripod,Other,,13,5,TRUE,,Mavic Mini,TRUE,FALSE,,Smart,RC,FALSE,TRUE,FALSE,,,TRUE,,FALSE,FALSE,FALSE,FALSE,FALSE,FALSE,FALSE,FALSE,FALSE,FALSE,0,Follow Yaw,0,0,-60.7,299.3,FALSE,FALSE,FALSE,FALSE,FALSE,FALSE,,TRUE,Normal,,100,1024,1024,1309,1024,2,FALSE,FALSE,FALSE,FALSE,FALSE,0,FALSE,FALSE,FALSE,FALSE,38,7.208,775,2051,7.178,FALSE,3.606,3.602,0.016,FALSE,FALSE,NA,110.3,110.1,110.3,0,0,4,0,5,2276.3,569.08,,Idle,0,20,FALSE,5,TRUE,10,Go Home,FALSE,FALSE,FALSE,FALSE,FALSE,FALSE,FALSE,FALSE,FALSE,FALSE,FALSE,FALSE,6.974132988,79.91426724,0,139.6,328,TRUE,1,1,FALSE,FALSE,FALSE,FALSE,,TRUE,FALSE,FALSE,Course Lock,49.2,,16.4,Calm,29,,1.12.8,Mavic Mini,1SDCH7G0169R0K,1SFLH6Q0AB03DJ,1SRCH7F014TAHX,1U5X071EXP5ZJG,64.7,0.2,6.5,6.714622,3.35541,0,0,Mavic Mini,1SDCH7G0169R0K,1SFLH6Q0AB03DJ,1SRCH7F014TAHX,1U5X071EXP5ZJG,DJI Fly,,1.12.8,7EF899E1-F8EF-44A4-2160-097E9C2FA4EF,1SDCH7G0169R0K,,,,,6.974144471,79.91426689,10,Home Point Updated.; Flight mode changed to Tripod.,
2/21/2024,33:48.4,9m 0.2s,540.2,6.974133023,79.91426708,0,0,0.6,52,0.5,0,0,0,0,0,0,-0.671082,0,1,-0.8,-73,287,,Tripod,Other,,13,5,TRUE,,Mavic Mini,TRUE,FALSE,,Smart,RC,FALSE,TRUE,FALSE,,,TRUE,,FALSE,FALSE,FALSE,FALSE,FALSE,FALSE,FALSE,FALSE,FALSE,FALSE,0,Follow Yaw,0,0,-60.7,299.3,FALSE,FALSE,FALSE,FALSE,FALSE,FALSE,,TRUE,Normal,,100,1024,1024,1308,1024,2,FALSE,FALSE,FALSE,FALSE,FALSE,0,FALSE,FALSE,FALSE,FALSE,38,7.208,775,2051,7.178,FALSE,3.606,3.602,0.016,FALSE,FALSE,NA,110.3,110.1,110.3,0,0,4,0,5,2276.3,569.08,,Idle,0,20,FALSE,5,TRUE,10,Go Home,FALSE,FALSE,FALSE,FALSE,FALSE,FALSE,FALSE,FALSE,FALSE,FALSE,FALSE,FALSE,6.974132988,79.91426724,0,139.6,328,TRUE,1,1,FALSE,FALSE,FALSE,FALSE,,TRUE,FALSE,FALSE,Course Lock,49.2,,16.4,Calm,29,,1.12.8,Mavic Mini,1SDCH7G0169R0K,1SFLH6Q0AB03DJ,1SRCH7F014TAHX,1U5X071EXP5ZJG,64.7,0.2,6.5,6.714622,3.35541,0,0,Mavic Mini,1SDCH7G0169R0K,1SFLH6Q0AB03DJ,1SRCH7F014TAHX,1U5X071EXP5ZJG,DJI Fly,,1.12.8,7EF899E1-F8EF-44A4-2160-097E9C2FA4EF,1SDCH7G0169R0K,,,,,6.974144471,79.91426689,10,,
2/21/2024,33:48.5,9m 0.3s,540.3,6.974133043,79.91426696,0.3,0.3,0.6,52,0.6,0,0,0,0,0,0,-0.894776,0,1.5,-1,-73,287,,Tripod,Other,,14,5,TRUE,,Mavic Mini,TRUE,FALSE,,Smart,RC,FALSE,TRUE,FALSE,,,TRUE,,FALSE,FALSE,FALSE,FALSE,FALSE,FALSE,FALSE,FALSE,FALSE,FALSE,0,Follow Yaw,0,0,-60.7,299.3,FALSE,FALSE,FALSE,FALSE,FALSE,FALSE,,TRUE,Normal,,100,1024,1024,1305,1024,2,FALSE,FALSE,FALSE,FALSE,FALSE,0,FALSE,FALSE,FALSE,FALSE,38,7.208,775,2051,7.178,FALSE,3.606,3.602,0.016,FALSE,FALSE,NA,110.3,110.1,110.3,0,0,4,0,5,2276.3,569.08,,Idle,0,20,FALSE,5,TRUE,10,Go Home,FALSE,FALSE,FALSE,FALSE,FALSE,FALSE,FALSE,FALSE,FALSE,FALSE,FALSE,FALSE,6.974132988,79.91426724,0.1,139.6,328,TRUE,1,1,FALSE,FALSE,FALSE,FALSE,,TRUE,FALSE,FALSE,Course Lock,49.2,,16.4,Calm,29,,1.12.8,Mavic Mini,1SDCH7G0169R0K,1SFLH6Q0AB03DJ,1SRCH7F014TAHX,1U5X071EXP5ZJG,64.7,0.2,6.5,6.714622,3.35541,0,0,Mavic Mini,1SDCH7G0169R0K,1SFLH6Q0AB03DJ,1SRCH7F014TAHX,1U5X071EXP5ZJG,DJI Fly,,1.12.8,7EF899E1-F8EF-44A4-2160-097E9C2FA4EF,1SDCH7G0169R0K,,,,,6.974144471,79.91426689,10,,
2/21/2024,33:48.6,9m 0.4s,540.4,6.974133131,79.91426683,0.3,0.3,0.6,52,0.6,0,0,0,0,0,0,-1.11847,0,1.7,-0.7,-72.9,287.1,,Tripod,Other,,14,5,TRUE,,Mavic Mini,TRUE,FALSE,,Smart,RC,FALSE,TRUE,FALSE,,,TRUE,,FALSE,FALSE,FALSE,FALSE,FALSE,FALSE,FALSE,FALSE,FALSE,FALSE,0,Follow Yaw,0,0,-60.7,299.3,FALSE,FALSE,FALSE,FALSE,FALSE,FALSE,,TRUE,Normal,,100,1024,1024,1301,1024,2,FALSE,FALSE,FALSE,FALSE,FALSE,0,FALSE,FALSE,FALSE,FALSE,38,7.208,775,2051,7.178,FALSE,3.606,3.602,0.016,FALSE,FALSE,NA,110.3,110.1,110.3,0,0,4,0,5,2276.3,569.08,,Idle,0,20,FALSE,5,TRUE,10,Go Home,FALSE,FALSE,FALSE,FALSE,FALSE,FALSE,FALSE,FALSE,FALSE,FALSE,FALSE,FALSE,6.974132988,79.91426724,0.1,139.6,328,TRUE,1,1,FALSE,FALSE,FALSE,FALSE,,TRUE,FALSE,FALSE,Course Lock,49.2,,16.4,Calm,29,,1.12.8,Mavic Mini,1SDCH7G0169R0K,1SFLH6Q0AB03DJ,1SRCH7F014TAHX,1U5X071EXP5ZJG,64.7,0.2,6.5,6.714622,3.35541,0,0,Mavic Mini,1SDCH7G0169R0K,1SFLH6Q0AB03DJ,1SRCH7F014TAHX,1U5X071EXP5ZJG,DJI Fly,,1.12.8,7EF899E1-F8EF-44A4-2160-097E9C2FA4EF,1SDCH7G0169R0K,,,,,6.974144471,79.91426689,10,,
2/21/2024,33:48.7,9m 0.5s,540.5,6.974133228,79.9142667,0.6,0.6,0.9,53,0.7,0,0,0,0,0,0,-1.342164,0,1.5,-0.5,-72.9,287.1,,Tripod,Other,,14,5,TRUE,,Mavic Mini,TRUE,FALSE,,Smart,RC,FALSE,TRUE,FALSE,,,TRUE,,FALSE,FALSE,FALSE,FALSE,FALSE,FALSE,FALSE,FALSE,FALSE,FALSE,0,Follow Yaw,0,0,-60.7,299.3,FALSE,FALSE,FALSE,FALSE,FALSE,FALSE,,TRUE,Normal,,100,1024,1024,1301,1024,2,FALSE,FALSE,FALSE,FALSE,FALSE,0,FALSE,FALSE,FALSE,FALSE,38,7.208,775,2051,7.178,FALSE,3.606,3.602,0.016,FALSE,FALSE,NA,110.3,110.1,110.3,0,0,4,0,5,2276.3,569.08,,Idle,0,20,FALSE,5,TRUE,10,Go Home,FALSE,FALSE,FALSE,FALSE,FALSE,FALSE,FALSE,FALSE,FALSE,FALSE,FALSE,FALSE,6.974132988,79.91426724,0.2,139.6,328,TRUE,1,1,FALSE,FALSE,FALSE,FALSE,,TRUE,FALSE,FALSE,Course Lock,49.2,,16.4,Calm,29,,1.12.8,Mavic Mini,1SDCH7G0169R0K,1SFLH6Q0AB03DJ,1SRCH7F014TAHX,1U5X071EXP5ZJG,64.7,0.2,6.5,6.714622,3.35541,0,0,Mavic Mini,1SDCH7G0169R0K,1SFLH6Q0AB03DJ,1SRCH7F014TAHX,1U5X071EXP5ZJG,DJI Fly,,1.12.8,7EF899E1-F8EF-44A4-2160-097E9C2FA4EF,1SDCH7G0169R0K,,,,,6.974144471,79.91426689,10,Home Point updated. RTH altitude adjusted to 15 m! (Code: 120852).,
2/21/2024,33:48.8,9m 0.6s,540.6,6.974133463,79.91426644,0.6,0.6,0.9,53,0.8,0,0,0,0,0,0,-1.342164,0,1.6,-1,-72.8,287.2,,Tripod,Other,,14,5,TRUE,,Mavic Mini,TRUE,FALSE,,Smart,RC,FALSE,TRUE,FALSE,,,TRUE,,FALSE,FALSE,FALSE,FALSE,FALSE,FALSE,FALSE,FALSE,FALSE,FALSE,0,Follow Yaw,0,0,-60.7,299.3,FALSE,FALSE,FALSE,FALSE,FALSE,FALSE,,TRUE,Normal,,100,1024,1024,1297,1024,2,FALSE,FALSE,FALSE,FALSE,FALSE,0,FALSE,FALSE,FALSE,FALSE,38,7.208,775,2051,7.178,FALSE,3.606,3.602,0.016,FALSE,FALSE,NA,110.3,110.1,110.3,0,0,4,0,5,2276.3,569.08,,Idle,0,20,FALSE,5,TRUE,10,Go Home,FALSE,FALSE,FALSE,FALSE,FALSE,FALSE,FALSE,FALSE,FALSE,FALSE,FALSE,FALSE,6.974132988,79.91426724,0.3,139.6,328,TRUE,1,1,FALSE,FALSE,FALSE,FALSE,,TRUE,FALSE,FALSE,Course Lock,49.2,,16.4,Calm,29,,1.12.8,Mavic Mini,1SDCH7G0169R0K,1SFLH6Q0AB03DJ,1SRCH7F014TAHX,1U5X071EXP5ZJG,64.7,0.2,6.5,6.714622,3.35541,0,0,Mavic Mini,1SDCH7G0169R0K,1SFLH6Q0AB03DJ,1SRCH7F014TAHX,1U5X071EXP5ZJG,DJI Fly,,1.12.8,7EF899E1-F8EF-44A4-2160-097E9C2FA4EF,1SDCH7G0169R0K,,,,,6.974144471,79.91426689,10,,
2/21/2024,33:48.9,9m 0.7s,540.7,6.974133561,79.91426631,0.6,0.6,1.3,53,0.9,0,0,0,0,0,0,-1.11847,0,1.5,-1.1,-72.8,287.2,,Tripod,Other,,14,5,TRUE,,Mavic Mini,TRUE,FALSE,,Smart,RC,FALSE,TRUE,FALSE,,,TRUE,,FALSE,FALSE,FALSE,FALSE,FALSE,FALSE,FALSE,FALSE,FALSE,FALSE,0,Follow Yaw,0,0,-60.7,299.3,FALSE,FALSE,FALSE,FALSE,FALSE,FALSE,,TRUE,Normal,,100,1024,1024,1298,1024,2,FALSE,FALSE,FALSE,FALSE,FALSE,0,FALSE,FALSE,FALSE,FALSE,38,7.058,773,2051,7.178,FALSE,3.532,3.526,0.016,FALSE,FALSE,NA,110.3,110.1,110.3,0,0,4,0,5,2276.3,569.08,,Idle,0,20,FALSE,5,TRUE,10,Go Home,FALSE,FALSE,FALSE,FALSE,FALSE,FALSE,FALSE,FALSE,FALSE,FALSE,FALSE,FALSE,6.974132988,79.91426724,0.3,139.6,328,TRUE,1,1,FALSE,FALSE,FALSE,FALSE,,TRUE,FALSE,FALSE,Course Lock,49.2,,16.4,Calm,29,,1.12.8,Mavic Mini,1SDCH7G0169R0K,1SFLH6Q0AB03DJ,1SRCH7F014TAHX,1U5X071EXP5ZJG,64.7,0.2,6.5,6.714622,3.35541,0,0,Mavic Mini,1SDCH7G0169R0K,1SFLH6Q0AB03DJ,1SRCH7F014TAHX,1U5X071EXP5ZJG,DJI Fly,,1.12.8,7EF899E1-F8EF-44A4-2160-097E9C2FA4EF,1SDCH7G0169R0K,,,,,6.974144471,79.91426689,10,,
2/21/2024,33:49.0,9m 0.8s,540.8,6.974133626,79.91426622,0.9,0.9,1.3,53,0.9,0,0,0,0,0,0,-1.11847,0,1.3,-0.9,-72.7,287.3,,Tripod,Other,,14,5,TRUE,,Mavic Mini,TRUE,FALSE,,Smart,RC,FALSE,TRUE,FALSE,,,TRUE,,FALSE,FALSE,FALSE,FALSE,FALSE,FALSE,FALSE,FALSE,FALSE,FALSE,0,Follow Yaw,0,0,-60.7,299.3,FALSE,FALSE,FALSE,FALSE,FALSE,FALSE,,TRUE,Normal,,100,1024,1024,1293,1024,2,FALSE,FALSE,FALSE,FALSE,FALSE,0,FALSE,FALSE,FALSE,FALSE,38,7.058,773,2051,7.178,FALSE,3.532,3.526,0.016,FALSE,FALSE,NA,110.3,110.1,110.3,0,0,4,0,5,2276.3,569.08,,Idle,0,20,FALSE,5,TRUE,10,Go Home,FALSE,FALSE,FALSE,FALSE,FALSE,FALSE,FALSE,FALSE,FALSE,FALSE,FALSE,FALSE,6.974132988,79.91426724,0.4,139.6,328,TRUE,1,1,FALSE,FALSE,FALSE,FALSE,,TRUE,FALSE,FALSE,Course Lock,49.2,,16.4,Calm,29,,1.12.8,Mavic Mini,1SDCH7G0169R0K,1SFLH6Q0AB03DJ,1SRCH7F014TAHX,1U5X071EXP5ZJG,64.7,0.2,6.5,6.714622,3.35541,0,0,Mavic Mini,1SDCH7G0169R0K,1SFLH6Q0AB03DJ,1SRCH7F014TAHX,1U5X071EXP5ZJG,DJI Fly,,1.12.8,7EF899E1-F8EF-44A4-2160-097E9C2FA4EF,1SDCH7G0169R0K,,,,,6.974144471,79.91426689,10,,
2/21/2024,33:49.1,9m 0.9s,540.9,6.974133694,79.91426614,0.9,0.9,1.3,53,1,0,0,0,0,0,0,-0.894776,0,1.5,-0.8,-72.7,287.3,,Tripod,Other,,14,5,TRUE,,Mavic Mini,TRUE,FALSE,,Smart,RC,FALSE,TRUE,FALSE,,,TRUE,,FALSE,FALSE,FALSE,FALSE,FALSE,FALSE,FALSE,FALSE,FALSE,FALSE,0,Follow Yaw,0,0,-60.7,299.3,FALSE,FALSE,FALSE,FALSE,FALSE,FALSE,,TRUE,Normal,,100,1024,1024,1283,1024,2,FALSE,FALSE,FALSE,FALSE,FALSE,0,FALSE,FALSE,FALSE,FALSE,38,7.058,773,2051,7.178,FALSE,3.532,3.526,0.016,FALSE,FALSE,NA,110.3,110.1,110.3,0,0,4,0,5,2276.3,569.08,,Idle,0,20,FALSE,5,TRUE,10,Go Home,FALSE,FALSE,FALSE,FALSE,FALSE,FALSE,FALSE,FALSE,FALSE,FALSE,FALSE,FALSE,6.974132988,79.91426724,0.4,139.6,328,TRUE,1,1,FALSE,FALSE,FALSE,FALSE,,TRUE,FALSE,FALSE,Course Lock,49.2,,16.4,Calm,29,,1.12.8,Mavic Mini,1SDCH7G0169R0K,1SFLH6Q0AB03DJ,1SRCH7F014TAHX,1U5X071EXP5ZJG,64.7,0.2,6.5,6.714622,3.35541,0,0,Mavic Mini,1SDCH7G0169R0K,1SFLH6Q0AB03DJ,1SRCH7F014TAHX,1U5X071EXP5ZJG,DJI Fly,,1.12.8,7EF899E1-F8EF-44A4-2160-097E9C2FA4EF,1SDCH7G0169R0K,,,,,6.974144471,79.91426689,10,,
2/21/2024,33:49.2,9m 1.0s,541,6.9741337,79.91426614,1.3,1.3,1.6,53,1,0,0,0,0,0,0,-0.894776,0,1.8,-0.7,-72.7,287.3,,Tripod,Other,,14,5,TRUE,,Mavic Mini,TRUE,FALSE,,Smart,RC,FALSE,TRUE,FALSE,,,TRUE,,FALSE,FALSE,FALSE,FALSE,FALSE,FALSE,FALSE,FALSE,FALSE,FALSE,0,Follow Yaw,0,0,-60.7,299.3,FALSE,FALSE,FALSE,FALSE,FALSE,FALSE,,TRUE,Normal,,100,1024,1024,1283,1024,2,FALSE,FALSE,FALSE,FALSE,FALSE,0,FALSE,FALSE,FALSE,FALSE,38,7.058,773,2051,7.178,FALSE,3.532,3.526,0.016,FALSE,FALSE,NA,110.3,110.1,110.3,0,0,4,0,5,2276.3,569.08,,Idle,0,20,FALSE,5,TRUE,10,Go Home,FALSE,FALSE,FALSE,FALSE,FALSE,FALSE,FALSE,FALSE,FALSE,FALSE,FALSE,FALSE,6.974132988,79.91426724,0.4,139.6,328,TRUE,1,1,FALSE,FALSE,FALSE,FALSE,,TRUE,FALSE,FALSE,Course Lock,49.2,,16.4,Calm,29,,1.12.8,Mavic Mini,1SDCH7G0169R0K,1SFLH6Q0AB03DJ,1SRCH7F014TAHX,1U5X071EXP5ZJG,64.7,0.2,6.5,6.714622,3.35541,0,0,Mavic Mini,1SDCH7G0169R0K,1SFLH6Q0AB03DJ,1SRCH7F014TAHX,1U5X071EXP5ZJG,DJI Fly,,1.12.8,7EF899E1-F8EF-44A4-2160-097E9C2FA4EF,1SDCH7G0169R0K,,,,,6.974144471,79.91426689,10,,
2/21/2024,33:49.3,9m 1.1s,541.1,6.974133768,79.9142661,1.3,1.3,1.6,53,1,0,0,0,0,0,0,-0.894776,0,2.2,-1,-72.7,287.3,,Tripod,Other,,14,5,TRUE,,Mavic Mini,TRUE,FALSE,,Smart,RC,FALSE,TRUE,FALSE,,,TRUE,,FALSE,FALSE,FALSE,FALSE,FALSE,FALSE,FALSE,FALSE,FALSE,FALSE,0,Follow Yaw,0,0,-60.7,299.3,FALSE,FALSE,FALSE,FALSE,FALSE,FALSE,,TRUE,Normal,,100,1024,1024,1284,1024,2,FALSE,FALSE,FALSE,FALSE,FALSE,0,FALSE,FALSE,FALSE,FALSE,38,7.058,773,2051,7.104,FALSE,3.532,3.526,0.016,FALSE,FALSE,NA,110.3,110.1,110.3,0,0,4,0,5,2891.1,722.78,,Idle,0,20,FALSE,5,TRUE,10,Go Home,FALSE,FALSE,FALSE,FALSE,FALSE,FALSE,FALSE,FALSE,FALSE,FALSE,FALSE,FALSE,6.974132988,79.91426724,0.5,139.6,328,TRUE,1,1,FALSE,FALSE,FALSE,FALSE,,TRUE,FALSE,FALSE,Course Lock,49.2,,16.4,Calm,29,,1.12.8,Mavic Mini,1SDCH7G0169R0K,1SFLH6Q0AB03DJ,1SRCH7F014TAHX,1U5X071EXP5ZJG,64.7,0.2,6.5,6.714622,3.35541,0,0,Mavic Mini,1SDCH7G0169R0K,1SFLH6Q0AB03DJ,1SRCH7F014TAHX,1U5X071EXP5ZJG,DJI Fly,,1.12.8,7EF899E1-F8EF-44A4-2160-097E9C2FA4EF,1SDCH7G0169R0K,,,,,6.974144136,79.91427477,10,,
2/21/2024,33:49.3,9m 1.2s,541.2,6.974133786,79.91426606,1.3,1.3,1.6,53,1,0,0,0,0,0,0,-0.671082,0,2,-1.3,-72.7,287.3,,Tripod,Other,,14,5,TRUE,,Mavic Mini,TRUE,FALSE,,Smart,RC,FALSE,TRUE,FALSE,,,TRUE,,FALSE,FALSE,FALSE,FALSE,FALSE,FALSE,FALSE,FALSE,FALSE,FALSE,0,Follow Yaw,0,0,-60.7,299.3,FALSE,FALSE,FALSE,FALSE,FALSE,FALSE,,TRUE,Normal,,100,1024,1024,1284,1024,2,FALSE,FALSE,FALSE,FALSE,FALSE,0,FALSE,FALSE,FALSE,FALSE,38,7.058,773,2051,7.104,FALSE,3.532,3.526,0.016,FALSE,FALSE,NA,110.3,110.1,110.3,0,0,4,0,5,2891.1,722.78,,Idle,0,20,FALSE,5,TRUE,10,Go Home,FALSE,FALSE,FALSE,FALSE,FALSE,FALSE,FALSE,FALSE,FALSE,FALSE,FALSE,FALSE,6.974132988,79.91426724,0.5,139.6,328,TRUE,1,1,FALSE,FALSE,FALSE,FALSE,,TRUE,FALSE,FALSE,Course Lock,49.2,,16.4,Calm,29,,1.12.8,Mavic Mini,1SDCH7G0169R0K,1SFLH6Q0AB03DJ,1SRCH7F014TAHX,1U5X071EXP5ZJG,64.7,0.2,6.5,6.714622,3.35541,0,0,Mavic Mini,1SDCH7G0169R0K,1SFLH6Q0AB03DJ,1SRCH7F014TAHX,1U5X071EXP5ZJG,DJI Fly,,1.12.8,7EF899E1-F8EF-44A4-2160-097E9C2FA4EF,1SDCH7G0169R0K,,,,,6.974144136,79.91427477,10,,
2/21/2024,33:49.4,9m 1.3s,541.3,6.974133805,79.91426604,1.3,1.3,1.9,53,1,0,0,0,0,0,0,-0.671082,0,1.4,-1.4,-72.7,287.3,,Tripod,Other,,14,5,TRUE,,Mavic Mini,TRUE,FALSE,,Smart,RC,FALSE,TRUE,FALSE,,,TRUE,,FALSE,FALSE,FALSE,FALSE,FALSE,FALSE,FALSE,FALSE,FALSE,FALSE,0,Follow Yaw,0,0,-60.7,299.3,FALSE,FALSE,FALSE,FALSE,FALSE,FALSE,,TRUE,Normal,,100,1024,1024,1284,1024,2,FALSE,FALSE,FALSE,FALSE,FALSE,0,FALSE,FALSE,FALSE,FALSE,38,7.058,773,2051,7.104,FALSE,3.532,3.526,0.016,FALSE,FALSE,NA,110.3,110.1,110.3,0,0,4,0,5,2891.1,722.78,,Idle,0,20,FALSE,5,TRUE,10,Go Home,FALSE,FALSE,FALSE,FALSE,FALSE,FALSE,FALSE,FALSE,FALSE,FALSE,FALSE,FALSE,6.974132988,79.91426724,0.5,139.6,328,TRUE,1,1,FALSE,FALSE,FALSE,FALSE,,TRUE,FALSE,FALSE,Course Lock,49.2,,16.4,Calm,29,,1.12.8,Mavic Mini,1SDCH7G0169R0K,1SFLH6Q0AB03DJ,1SRCH7F014TAHX,1U5X071EXP5ZJG,64.7,0.2,6.5,6.714622,3.35541,0,0,Mavic Mini,1SDCH7G0169R0K,1SFLH6Q0AB03DJ,1SRCH7F014TAHX,1U5X071EXP5ZJG,DJI Fly,,1.12.8,7EF899E1-F8EF-44A4-2160-097E9C2FA4EF,1SDCH7G0169R0K,,,,,6.974144136,79.91427477,10,,
2/21/2024,33:49.6,9m 1.4s,541.4,6.974133901,79.91426596,1.6,1.6,1.9,54,1.1,0,0,0,0,0,0,-0.671082,0,1.6,-1.2,-72.6,287.4,,Tripod,Other,,14,5,TRUE,,Mavic Mini,TRUE,FALSE,,Smart,RC,FALSE,TRUE,FALSE,,,TRUE,,FALSE,FALSE,FALSE,FALSE,FALSE,FALSE,FALSE,FALSE,FALSE,FALSE,0,Follow Yaw,0,0,-60.7,299.3,FALSE,FALSE,FALSE,FALSE,FALSE,FALSE,,TRUE,Normal,,100,1024,1024,1282,1024,2,FALSE,FALSE,FALSE,FALSE,FALSE,0,FALSE,FALSE,FALSE,FALSE,38,7.058,773,2051,7.104,FALSE,3.532,3.526,0.016,FALSE,FALSE,NA,110.3,110.1,110.3,0,0,4,0,5,2891.1,722.78,,Idle,0,20,FALSE,5,TRUE,10,Go Home,FALSE,FALSE,FALSE,FALSE,FALSE,FALSE,FALSE,FALSE,FALSE,FALSE,FALSE,FALSE,6.974132988,79.91426724,0.5,139.6,328,TRUE,1,1,FALSE,FALSE,FALSE,FALSE,,TRUE,FALSE,FALSE,Course Lock,49.2,,16.4,Calm,29,,1.12.8,Mavic Mini,1SDCH7G0169R0K,1SFLH6Q0AB03DJ,1SRCH7F014TAHX,1U5X071EXP5ZJG,64.7,0.2,6.5,6.714622,3.35541,0,0,Mavic Mini,1SDCH7G0169R0K,1SFLH6Q0AB03DJ,1SRCH7F014TAHX,1U5X071EXP5ZJG,DJI Fly,,1.12.8,7EF899E1-F8EF-44A4-2160-097E9C2FA4EF,1SDCH7G0169R0K,,,,,6.974144136,79.91427477,10,,
2/21/2024,33:49.7,9m 1.5s,541.5,6.974133969,79.91426577,1.6,1.6,1.9,54,1.1,0,0,0,0,0,0,-0.671082,0,2.2,-1.3,-72.5,287.5,,Tripod,Other,,14,5,TRUE,,Mavic Mini,TRUE,FALSE,,Smart,RC,FALSE,TRUE,FALSE,,,TRUE,,FALSE,FALSE,FALSE,FALSE,FALSE,FALSE,FALSE,FALSE,FALSE,FALSE,0,Follow Yaw,0,0,-60.7,299.3,FALSE,FALSE,FALSE,FALSE,FALSE,FALSE,,TRUE,Normal,,100,1024,1024,1275,1024,2,FALSE,FALSE,FALSE,FALSE,FALSE,0,FALSE,FALSE,FALSE,FALSE,38,7.058,773,2051,7.104,FALSE,3.532,3.526,0.016,FALSE,FALSE,NA,110.3,110.1,110.3,0,0,4,0,5,2891.1,722.78,,Idle,0,20,FALSE,5,TRUE,10,Go Home,FALSE,FALSE,FALSE,FALSE,FALSE,FALSE,FALSE,FALSE,FALSE,FALSE,FALSE,FALSE,6.974132988,79.91426724,0.6,139.6,328,TRUE,1,1,FALSE,FALSE,FALSE,FALSE,,TRUE,FALSE,FALSE,Course Lock,49.2,,16.4,Calm,29,,1.12.8,Mavic Mini,1SDCH7G0169R0K,1SFLH6Q0AB03DJ,1SRCH7F014TAHX,1U5X071EXP5ZJG,64.7,0.2,6.5,6.714622,3.35541,0,0,Mavic Mini,1SDCH7G0169R0K,1SFLH6Q0AB03DJ,1SRCH7F014TAHX,1U5X071EXP5ZJG,DJI Fly,,1.12.8,7EF899E1-F8EF-44A4-2160-097E9C2FA4EF,1SDCH7G0169R0K,,,,,6.974144136,79.91427477,10,,
2/21/2024,33:49.8,9m 1.6s,541.6,6.974134105,79.91426575,1.6,1.6,2.2,54,1.2,0,0,0,0,0,0,-0.671082,0,2.2,-1.5,-72.4,287.6,,Tripod,Other,,14,5,TRUE,,Mavic Mini,TRUE,FALSE,,Smart,RC,FALSE,TRUE,FALSE,,,TRUE,,FALSE,FALSE,FALSE,FALSE,FALSE,FALSE,FALSE,FALSE,FALSE,FALSE,0,Follow Yaw,0,0,-60.7,299.3,FALSE,FALSE,FALSE,FALSE,FALSE,FALSE,,TRUE,Normal,,100,1024,1024,1254,1024,2,FALSE,FALSE,FALSE,FALSE,FALSE,0,FALSE,FALSE,FALSE,FALSE,38,7.058,773,2051,7.104,FALSE,3.532,3.526,0.016,FALSE,FALSE,NA,110.3,110.1,110.3,0,0,4,0,5,2891.1,722.78,,Idle,0,20,FALSE,5,TRUE,10,Go Home,FALSE,FALSE,FALSE,FALSE,FALSE,FALSE,FALSE,FALSE,FALSE,FALSE,FALSE,FALSE,6.974132988,79.91426724,0.6,139.6,328,TRUE,1,1,FALSE,FALSE,FALSE,FALSE,,TRUE,FALSE,FALSE,Course Lock,49.2,,16.4,Calm,29,,1.12.8,Mavic Mini,1SDCH7G0169R0K,1SFLH6Q0AB03DJ,1SRCH7F014TAHX,1U5X071EXP5ZJG,64.7,0.2,6.5,6.714622,3.35541,0,0,Mavic Mini,1SDCH7G0169R0K,1SFLH6Q0AB03DJ,1SRCH7F014TAHX,1U5X071EXP5ZJG,DJI Fly,,1.12.8,7EF899E1-F8EF-44A4-2160-097E9C2FA4EF,1SDCH7G0169R0K,,,,,6.974144136,79.91427477,10,,
2/21/2024,33:49.9,9m 1.7s,541.7,6.974134252,79.91426574,1.9,1.9,2.2,54,1.2,0.223694,0.223694,0.223694,0.223694,0,0,-0.671082,0,2.3,-2.4,-72.3,287.7,356.8,Tripod,Other,,14,5,TRUE,,Mavic Mini,TRUE,FALSE,,Smart,RC,FALSE,TRUE,FALSE,,,TRUE,,FALSE,FALSE,FALSE,FALSE,FALSE,FALSE,FALSE,FALSE,FALSE,FALSE,0,Follow Yaw,0,0,-60.7,299.3,FALSE,FALSE,FALSE,FALSE,FALSE,FALSE,,TRUE,Normal,,100,1024,1024,1159,1024,2,FALSE,FALSE,FALSE,FALSE,FALSE,0,FALSE,FALSE,FALSE,FALSE,38,7.058,773,2051,7.104,FALSE,3.532,3.526,0.016,FALSE,FALSE,NA,110.3,110.1,110.3,0,0,4,0,5,2891.1,722.78,,Idle,0,20,FALSE,5,TRUE,10,Go Home,FALSE,FALSE,FALSE,FALSE,FALSE,FALSE,FALSE,FALSE,FALSE,FALSE,FALSE,FALSE,6.974132988,79.91426724,0.7,139.6,328,TRUE,1,1,FALSE,FALSE,FALSE,FALSE,,TRUE,FALSE,FALSE,Course Lock,49.2,,16.4,Calm,29,,1.12.8,Mavic Mini,1SDCH7G0169R0K,1SFLH6Q0AB03DJ,1SRCH7F014TAHX,1U5X071EXP5ZJG,64.7,0.2,6.5,6.714622,3.35541,0,0,Mavic Mini,1SDCH7G0169R0K,1SFLH6Q0AB03DJ,1SRCH7F014TAHX,1U5X071EXP5ZJG,DJI Fly,,1.12.8,7EF899E1-F8EF-44A4-2160-097E9C2FA4EF,1SDCH7G0169R0K,,,,,6.974144136,79.91427477,10,,
2/21/2024,33:50.0,9m 1.8s,541.8,6.974134372,79.91426578,1.9,1.9,2.6,54,1.3,0.223694,0.223694,0.223694,0.223694,0,0,-0.671082,0,2.6,-2.9,-72.3,287.7,13.9,Tripod,Other,,14,5,TRUE,,Mavic Mini,TRUE,FALSE,,Smart,RC,FALSE,TRUE,FALSE,,,TRUE,,FALSE,FALSE,FALSE,FALSE,FALSE,FALSE,FALSE,FALSE,FALSE,FALSE,0,Follow Yaw,0,0,-60.7,299.3,FALSE,FALSE,FALSE,FALSE,FALSE,FALSE,,TRUE,Normal,,100,1024,1024,1068,1024,2,FALSE,FALSE,FALSE,FALSE,FALSE,0,FALSE,FALSE,FALSE,FALSE,38,7.06,772,2051,7.104,FALSE,3.531,3.529,0.016,FALSE,FALSE,NA,110.3,110.1,110.3,0,0,4,0,5,2891.1,722.78,,Idle,0,20,FALSE,5,TRUE,10,Go Home,FALSE,FALSE,FALSE,FALSE,FALSE,FALSE,FALSE,FALSE,FALSE,FALSE,FALSE,FALSE,6.974132988,79.91426724,0.7,139.6,328,TRUE,1,1,FALSE,FALSE,FALSE,FALSE,,TRUE,FALSE,FALSE,Course Lock,49.2,,16.4,Calm,29,,1.12.8,Mavic Mini,1SDCH7G0169R0K,1SFLH6Q0AB03DJ,1SRCH7F014TAHX,1U5X071EXP5ZJG,64.7,0.2,6.5,6.714622,3.35541,0,0,Mavic Mini,1SDCH7G0169R0K,1SFLH6Q0AB03DJ,1SRCH7F014TAHX,1U5X071EXP5ZJG,DJI Fly,,1.12.8,7EF899E1-F8EF-44A4-2160-097E9C2FA4EF,1SDCH7G0169R0K,,,,,6.974144136,79.91427477,10,,
2/21/2024,33:50.1,9m 1.9s,541.9,6.974134605,79.9142659,1.9,1.9,2.6,54,1.4,0,0.223694,0,0.223694,0,0,-0.671082,0,3.1,-3.2,-72.2,287.8,,Tripod,Other,,14,5,TRUE,,Mavic Mini,TRUE,FALSE,,Smart,RC,FALSE,TRUE,FALSE,,,TRUE,,FALSE,FALSE,FALSE,FALSE,FALSE,FALSE,FALSE,FALSE,FALSE,FALSE,0,Follow Yaw,0,0,-60.7,299.3,FALSE,FALSE,FALSE,FALSE,FALSE,FALSE,,TRUE,Normal,,100,1024,1024,1028,1024,2,FALSE,FALSE,FALSE,FALSE,FALSE,0,FALSE,FALSE,FALSE,FALSE,38,7.06,772,2051,7.104,FALSE,3.531,3.529,0.016,FALSE,FALSE,NA,110.3,110.1,110.3,0,0,4,0,5,2891.1,722.78,,Idle,0,20,FALSE,5,TRUE,10,Go Home,FALSE,FALSE,FALSE,FALSE,FALSE,FALSE,FALSE,FALSE,FALSE,FALSE,FALSE,FALSE,6.974132988,79.91426724,0.7,139.6,328,TRUE,1,1,FALSE,FALSE,FALSE,FALSE,,TRUE,FALSE,FALSE,Course Lock,49.2,,16.4,Calm,29,,1.12.8,Mavic Mini,1SDCH7G0169R0K,1SFLH6Q0AB03DJ,1SRCH7F014TAHX,1U5X071EXP5ZJG,64.7,0.2,6.5,6.714622,3.35541,0,0,Mavic Mini,1SDCH7G0169R0K,1SFLH6Q0AB03DJ,1SRCH7F014TAHX,1U5X071EXP5ZJG,DJI Fly,,1.12.8,7EF899E1-F8EF-44A4-2160-097E9C2FA4EF,1SDCH7G0169R0K,,,,,6.974144136,79.91427477,10,,
2/21/2024,33:50.2,9m 2.0s,542,6.97413467,79.91426589,1.9,1.9,2.9,54,1.4,0,0.223694,0,0.223694,0,0,-0.447388,0,3.1,-2.4,-72.2,287.8,,Tripod,Other,,14,5,TRUE,,Mavic Mini,TRUE,FALSE,,Smart,RC,FALSE,TRUE,FALSE,,,TRUE,,FALSE,FALSE,FALSE,FALSE,FALSE,FALSE,FALSE,FALSE,FALSE,FALSE,0,Follow Yaw,0,0,-60.7,299.3,FALSE,FALSE,FALSE,FALSE,FALSE,FALSE,,TRUE,Normal,,100,1024,1024,1024,1024,2,FALSE,FALSE,FALSE,FALSE,FALSE,0,FALSE,FALSE,FALSE,FALSE,38,7.06,772,2051,7.104,FALSE,3.531,3.529,0.016,FALSE,FALSE,NA,110.3,110.1,110.3,0,0,4,0,5,2891.1,722.78,,Idle,0,20,FALSE,5,TRUE,10,Go Home,FALSE,FALSE,FALSE,FALSE,FALSE,FALSE,FALSE,FALSE,FALSE,FALSE,FALSE,FALSE,6.974132988,79.91426724,0.7,139.6,328,TRUE,1,1,FALSE,FALSE,FALSE,FALSE,,TRUE,FALSE,FALSE,Course Lock,49.2,,16.4,Calm,29,,1.12.8,Mavic Mini,1SDCH7G0169R0K,1SFLH6Q0AB03DJ,1SRCH7F014TAHX,1U5X071EXP5ZJG,64.7,0.2,6.5,6.714622,3.35541,0,0,Mavic Mini,1SDCH7G0169R0K,1SFLH6Q0AB03DJ,1SRCH7F014TAHX,1U5X071EXP5ZJG,DJI Fly,,1.12.8,7EF899E1-F8EF-44A4-2160-097E9C2FA4EF,1SDCH7G0169R0K,,,,,6.974144136,79.91427477,10,,
2/21/2024,33:50.3,9m 2.1s,542.1,6.974134717,79.91426589,1.9,1.9,2.9,54,1.4,0,0.223694,0,0.223694,0,0,-0.223694,0,3.3,-1.9,-72.3,287.7,,Tripod,Other,,14,5,TRUE,,Mavic Mini,TRUE,FALSE,,Smart,RC,FALSE,TRUE,FALSE,,,TRUE,,FALSE,FALSE,FALSE,FALSE,FALSE,FALSE,FALSE,FALSE,FALSE,FALSE,0,Follow Yaw,0,0,-60.7,299.3,FALSE,FALSE,FALSE,FALSE,FALSE,FALSE,,TRUE,Normal,,100,1024,1024,1068,1024,2,FALSE,FALSE,FALSE,FALSE,FALSE,0,FALSE,FALSE,FALSE,FALSE,38,7.06,772,2051,7.068,FALSE,3.531,3.529,0.016,FALSE,FALSE,NA,110.3,110.1,110.3,0,0,5,0,5,4374.4,1093.6,,Idle,0,20,FALSE,5,TRUE,10,Go Home,FALSE,FALSE,FALSE,FALSE,FALSE,FALSE,FALSE,FALSE,FALSE,FALSE,FALSE,FALSE,6.974132988,79.91426724,0.7,139.6,328,TRUE,1,1,FALSE,FALSE,FALSE,FALSE,,TRUE,FALSE,FALSE,Course Lock,49.2,,16.4,Calm,29,,1.12.8,Mavic Mini,1SDCH7G0169R0K,1SFLH6Q0AB03DJ,1SRCH7F014TAHX,1U5X071EXP5ZJG,64.7,0.2,6.5,6.714622,3.35541,0,0,Mavic Mini,1SDCH7G0169R0K,1SFLH6Q0AB03DJ,1SRCH7F014TAHX,1U5X071EXP5ZJG,DJI Fly,,1.12.8,7EF899E1-F8EF-44A4-2160-097E9C2FA4EF,1SDCH7G0169R0K,,,,,6.974144136,79.91427477,10,,
2/21/2024,33:50.4,9m 2.2s,542.2,6.974134776,79.91426586,2.2,2.2,2.9,54,1.4,0,0.223694,0,0.223694,0,0,-0.223694,0,3.4,-1.6,-72.4,287.6,,Tripod,Other,,14,5,TRUE,,Mavic Mini,TRUE,FALSE,,Smart,RC,FALSE,TRUE,FALSE,,,TRUE,,FALSE,FALSE,FALSE,FALSE,FALSE,FALSE,FALSE,FALSE,FALSE,FALSE,0,Follow Yaw,0,0,-60.7,299.3,FALSE,FALSE,FALSE,FALSE,FALSE,FALSE,,TRUE,Normal,,100,1024,1024,1068,1024,2,FALSE,FALSE,FALSE,FALSE,FALSE,0,FALSE,FALSE,FALSE,FALSE,38,7.06,772,2051,7.068,FALSE,3.531,3.529,0.016,FALSE,FALSE,NA,110.3,110.1,110.3,0,0,5,0,5,4374.4,1093.6,,Idle,0,20,FALSE,5,TRUE,10,Go Home,FALSE,FALSE,FALSE,FALSE,FALSE,FALSE,FALSE,FALSE,FALSE,FALSE,FALSE,FALSE,6.974132988,79.91426724,0.8,139.6,328,TRUE,1,1,FALSE,FALSE,FALSE,FALSE,,TRUE,FALSE,FALSE,Course Lock,49.2,,16.4,Calm,29,,1.12.8,Mavic Mini,1SDCH7G0169R0K,1SFLH6Q0AB03DJ,1SRCH7F014TAHX,1U5X071EXP5ZJG,64.7,0.2,6.5,6.714622,3.35541,0,0,Mavic Mini,1SDCH7G0169R0K,1SFLH6Q0AB03DJ,1SRCH7F014TAHX,1U5X071EXP5ZJG,DJI Fly,,1.12.8,7EF899E1-F8EF-44A4-2160-097E9C2FA4EF,1SDCH7G0169R0K,,,,,6.974144136,79.91427477,10,,
2/21/2024,33:50.5,9m 2.3s,542.3,6.974134893,79.91426576,2.2,2.2,2.9,54,1.5,0,0.223694,0,0.223694,0,0,0,0,3.4,-1.6,-72.5,287.5,,Tripod,Other,,14,5,TRUE,,Mavic Mini,TRUE,FALSE,,Smart,RC,FALSE,TRUE,FALSE,,,TRUE,,FALSE,FALSE,FALSE,FALSE,FALSE,FALSE,FALSE,FALSE,FALSE,FALSE,0,Follow Yaw,0,0,-60.7,299.3,FALSE,FALSE,FALSE,FALSE,FALSE,FALSE,,TRUE,Normal,,100,1024,1024,1177,1024,2,FALSE,FALSE,FALSE,FALSE,FALSE,0,FALSE,FALSE,FALSE,FALSE,38,7.06,772,2051,7.068,FALSE,3.531,3.529,0.016,FALSE,FALSE,NA,110.3,110.1,110.3,0,0,5,0,5,4374.4,1093.6,,Idle,0,20,FALSE,5,TRUE,10,Go Home,FALSE,FALSE,FALSE,FALSE,FALSE,FALSE,FALSE,FALSE,FALSE,FALSE,FALSE,FALSE,6.974132988,79.91426724,0.8,139.6,328,TRUE,1,1,FALSE,FALSE,FALSE,FALSE,,TRUE,FALSE,FALSE,Course Lock,49.2,,16.4,Calm,29,,1.12.8,Mavic Mini,1SDCH7G0169R0K,1SFLH6Q0AB03DJ,1SRCH7F014TAHX,1U5X071EXP5ZJG,64.7,0.2,6.5,6.714622,3.35541,0,0,Mavic Mini,1SDCH7G0169R0K,1SFLH6Q0AB03DJ,1SRCH7F014TAHX,1U5X071EXP5ZJG,DJI Fly,,1.12.8,7EF899E1-F8EF-44A4-2160-097E9C2FA4EF,1SDCH7G0169R0K,,,,,6.974144136,79.91427477,10,,
