CUSTOM.date [local],CUSTOM.updateTime [local],OSD.flyTime,OSD.flyTime [s],OSD.latitude,OSD.longitude,OSD.height [ft],OSD.heightMax [ft],OSD.vpsHeight [ft],OSD.altitude [ft],OSD.mileage [ft],OSD.hSpeed [MPH],OSD.hSpeedMax [MPH],OSD.xSpeed [MPH],OSD.xSpeedMax [MPH],OSD.ySpeed [MPH],OSD.ySpeedMax [MPH],OSD.zSpeed [MPH],OSD.zSpeedMax [MPH],OSD.pitch,OSD.roll,OSD.yaw,OSD.yaw [360],OSD.directionOfTravel,OSD.flycState,OSD.flycCommand,OSD.flightAction,OSD.gpsNum,OSD.gpsLevel,OSD.isGPSUsed,OSD.nonGPSCause,OSD.droneType,OSD.isSwaveWork,OSD.waveError,OSD.goHomeStatus,OSD.batteryType,OSD.ctrlDevice,OSD.isOnGround,OSD.isMotorOn,OSD.isMotorBlocked,OSD.motorStartFailedCause,OSD.motorFailReason,OSD.isImuPreheated,OSD.imuInitFailReason,OSD.isAcceletorOverRange,OSD.isBarometerDeadInAir,OSD.isCompassError,OSD.isGoHomeHeightModified,OSD.canIOCWork,OSD.isNotEnoughForce,OSD.isOutOfLimit,OSD.isPropellerCatapult,OSD.isVibrating,OSD.isVisionUsed,OSD.voltageWarning,GIMBAL.mode,GIMBAL.pitch,GIMBAL.roll,GIMBAL.yaw,GIMBAL.yaw [360],GIMBAL.isPitchAtLimit,GIMBAL.isRollAtLimit,GIMBAL.isYawAtLimit,GIMBAL.isStuck,CAMERA.isPhoto,CAMERA.isVideo,CAMERA.filename,CAMERA.sdCardIsInserted,CAMERA.sdCardState,RC.downlinkSignal,RC.uplinkSignal,RC.aileron,RC.elevator,RC.throttle,RC.rudder,RC.mode,RC.goHomeDepressed,RC.recordDepressed,RC.shutterDepressed,RC.playbackDepressed,RC.wheelDepressed,RC.wheelOffset,RC.custom1Depressed,RC.custom2Depressed,RC.custom3Depressed,RC.custom4Depressed,BATTERY.chargeLevel,BATTERY.currentPV [V],BATTERY.currentCapacity [mAh],BATTERY.fullCapacity [mAh],BATTERY.voltage [V],BATTERY.isCellVoltageEstimated,BATTERY.cellVoltage1 [V],BATTERY.cellVoltage2 [V],BATTERY.maxCellVoltageDeviation,BATTERY.isCellVoltageDeviationHigh,BATTERY.isVoltageLow,BATTERY.current [A],BATTERY.temperature [F],BATTERY.minTemperature [F],BATTERY.maxTemperature [F],BATTERY.usefulTime [s],BATTERY.goHomeTime [s],BATTERY.landTime [s],BATTERY.goHomeBattery,BATTERY.landBattery,BATTERY.safeFlyRadius,BATTERY.volumeConsume,BATTERY.status,BATTERY.goHomeStatus,BATTERY.goHomeCountdown,BATTERY.lowWarning,BATTERY.lowWarningGoHome,BATTERY.seriousLowWarning,BATTERY.seriousLowWarningLanding,BATTERY.timesCharged,MC.failSafeAction,MC.isObstacleAvoidanceEnabled,MC.isCollisionAvoidanceEnabled,MC.isRthObstacleAvoidanceEnabled,MC.isBraking,MC.isAvoidingObstacle,MC.isAvoidingActiveObstacle,MC.isAscentLimitedByObstacle,MC.isLandingConfirmationNeeded,MC.atLowAltitudeLimit,MC.atDistanceLimit,MC.atAirportAltitudeLimit,MC.atAirportBoundary,HOME.latitude,HOME.longitude,HOME.distance [ft],HOME.height [ft],HOME.heightLimit [ft],HOME.isHomeRecord,HOME.goHomeMode,HOME.aircraftHeadDirection,HOME.isDynamicHomePointEnabled,HOME.isReachedLimitDistance,HOME.isReachedLimitHeight,HOME.isCompassCalibrating,HOME.compassCalibrationState,HOME.isMultipleFlightModeEnabled,HOME.isBeginnerMode,HOME.isIOCEnabled,HOME.iocMode,HOME.goHomeHeight [ft],HOME.courseLockAngle,HOME.forceLandingHeight [ft],HOME.wind,HOME.dataRecorderFileIndex,RECOVER.appType,RECOVER.appVersion,RECOVER.aircraftName,RECOVER.aircraftSerial,RECOVER.cameraSerial,RECOVER.rcSerial,RECOVER.batterySerial,DETAILS.totalTime [s],DETAILS.totalDistance [ft],DETAILS.maxHeight [ft],DETAILS.maxHorizontalSpeed [MPH],DETAILS.maxVerticalSpeed [MPH],DETAILS.photoNum,DETAILS.videoTime [s],DETAILS.aircraftName,DETAILS.aircraftSerial,DETAILS.cameraSerial,DETAILS.rcSerial,DETAILS.batterySerial,DETAILS.appName,DETAILS.appType,DETAILS.appVersion,DETAILS.guid,SERIAL.flightController,SERIAL.camera,SERIAL.gimbal,SERIAL.rc,SERIAL.battery,APPGPS.latitude,APPGPS.longitude,APPGPS.accuracy,APP.tip,APP.warning
2/15/2024,49:43.3,10m 33.0s,633,6.974216369,79.91434014,0,0,,51,0,0,0,0,0,0,0,0,0,0.4,2.5,91.8,91.8,,Starting Motors,Auto Fly,Takeoff (RC Assisted),16,5,TRUE,,Mavic Mini,FALSE,FALSE,,Smart,RC,TRUE,TRUE,FALSE,,,TRUE,,FALSE,FALSE,FALSE,FALSE,FALSE,FALSE,FALSE,FALSE,FALSE,FALSE,0,Follow Yaw,0,0,118.3,118.3,FALSE,FALSE,FALSE,FALSE,FALSE,FALSE,,TRUE,Normal,,,1024,1024,1024,1024,2,FALSE,FALSE,FALSE,FALSE,FALSE,0,FALSE,FALSE,FALSE,FALSE,56,7.557,1184,2113,7.557,TRUE,3.779,3.779,,FALSE,FALSE,NA,115,114.9,114.9,,,,,,,,,Idle,,,TRUE,,FALSE,9,Go Home,FALSE,FALSE,FALSE,FALSE,FALSE,FALSE,FALSE,FALSE,FALSE,FALSE,FALSE,FALSE,,,,,,FALSE,,,FALSE,FALSE,FALSE,FALSE,,FALSE,FALSE,FALSE,,,,,Calm,,,1.12.8,Mavic Mini,1SDCH7G0169R0K,1SFLH6Q0AB03DJ,1SRCH7F014TAHX,1U5X071EXP5ZJG,114.7,0.2,16.4,5.368656,3.131716,0,0,Mavic Mini,1SDCH7G0169R0K,1SFLH6Q0AB03DJ,1SRCH7F014TAHX,1U5X071EXP5ZJG,DJI Fly,,1.12.8,633230DA-0053-49D1-1BCB-352B2A677FE0,1SDCH7G0169R0K,,,,,,,,Flight mode changed to Starting Motors.,
2/15/2024,39:10.4,10m 33.1s,633.1,6.974216381,79.91434012,0,0,,51,0,0,0,0,0,0,0,0,0,0.3,2.5,91.8,91.8,,Starting Motors,Auto Fly,Takeoff (RC Assisted),16,5,TRUE,,Mavic Mini,FALSE,FALSE,,Smart,RC,TRUE,TRUE,FALSE,,,TRUE,,FALSE,FALSE,FALSE,FALSE,FALSE,FALSE,FALSE,FALSE,FALSE,FALSE,0,Follow Yaw,0,0,118.3,118.3,FALSE,FALSE,FALSE,FALSE,FALSE,FALSE,,TRUE,Normal,,,1024,1024,1024,1024,2,FALSE,FALSE,FALSE,FALSE,FALSE,0,FALSE,FALSE,FALSE,FALSE,56,7.557,1184,2113,7.557,TRUE,3.779,3.779,,FALSE,FALSE,NA,115,114.9,114.9,,,,,,,,,Idle,,,TRUE,,FALSE,9,Go Home,FALSE,FALSE,FALSE,FALSE,FALSE,FALSE,FALSE,FALSE,FALSE,FALSE,FALSE,FALSE,,,,,,FALSE,,,FALSE,FALSE,FALSE,FALSE,,FALSE,FALSE,FALSE,,,,,Calm,,,1.12.8,Mavic Mini,1SDCH7G0169R0K,1SFLH6Q0AB03DJ,1SRCH7F014TAHX,1U5X071EXP5ZJG,114.7,0.2,16.4,5.368656,3.131716,0,0,Mavic Mini,1SDCH7G0169R0K,1SFLH6Q0AB03DJ,1SRCH7F014TAHX,1U5X071EXP5ZJG,DJI Fly,,1.12.8,633230DA-0053-49D1-1BCB-352B2A677FE0,1SDCH7G0169R0K,,,,,,,,,
2/15/2024,39:10.5,10m 33.2s,633.2,6.974216385,79.91434013,0,0,0.3,51,0,0,0,0,0,0,0,0,0,0.4,2.5,91.8,91.8,,Starting Motors,Auto Fly,Takeoff (RC Assisted),16,5,TRUE,,Mavic Mini,TRUE,FALSE,,Smart,RC,TRUE,TRUE,FALSE,,,TRUE,,FALSE,FALSE,FALSE,FALSE,FALSE,FALSE,FALSE,FALSE,FALSE,FALSE,0,Follow Yaw,0,0,118.3,118.3,FALSE,FALSE,FALSE,FALSE,FALSE,FALSE,,TRUE,Normal,,,1024,1024,1024,1024,2,FALSE,FALSE,FALSE,FALSE,FALSE,0,FALSE,FALSE,FALSE,FALSE,56,7.555,1184,2113,7.555,FALSE,3.78,3.776,0.004,FALSE,FALSE,NA,115,114.9,114.9,,,,,,,,,Idle,,,TRUE,,FALSE,9,Go Home,FALSE,FALSE,FALSE,FALSE,FALSE,FALSE,FALSE,FALSE,FALSE,FALSE,FALSE,FALSE,,,,,,FALSE,,,FALSE,FALSE,FALSE,FALSE,,FALSE,FALSE,FALSE,,,,,Calm,,,1.12.8,Mavic Mini,1SDCH7G0169R0K,1SFLH6Q0AB03DJ,1SRCH7F014TAHX,1U5X071EXP5ZJG,114.7,0.2,16.4,5.368656,3.131716,0,0,Mavic Mini,1SDCH7G0169R0K,1SFLH6Q0AB03DJ,1SRCH7F014TAHX,1U5X071EXP5ZJG,DJI Fly,,1.12.8,633230DA-0053-49D1-1BCB-352B2A677FE0,1SDCH7G0169R0K,,,,,,,,,
2/15/2024,39:10.6,10m 33.3s,633.3,6.974216383,79.91434018,0,0,0.3,51,0,0,0,0,0,0,0,0,0,0.3,2.5,91.8,91.8,,Starting Motors,Auto Fly,Takeoff (RC Assisted),16,5,TRUE,,Mavic Mini,TRUE,FALSE,,Smart,RC,TRUE,TRUE,FALSE,,,TRUE,,FALSE,FALSE,FALSE,FALSE,FALSE,FALSE,FALSE,FALSE,FALSE,FALSE,0,Follow Yaw,0,0,118.3,118.3,FALSE,FALSE,FALSE,FALSE,FALSE,FALSE,,TRUE,Normal,,,1024,1024,1024,1024,2,FALSE,FALSE,FALSE,FALSE,FALSE,0,FALSE,FALSE,FALSE,FALSE,56,7.555,1184,2113,7.555,FALSE,3.78,3.776,0.004,FALSE,FALSE,NA,115,114.9,114.9,,,,,,,,,Idle,,,TRUE,,FALSE,9,Go Home,FALSE,FALSE,FALSE,FALSE,FALSE,FALSE,FALSE,FALSE,FALSE,FALSE,FALSE,FALSE,,,,,,FALSE,,,FALSE,FALSE,FALSE,FALSE,,FALSE,FALSE,FALSE,,,,,Calm,,,1.12.8,Mavic Mini,1SDCH7G0169R0K,1SFLH6Q0AB03DJ,1SRCH7F014TAHX,1U5X071EXP5ZJG,114.7,0.2,16.4,5.368656,3.131716,0,0,Mavic Mini,1SDCH7G0169R0K,1SFLH6Q0AB03DJ,1SRCH7F014TAHX,1U5X071EXP5ZJG,DJI Fly,,1.12.8,633230DA-0053-49D1-1BCB-352B2A677FE0,1SDCH7G0169R0K,,,,,,,,,
2/15/2024,39:10.7,10m 33.4s,633.4,6.974216343,79.91434035,0,0,0.3,51,0,0,0,0,0,0,0,0,0,0.3,2.5,91.8,91.8,,Starting Motors,Auto Fly,Takeoff (RC Assisted),16,5,TRUE,,Mavic Mini,TRUE,FALSE,,Smart,RC,TRUE,TRUE,FALSE,,,TRUE,,FALSE,FALSE,FALSE,FALSE,FALSE,FALSE,FALSE,FALSE,FALSE,FALSE,0,Follow Yaw,0,0,118.3,118.3,FALSE,FALSE,FALSE,FALSE,FALSE,FALSE,,TRUE,Normal,,100,1024,1024,1024,1024,2,FALSE,FALSE,FALSE,FALSE,FALSE,0,FALSE,FALSE,FALSE,FALSE,56,7.555,1184,2113,7.555,FALSE,3.78,3.776,0.004,FALSE,FALSE,NA,115,114.9,114.9,,,,,,,,,Idle,,,TRUE,,FALSE,9,Go Home,FALSE,FALSE,FALSE,FALSE,FALSE,FALSE,FALSE,FALSE,FALSE,FALSE,FALSE,FALSE,,,,,,FALSE,,,FALSE,FALSE,FALSE,FALSE,,FALSE,FALSE,FALSE,,,,,Calm,,,1.12.8,Mavic Mini,1SDCH7G0169R0K,1SFLH6Q0AB03DJ,1SRCH7F014TAHX,1U5X071EXP5ZJG,114.7,0.2,16.4,5.368656,3.131716,0,0,Mavic Mini,1SDCH7G0169R0K,1SFLH6Q0AB03DJ,1SRCH7F014TAHX,1U5X071EXP5ZJG,DJI Fly,,1.12.8,633230DA-0053-49D1-1BCB-352B2A677FE0,1SDCH7G0169R0K,,,,,,,,,
2/15/2024,39:10.8,10m 33.5s,633.5,6.974216391,79.91434037,0,0,0.3,51,0.1,0,0,0,0,0,0,0,0,0.4,2.6,91.8,91.8,,Starting Motors,Auto Fly,Takeoff (RC Assisted),16,5,TRUE,,Mavic Mini,TRUE,FALSE,,Smart,RC,TRUE,TRUE,FALSE,,,TRUE,,FALSE,FALSE,FALSE,FALSE,FALSE,FALSE,FALSE,FALSE,FALSE,FALSE,0,Follow Yaw,0,0,118.3,118.3,FALSE,FALSE,FALSE,FALSE,FALSE,FALSE,,TRUE,Normal,,100,1024,1024,1024,1024,2,FALSE,FALSE,FALSE,FALSE,FALSE,0,FALSE,FALSE,FALSE,FALSE,56,7.555,1184,2113,7.539,FALSE,3.78,3.776,0.004,FALSE,FALSE,NA,115,114.9,114.9,0,1,0,0,5,2809.7,702.44,,Idle,0,20,FALSE,5,TRUE,9,Go Home,FALSE,FALSE,FALSE,FALSE,FALSE,FALSE,FALSE,FALSE,FALSE,FALSE,FALSE,FALSE,6.974224556,79.91434257,3,120.4,328,TRUE,1,1,FALSE,FALSE,FALSE,FALSE,,TRUE,FALSE,FALSE,Course Lock,65.6,41.9,16.4,Calm,27,,1.12.8,Mavic Mini,1SDCH7G0169R0K,1SFLH6Q0AB03DJ,1SRCH7F014TAHX,1U5X071EXP5ZJG,114.7,0.2,16.4,5.368656,3.131716,0,0,Mavic Mini,1SDCH7G0169R0K,1SFLH6Q0AB03DJ,1SRCH7F014TAHX,1U5X071EXP5ZJG,DJI Fly,,1.12.8,633230DA-0053-49D1-1BCB-352B2A677FE0,1SDCH7G0169R0K,,,,,,,,Data Recorder File Index is 27.; Set Return to Home (RTH) altitude to 20 m (66 ft).; Set maximum flight altitude to 100 m (328 ft).,
2/15/2024,39:10.9,10m 33.6s,633.6,6.97421642,79.91434035,0,0,0.3,51,0.1,0,0,0,0,0,0,0,0,0.3,2.5,92.1,92.1,,Starting Motors,Auto Fly,Takeoff (RC Assisted),16,5,TRUE,,Mavic Mini,TRUE,FALSE,,Smart,RC,TRUE,TRUE,FALSE,,,TRUE,,FALSE,FALSE,FALSE,FALSE,FALSE,FALSE,FALSE,FALSE,FALSE,FALSE,0,Follow Yaw,0,0,118.3,118.3,FALSE,FALSE,FALSE,FALSE,FALSE,FALSE,,TRUE,Normal,,100,1024,1024,1024,1024,2,FALSE,FALSE,FALSE,FALSE,FALSE,0,FALSE,FALSE,FALSE,FALSE,56,7.555,1184,2113,7.539,FALSE,3.78,3.776,0.004,FALSE,FALSE,NA,115,114.9,114.9,0,1,0,0,5,2809.7,702.44,,Idle,0,20,FALSE,5,TRUE,9,Go Home,FALSE,FALSE,FALSE,FALSE,FALSE,FALSE,FALSE,FALSE,FALSE,FALSE,FALSE,FALSE,6.974224556,79.91434257,3,120.4,328,TRUE,1,1,FALSE,FALSE,FALSE,FALSE,,TRUE,FALSE,FALSE,Course Lock,65.6,41.9,16.4,Calm,27,,1.12.8,Mavic Mini,1SDCH7G0169R0K,1SFLH6Q0AB03DJ,1SRCH7F014TAHX,1U5X071EXP5ZJG,114.7,0.2,16.4,5.368656,3.131716,0,0,Mavic Mini,1SDCH7G0169R0K,1SFLH6Q0AB03DJ,1SRCH7F014TAHX,1U5X071EXP5ZJG,DJI Fly,,1.12.8,633230DA-0053-49D1-1BCB-352B2A677FE0,1SDCH7G0169R0K,,,,,,,,,
2/15/2024,39:11.0,10m 33.7s,633.7,6.974216435,79.9143403,0,0,0.3,51,0.1,0,0,0,0,0,0,0,0,0.3,2.4,92,92,,Starting Motors,Auto Fly,Takeoff (RC Assisted),16,5,TRUE,,Mavic Mini,TRUE,FALSE,,Smart,RC,TRUE,TRUE,FALSE,,,TRUE,,FALSE,FALSE,FALSE,FALSE,FALSE,FALSE,FALSE,FALSE,FALSE,FALSE,0,Follow Yaw,0,0,118.4,118.4,FALSE,FALSE,FALSE,FALSE,FALSE,FALSE,,TRUE,Normal,,100,1024,1024,1024,1024,2,FALSE,FALSE,FALSE,FALSE,FALSE,0,FALSE,FALSE,FALSE,FALSE,56,7.555,1184,2113,7.539,FALSE,3.78,3.776,0.004,FALSE,FALSE,NA,115,114.9,114.9,0,1,0,0,5,2809.7,702.44,,Idle,0,20,FALSE,5,TRUE,9,Go Home,FALSE,FALSE,FALSE,FALSE,FALSE,FALSE,FALSE,FALSE,FALSE,FALSE,FALSE,FALSE,6.974224556,79.91434257,3,120.4,328,TRUE,1,1,FALSE,FALSE,FALSE,FALSE,,TRUE,FALSE,FALSE,Course Lock,65.6,41.9,16.4,Calm,27,,1.12.8,Mavic Mini,1SDCH7G0169R0K,1SFLH6Q0AB03DJ,1SRCH7F014TAHX,1U5X071EXP5ZJG,114.7,0.2,16.4,5.368656,3.131716,0,0,Mavic Mini,1SDCH7G0169R0K,1SFLH6Q0AB03DJ,1SRCH7F014TAHX,1U5X071EXP5ZJG,DJI Fly,,1.12.8,633230DA-0053-49D1-1BCB-352B2A677FE0,1SDCH7G0169R0K,,,,,,,,,
2/15/2024,39:11.2,10m 33.8s,633.8,6.974216484,79.91434024,0,0,0.3,51,0.1,0,0,0,0,0,0,0,0,0.3,2.4,92,92,,Starting Motors,Auto Fly,Takeoff (RC Assisted),16,5,TRUE,,Mavic Mini,TRUE,FALSE,,Smart,RC,TRUE,TRUE,FALSE,,,TRUE,,FALSE,FALSE,FALSE,FALSE,FALSE,FALSE,FALSE,FALSE,FALSE,FALSE,0,Follow Yaw,0,0,118.4,118.4,FALSE,FALSE,FALSE,FALSE,FALSE,FALSE,,TRUE,Normal,,100,1024,1024,1024,1024,2,FALSE,FALSE,FALSE,FALSE,FALSE,0,FALSE,FALSE,FALSE,FALSE,56,7.555,1184,2113,7.539,FALSE,3.78,3.776,0.004,FALSE,FALSE,NA,115,114.9,114.9,0,1,0,0,5,2809.7,702.44,,Idle,0,20,FALSE,5,TRUE,9,Go Home,FALSE,FALSE,FALSE,FALSE,FALSE,FALSE,FALSE,FALSE,FALSE,FALSE,FALSE,FALSE,6.974224556,79.91434257,3,120.4,328,TRUE,1,1,FALSE,FALSE,FALSE,FALSE,,TRUE,FALSE,FALSE,Course Lock,65.6,41.9,16.4,Calm,27,,1.12.8,Mavic Mini,1SDCH7G0169R0K,1SFLH6Q0AB03DJ,1SRCH7F014TAHX,1U5X071EXP5ZJG,114.7,0.2,16.4,5.368656,3.131716,0,0,Mavic Mini,1SDCH7G0169R0K,1SFLH6Q0AB03DJ,1SRCH7F014TAHX,1U5X071EXP5ZJG,DJI Fly,,1.12.8,633230DA-0053-49D1-1BCB-352B2A677FE0,1SDCH7G0169R0K,,,,,,,,,
2/15/2024,39:11.3,10m 33.9s,633.9,6.974216535,79.91434027,0,0,0.3,51,0.1,0,0,0,0,0,0,0,0,0.4,2.4,92,92,,Starting Motors,Auto Fly,Takeoff (RC Assisted),16,5,TRUE,,Mavic Mini,TRUE,FALSE,,Smart,RC,TRUE,TRUE,FALSE,,,TRUE,,FALSE,FALSE,FALSE,FALSE,FALSE,FALSE,FALSE,FALSE,FALSE,FALSE,0,Follow Yaw,0,0,118.4,118.4,FALSE,FALSE,FALSE,FALSE,FALSE,FALSE,,TRUE,Normal,,100,1024,1024,1024,1024,2,FALSE,FALSE,FALSE,FALSE,FALSE,0,FALSE,FALSE,FALSE,FALSE,56,7.555,1184,2113,7.539,FALSE,3.78,3.776,0.004,FALSE,FALSE,NA,115,114.9,114.9,0,1,0,0,5,2809.7,702.44,,Idle,0,20,FALSE,5,TRUE,9,Go Home,FALSE,FALSE,FALSE,FALSE,FALSE,FALSE,FALSE,FALSE,FALSE,FALSE,FALSE,FALSE,6.974224556,79.91434257,3,120.4,328,TRUE,1,1,FALSE,FALSE,FALSE,FALSE,,TRUE,FALSE,FALSE,Course Lock,65.6,41.9,16.4,Calm,27,,1.12.8,Mavic Mini,1SDCH7G0169R0K,1SFLH6Q0AB03DJ,1SRCH7F014TAHX,1U5X071EXP5ZJG,114.7,0.2,16.4,5.368656,3.131716,0,0,Mavic Mini,1SDCH7G0169R0K,1SFLH6Q0AB03DJ,1SRCH7F014TAHX,1U5X071EXP5ZJG,DJI Fly,,1.12.8,633230DA-0053-49D1-1BCB-352B2A677FE0,1SDCH7G0169R0K,,,,,,,,,
2/15/2024,39:11.4,10m 34.0s,634,6.974216565,79.91434029,0,0,0.3,51,0.1,0,0,0,0,0,0,0,0,0.3,2.4,92,92,,Starting Motors,Auto Fly,Takeoff (RC Assisted),16,5,TRUE,,Mavic Mini,TRUE,FALSE,,Smart,RC,TRUE,TRUE,FALSE,,,TRUE,,FALSE,FALSE,FALSE,FALSE,FALSE,FALSE,FALSE,FALSE,FALSE,FALSE,0,Follow Yaw,0,0,118.4,118.4,FALSE,FALSE,FALSE,FALSE,FALSE,FALSE,,TRUE,Normal,,100,1024,1024,1024,1024,2,FALSE,FALSE,FALSE,FALSE,FALSE,0,FALSE,FALSE,FALSE,FALSE,56,7.555,1184,2113,7.539,FALSE,3.78,3.776,0.004,FALSE,FALSE,NA,115,114.9,114.9,0,1,0,0,5,2809.7,702.44,,Idle,0,20,FALSE,5,TRUE,9,Go Home,FALSE,FALSE,FALSE,FALSE,FALSE,FALSE,FALSE,FALSE,FALSE,FALSE,FALSE,FALSE,6.974224556,79.91434257,3,120.4,328,TRUE,1,1,FALSE,FALSE,FALSE,FALSE,,TRUE,FALSE,FALSE,Course Lock,65.6,41.9,16.4,Calm,27,,1.12.8,Mavic Mini,1SDCH7G0169R0K,1SFLH6Q0AB03DJ,1SRCH7F014TAHX,1U5X071EXP5ZJG,114.7,0.2,16.4,5.368656,3.131716,0,0,Mavic Mini,1SDCH7G0169R0K,1SFLH6Q0AB03DJ,1SRCH7F014TAHX,1U5X071EXP5ZJG,DJI Fly,,1.12.8,633230DA-0053-49D1-1BCB-352B2A677FE0,1SDCH7G0169R0K,,,,,,,,,
2/15/2024,39:11.5,10m 34.1s,634.1,6.974216579,79.9143403,0,0,0.3,51,0.2,0,0,0,0,0,0,0,0,0.4,2.4,92,92,,Manual Takeoff,Auto Fly,Takeoff (RC Assisted),16,5,TRUE,,Mavic Mini,TRUE,FALSE,,Smart,RC,TRUE,TRUE,FALSE,,,TRUE,,FALSE,FALSE,FALSE,FALSE,FALSE,FALSE,FALSE,FALSE,FALSE,FALSE,0,Follow Yaw,0,0,118.5,118.5,FALSE,FALSE,FALSE,FALSE,FALSE,FALSE,,TRUE,Normal,,100,1024,1024,1024,1024,2,FALSE,FALSE,FALSE,FALSE,FALSE,0,FALSE,FALSE,FALSE,FALSE,56,7.555,1184,2113,7.539,FALSE,3.78,3.776,0.004,FALSE,FALSE,NA,115,114.9,114.9,0,1,0,0,5,2809.7,702.44,,Idle,0,20,FALSE,5,TRUE,9,Go Home,FALSE,FALSE,FALSE,FALSE,FALSE,FALSE,FALSE,FALSE,FALSE,FALSE,FALSE,FALSE,6.974224556,79.91434257,3,120.4,328,TRUE,1,1,FALSE,FALSE,FALSE,FALSE,,TRUE,FALSE,FALSE,Course Lock,65.6,41.9,16.4,Calm,27,,1.12.8,Mavic Mini,1SDCH7G0169R0K,1SFLH6Q0AB03DJ,1SRCH7F014TAHX,1U5X071EXP5ZJG,114.7,0.2,16.4,5.368656,3.131716,0,0,Mavic Mini,1SDCH7G0169R0K,1SFLH6Q0AB03DJ,1SRCH7F014TAHX,1U5X071EXP5ZJG,DJI Fly,,1.12.8,633230DA-0053-49D1-1BCB-352B2A677FE0,1SDCH7G0169R0K,,,,,,,,Flight mode changed to Manual Takeoff.,
2/15/2024,39:11.5,10m 34.2s,634.2,6.974216648,79.91434039,0,0,0.3,51,0.2,0,0,0,0,0,0,0,0,0.3,2.4,92.1,92.1,,Manual Takeoff,Auto Fly,Takeoff (RC Assisted),16,5,TRUE,,Mavic Mini,TRUE,FALSE,,Smart,RC,TRUE,TRUE,FALSE,,,TRUE,,FALSE,FALSE,FALSE,FALSE,FALSE,FALSE,FALSE,FALSE,FALSE,FALSE,0,Follow Yaw,0,0,118.5,118.5,FALSE,FALSE,FALSE,FALSE,FALSE,FALSE,,TRUE,Normal,,100,1024,1024,1024,1024,2,FALSE,FALSE,FALSE,FALSE,FALSE,0,FALSE,FALSE,FALSE,FALSE,56,7.555,1184,2113,7.539,FALSE,3.78,3.776,0.004,FALSE,FALSE,NA,115,114.9,114.9,0,1,0,0,5,2809.7,702.44,,Idle,0,20,FALSE,5,TRUE,9,Go Home,FALSE,FALSE,FALSE,FALSE,FALSE,FALSE,FALSE,FALSE,FALSE,FALSE,FALSE,FALSE,6.974224556,79.91434257,2.9,120.4,328,TRUE,1,1,FALSE,FALSE,FALSE,FALSE,,TRUE,FALSE,FALSE,Course Lock,65.6,41.9,16.4,Calm,27,,1.12.8,Mavic Mini,1SDCH7G0169R0K,1SFLH6Q0AB03DJ,1SRCH7F014TAHX,1U5X071EXP5ZJG,114.7,0.2,16.4,5.368656,3.131716,0,0,Mavic Mini,1SDCH7G0169R0K,1SFLH6Q0AB03DJ,1SRCH7F014TAHX,1U5X071EXP5ZJG,DJI Fly,,1.12.8,633230DA-0053-49D1-1BCB-352B2A677FE0,1SDCH7G0169R0K,,,,,,,,,
2/15/2024,39:11.6,10m 34.3s,634.3,6.9742167,79.91434038,0,0,0.3,51,0.2,0,0,0,0,0,0,0,0,0.3,2.4,92.1,92.1,,Manual Takeoff,Auto Fly,Takeoff (RC Assisted),14,5,TRUE,,Mavic Mini,TRUE,FALSE,,Smart,RC,TRUE,TRUE,FALSE,,,TRUE,,FALSE,FALSE,FALSE,FALSE,FALSE,FALSE,FALSE,FALSE,FALSE,FALSE,0,Follow Yaw,0,0,118.5,118.5,FALSE,FALSE,FALSE,FALSE,FALSE,FALSE,,TRUE,Normal,,100,1024,1024,1024,1024,2,FALSE,FALSE,FALSE,FALSE,FALSE,0,FALSE,FALSE,FALSE,FALSE,56,7.552,1184,2113,7.539,FALSE,3.777,3.775,0.004,FALSE,FALSE,NA,115,114.9,114.9,0,1,0,0,5,2809.7,702.44,,Idle,0,20,FALSE,5,TRUE,9,Go Home,FALSE,FALSE,FALSE,FALSE,FALSE,FALSE,FALSE,FALSE,FALSE,FALSE,FALSE,FALSE,6.974224556,79.91434257,2.9,120.4,328,TRUE,1,1,FALSE,FALSE,FALSE,FALSE,,TRUE,FALSE,FALSE,Course Lock,65.6,41.9,16.4,Calm,27,,1.12.8,Mavic Mini,1SDCH7G0169R0K,1SFLH6Q0AB03DJ,1SRCH7F014TAHX,1U5X071EXP5ZJG,114.7,0.2,16.4,5.368656,3.131716,0,0,Mavic Mini,1SDCH7G0169R0K,1SFLH6Q0AB03DJ,1SRCH7F014TAHX,1U5X071EXP5ZJG,DJI Fly,,1.12.8,633230DA-0053-49D1-1BCB-352B2A677FE0,1SDCH7G0169R0K,,,,,,,,,
2/15/2024,39:11.7,10m 34.4s,634.4,6.974216731,79.91434037,0,0,0.3,51,0.2,0,0,0,0,0,0,0,0,0.3,2.4,92.1,92.1,,Manual Takeoff,Auto Fly,Takeoff (RC Assisted),14,5,TRUE,,Mavic Mini,TRUE,FALSE,,Smart,RC,TRUE,TRUE,FALSE,,,TRUE,,FALSE,FALSE,FALSE,FALSE,FALSE,FALSE,FALSE,FALSE,FALSE,FALSE,0,Follow Yaw,0,0,118.5,118.5,FALSE,FALSE,FALSE,FALSE,FALSE,FALSE,,TRUE,Normal,,100,1024,1024,1024,1024,2,FALSE,FALSE,FALSE,FALSE,FALSE,0,FALSE,FALSE,FALSE,FALSE,56,7.552,1184,2113,7.539,FALSE,3.777,3.775,0.004,FALSE,FALSE,NA,115,114.9,114.9,0,1,0,0,5,2809.7,702.44,,Idle,0,20,FALSE,5,TRUE,9,Go Home,FALSE,FALSE,FALSE,FALSE,FALSE,FALSE,FALSE,FALSE,FALSE,FALSE,FALSE,FALSE,6.974224556,79.91434257,2.9,120.4,328,TRUE,1,1,FALSE,FALSE,FALSE,FALSE,,TRUE,FALSE,FALSE,Course Lock,65.6,41.9,16.4,Calm,27,,1.12.8,Mavic Mini,1SDCH7G0169R0K,1SFLH6Q0AB03DJ,1SRCH7F014TAHX,1U5X071EXP5ZJG,114.7,0.2,16.4,5.368656,3.131716,0,0,Mavic Mini,1SDCH7G0169R0K,1SFLH6Q0AB03DJ,1SRCH7F014TAHX,1U5X071EXP5ZJG,DJI Fly,,1.12.8,633230DA-0053-49D1-1BCB-352B2A677FE0,1SDCH7G0169R0K,,,,,,,,,
2/15/2024,39:11.8,10m 34.5s,634.5,6.974216743,79.91434036,0,0,0.3,51,0.2,0,0,0,0,0,0,0,0,0.4,2.4,92.1,92.1,,Manual Takeoff,Auto Fly,Takeoff (RC Assisted),14,5,TRUE,,Mavic Mini,TRUE,FALSE,,Smart,RC,TRUE,TRUE,FALSE,,,TRUE,,FALSE,FALSE,FALSE,FALSE,FALSE,FALSE,FALSE,FALSE,FALSE,FALSE,0,Follow Yaw,0,0,118.5,118.5,FALSE,FALSE,FALSE,FALSE,FALSE,FALSE,,TRUE,Normal,,100,1024,1024,1024,1024,2,FALSE,FALSE,FALSE,FALSE,FALSE,0,FALSE,FALSE,FALSE,FALSE,56,7.552,1184,2113,7.56,FALSE,3.777,3.775,0.004,FALSE,FALSE,NA,115,114.9,114.9,0,1,0,0,5,2846.3,711.58,,Idle,0,20,FALSE,5,TRUE,9,Go Home,FALSE,FALSE,FALSE,FALSE,FALSE,FALSE,FALSE,FALSE,FALSE,FALSE,FALSE,FALSE,6.974224556,79.91434257,2.9,120.4,328,TRUE,1,1,FALSE,FALSE,FALSE,FALSE,,TRUE,FALSE,FALSE,Course Lock,65.6,41.9,16.4,Calm,27,,1.12.8,Mavic Mini,1SDCH7G0169R0K,1SFLH6Q0AB03DJ,1SRCH7F014TAHX,1U5X071EXP5ZJG,114.7,0.2,16.4,5.368656,3.131716,0,0,Mavic Mini,1SDCH7G0169R0K,1SFLH6Q0AB03DJ,1SRCH7F014TAHX,1U5X071EXP5ZJG,DJI Fly,,1.12.8,633230DA-0053-49D1-1BCB-352B2A677FE0,1SDCH7G0169R0K,,,,,,,,,
2/15/2024,39:11.9,10m 34.6s,634.6,6.974216642,79.91434036,0,0,0.3,51,0.3,0,0,0,0,0,0,0,0,0.4,2.4,92.1,92.1,,Manual Takeoff,Auto Fly,Takeoff (RC Assisted),14,5,TRUE,,Mavic Mini,TRUE,FALSE,,Smart,RC,TRUE,TRUE,FALSE,,,TRUE,,FALSE,FALSE,FALSE,FALSE,FALSE,FALSE,FALSE,FALSE,FALSE,FALSE,0,Follow Yaw,0,0,118.5,118.5,FALSE,FALSE,FALSE,FALSE,FALSE,FALSE,,TRUE,Normal,,100,1024,1024,1024,1024,2,FALSE,FALSE,FALSE,FALSE,FALSE,0,FALSE,FALSE,FALSE,FALSE,56,7.552,1184,2113,7.56,FALSE,3.777,3.775,0.004,FALSE,FALSE,NA,115,114.9,114.9,0,1,0,0,5,2846.3,711.58,,Idle,0,20,FALSE,5,TRUE,9,Go Home,FALSE,FALSE,FALSE,FALSE,FALSE,FALSE,FALSE,FALSE,FALSE,FALSE,FALSE,FALSE,6.974224556,79.91434257,2.9,120.4,328,TRUE,1,1,FALSE,FALSE,FALSE,FALSE,,TRUE,FALSE,FALSE,Course Lock,65.6,41.9,16.4,Calm,27,,1.12.8,Mavic Mini,1SDCH7G0169R0K,1SFLH6Q0AB03DJ,1SRCH7F014TAHX,1U5X071EXP5ZJG,114.7,0.2,16.4,5.368656,3.131716,0,0,Mavic Mini,1SDCH7G0169R0K,1SFLH6Q0AB03DJ,1SRCH7F014TAHX,1U5X071EXP5ZJG,DJI Fly,,1.12.8,633230DA-0053-49D1-1BCB-352B2A677FE0,1SDCH7G0169R0K,,,,,,,,,
2/15/2024,39:12.0,10m 34.7s,634.7,6.974216638,79.91434035,0,0,0.3,51,0.3,0,0,0,0,0,0,0,0,0.3,2.4,92.1,92.1,,Manual Takeoff,Auto Fly,Takeoff (RC Assisted),14,5,TRUE,,Mavic Mini,TRUE,FALSE,,Smart,RC,TRUE,TRUE,FALSE,,,TRUE,,FALSE,FALSE,FALSE,FALSE,FALSE,FALSE,FALSE,FALSE,FALSE,FALSE,0,Follow Yaw,0,0,118.5,118.5,FALSE,FALSE,FALSE,FALSE,FALSE,FALSE,,TRUE,Normal,,100,1024,1024,1024,1024,2,FALSE,FALSE,FALSE,FALSE,FALSE,0,FALSE,FALSE,FALSE,FALSE,56,7.552,1184,2113,7.56,FALSE,3.777,3.775,0.004,FALSE,FALSE,NA,115,114.9,114.9,0,1,0,0,5,2846.3,711.58,,Idle,0,20,FALSE,5,TRUE,9,Go Home,FALSE,FALSE,FALSE,FALSE,FALSE,FALSE,FALSE,FALSE,FALSE,FALSE,FALSE,FALSE,6.974224556,79.91434257,2.9,120.4,328,TRUE,1,1,FALSE,FALSE,FALSE,FALSE,,TRUE,FALSE,FALSE,Course Lock,65.6,41.9,16.4,Calm,27,,1.12.8,Mavic Mini,1SDCH7G0169R0K,1SFLH6Q0AB03DJ,1SRCH7F014TAHX,1U5X071EXP5ZJG,114.7,0.2,16.4,5.368656,3.131716,0,0,Mavic Mini,1SDCH7G0169R0K,1SFLH6Q0AB03DJ,1SRCH7F014TAHX,1U5X071EXP5ZJG,DJI Fly,,1.12.8,633230DA-0053-49D1-1BCB-352B2A677FE0,1SDCH7G0169R0K,,,,,,,,,
2/15/2024,39:12.1,10m 34.8s,634.8,6.974216631,79.91434034,0,0,0.3,51,0.3,0,0,0,0,0,0,0,0,0.4,2.4,92.1,92.1,,Manual Takeoff,Auto Fly,Takeoff (RC Assisted),14,5,TRUE,,Mavic Mini,TRUE,FALSE,,Smart,RC,TRUE,TRUE,FALSE,,,TRUE,,FALSE,FALSE,FALSE,FALSE,FALSE,FALSE,FALSE,FALSE,FALSE,FALSE,0,Follow Yaw,0,0,118.5,118.5,FALSE,FALSE,FALSE,FALSE,FALSE,FALSE,,TRUE,Normal,,100,1024,1024,1024,1024,2,FALSE,FALSE,FALSE,FALSE,FALSE,0,FALSE,FALSE,FALSE,FALSE,56,7.552,1184,2113,7.56,FALSE,3.777,3.775,0.004,FALSE,FALSE,NA,115,114.9,114.9,0,1,0,0,5,2846.3,711.58,,Idle,0,20,FALSE,5,TRUE,9,Go Home,FALSE,FALSE,FALSE,FALSE,FALSE,FALSE,FALSE,FALSE,FALSE,FALSE,FALSE,FALSE,6.974224556,79.91434257,3,120.4,328,TRUE,1,1,FALSE,FALSE,FALSE,FALSE,,TRUE,FALSE,FALSE,Course Lock,65.6,41.9,16.4,Calm,27,,1.12.8,Mavic Mini,1SDCH7G0169R0K,1SFLH6Q0AB03DJ,1SRCH7F014TAHX,1U5X071EXP5ZJG,114.7,0.2,16.4,5.368656,3.131716,0,0,Mavic Mini,1SDCH7G0169R0K,1SFLH6Q0AB03DJ,1SRCH7F014TAHX,1U5X071EXP5ZJG,DJI Fly,,1.12.8,633230DA-0053-49D1-1BCB-352B2A677FE0,1SDCH7G0169R0K,,,,,,,,,
2/15/2024,39:12.2,10m 34.9s,634.9,6.974216625,79.91434033,0,0,0.3,51,0.3,0,0,0,0,0,0,0,0,0.4,2.4,92.1,92.1,,Manual Takeoff,Auto Fly,Takeoff (RC Assisted),14,5,TRUE,,Mavic Mini,TRUE,FALSE,,Smart,RC,TRUE,TRUE,FALSE,,,TRUE,,FALSE,FALSE,FALSE,FALSE,FALSE,FALSE,FALSE,FALSE,FALSE,FALSE,0,Follow Yaw,0,0,118.5,118.5,FALSE,FALSE,FALSE,FALSE,FALSE,FALSE,,TRUE,Normal,,100,1024,1024,1024,1024,2,FALSE,FALSE,FALSE,FALSE,FALSE,0,FALSE,FALSE,FALSE,FALSE,56,7.552,1184,2113,7.56,FALSE,3.777,3.775,0.004,FALSE,FALSE,NA,115,114.9,114.9,0,1,0,0,5,2846.3,711.58,,Idle,0,20,FALSE,5,TRUE,9,Go Home,FALSE,FALSE,FALSE,FALSE,FALSE,FALSE,FALSE,FALSE,FALSE,FALSE,FALSE,FALSE,6.974224556,79.91434257,3,120.4,328,TRUE,1,1,FALSE,FALSE,FALSE,FALSE,,TRUE,FALSE,FALSE,Course Lock,65.6,41.9,16.4,Calm,27,,1.12.8,Mavic Mini,1SDCH7G0169R0K,1SFLH6Q0AB03DJ,1SRCH7F014TAHX,1U5X071EXP5ZJG,114.7,0.2,16.4,5.368656,3.131716,0,0,Mavic Mini,1SDCH7G0169R0K,1SFLH6Q0AB03DJ,1SRCH7F014TAHX,1U5X071EXP5ZJG,DJI Fly,,1.12.8,633230DA-0053-49D1-1BCB-352B2A677FE0,1SDCH7G0169R0K,,,,,,,,,
2/15/2024,39:12.3,10m 35.0s,635,6.97421662,79.91434029,0,0,0.3,51,0.3,0,0,0,0,0,0,0,0,0.3,2.4,92.1,92.1,,Manual Takeoff,Auto Fly,Takeoff (RC Assisted),14,5,TRUE,,Mavic Mini,TRUE,FALSE,,Smart,RC,TRUE,TRUE,FALSE,,,TRUE,,FALSE,FALSE,FALSE,FALSE,FALSE,FALSE,FALSE,FALSE,FALSE,FALSE,0,Follow Yaw,0,0,118.5,118.5,FALSE,FALSE,FALSE,FALSE,FALSE,FALSE,,TRUE,Normal,,100,1024,1024,1024,1024,2,FALSE,FALSE,FALSE,FALSE,FALSE,0,FALSE,FALSE,FALSE,FALSE,56,7.552,1184,2113,7.56,FALSE,3.777,3.775,0.004,FALSE,FALSE,NA,115,114.9,114.9,0,1,0,0,5,2846.3,711.58,,Idle,0,20,FALSE,5,TRUE,9,Go Home,FALSE,FALSE,FALSE,FALSE,FALSE,FALSE,FALSE,FALSE,FALSE,FALSE,FALSE,FALSE,6.974224556,79.91434257,3,120.4,328,TRUE,1,1,FALSE,FALSE,FALSE,FALSE,,TRUE,FALSE,FALSE,Course Lock,65.6,41.9,16.4,Calm,27,,1.12.8,Mavic Mini,1SDCH7G0169R0K,1SFLH6Q0AB03DJ,1SRCH7F014TAHX,1U5X071EXP5ZJG,114.7,0.2,16.4,5.368656,3.131716,0,0,Mavic Mini,1SDCH7G0169R0K,1SFLH6Q0AB03DJ,1SRCH7F014TAHX,1U5X071EXP5ZJG,DJI Fly,,1.12.8,633230DA-0053-49D1-1BCB-352B2A677FE0,1SDCH7G0169R0K,,,,,6.974226781,79.91433092,5,,
2/15/2024,39:12.4,10m 35.1s,635.1,6.974216559,79.91434017,0,0,0.3,51,0.3,0,0,0,0,0,0,0,0,0.3,2.4,92.1,92.1,,Manual Takeoff,Auto Fly,Takeoff (RC Assisted),14,5,TRUE,,Mavic Mini,TRUE,FALSE,,Smart,RC,TRUE,TRUE,FALSE,,,TRUE,,FALSE,FALSE,FALSE,FALSE,FALSE,FALSE,FALSE,FALSE,FALSE,FALSE,0,Follow Yaw,0,0,118.5,118.5,FALSE,FALSE,FALSE,FALSE,FALSE,FALSE,,TRUE,Normal,,100,1024,1024,1024,1024,2,FALSE,FALSE,FALSE,FALSE,FALSE,0,FALSE,FALSE,FALSE,FALSE,56,7.552,1184,2113,7.56,FALSE,3.777,3.775,0.004,FALSE,FALSE,NA,115,114.9,114.9,0,1,0,0,5,2846.3,711.58,,Idle,0,20,FALSE,5,TRUE,9,Go Home,FALSE,FALSE,FALSE,FALSE,FALSE,FALSE,FALSE,FALSE,FALSE,FALSE,FALSE,FALSE,6.974224556,79.91434257,3,120.4,328,TRUE,1,1,FALSE,FALSE,FALSE,FALSE,,TRUE,FALSE,FALSE,Course Lock,65.6,41.9,16.4,Calm,27,,1.12.8,Mavic Mini,1SDCH7G0169R0K,1SFLH6Q0AB03DJ,1SRCH7F014TAHX,1U5X071EXP5ZJG,114.7,0.2,16.4,5.368656,3.131716,0,0,Mavic Mini,1SDCH7G0169R0K,1SFLH6Q0AB03DJ,1SRCH7F014TAHX,1U5X071EXP5ZJG,DJI Fly,,1.12.8,633230DA-0053-49D1-1BCB-352B2A677FE0,1SDCH7G0169R0K,,,,,6.974226781,79.91433092,5,,
2/15/2024,39:12.6,10m 35.2s,635.2,6.974216558,79.91434013,0,0,0.3,51,0.4,0,0,0,0,0,0,0,0,0.4,2.4,92.1,92.1,,Manual Takeoff,Auto Fly,Takeoff (RC Assisted),14,5,TRUE,,Mavic Mini,TRUE,FALSE,,Smart,RC,TRUE,TRUE,FALSE,,,TRUE,,FALSE,FALSE,FALSE,FALSE,FALSE,FALSE,FALSE,FALSE,FALSE,FALSE,0,Follow Yaw,0,0,118.5,118.5,FALSE,FALSE,FALSE,FALSE,FALSE,FALSE,,TRUE,Normal,,100,1024,1024,1024,1024,2,FALSE,FALSE,FALSE,FALSE,FALSE,0,FALSE,FALSE,FALSE,FALSE,56,7.552,1184,2113,7.56,FALSE,3.777,3.775,0.004,FALSE,FALSE,NA,115,114.9,114.9,0,1,0,0,5,2846.3,711.58,,Idle,0,20,FALSE,5,TRUE,9,Go Home,FALSE,FALSE,FALSE,FALSE,FALSE,FALSE,FALSE,FALSE,FALSE,FALSE,FALSE,FALSE,6.974224556,79.91434257,3,120.4,328,TRUE,1,1,FALSE,FALSE,FALSE,FALSE,,TRUE,FALSE,FALSE,Course Lock,65.6,41.9,16.4,Calm,27,,1.12.8,Mavic Mini,1SDCH7G0169R0K,1SFLH6Q0AB03DJ,1SRCH7F014TAHX,1U5X071EXP5ZJG,114.7,0.2,16.4,5.368656,3.131716,0,0,Mavic Mini,1SDCH7G0169R0K,1SFLH6Q0AB03DJ,1SRCH7F014TAHX,1U5X071EXP5ZJG,DJI Fly,,1.12.8,633230DA-0053-49D1-1BCB-352B2A677FE0,1SDCH7G0169R0K,,,,,6.974226781,79.91433092,5,,
2/15/2024,39:12.7,10m 35.3s,635.3,6.974216559,79.91434011,0,0,0.3,51,0.4,0,0,0,0,0,0,0,0,0.4,2.4,92.1,92.1,,Manual Takeoff,Auto Fly,Takeoff (RC Assisted),14,5,TRUE,,Mavic Mini,TRUE,FALSE,,Smart,RC,TRUE,TRUE,FALSE,,,TRUE,,FALSE,FALSE,FALSE,FALSE,FALSE,FALSE,FALSE,FALSE,FALSE,FALSE,0,Follow Yaw,0,0,118.5,118.5,FALSE,FALSE,FALSE,FALSE,FALSE,FALSE,,TRUE,Normal,,100,1024,1024,1024,1024,2,FALSE,FALSE,FALSE,FALSE,FALSE,0,FALSE,FALSE,FALSE,FALSE,56,7.552,1184,2113,7.56,FALSE,3.777,3.775,0.004,FALSE,FALSE,NA,115,114.9,114.9,0,1,0,0,5,2846.3,711.58,,Idle,0,20,FALSE,5,TRUE,9,Go Home,FALSE,FALSE,FALSE,FALSE,FALSE,FALSE,FALSE,FALSE,FALSE,FALSE,FALSE,FALSE,6.974224556,79.91434257,3,120.4,328,TRUE,1,1,FALSE,FALSE,FALSE,FALSE,,TRUE,FALSE,FALSE,Course Lock,65.6,41.9,16.4,Calm,27,,1.12.8,Mavic Mini,1SDCH7G0169R0K,1SFLH6Q0AB03DJ,1SRCH7F014TAHX,1U5X071EXP5ZJG,114.7,0.2,16.4,5.368656,3.131716,0,0,Mavic Mini,1SDCH7G0169R0K,1SFLH6Q0AB03DJ,1SRCH7F014TAHX,1U5X071EXP5ZJG,DJI Fly,,1.12.8,633230DA-0053-49D1-1BCB-352B2A677FE0,1SDCH7G0169R0K,,,,,6.974226781,79.91433092,5,,
2/15/2024,39:12.8,10m 35.4s,635.4,6.974216561,79.91434007,0,0,0.3,51,0.4,0,0,0,0,0,0,0,0,0.3,2.4,92.1,92.1,,Manual Takeoff,Auto Fly,Takeoff (RC Assisted),14,5,TRUE,,Mavic Mini,TRUE,FALSE,,Smart,RC,TRUE,TRUE,FALSE,,,TRUE,,FALSE,FALSE,FALSE,FALSE,FALSE,FALSE,FALSE,FALSE,FALSE,FALSE,0,Follow Yaw,0,0,118.5,118.5,FALSE,FALSE,FALSE,FALSE,FALSE,FALSE,,TRUE,Normal,,100,1024,1024,1048,1024,2,FALSE,FALSE,FALSE,FALSE,FALSE,0,FALSE,FALSE,FALSE,FALSE,56,7.552,1184,2113,7.56,FALSE,3.777,3.775,0.004,FALSE,FALSE,NA,115,114.9,114.9,0,1,0,0,5,2846.3,711.58,,Idle,0,20,FALSE,5,TRUE,9,Go Home,FALSE,FALSE,FALSE,FALSE,FALSE,FALSE,FALSE,FALSE,FALSE,FALSE,FALSE,FALSE,6.974224556,79.91434257,3,120.4,328,TRUE,1,1,FALSE,FALSE,FALSE,FALSE,,TRUE,FALSE,FALSE,Course Lock,65.6,41.9,16.4,Calm,27,,1.12.8,Mavic Mini,1SDCH7G0169R0K,1SFLH6Q0AB03DJ,1SRCH7F014TAHX,1U5X071EXP5ZJG,114.7,0.2,16.4,5.368656,3.131716,0,0,Mavic Mini,1SDCH7G0169R0K,1SFLH6Q0AB03DJ,1SRCH7F014TAHX,1U5X071EXP5ZJG,DJI Fly,,1.12.8,633230DA-0053-49D1-1BCB-352B2A677FE0,1SDCH7G0169R0K,,,,,6.974226781,79.91433092,5,,
2/15/2024,39:12.9,10m 35.5s,635.5,6.974216542,79.91433999,0,0,0.3,51,0.4,0,0,0,0,0,0,0,0,0.3,2.4,92.1,92.1,,Manual Takeoff,Auto Fly,Takeoff (RC Assisted),14,5,TRUE,,Mavic Mini,TRUE,FALSE,,Smart,RC,TRUE,TRUE,FALSE,,,TRUE,,FALSE,FALSE,FALSE,FALSE,FALSE,FALSE,FALSE,FALSE,FALSE,FALSE,0,Follow Yaw,0,0,118.5,118.5,FALSE,FALSE,FALSE,FALSE,FALSE,FALSE,,TRUE,Normal,,100,1024,1024,1048,1024,2,FALSE,FALSE,FALSE,FALSE,FALSE,0,FALSE,FALSE,FALSE,FALSE,56,7.545,1183,2113,7.551,FALSE,3.775,3.771,0.004,FALSE,FALSE,NA,115,114.9,114.9,0,1,0,0,5,2961.8,740.45,,Idle,0,20,FALSE,5,TRUE,9,Go Home,FALSE,FALSE,FALSE,FALSE,FALSE,FALSE,FALSE,FALSE,FALSE,FALSE,FALSE,FALSE,6.974224556,79.91434257,3,120.4,328,TRUE,1,1,FALSE,FALSE,FALSE,FALSE,,TRUE,FALSE,FALSE,Course Lock,65.6,41.9,16.4,Calm,27,,1.12.8,Mavic Mini,1SDCH7G0169R0K,1SFLH6Q0AB03DJ,1SRCH7F014TAHX,1U5X071EXP5ZJG,114.7,0.2,16.4,5.368656,3.131716,0,0,Mavic Mini,1SDCH7G0169R0K,1SFLH6Q0AB03DJ,1SRCH7F014TAHX,1U5X071EXP5ZJG,DJI Fly,,1.12.8,633230DA-0053-49D1-1BCB-352B2A677FE0,1SDCH7G0169R0K,,,,,6.974226781,79.91433092,5,,
2/15/2024,39:12.9,10m 35.6s,635.6,6.974216546,79.91433996,0,0,0.3,51,0.4,0,0,0,0,0,0,0,0,0.3,2.4,92.1,92.1,,Manual Takeoff,Auto Fly,Takeoff (RC Assisted),14,5,TRUE,,Mavic Mini,TRUE,FALSE,,Smart,RC,TRUE,TRUE,FALSE,,,TRUE,,FALSE,FALSE,FALSE,FALSE,FALSE,FALSE,FALSE,FALSE,FALSE,FALSE,0,Follow Yaw,0,0,118.5,118.5,FALSE,FALSE,FALSE,FALSE,FALSE,FALSE,,TRUE,Normal,,100,1024,1024,1084,1024,2,FALSE,FALSE,FALSE,FALSE,FALSE,0,FALSE,FALSE,FALSE,FALSE,56,7.545,1183,2113,7.551,FALSE,3.775,3.771,0.004,FALSE,FALSE,NA,115,114.9,114.9,0,1,0,0,5,2961.8,740.45,,Idle,0,20,FALSE,5,TRUE,9,Go Home,FALSE,FALSE,FALSE,FALSE,FALSE,FALSE,FALSE,FALSE,FALSE,FALSE,FALSE,FALSE,6.974224556,79.91434257,3,120.4,328,TRUE,1,1,FALSE,FALSE,FALSE,FALSE,,TRUE,FALSE,FALSE,Course Lock,65.6,41.9,16.4,Calm,27,,1.12.8,Mavic Mini,1SDCH7G0169R0K,1SFLH6Q0AB03DJ,1SRCH7F014TAHX,1U5X071EXP5ZJG,114.7,0.2,16.4,5.368656,3.131716,0,0,Mavic Mini,1SDCH7G0169R0K,1SFLH6Q0AB03DJ,1SRCH7F014TAHX,1U5X071EXP5ZJG,DJI Fly,,1.12.8,633230DA-0053-49D1-1BCB-352B2A677FE0,1SDCH7G0169R0K,,,,,6.974226781,79.91433092,5,,
2/15/2024,39:13.1,10m 35.7s,635.7,6.97421655,79.91433994,0,0,0.3,51,0.4,0,0,0,0,0,0,0,0,0.3,2.4,92.1,92.1,,Manual Takeoff,Auto Fly,Takeoff (RC Assisted),14,5,TRUE,,Mavic Mini,TRUE,FALSE,,Smart,RC,TRUE,TRUE,FALSE,,,TRUE,,FALSE,FALSE,FALSE,FALSE,FALSE,FALSE,FALSE,FALSE,FALSE,FALSE,0,Follow Yaw,0,0,118.5,118.5,FALSE,FALSE,FALSE,FALSE,FALSE,FALSE,,TRUE,Normal,,100,1024,1024,1137,1024,2,FALSE,FALSE,FALSE,FALSE,FALSE,0,FALSE,FALSE,FALSE,FALSE,56,7.545,1183,2113,7.551,FALSE,3.775,3.771,0.004,FALSE,FALSE,NA,115,114.9,114.9,0,1,0,0,5,2961.8,740.45,,Idle,0,20,FALSE,5,TRUE,9,Go Home,FALSE,FALSE,FALSE,FALSE,FALSE,FALSE,FALSE,FALSE,FALSE,FALSE,FALSE,FALSE,6.974224556,79.91434257,3,120.4,328,TRUE,1,1,FALSE,FALSE,FALSE,FALSE,,TRUE,FALSE,FALSE,Course Lock,65.6,41.9,16.4,Calm,27,,1.12.8,Mavic Mini,1SDCH7G0169R0K,1SFLH6Q0AB03DJ,1SRCH7F014TAHX,1U5X071EXP5ZJG,114.7,0.2,16.4,5.368656,3.131716,0,0,Mavic Mini,1SDCH7G0169R0K,1SFLH6Q0AB03DJ,1SRCH7F014TAHX,1U5X071EXP5ZJG,DJI Fly,,1.12.8,633230DA-0053-49D1-1BCB-352B2A677FE0,1SDCH7G0169R0K,,,,,6.974226781,79.91433092,5,,
2/15/2024,39:13.1,10m 35.8s,635.8,6.974216555,79.91433994,0,0,0.3,51,0.4,0,0,0,0,0,0,0,0,0.3,2.4,92.1,92.1,,Manual Takeoff,Auto Fly,Takeoff (RC Assisted),14,5,TRUE,,Mavic Mini,TRUE,FALSE,,Smart,RC,TRUE,TRUE,FALSE,,,TRUE,,FALSE,FALSE,FALSE,FALSE,FALSE,FALSE,FALSE,FALSE,FALSE,FALSE,0,Follow Yaw,0,0,118.5,118.5,FALSE,FALSE,FALSE,FALSE,FALSE,FALSE,,TRUE,Normal,,100,1024,1024,1157,1024,2,FALSE,FALSE,FALSE,FALSE,FALSE,0,FALSE,FALSE,FALSE,FALSE,56,7.545,1183,2113,7.551,FALSE,3.775,3.771,0.004,FALSE,FALSE,NA,115,114.9,114.9,0,1,0,0,5,2961.8,740.45,,Idle,0,20,FALSE,5,TRUE,9,Go Home,FALSE,FALSE,FALSE,FALSE,FALSE,FALSE,FALSE,FALSE,FALSE,FALSE,FALSE,FALSE,6.974224556,79.91434257,3,120.4,328,TRUE,1,1,FALSE,FALSE,FALSE,FALSE,,TRUE,FALSE,FALSE,Course Lock,65.6,41.9,16.4,Calm,27,,1.12.8,Mavic Mini,1SDCH7G0169R0K,1SFLH6Q0AB03DJ,1SRCH7F014TAHX,1U5X071EXP5ZJG,114.7,0.2,16.4,5.368656,3.131716,0,0,Mavic Mini,1SDCH7G0169R0K,1SFLH6Q0AB03DJ,1SRCH7F014TAHX,1U5X071EXP5ZJG,DJI Fly,,1.12.8,633230DA-0053-49D1-1BCB-352B2A677FE0,1SDCH7G0169R0K,,,,,6.974226781,79.91433092,5,,
2/15/2024,39:13.2,10m 35.9s,635.9,6.974216551,79.91434004,0,0,0.3,51,0.5,0,0,0,0,0,0,0,0,0.4,2.3,92.1,92.1,,Manual Takeoff,Auto Fly,Takeoff (RC Assisted),14,5,TRUE,,Mavic Mini,TRUE,FALSE,,Smart,RC,TRUE,TRUE,FALSE,,,TRUE,,FALSE,FALSE,FALSE,FALSE,FALSE,FALSE,FALSE,FALSE,FALSE,FALSE,0,Follow Yaw,0,0,118.5,118.5,FALSE,FALSE,FALSE,FALSE,FALSE,FALSE,,TRUE,Normal,,100,1024,1024,1169,1024,2,FALSE,FALSE,FALSE,FALSE,FALSE,0,FALSE,FALSE,FALSE,FALSE,56,7.545,1183,2113,7.551,FALSE,3.775,3.771,0.004,FALSE,FALSE,NA,115,114.9,114.9,0,1,0,0,5,2961.8,740.45,,Idle,0,20,FALSE,5,TRUE,9,Go Home,FALSE,FALSE,FALSE,FALSE,FALSE,FALSE,FALSE,FALSE,FALSE,FALSE,FALSE,FALSE,6.974224556,79.91434257,3,120.4,328,TRUE,1,1,FALSE,FALSE,FALSE,FALSE,,TRUE,FALSE,FALSE,Course Lock,65.6,41.9,16.4,Calm,27,,1.12.8,Mavic Mini,1SDCH7G0169R0K,1SFLH6Q0AB03DJ,1SRCH7F014TAHX,1U5X071EXP5ZJG,114.7,0.2,16.4,5.368656,3.131716,0,0,Mavic Mini,1SDCH7G0169R0K,1SFLH6Q0AB03DJ,1SRCH7F014TAHX,1U5X071EXP5ZJG,DJI Fly,,1.12.8,633230DA-0053-49D1-1BCB-352B2A677FE0,1SDCH7G0169R0K,,,,,6.974226781,79.91433092,5,,
2/15/2024,39:13.3,10m 36.0s,636,6.974216556,79.91434004,0,0,0.3,51,0.5,0,0,0,0,0,0,0,0,0.4,2.2,92.1,92.1,,Manual Takeoff,Auto Fly,Takeoff (RC Assisted),14,5,TRUE,,Mavic Mini,TRUE,FALSE,,Smart,RC,TRUE,TRUE,FALSE,,,TRUE,,FALSE,FALSE,FALSE,FALSE,FALSE,FALSE,FALSE,FALSE,FALSE,FALSE,0,Follow Yaw,0,0,118.5,118.5,FALSE,FALSE,FALSE,FALSE,FALSE,FALSE,,TRUE,Normal,,100,1024,1024,1170,1024,2,FALSE,FALSE,FALSE,FALSE,FALSE,0,FALSE,FALSE,FALSE,FALSE,56,7.545,1183,2113,7.551,FALSE,3.775,3.771,0.004,FALSE,FALSE,NA,115,114.9,114.9,0,1,0,0,5,2961.8,740.45,,Idle,0,20,FALSE,5,TRUE,9,Go Home,FALSE,FALSE,FALSE,FALSE,FALSE,FALSE,FALSE,FALSE,FALSE,FALSE,FALSE,FALSE,6.974224556,79.91434257,3,120.4,328,TRUE,1,1,FALSE,FALSE,FALSE,FALSE,,TRUE,FALSE,FALSE,Course Lock,65.6,41.9,16.4,Calm,27,,1.12.8,Mavic Mini,1SDCH7G0169R0K,1SFLH6Q0AB03DJ,1SRCH7F014TAHX,1U5X071EXP5ZJG,114.7,0.2,16.4,5.368656,3.131716,0,0,Mavic Mini,1SDCH7G0169R0K,1SFLH6Q0AB03DJ,1SRCH7F014TAHX,1U5X071EXP5ZJG,DJI Fly,,1.12.8,633230DA-0053-49D1-1BCB-352B2A677FE0,1SDCH7G0169R0K,,,,,6.974226781,79.91433092,5,,
2/15/2024,39:13.5,10m 36.1s,636.1,6.974216561,79.91434005,0,0,0.3,51,0.5,0,0,0,0,0,0,0,0,0.4,2.2,92.1,92.1,,Manual Takeoff,Auto Fly,Takeoff (RC Assisted),14,5,TRUE,,Mavic Mini,TRUE,FALSE,,Smart,RC,TRUE,TRUE,FALSE,,,TRUE,,FALSE,FALSE,FALSE,FALSE,FALSE,FALSE,FALSE,FALSE,FALSE,FALSE,0,Follow Yaw,0,0,118.5,118.5,FALSE,FALSE,FALSE,FALSE,FALSE,FALSE,,TRUE,Normal,,100,1024,1024,1169,1024,2,FALSE,FALSE,FALSE,FALSE,FALSE,0,FALSE,FALSE,FALSE,FALSE,56,7.545,1183,2113,7.551,FALSE,3.775,3.771,0.004,FALSE,FALSE,NA,115,114.9,114.9,0,1,0,0,5,2961.8,740.45,,Idle,0,20,FALSE,5,TRUE,9,Go Home,FALSE,FALSE,FALSE,FALSE,FALSE,FALSE,FALSE,FALSE,FALSE,FALSE,FALSE,FALSE,6.974224556,79.91434257,3,120.4,328,TRUE,1,1,FALSE,FALSE,FALSE,FALSE,,TRUE,FALSE,FALSE,Course Lock,65.6,41.9,16.4,Calm,27,,1.12.8,Mavic Mini,1SDCH7G0169R0K,1SFLH6Q0AB03DJ,1SRCH7F014TAHX,1U5X071EXP5ZJG,114.7,0.2,16.4,5.368656,3.131716,0,0,Mavic Mini,1SDCH7G0169R0K,1SFLH6Q0AB03DJ,1SRCH7F014TAHX,1U5X071EXP5ZJG,DJI Fly,,1.12.8,633230DA-0053-49D1-1BCB-352B2A677FE0,1SDCH7G0169R0K,,,,,6.974226781,79.91433092,5,,
2/15/2024,39:13.5,10m 36.2s,636.2,6.974216564,79.91434005,0,0,0.3,51,0.5,0,0,0,0,0,0,0,0,0.3,2.1,92.1,92.1,,Manual Takeoff,Auto Fly,Takeoff (RC Assisted),14,5,TRUE,,Mavic Mini,TRUE,FALSE,,Smart,RC,TRUE,TRUE,FALSE,,,TRUE,,FALSE,FALSE,FALSE,FALSE,FALSE,FALSE,FALSE,FALSE,FALSE,FALSE,0,Follow Yaw,0,0,118.5,118.5,FALSE,FALSE,FALSE,FALSE,FALSE,FALSE,,TRUE,Normal,,100,1024,1024,1169,1024,2,FALSE,FALSE,FALSE,FALSE,FALSE,0,FALSE,FALSE,FALSE,FALSE,56,7.545,1183,2113,7.551,FALSE,3.775,3.771,0.004,FALSE,FALSE,NA,115,114.9,114.9,0,1,0,0,5,2961.8,740.45,,Idle,0,20,FALSE,5,TRUE,9,Go Home,FALSE,FALSE,FALSE,FALSE,FALSE,FALSE,FALSE,FALSE,FALSE,FALSE,FALSE,FALSE,6.974224556,79.91434257,3,120.4,328,TRUE,1,1,FALSE,FALSE,FALSE,FALSE,,TRUE,FALSE,FALSE,Course Lock,65.6,41.9,16.4,Calm,27,,1.12.8,Mavic Mini,1SDCH7G0169R0K,1SFLH6Q0AB03DJ,1SRCH7F014TAHX,1U5X071EXP5ZJG,114.7,0.2,16.4,5.368656,3.131716,0,0,Mavic Mini,1SDCH7G0169R0K,1SFLH6Q0AB03DJ,1SRCH7F014TAHX,1U5X071EXP5ZJG,DJI Fly,,1.12.8,633230DA-0053-49D1-1BCB-352B2A677FE0,1SDCH7G0169R0K,,,,,6.974226781,79.91433092,5,,
2/15/2024,39:13.7,10m 36.3s,636.3,6.974216546,79.91434013,0,0,0.3,51,0.5,0,0,0,0,0,0,0,0,0.2,2.1,91.9,91.9,,Manual Takeoff,Auto Fly,Takeoff (RC Assisted),14,5,TRUE,,Mavic Mini,TRUE,FALSE,,Smart,RC,TRUE,TRUE,FALSE,,,TRUE,,FALSE,FALSE,FALSE,FALSE,FALSE,FALSE,FALSE,FALSE,FALSE,FALSE,0,Follow Yaw,0,0,118.5,118.5,FALSE,FALSE,FALSE,FALSE,FALSE,FALSE,,TRUE,Normal,,100,1024,1024,1169,1024,2,FALSE,FALSE,FALSE,FALSE,FALSE,0,FALSE,FALSE,FALSE,FALSE,56,7.545,1183,2113,7.551,FALSE,3.775,3.771,0.004,FALSE,FALSE,NA,115,114.9,114.9,0,1,0,0,5,2961.8,740.45,,Idle,0,20,FALSE,5,TRUE,9,Go Home,FALSE,FALSE,FALSE,FALSE,FALSE,FALSE,FALSE,FALSE,FALSE,FALSE,FALSE,FALSE,6.974224556,79.91434257,3,120.4,328,TRUE,1,1,FALSE,FALSE,FALSE,FALSE,,TRUE,FALSE,FALSE,Course Lock,65.6,41.9,16.4,Calm,27,,1.12.8,Mavic Mini,1SDCH7G0169R0K,1SFLH6Q0AB03DJ,1SRCH7F014TAHX,1U5X071EXP5ZJG,114.7,0.2,16.4,5.368656,3.131716,0,0,Mavic Mini,1SDCH7G0169R0K,1SFLH6Q0AB03DJ,1SRCH7F014TAHX,1U5X071EXP5ZJG,DJI Fly,,1.12.8,633230DA-0053-49D1-1BCB-352B2A677FE0,1SDCH7G0169R0K,,,,,6.974226781,79.91433092,5,,
2/15/2024,39:13.7,10m 36.4s,636.4,6.974216535,79.91434013,0,0,0.3,51,0.5,0,0,0,0,0,0,0,0,0.2,2.1,91.2,91.2,,Manual Takeoff,Auto Fly,Takeoff (RC Assisted),14,5,TRUE,,Mavic Mini,TRUE,FALSE,,Smart,RC,TRUE,TRUE,FALSE,,,TRUE,,FALSE,FALSE,FALSE,FALSE,FALSE,FALSE,FALSE,FALSE,FALSE,FALSE,0,Follow Yaw,0,0,118.4,118.4,FALSE,FALSE,FALSE,FALSE,FALSE,FALSE,,TRUE,Normal,,100,1024,1024,1169,1024,2,FALSE,FALSE,FALSE,FALSE,FALSE,0,FALSE,FALSE,FALSE,FALSE,56,7.545,1183,2113,7.551,FALSE,3.775,3.771,0.004,FALSE,FALSE,NA,115,114.9,114.9,0,1,0,0,5,2961.8,740.45,,Idle,0,20,FALSE,5,TRUE,9,Go Home,FALSE,FALSE,FALSE,FALSE,FALSE,FALSE,FALSE,FALSE,FALSE,FALSE,FALSE,FALSE,6.974224556,79.91434257,3,120.4,328,TRUE,1,1,FALSE,FALSE,FALSE,FALSE,,TRUE,FALSE,FALSE,Course Lock,65.6,41.9,16.4,Calm,27,,1.12.8,Mavic Mini,1SDCH7G0169R0K,1SFLH6Q0AB03DJ,1SRCH7F014TAHX,1U5X071EXP5ZJG,114.7,0.2,16.4,5.368656,3.131716,0,0,Mavic Mini,1SDCH7G0169R0K,1SFLH6Q0AB03DJ,1SRCH7F014TAHX,1U5X071EXP5ZJG,DJI Fly,,1.12.8,633230DA-0053-49D1-1BCB-352B2A677FE0,1SDCH7G0169R0K,,,,,6.974226781,79.91433092,5,,
2/15/2024,39:13.9,10m 36.5s,636.5,6.974216503,79.91434015,0,0,0.3,51,0.5,0,0,0,0,0,0,0,0,0.4,1.8,89.9,89.9,,Manual Takeoff,Auto Fly,Takeoff (RC Assisted),14,5,TRUE,,Mavic Mini,TRUE,FALSE,,Smart,RC,TRUE,TRUE,FALSE,,,TRUE,,FALSE,FALSE,FALSE,FALSE,FALSE,FALSE,FALSE,FALSE,FALSE,FALSE,0,Follow Yaw,0,0,117.8,117.8,FALSE,FALSE,FALSE,FALSE,FALSE,FALSE,,TRUE,Normal,,100,1024,1024,1167,1024,2,FALSE,FALSE,FALSE,FALSE,FALSE,0,FALSE,FALSE,FALSE,FALSE,56,7.545,1183,2113,7.515,FALSE,3.775,3.771,0.004,FALSE,FALSE,NA,115,114.9,114.9,0,1,0,0,5,2961.8,740.45,,Idle,0,20,FALSE,5,TRUE,9,Go Home,FALSE,FALSE,FALSE,FALSE,FALSE,FALSE,FALSE,FALSE,FALSE,FALSE,FALSE,FALSE,6.974224556,79.91434257,3,120.4,328,TRUE,1,1,FALSE,FALSE,FALSE,FALSE,,TRUE,FALSE,FALSE,Course Lock,65.6,41.9,16.4,Calm,27,,1.12.8,Mavic Mini,1SDCH7G0169R0K,1SFLH6Q0AB03DJ,1SRCH7F014TAHX,1U5X071EXP5ZJG,114.7,0.2,16.4,5.368656,3.131716,0,0,Mavic Mini,1SDCH7G0169R0K,1SFLH6Q0AB03DJ,1SRCH7F014TAHX,1U5X071EXP5ZJG,DJI Fly,,1.12.8,633230DA-0053-49D1-1BCB-352B2A677FE0,1SDCH7G0169R0K,,,,,6.974226781,79.91433092,5,,
2/15/2024,39:14.0,10m 36.6s,636.6,6.974216443,79.91434017,0,0,0.3,51,0.5,0,0,0,0,0,0,0,0,-1.7,1,88.8,88.8,,Manual Takeoff,Auto Fly,Takeoff (RC Assisted),14,5,TRUE,,Mavic Mini,TRUE,FALSE,,Smart,RC,TRUE,TRUE,FALSE,,,TRUE,,FALSE,FALSE,FALSE,FALSE,FALSE,FALSE,FALSE,FALSE,FALSE,FALSE,0,Follow Yaw,0,0,116.8,116.8,FALSE,FALSE,FALSE,FALSE,FALSE,FALSE,,TRUE,Normal,,100,1024,1024,1166,1024,2,FALSE,FALSE,FALSE,FALSE,FALSE,0,FALSE,FALSE,FALSE,FALSE,56,7.47,1183,2113,7.515,FALSE,3.738,3.732,0.006,FALSE,FALSE,NA,115,114.9,114.9,0,1,0,0,5,2961.8,740.45,,Idle,0,20,FALSE,5,TRUE,9,Go Home,FALSE,FALSE,FALSE,FALSE,FALSE,FALSE,FALSE,FALSE,FALSE,FALSE,FALSE,FALSE,6.974224556,79.91434257,3,120.4,328,TRUE,1,1,FALSE,FALSE,FALSE,FALSE,,TRUE,FALSE,FALSE,Course Lock,65.6,41.9,16.4,Calm,27,,1.12.8,Mavic Mini,1SDCH7G0169R0K,1SFLH6Q0AB03DJ,1SRCH7F014TAHX,1U5X071EXP5ZJG,114.7,0.2,16.4,5.368656,3.131716,0,0,Mavic Mini,1SDCH7G0169R0K,1SFLH6Q0AB03DJ,1SRCH7F014TAHX,1U5X071EXP5ZJG,DJI Fly,,1.12.8,633230DA-0053-49D1-1BCB-352B2A677FE0,1SDCH7G0169R0K,,,,,6.974226781,79.91433092,5,,
2/15/2024,39:14.2,10m 36.7s,636.7,6.974216355,79.91434023,0,0,0.3,51,0.6,0.316351,0.316351,-0.223694,0,0.223694,0.223694,0,0,-3,-0.9,88.4,88.4,151.8,Manual Takeoff,Auto Fly,Takeoff (RC Assisted),14,5,TRUE,,Mavic Mini,TRUE,FALSE,,Smart,RC,TRUE,TRUE,FALSE,,,TRUE,,FALSE,FALSE,FALSE,FALSE,FALSE,FALSE,FALSE,FALSE,FALSE,FALSE,0,Follow Yaw,0,0,116,116,FALSE,FALSE,FALSE,FALSE,FALSE,FALSE,,TRUE,Normal,,100,1024,1024,1166,1024,2,FALSE,FALSE,FALSE,FALSE,FALSE,0,FALSE,FALSE,FALSE,FALSE,56,7.47,1183,2113,7.515,FALSE,3.738,3.732,0.006,FALSE,FALSE,NA,115,114.9,114.9,0,1,0,0,5,2961.8,740.45,,Idle,0,20,FALSE,5,TRUE,9,Go Home,FALSE,FALSE,FALSE,FALSE,FALSE,FALSE,FALSE,FALSE,FALSE,FALSE,FALSE,FALSE,6.974224556,79.91434257,3.1,120.4,328,TRUE,1,1,FALSE,FALSE,FALSE,FALSE,,TRUE,FALSE,FALSE,Course Lock,65.6,41.9,16.4,Calm,27,,1.12.8,Mavic Mini,1SDCH7G0169R0K,1SFLH6Q0AB03DJ,1SRCH7F014TAHX,1U5X071EXP5ZJG,114.7,0.2,16.4,5.368656,3.131716,0,0,Mavic Mini,1SDCH7G0169R0K,1SFLH6Q0AB03DJ,1SRCH7F014TAHX,1U5X071EXP5ZJG,DJI Fly,,1.12.8,633230DA-0053-49D1-1BCB-352B2A677FE0,1SDCH7G0169R0K,,,,,6.974226781,79.91433092,5,,
2/15/2024,39:14.2,10m 36.8s,636.8,6.974216232,79.91434034,0,0,0.3,51,0.6,0.500194,0.500194,-0.223694,0,0.447388,0.447388,-0.223694,0,-2.8,-1.3,87.3,87.3,145.2,Manual Takeoff,Auto Fly,Takeoff (RC Assisted),14,5,TRUE,,Mavic Mini,TRUE,FALSE,,Smart,RC,FALSE,TRUE,FALSE,,,TRUE,,FALSE,FALSE,FALSE,FALSE,FALSE,FALSE,FALSE,FALSE,FALSE,FALSE,0,Follow Yaw,0,0,115.3,115.3,FALSE,FALSE,FALSE,FALSE,FALSE,FALSE,,TRUE,Normal,,100,1024,1024,1163,1024,2,FALSE,FALSE,FALSE,FALSE,FALSE,0,FALSE,FALSE,FALSE,FALSE,56,7.47,1183,2113,7.515,FALSE,3.738,3.732,0.006,FALSE,FALSE,NA,115,114.9,114.9,0,1,0,0,5,2961.8,740.45,,Idle,0,20,FALSE,5,TRUE,9,Go Home,FALSE,FALSE,FALSE,FALSE,FALSE,FALSE,FALSE,FALSE,FALSE,FALSE,FALSE,FALSE,6.974224556,79.91434257,3.1,120.4,328,TRUE,1,1,FALSE,FALSE,FALSE,FALSE,,TRUE,FALSE,FALSE,Course Lock,65.6,41.9,16.4,Calm,27,,1.12.8,Mavic Mini,1SDCH7G0169R0K,1SFLH6Q0AB03DJ,1SRCH7F014TAHX,1U5X071EXP5ZJG,114.7,0.2,16.4,5.368656,3.131716,0,0,Mavic Mini,1SDCH7G0169R0K,1SFLH6Q0AB03DJ,1SRCH7F014TAHX,1U5X071EXP5ZJG,DJI Fly,,1.12.8,633230DA-0053-49D1-1BCB-352B2A677FE0,1SDCH7G0169R0K,,,,,6.974226781,79.91433092,5,,
2/15/2024,39:14.3,10m 36.9s,636.9,6.974216134,79.91434062,0,0,0.3,51,0.7,0.707382,0.707382,-0.223694,0,0.671082,0.671082,-0.447388,0,-0.6,-1,87,87,114.3,Tripod,Auto Fly,,14,5,TRUE,,Mavic Mini,TRUE,FALSE,,Smart,RC,FALSE,TRUE,FALSE,,,TRUE,,FALSE,FALSE,FALSE,FALSE,FALSE,FALSE,FALSE,FALSE,FALSE,FALSE,0,Follow Yaw,0,0,114.7,114.7,FALSE,FALSE,FALSE,FALSE,FALSE,FALSE,,TRUE,Normal,,100,1024,1024,1163,1024,2,FALSE,FALSE,FALSE,FALSE,FALSE,0,FALSE,FALSE,FALSE,FALSE,56,7.47,1183,2113,7.515,FALSE,3.738,3.732,0.006,FALSE,FALSE,NA,115,114.9,114.9,0,1,0,0,5,2961.8,740.45,,Idle,0,20,FALSE,5,TRUE,9,Go Home,FALSE,FALSE,FALSE,FALSE,FALSE,FALSE,FALSE,FALSE,FALSE,FALSE,FALSE,FALSE,6.974224556,79.91434257,3.1,120.4,328,TRUE,1,1,FALSE,FALSE,FALSE,FALSE,,TRUE,FALSE,FALSE,Course Lock,65.6,41.9,16.4,Calm,27,,1.12.8,Mavic Mini,1SDCH7G0169R0K,1SFLH6Q0AB03DJ,1SRCH7F014TAHX,1U5X071EXP5ZJG,114.7,0.2,16.4,5.368656,3.131716,0,0,Mavic Mini,1SDCH7G0169R0K,1SFLH6Q0AB03DJ,1SRCH7F014TAHX,1U5X071EXP5ZJG,DJI Fly,,1.12.8,633230DA-0053-49D1-1BCB-352B2A677FE0,1SDCH7G0169R0K,,,,,6.974226781,79.91433092,5,Flight mode changed to Tripod.,
2/15/2024,39:14.3,10m 37.0s,637,6.974216036,79.91434094,0,0,0.3,51,0.9,0.707382,0.707382,-0.223694,0,0.671082,0.671082,-0.671082,0,3.1,-1.5,86.9,86.9,111.5,Tripod,Auto Fly,,14,5,TRUE,,Mavic Mini,TRUE,FALSE,,Smart,RC,FALSE,TRUE,FALSE,,,TRUE,,FALSE,FALSE,FALSE,FALSE,FALSE,FALSE,FALSE,FALSE,FALSE,FALSE,0,Follow Yaw,0,0,114.3,114.3,FALSE,FALSE,FALSE,FALSE,FALSE,FALSE,,TRUE,Normal,,100,1024,1024,1162,1024,2,FALSE,FALSE,FALSE,FALSE,FALSE,0,FALSE,FALSE,FALSE,FALSE,56,7.47,1183,2113,7.515,FALSE,3.738,3.732,0.006,FALSE,FALSE,NA,115,114.9,114.9,0,1,0,0,5,2961.8,740.45,,Idle,0,20,FALSE,5,TRUE,9,Go Home,FALSE,FALSE,FALSE,FALSE,FALSE,FALSE,FALSE,FALSE,FALSE,FALSE,FALSE,FALSE,6.974224556,79.91434257,3.1,120.4,328,TRUE,1,1,FALSE,FALSE,FALSE,FALSE,,TRUE,FALSE,FALSE,Course Lock,65.6,41.9,16.4,Calm,27,,1.12.8,Mavic Mini,1SDCH7G0169R0K,1SFLH6Q0AB03DJ,1SRCH7F014TAHX,1U5X071EXP5ZJG,114.7,0.2,16.4,5.368656,3.131716,0,0,Mavic Mini,1SDCH7G0169R0K,1SFLH6Q0AB03DJ,1SRCH7F014TAHX,1U5X071EXP5ZJG,DJI Fly,,1.12.8,633230DA-0053-49D1-1BCB-352B2A677FE0,1SDCH7G0169R0K,,,,,6.974226781,79.91433092,5,,
2/15/2024,39:14.4,10m 37.1s,637.1,6.974215934,79.91434128,0,0,0.6,51,1,0.671082,0.707382,0,0,0.671082,0.671082,-1.11847,0,4.9,-1.6,87,87,111.4,Tripod,Auto Fly,,14,5,TRUE,,Mavic Mini,TRUE,FALSE,,Smart,RC,FALSE,TRUE,FALSE,,,TRUE,,FALSE,FALSE,FALSE,FALSE,FALSE,FALSE,FALSE,FALSE,FALSE,FALSE,0,Follow Yaw,0,0,114.3,114.3,FALSE,FALSE,FALSE,FALSE,FALSE,FALSE,,TRUE,Normal,,100,1024,1024,1161,1024,2,FALSE,FALSE,FALSE,FALSE,FALSE,0,FALSE,FALSE,FALSE,FALSE,56,7.47,1183,2113,7.515,FALSE,3.738,3.732,0.006,FALSE,FALSE,NA,115,114.9,114.9,0,1,0,0,5,2961.8,740.45,,Idle,0,20,FALSE,5,TRUE,9,Go Home,FALSE,FALSE,FALSE,FALSE,FALSE,FALSE,FALSE,FALSE,FALSE,FALSE,FALSE,FALSE,6.974224556,79.91434257,3.1,120.4,328,TRUE,1,1,FALSE,FALSE,FALSE,FALSE,,TRUE,FALSE,FALSE,Course Lock,65.6,41.9,16.4,Calm,27,,1.12.8,Mavic Mini,1SDCH7G0169R0K,1SFLH6Q0AB03DJ,1SRCH7F014TAHX,1U5X071EXP5ZJG,114.7,0.2,16.4,5.368656,3.131716,0,0,Mavic Mini,1SDCH7G0169R0K,1SFLH6Q0AB03DJ,1SRCH7F014TAHX,1U5X071EXP5ZJG,DJI Fly,,1.12.8,633230DA-0053-49D1-1BCB-352B2A677FE0,1SDCH7G0169R0K,,,,,6.974226781,79.91433092,5,,
2/15/2024,39:14.5,10m 37.2s,637.2,6.974215802,79.91434166,0.3,0.3,0.9,51,1.1,0.671082,0.707382,0,0,0.671082,0.671082,-1.11847,0,4.7,-1.5,87.3,87.3,113.9,Tripod,Auto Fly,,14,5,TRUE,,Mavic Mini,TRUE,FALSE,,Smart,RC,FALSE,TRUE,FALSE,,,TRUE,,FALSE,FALSE,FALSE,FALSE,FALSE,FALSE,FALSE,FALSE,FALSE,FALSE,0,Follow Yaw,0,0,114.3,114.3,FALSE,FALSE,FALSE,FALSE,FALSE,FALSE,,TRUE,Normal,,100,1024,1024,1159,1024,2,FALSE,FALSE,FALSE,FALSE,FALSE,0,FALSE,FALSE,FALSE,FALSE,56,7.47,1183,2113,7.515,FALSE,3.738,3.732,0.006,FALSE,FALSE,NA,115,114.9,114.9,0,1,0,0,5,2961.8,740.45,,Idle,0,20,FALSE,5,TRUE,9,Go Home,FALSE,FALSE,FALSE,FALSE,FALSE,FALSE,FALSE,FALSE,FALSE,FALSE,FALSE,FALSE,6.974224556,79.91434257,3.2,120.4,328,TRUE,1,1,FALSE,FALSE,FALSE,FALSE,,TRUE,FALSE,FALSE,Course Lock,65.6,41.9,16.4,Calm,27,,1.12.8,Mavic Mini,1SDCH7G0169R0K,1SFLH6Q0AB03DJ,1SRCH7F014TAHX,1U5X071EXP5ZJG,114.7,0.2,16.4,5.368656,3.131716,0,0,Mavic Mini,1SDCH7G0169R0K,1SFLH6Q0AB03DJ,1SRCH7F014TAHX,1U5X071EXP5ZJG,DJI Fly,,1.12.8,633230DA-0053-49D1-1BCB-352B2A677FE0,1SDCH7G0169R0K,,,,,6.974226781,79.91433092,5,,
2/15/2024,39:14.6,10m 37.3s,637.3,6.974215714,79.91434204,0.3,0.3,0.9,51,1.3,0.447388,0.707382,0,0,0.447388,0.671082,-1.342164,0,4.4,-1.3,87.4,87.4,106.9,Tripod,Auto Fly,,14,5,TRUE,,Mavic Mini,TRUE,FALSE,,Smart,RC,FALSE,TRUE,FALSE,,,TRUE,,FALSE,FALSE,FALSE,FALSE,FALSE,FALSE,FALSE,FALSE,FALSE,FALSE,0,Follow Yaw,0,0,114.3,114.3,FALSE,FALSE,FALSE,FALSE,FALSE,FALSE,,TRUE,Normal,,100,1024,1024,1159,1024,2,FALSE,FALSE,FALSE,FALSE,FALSE,0,FALSE,FALSE,FALSE,FALSE,56,7.47,1183,2113,7.515,FALSE,3.738,3.732,0.006,FALSE,FALSE,NA,115,114.9,114.9,0,1,0,0,5,2961.8,740.45,,Idle,0,20,FALSE,5,TRUE,9,Go Home,FALSE,FALSE,FALSE,FALSE,FALSE,FALSE,FALSE,FALSE,FALSE,FALSE,FALSE,FALSE,6.974224556,79.91434257,3.2,120.4,328,TRUE,1,1,FALSE,FALSE,FALSE,FALSE,,TRUE,FALSE,FALSE,Course Lock,65.6,41.9,16.4,Calm,27,,1.12.8,Mavic Mini,1SDCH7G0169R0K,1SFLH6Q0AB03DJ,1SRCH7F014TAHX,1U5X071EXP5ZJG,114.7,0.2,16.4,5.368656,3.131716,0,0,Mavic Mini,1SDCH7G0169R0K,1SFLH6Q0AB03DJ,1SRCH7F014TAHX,1U5X071EXP5ZJG,DJI Fly,,1.12.8,633230DA-0053-49D1-1BCB-352B2A677FE0,1SDCH7G0169R0K,,,,,6.974226781,79.91433092,5,,
2/15/2024,39:14.7,10m 37.4s,637.4,6.974215645,79.91434238,0.6,0.6,1.3,51,1.4,0.447388,0.707382,0,0,0.447388,0.671082,-1.342164,0,3.9,-1.1,87.5,87.5,104.7,Tripod,Auto Fly,,14,5,TRUE,,Mavic Mini,TRUE,FALSE,,Smart,RC,FALSE,TRUE,FALSE,,,TRUE,,FALSE,FALSE,FALSE,FALSE,FALSE,FALSE,FALSE,FALSE,FALSE,FALSE,0,Follow Yaw,0,0,114.3,114.3,FALSE,FALSE,FALSE,FALSE,FALSE,FALSE,,TRUE,Normal,,100,1024,1024,1159,1024,2,FALSE,FALSE,FALSE,FALSE,FALSE,0,FALSE,FALSE,FALSE,FALSE,56,7.47,1183,2113,7.515,FALSE,3.738,3.732,0.006,FALSE,FALSE,NA,115,114.9,114.9,0,1,0,0,5,2961.8,740.45,,Idle,0,20,FALSE,5,TRUE,9,Go Home,FALSE,FALSE,FALSE,FALSE,FALSE,FALSE,FALSE,FALSE,FALSE,FALSE,FALSE,FALSE,6.974224556,79.91434257,3.2,120.4,328,TRUE,1,1,FALSE,FALSE,FALSE,FALSE,,TRUE,FALSE,FALSE,Course Lock,65.6,41.9,16.4,Calm,27,,1.12.8,Mavic Mini,1SDCH7G0169R0K,1SFLH6Q0AB03DJ,1SRCH7F014TAHX,1U5X071EXP5ZJG,114.7,0.2,16.4,5.368656,3.131716,0,0,Mavic Mini,1SDCH7G0169R0K,1SFLH6Q0AB03DJ,1SRCH7F014TAHX,1U5X071EXP5ZJG,DJI Fly,,1.12.8,633230DA-0053-49D1-1BCB-352B2A677FE0,1SDCH7G0169R0K,,,,,6.974226781,79.91433092,5,,
2/15/2024,39:14.8,10m 37.5s,637.5,6.974215583,79.91434271,0.6,0.6,1.3,51,1.5,0.447388,0.707382,0,0,0.447388,0.671082,-1.11847,0,3.6,-1.1,87.6,87.6,103.4,Tripod,Auto Fly,,14,5,TRUE,,Mavic Mini,TRUE,FALSE,,Smart,RC,FALSE,TRUE,FALSE,,,TRUE,,FALSE,FALSE,FALSE,FALSE,FALSE,FALSE,FALSE,FALSE,FALSE,FALSE,0,Follow Yaw,0,0,114.3,114.3,FALSE,FALSE,FALSE,FALSE,FALSE,FALSE,,TRUE,Normal,,100,1024,1024,1159,1024,2,FALSE,FALSE,FALSE,FALSE,FALSE,0,FALSE,FALSE,FALSE,FALSE,56,7.47,1183,2113,7.484,FALSE,3.738,3.732,0.006,FALSE,FALSE,NA,115,114.9,114.9,0,0,3,0,5,3221.5,805.38,,Idle,0,20,FALSE,5,TRUE,9,Go Home,FALSE,FALSE,FALSE,FALSE,FALSE,FALSE,FALSE,FALSE,FALSE,FALSE,FALSE,FALSE,6.974216211,79.91434039,0.8,120.4,328,TRUE,1,1,FALSE,FALSE,FALSE,FALSE,,TRUE,FALSE,FALSE,Course Lock,65.6,41.9,16.4,Calm,27,,1.12.8,Mavic Mini,1SDCH7G0169R0K,1SFLH6Q0AB03DJ,1SRCH7F014TAHX,1U5X071EXP5ZJG,114.7,0.2,16.4,5.368656,3.131716,0,0,Mavic Mini,1SDCH7G0169R0K,1SFLH6Q0AB03DJ,1SRCH7F014TAHX,1U5X071EXP5ZJG,DJI Fly,,1.12.8,633230DA-0053-49D1-1BCB-352B2A677FE0,1SDCH7G0169R0K,,,,,6.974226781,79.91433092,5,Home Point Updated.,
2/15/2024,39:15.0,10m 37.6s,637.6,6.974215582,79.91434329,0.9,0.9,1.6,52,1.7,0.223694,0.707382,0,0,0.223694,0.671082,-0.894776,0,3.6,-1.1,87.6,87.6,90.1,Tripod,Auto Fly,,14,5,TRUE,,Mavic Mini,TRUE,FALSE,,Smart,RC,FALSE,TRUE,FALSE,,,TRUE,,FALSE,FALSE,FALSE,FALSE,FALSE,FALSE,FALSE,FALSE,FALSE,FALSE,0,Follow Yaw,0,0,114.3,114.3,FALSE,FALSE,FALSE,FALSE,FALSE,FALSE,,TRUE,Normal,,100,1024,1024,1156,1024,2,FALSE,FALSE,FALSE,FALSE,FALSE,0,FALSE,FALSE,FALSE,FALSE,56,7.47,1183,2113,7.484,FALSE,3.738,3.732,0.006,FALSE,FALSE,NA,115,114.9,114.9,0,0,3,0,5,3221.5,805.38,,Idle,0,20,FALSE,5,TRUE,9,Go Home,FALSE,FALSE,FALSE,FALSE,FALSE,FALSE,FALSE,FALSE,FALSE,FALSE,FALSE,FALSE,6.974216211,79.91434039,1,120.4,328,TRUE,1,1,FALSE,FALSE,FALSE,FALSE,,TRUE,FALSE,FALSE,Course Lock,65.6,41.9,16.4,Calm,27,,1.12.8,Mavic Mini,1SDCH7G0169R0K,1SFLH6Q0AB03DJ,1SRCH7F014TAHX,1U5X071EXP5ZJG,114.7,0.2,16.4,5.368656,3.131716,0,0,Mavic Mini,1SDCH7G0169R0K,1SFLH6Q0AB03DJ,1SRCH7F014TAHX,1U5X071EXP5ZJG,DJI Fly,,1.12.8,633230DA-0053-49D1-1BCB-352B2A677FE0,1SDCH7G0169R0K,,,,,6.974226781,79.91433092,5,Home Point updated. RTH altitude adjusted to 20 m!wn (Code: 120852).,
2/15/2024,39:15.1,10m 37.7s,637.7,6.974215567,79.9143435,0.9,0.9,1.6,52,1.8,0.223694,0.707382,0,0,0.223694,0.671082,-0.671082,0,3.6,-1.1,87.6,87.6,95.2,Tripod,Auto Fly,,13,5,TRUE,,Mavic Mini,TRUE,FALSE,,Smart,RC,FALSE,TRUE,FALSE,,,TRUE,,FALSE,FALSE,FALSE,FALSE,FALSE,FALSE,FALSE,FALSE,FALSE,FALSE,0,Follow Yaw,0,0,114.3,114.3,FALSE,FALSE,FALSE,FALSE,FALSE,FALSE,,TRUE,Normal,,100,1024,1024,1156,1024,2,FALSE,FALSE,FALSE,FALSE,FALSE,0,FALSE,FALSE,FALSE,FALSE,56,7.47,1183,2113,7.484,FALSE,3.738,3.732,0.006,FALSE,FALSE,NA,115,114.9,114.9,0,0,3,0,5,3221.5,805.38,,Idle,0,20,FALSE,5,TRUE,9,Go Home,FALSE,FALSE,FALSE,FALSE,FALSE,FALSE,FALSE,FALSE,FALSE,FALSE,FALSE,FALSE,6.974216211,79.91434039,1.1,120.4,328,TRUE,1,1,FALSE,FALSE,FALSE,FALSE,,TRUE,FALSE,FALSE,Course Lock,65.6,41.9,16.4,Calm,27,,1.12.8,Mavic Mini,1SDCH7G0169R0K,1SFLH6Q0AB03DJ,1SRCH7F014TAHX,1U5X071EXP5ZJG,114.7,0.2,16.4,5.368656,3.131716,0,0,Mavic Mini,1SDCH7G0169R0K,1SFLH6Q0AB03DJ,1SRCH7F014TAHX,1U5X071EXP5ZJG,DJI Fly,,1.12.8,633230DA-0053-49D1-1BCB-352B2A677FE0,1SDCH7G0169R0K,,,,,6.974226781,79.91433092,5,,
2/15/2024,39:15.1,10m 37.8s,637.8,6.974215523,79.9143437,0.9,0.9,1.6,52,1.9,0.223694,0.707382,0,0,0.223694,0.671082,-0.447388,0,3.9,-1.3,87.6,87.6,105.7,Tripod,Auto Fly,,13,5,TRUE,,Mavic Mini,TRUE,FALSE,,Smart,RC,FALSE,TRUE,FALSE,,,TRUE,,FALSE,FALSE,FALSE,FALSE,FALSE,FALSE,FALSE,FALSE,FALSE,FALSE,0,Follow Yaw,0,0,114.3,114.3,FALSE,FALSE,FALSE,FALSE,FALSE,FALSE,,TRUE,Normal,,100,1024,1024,1156,1024,2,FALSE,FALSE,FALSE,FALSE,FALSE,0,FALSE,FALSE,FALSE,FALSE,56,7.397,1182,2113,7.484,FALSE,3.7,3.697,0.006,FALSE,FALSE,NA,115,114.9,114.9,0,0,3,0,5,3221.5,805.38,,Idle,0,20,FALSE,5,TRUE,9,Go Home,FALSE,FALSE,FALSE,FALSE,FALSE,FALSE,FALSE,FALSE,FALSE,FALSE,FALSE,FALSE,6.974216211,79.91434039,1.2,120.4,328,TRUE,1,1,FALSE,FALSE,FALSE,FALSE,,TRUE,FALSE,FALSE,Course Lock,65.6,41.9,16.4,Calm,27,,1.12.8,Mavic Mini,1SDCH7G0169R0K,1SFLH6Q0AB03DJ,1SRCH7F014TAHX,1U5X071EXP5ZJG,114.7,0.2,16.4,5.368656,3.131716,0,0,Mavic Mini,1SDCH7G0169R0K,1SFLH6Q0AB03DJ,1SRCH7F014TAHX,1U5X071EXP5ZJG,DJI Fly,,1.12.8,633230DA-0053-49D1-1BCB-352B2A677FE0,1SDCH7G0169R0K,,,,,6.974226781,79.91433092,5,,
2/15/2024,39:15.2,10m 37.9s,637.9,6.974215455,79.9143439,0.9,0.9,1.9,52,2,0.223694,0.707382,0,0,0.223694,0.671082,-0.223694,0,3.8,-1.3,87.6,87.6,113.4,Tripod,Auto Fly,,14,5,TRUE,,Mavic Mini,TRUE,FALSE,,Smart,RC,FALSE,TRUE,FALSE,,,TRUE,,FALSE,FALSE,FALSE,FALSE,FALSE,FALSE,FALSE,FALSE,FALSE,FALSE,0,Follow Yaw,0,0,114.3,114.3,FALSE,FALSE,FALSE,FALSE,FALSE,FALSE,,TRUE,Normal,,100,1024,1024,1184,1024,2,FALSE,FALSE,FALSE,FALSE,FALSE,0,FALSE,FALSE,FALSE,FALSE,56,7.397,1182,2113,7.484,FALSE,3.7,3.697,0.006,FALSE,FALSE,NA,115,114.9,114.9,0,0,3,0,5,3221.5,805.38,,Idle,0,20,FALSE,5,TRUE,9,Go Home,FALSE,FALSE,FALSE,FALSE,FALSE,FALSE,FALSE,FALSE,FALSE,FALSE,FALSE,FALSE,6.974216211,79.91434039,1.3,120.4,328,TRUE,1,1,FALSE,FALSE,FALSE,FALSE,,TRUE,FALSE,FALSE,Course Lock,65.6,41.9,16.4,Calm,27,,1.12.8,Mavic Mini,1SDCH7G0169R0K,1SFLH6Q0AB03DJ,1SRCH7F014TAHX,1U5X071EXP5ZJG,114.7,0.2,16.4,5.368656,3.131716,0,0,Mavic Mini,1SDCH7G0169R0K,1SFLH6Q0AB03DJ,1SRCH7F014TAHX,1U5X071EXP5ZJG,DJI Fly,,1.12.8,633230DA-0053-49D1-1BCB-352B2A677FE0,1SDCH7G0169R0K,,,,,6.974226781,79.91433092,5,,
2/15/2024,39:15.3,10m 38.0s,638,6.974215461,79.91434386,1.3,1.3,1.9,52,2,0.223694,0.707382,0,0,0.223694,0.671082,-0.223694,0,3.4,-1.4,87.6,87.6,280,Tripod,Auto Fly,,14,5,TRUE,,Mavic Mini,TRUE,FALSE,,Smart,RC,FALSE,TRUE,FALSE,,,TRUE,,FALSE,FALSE,FALSE,FALSE,FALSE,FALSE,FALSE,FALSE,FALSE,FALSE,0,Follow Yaw,0,0,114.3,114.3,FALSE,FALSE,FALSE,FALSE,FALSE,FALSE,,TRUE,Normal,,100,1024,1024,1284,1024,2,FALSE,FALSE,FALSE,FALSE,FALSE,0,FALSE,FALSE,FALSE,FALSE,56,7.397,1182,2113,7.484,FALSE,3.7,3.697,0.006,FALSE,FALSE,NA,115,114.9,114.9,0,0,3,0,5,3221.5,805.38,,Idle,0,20,FALSE,5,TRUE,9,Go Home,FALSE,FALSE,FALSE,FALSE,FALSE,FALSE,FALSE,FALSE,FALSE,FALSE,FALSE,FALSE,6.974216211,79.91434039,1.2,120.4,328,TRUE,1,1,FALSE,FALSE,FALSE,FALSE,,TRUE,FALSE,FALSE,Course Lock,65.6,41.9,16.4,Calm,27,,1.12.8,Mavic Mini,1SDCH7G0169R0K,1SFLH6Q0AB03DJ,1SRCH7F014TAHX,1U5X071EXP5ZJG,114.7,0.2,16.4,5.368656,3.131716,0,0,Mavic Mini,1SDCH7G0169R0K,1SFLH6Q0AB03DJ,1SRCH7F014TAHX,1U5X071EXP5ZJG,DJI Fly,,1.12.8,633230DA-0053-49D1-1BCB-352B2A677FE0,1SDCH7G0169R0K,,,,,6.974226781,79.91433092,5,,
2/15/2024,39:15.4,10m 38.1s,638.1,6.974215475,79.9143439,1.3,1.3,1.9,52,2,0.223694,0.707382,0,0,0.223694,0.671082,0,0,3.2,-1.5,87.6,87.6,68.5,Tripod,Auto Fly,,15,5,TRUE,,Mavic Mini,TRUE,FALSE,,Smart,RC,FALSE,TRUE,FALSE,,,TRUE,,FALSE,FALSE,FALSE,FALSE,FALSE,FALSE,FALSE,FALSE,FALSE,FALSE,0,Follow Yaw,0,0,114.3,114.3,FALSE,FALSE,FALSE,FALSE,FALSE,FALSE,,TRUE,Normal,,100,1024,1024,1284,1024,2,FALSE,FALSE,FALSE,FALSE,FALSE,0,FALSE,FALSE,FALSE,FALSE,56,7.397,1182,2113,7.484,FALSE,3.7,3.697,0.006,FALSE,FALSE,NA,115,114.9,114.9,0,0,3,0,5,3221.5,805.38,,Idle,0,20,FALSE,5,TRUE,9,Go Home,FALSE,FALSE,FALSE,FALSE,FALSE,FALSE,FALSE,FALSE,FALSE,FALSE,FALSE,FALSE,6.974216211,79.91434039,1.3,120.4,328,TRUE,1,1,FALSE,FALSE,FALSE,FALSE,,TRUE,FALSE,FALSE,Course Lock,65.6,41.9,16.4,Calm,27,,1.12.8,Mavic Mini,1SDCH7G0169R0K,1SFLH6Q0AB03DJ,1SRCH7F014TAHX,1U5X071EXP5ZJG,114.7,0.2,16.4,5.368656,3.131716,0,0,Mavic Mini,1SDCH7G0169R0K,1SFLH6Q0AB03DJ,1SRCH7F014TAHX,1U5X071EXP5ZJG,DJI Fly,,1.12.8,633230DA-0053-49D1-1BCB-352B2A677FE0,1SDCH7G0169R0K,,,,,6.974226781,79.91433092,5,,
2/15/2024,39:15.6,10m 38.2s,638.2,6.974215482,79.91434395,1.3,1.3,1.9,52,2,0,0.707382,0,0,0,0.671082,-0.223694,0,3.2,-1.4,87.6,87.6,,Tripod,Auto Fly,,15,5,TRUE,,Mavic Mini,TRUE,FALSE,,Smart,RC,FALSE,TRUE,FALSE,,,TRUE,,FALSE,FALSE,FALSE,FALSE,FALSE,FALSE,FALSE,FALSE,FALSE,FALSE,0,Follow Yaw,0,0,114.3,114.3,FALSE,FALSE,FALSE,FALSE,FALSE,FALSE,,TRUE,Normal,,100,1024,1024,1336,1024,2,FALSE,FALSE,FALSE,FALSE,FALSE,0,FALSE,FALSE,FALSE,FALSE,56,7.397,1182,2113,7.484,FALSE,3.7,3.697,0.006,FALSE,FALSE,NA,115,114.9,114.9,0,0,3,0,5,3221.5,805.38,,Idle,0,20,FALSE,5,TRUE,9,Go Home,FALSE,FALSE,FALSE,FALSE,FALSE,FALSE,FALSE,FALSE,FALSE,FALSE,FALSE,FALSE,6.974216211,79.91434039,1.3,120.4,328,TRUE,1,1,FALSE,FALSE,FALSE,FALSE,,TRUE,FALSE,FALSE,Course Lock,65.6,41.9,16.4,Calm,27,,1.12.8,Mavic Mini,1SDCH7G0169R0K,1SFLH6Q0AB03DJ,1SRCH7F014TAHX,1U5X071EXP5ZJG,114.7,0.2,16.4,5.368656,3.131716,0,0,Mavic Mini,1SDCH7G0169R0K,1SFLH6Q0AB03DJ,1SRCH7F014TAHX,1U5X071EXP5ZJG,DJI Fly,,1.12.8,633230DA-0053-49D1-1BCB-352B2A677FE0,1SDCH7G0169R0K,,,,,6.974226781,79.91433092,5,,
