CUSTOM.date [local],CUSTOM.updateTime [local],OSD.flyTime,OSD.flyTime [s],OSD.latitude,OSD.longitude,OSD.height [ft],OSD.heightMax [ft],OSD.vpsHeight [ft],OSD.altitude [ft],OSD.mileage [ft],OSD.hSpeed [MPH],OSD.hSpeedMax [MPH],OSD.xSpeed [MPH],OSD.xSpeedMax [MPH],OSD.ySpeed [MPH],OSD.ySpeedMax [MPH],OSD.zSpeed [MPH],OSD.zSpeedMax [MPH],OSD.pitch,OSD.roll,OSD.yaw,OSD.yaw [360],OSD.directionOfTravel,OSD.flycState,OSD.flycCommand,OSD.flightAction,OSD.gpsNum,OSD.gpsLevel,OSD.isGPSUsed,OSD.nonGPSCause,OSD.droneType,OSD.isSwaveWork,OSD.waveError,OSD.goHomeStatus,OSD.batteryType,OSD.ctrlDevice,OSD.isOnGround,OSD.isMotorOn,OSD.isMotorBlocked,OSD.motorStartFailedCause,OSD.motorFailReason,OSD.isImuPreheated,OSD.imuInitFailReason,OSD.isAcceletorOverRange,OSD.isBarometerDeadInAir,OSD.isCompassError,OSD.isGoHomeHeightModified,OSD.canIOCWork,OSD.isNotEnoughForce,OSD.isOutOfLimit,OSD.isPropellerCatapult,OSD.isVibrating,OSD.isVisionUsed,OSD.voltageWarning,GIMBAL.mode,GIMBAL.pitch,GIMBAL.roll,GIMBAL.yaw,GIMBAL.yaw [360],GIMBAL.isPitchAtLimit,GIMBAL.isRollAtLimit,GIMBAL.isYawAtLimit,GIMBAL.isStuck,CAMERA.isPhoto,CAMERA.isVideo,CAMERA.filename,CAMERA.sdCardIsInserted,CAMERA.sdCardState,RC.downlinkSignal,RC.uplinkSignal,RC.aileron,RC.elevator,RC.throttle,RC.rudder,RC.mode,RC.goHomeDepressed,RC.recordDepressed,RC.shutterDepressed,RC.playbackDepressed,RC.wheelDepressed,RC.wheelOffset,RC.custom1Depressed,RC.custom2Depressed,RC.custom3Depressed,RC.custom4Depressed,BATTERY.chargeLevel,BATTERY.currentPV [V],BATTERY.currentCapacity [mAh],BATTERY.fullCapacity [mAh],BATTERY.voltage [V],BATTERY.isCellVoltageEstimated,BATTERY.cellVoltage1 [V],BATTERY.cellVoltage2 [V],BATTERY.maxCellVoltageDeviation,BATTERY.isCellVoltageDeviationHigh,BATTERY.isVoltageLow,BATTERY.current [A],BATTERY.temperature [F],BATTERY.minTemperature [F],BATTERY.maxTemperature [F],BATTERY.usefulTime [s],BATTERY.goHomeTime [s],BATTERY.landTime [s],BATTERY.goHomeBattery,BATTERY.landBattery,BATTERY.safeFlyRadius,BATTERY.volumeConsume,BATTERY.status,BATTERY.goHomeStatus,BATTERY.goHomeCountdown,BATTERY.lowWarning,BATTERY.lowWarningGoHome,BATTERY.seriousLowWarning,BATTERY.seriousLowWarningLanding,BATTERY.timesCharged,MC.failSafeAction,MC.isObstacleAvoidanceEnabled,MC.isCollisionAvoidanceEnabled,MC.isRthObstacleAvoidanceEnabled,MC.isBraking,MC.isAvoidingObstacle,MC.isAvoidingActiveObstacle,MC.isAscentLimitedByObstacle,MC.isLandingConfirmationNeeded,MC.atLowAltitudeLimit,MC.atDistanceLimit,MC.atAirportAltitudeLimit,MC.atAirportBoundary,HOME.latitude,HOME.longitude,HOME.distance [ft],HOME.height [ft],HOME.heightLimit [ft],HOME.isHomeRecord,HOME.goHomeMode,HOME.aircraftHeadDirection,HOME.isDynamicHomePointEnabled,HOME.isReachedLimitDistance,HOME.isReachedLimitHeight,HOME.isCompassCalibrating,HOME.compassCalibrationState,HOME.isMultipleFlightModeEnabled,HOME.isBeginnerMode,HOME.isIOCEnabled,HOME.iocMode,HOME.goHomeHeight [ft],HOME.courseLockAngle,HOME.forceLandingHeight [ft],HOME.wind,HOME.dataRecorderFileIndex,RECOVER.appType,RECOVER.appVersion,RECOVER.aircraftName,RECOVER.aircraftSerial,RECOVER.cameraSerial,RECOVER.rcSerial,RECOVER.batterySerial,DETAILS.totalTime [s],DETAILS.totalDistance [ft],DETAILS.maxHeight [ft],DETAILS.maxHorizontalSpeed [MPH],DETAILS.maxVerticalSpeed [MPH],DETAILS.photoNum,DETAILS.videoTime [s],DETAILS.aircraftName,DETAILS.aircraftSerial,DETAILS.cameraSerial,DETAILS.rcSerial,DETAILS.batterySerial,DETAILS.appName,DETAILS.appType,DETAILS.appVersion,DETAILS.guid,SERIAL.flightController,SERIAL.camera,SERIAL.gimbal,SERIAL.rc,SERIAL.battery,APPGPS.latitude,APPGPS.longitude,APPGPS.accuracy,APP.tip,APP.warning
2/22/2024,22:17.9,4m 10.7s,250.7,6.974223882,79.91415138,0,0,0.3,50,0,0,0,0,0,0,0,0,0,1.5,2.2,25.8,25.8,,Starting Motors,Drop Calibration,Takeoff (RC Assisted),13,5,TRUE,,Mavic Mini,FALSE,FALSE,,Smart,RC,TRUE,TRUE,FALSE,,,TRUE,,FALSE,FALSE,FALSE,FALSE,FALSE,FALSE,FALSE,FALSE,FALSE,FALSE,0,Follow Yaw,-6.6,0,42.6,42.6,FALSE,FALSE,FALSE,FALSE,FALSE,FALSE,,TRUE,Normal,,,1024,1024,1024,1024,2,FALSE,FALSE,FALSE,FALSE,FALSE,0,FALSE,FALSE,FALSE,FALSE,82,7.885,1686,2056,7.885,TRUE,3.943,3.943,,FALSE,FALSE,NA,98.8,98.7,98.7,,,,,,,,,Idle,,,TRUE,,FALSE,6,Go Home,FALSE,FALSE,FALSE,FALSE,FALSE,FALSE,FALSE,FALSE,FALSE,FALSE,FALSE,FALSE,,,,,,FALSE,,,FALSE,FALSE,FALSE,FALSE,,FALSE,FALSE,FALSE,,,,,Calm,,,1.12.8,Mavic Mini,1SDCH7G0169R0K,1SFLH6Q0AB03DJ,1SRCH7F014TAHX,1U5X071EXP6C9Y,70.7,0.2,39.3,8.997867,3.35541,0,18,Mavic Mini,1SDCH7G0169R0K,1SFLH6Q0AB03DJ,1SRCH7F014TAHX,1U5X071EXP6C9Y,DJI Fly,,1.12.8,E510E1A2-828C-E274-0990-E66BDF305ADB,1SDCH7G0169R0K,,,,,,,,Flight mode changed to Starting Motors.,
2/22/2024,18:07.3,4m 10.8s,250.8,6.974223833,79.91415139,0,0,0.3,50,0,0,0,0,0,0,0,0,0,1.5,2.2,25.8,25.8,,Starting Motors,Drop Calibration,Takeoff (RC Assisted),13,5,TRUE,,Mavic Mini,FALSE,FALSE,,Smart,RC,TRUE,TRUE,FALSE,,,TRUE,,FALSE,FALSE,FALSE,FALSE,FALSE,FALSE,FALSE,FALSE,FALSE,FALSE,0,Follow Yaw,-6.6,0,42.6,42.6,FALSE,FALSE,FALSE,FALSE,FALSE,FALSE,,TRUE,Normal,,,1024,1024,1024,1024,2,FALSE,FALSE,FALSE,FALSE,FALSE,0,FALSE,FALSE,FALSE,FALSE,82,7.885,1686,2056,7.885,TRUE,3.943,3.943,,FALSE,FALSE,NA,98.8,98.7,98.7,,,,,,,,,Idle,,,TRUE,,FALSE,6,Go Home,FALSE,FALSE,FALSE,FALSE,FALSE,FALSE,FALSE,FALSE,FALSE,FALSE,FALSE,FALSE,,,,,,FALSE,,,FALSE,FALSE,FALSE,FALSE,,FALSE,FALSE,FALSE,,,,,Calm,,,1.12.8,Mavic Mini,1SDCH7G0169R0K,1SFLH6Q0AB03DJ,1SRCH7F014TAHX,1U5X071EXP6C9Y,70.7,0.2,39.3,8.997867,3.35541,0,18,Mavic Mini,1SDCH7G0169R0K,1SFLH6Q0AB03DJ,1SRCH7F014TAHX,1U5X071EXP6C9Y,DJI Fly,,1.12.8,E510E1A2-828C-E274-0990-E66BDF305ADB,1SDCH7G0169R0K,,,,,,,,,
2/22/2024,18:07.3,4m 10.9s,250.9,6.974223781,79.91415138,0,0,0.3,50,0,0,0,0,0,0,0,0,0,1.5,2.2,25.8,25.8,,Starting Motors,Drop Calibration,Takeoff (RC Assisted),13,5,TRUE,,Mavic Mini,TRUE,FALSE,,Smart,RC,TRUE,TRUE,FALSE,,,TRUE,,FALSE,FALSE,FALSE,FALSE,FALSE,FALSE,FALSE,FALSE,FALSE,FALSE,0,Follow Yaw,-6.6,0,42.6,42.6,FALSE,FALSE,FALSE,FALSE,FALSE,FALSE,,TRUE,Normal,,,1024,1024,1024,1024,2,FALSE,FALSE,FALSE,FALSE,FALSE,0,FALSE,FALSE,FALSE,FALSE,82,7.886,1686,2056,7.886,FALSE,3.947,3.939,0.008,FALSE,FALSE,NA,98.8,98.7,98.7,,,,,,,,,Idle,,,TRUE,,FALSE,6,Go Home,FALSE,FALSE,FALSE,FALSE,FALSE,FALSE,FALSE,FALSE,FALSE,FALSE,FALSE,FALSE,,,,,,FALSE,,,FALSE,FALSE,FALSE,FALSE,,FALSE,FALSE,FALSE,,,,,Calm,,,1.12.8,Mavic Mini,1SDCH7G0169R0K,1SFLH6Q0AB03DJ,1SRCH7F014TAHX,1U5X071EXP6C9Y,70.7,0.2,39.3,8.997867,3.35541,0,18,Mavic Mini,1SDCH7G0169R0K,1SFLH6Q0AB03DJ,1SRCH7F014TAHX,1U5X071EXP6C9Y,DJI Fly,,1.12.8,E510E1A2-828C-E274-0990-E66BDF305ADB,1SDCH7G0169R0K,,,,,,,,,
2/22/2024,18:07.4,4m 11.0s,251,6.974223668,79.91415131,0,0,0.3,50,0,0,0,0,0,0,0,0,0,1.5,2.2,25.8,25.8,,Starting Motors,Drop Calibration,Takeoff (RC Assisted),13,5,TRUE,,Mavic Mini,TRUE,FALSE,,Smart,RC,TRUE,TRUE,FALSE,,,TRUE,,FALSE,FALSE,FALSE,FALSE,FALSE,FALSE,FALSE,FALSE,FALSE,FALSE,0,Follow Yaw,-6.6,0,42.6,42.6,FALSE,FALSE,FALSE,FALSE,FALSE,FALSE,,TRUE,Normal,,,1024,1024,1024,1024,2,FALSE,FALSE,FALSE,FALSE,FALSE,0,FALSE,FALSE,FALSE,FALSE,82,7.886,1686,2056,7.877,FALSE,3.947,3.939,0.008,FALSE,FALSE,NA,98.8,98.7,98.7,0,0,0,0,5,2675.4,668.86,,Idle,0,20,FALSE,5,TRUE,6,Go Home,FALSE,FALSE,FALSE,FALSE,FALSE,FALSE,FALSE,FALSE,FALSE,FALSE,FALSE,FALSE,6.974219778,79.91415662,2.3,98,328,TRUE,1,1,FALSE,FALSE,FALSE,FALSE,,TRUE,FALSE,FALSE,Course Lock,49.2,,16.4,Calm,33,,1.12.8,Mavic Mini,1SDCH7G0169R0K,1SFLH6Q0AB03DJ,1SRCH7F014TAHX,1U5X071EXP6C9Y,70.7,0.2,39.3,8.997867,3.35541,0,18,Mavic Mini,1SDCH7G0169R0K,1SFLH6Q0AB03DJ,1SRCH7F014TAHX,1U5X071EXP6C9Y,DJI Fly,,1.12.8,E510E1A2-828C-E274-0990-E66BDF305ADB,1SDCH7G0169R0K,,,,,,,,Data Recorder File Index is 33.; Set Return to Home (RTH) altitude to 15 m (49 ft).; Set maximum flight altitude to 100 m (328 ft).,
2/22/2024,18:07.5,4m 11.1s,251.1,6.974223604,79.91415127,0,0,0.3,50,0,0,0,0,0,0,0,0,0,1.5,2.1,25.8,25.8,,Starting Motors,Drop Calibration,Takeoff (RC Assisted),13,5,TRUE,,Mavic Mini,TRUE,FALSE,,Smart,RC,TRUE,TRUE,FALSE,,,TRUE,,FALSE,FALSE,FALSE,FALSE,FALSE,FALSE,FALSE,FALSE,FALSE,FALSE,0,Follow Yaw,-6.6,0,42.6,42.6,FALSE,FALSE,FALSE,FALSE,FALSE,FALSE,,TRUE,Normal,,100,1024,1024,1024,1024,2,FALSE,FALSE,FALSE,FALSE,FALSE,0,FALSE,FALSE,FALSE,FALSE,82,7.886,1686,2056,7.877,FALSE,3.947,3.939,0.008,FALSE,FALSE,NA,98.8,98.7,98.7,0,0,0,0,5,2675.4,668.86,,Idle,0,20,FALSE,5,TRUE,6,Go Home,FALSE,FALSE,FALSE,FALSE,FALSE,FALSE,FALSE,FALSE,FALSE,FALSE,FALSE,FALSE,6.974219778,79.91415662,2.3,98,328,TRUE,1,1,FALSE,FALSE,FALSE,FALSE,,TRUE,FALSE,FALSE,Course Lock,49.2,,16.4,Calm,33,,1.12.8,Mavic Mini,1SDCH7G0169R0K,1SFLH6Q0AB03DJ,1SRCH7F014TAHX,1U5X071EXP6C9Y,70.7,0.2,39.3,8.997867,3.35541,0,18,Mavic Mini,1SDCH7G0169R0K,1SFLH6Q0AB03DJ,1SRCH7F014TAHX,1U5X071EXP6C9Y,DJI Fly,,1.12.8,E510E1A2-828C-E274-0990-E66BDF305ADB,1SDCH7G0169R0K,,,,,,,,,
2/22/2024,18:07.6,4m 11.2s,251.2,6.974223537,79.91415126,0,0,0.3,50,0.1,0,0,0,0,0,0,0,0,1.5,2.1,25.8,25.8,,Starting Motors,Drop Calibration,Takeoff (RC Assisted),13,5,TRUE,,Mavic Mini,TRUE,FALSE,,Smart,RC,TRUE,TRUE,FALSE,,,TRUE,,FALSE,FALSE,FALSE,FALSE,FALSE,FALSE,FALSE,FALSE,FALSE,FALSE,0,Follow Yaw,-6.6,0,42.6,42.6,FALSE,FALSE,FALSE,FALSE,FALSE,FALSE,,TRUE,Normal,,100,1024,1024,1024,1024,2,FALSE,FALSE,FALSE,FALSE,FALSE,0,FALSE,FALSE,FALSE,FALSE,82,7.886,1686,2056,7.877,FALSE,3.947,3.939,0.008,FALSE,FALSE,NA,98.8,98.7,98.7,0,0,0,0,5,2675.4,668.86,,Idle,0,20,FALSE,5,TRUE,6,Go Home,FALSE,FALSE,FALSE,FALSE,FALSE,FALSE,FALSE,FALSE,FALSE,FALSE,FALSE,FALSE,6.974219778,79.91415662,2.3,98,328,TRUE,1,1,FALSE,FALSE,FALSE,FALSE,,TRUE,FALSE,FALSE,Course Lock,49.2,,16.4,Calm,33,,1.12.8,Mavic Mini,1SDCH7G0169R0K,1SFLH6Q0AB03DJ,1SRCH7F014TAHX,1U5X071EXP6C9Y,70.7,0.2,39.3,8.997867,3.35541,0,18,Mavic Mini,1SDCH7G0169R0K,1SFLH6Q0AB03DJ,1SRCH7F014TAHX,1U5X071EXP6C9Y,DJI Fly,,1.12.8,E510E1A2-828C-E274-0990-E66BDF305ADB,1SDCH7G0169R0K,,,,,,,,,
2/22/2024,18:07.8,4m 11.3s,251.3,6.974223488,79.91415125,0,0,0.3,50,0.1,0,0,0,0,0,0,0,0,1.5,2.1,25.8,25.8,,Starting Motors,Drop Calibration,Takeoff (RC Assisted),13,5,TRUE,,Mavic Mini,TRUE,FALSE,,Smart,RC,TRUE,TRUE,FALSE,,,TRUE,,FALSE,FALSE,FALSE,FALSE,FALSE,FALSE,FALSE,FALSE,FALSE,FALSE,0,Follow Yaw,-6.6,0,42.6,42.6,FALSE,FALSE,FALSE,FALSE,FALSE,FALSE,,TRUE,Normal,,100,1024,1024,1024,1024,2,FALSE,FALSE,FALSE,FALSE,FALSE,0,FALSE,FALSE,FALSE,FALSE,82,7.886,1686,2056,7.877,FALSE,3.947,3.939,0.008,FALSE,FALSE,NA,98.8,98.7,98.7,0,0,0,0,5,2675.4,668.86,,Idle,0,20,FALSE,5,TRUE,6,Go Home,FALSE,FALSE,FALSE,FALSE,FALSE,FALSE,FALSE,FALSE,FALSE,FALSE,FALSE,FALSE,6.974219778,79.91415662,2.3,98,328,TRUE,1,1,FALSE,FALSE,FALSE,FALSE,,TRUE,FALSE,FALSE,Course Lock,49.2,,16.4,Calm,33,,1.12.8,Mavic Mini,1SDCH7G0169R0K,1SFLH6Q0AB03DJ,1SRCH7F014TAHX,1U5X071EXP6C9Y,70.7,0.2,39.3,8.997867,3.35541,0,18,Mavic Mini,1SDCH7G0169R0K,1SFLH6Q0AB03DJ,1SRCH7F014TAHX,1U5X071EXP6C9Y,DJI Fly,,1.12.8,E510E1A2-828C-E274-0990-E66BDF305ADB,1SDCH7G0169R0K,,,,,,,,,
2/22/2024,18:07.8,4m 11.4s,251.4,6.974223475,79.91415126,0,0,0.3,50,0.1,0,0,0,0,0,0,0,0,1.5,2.2,25.8,25.8,,Starting Motors,Drop Calibration,Takeoff (RC Assisted),13,5,TRUE,,Mavic Mini,TRUE,FALSE,,Smart,RC,TRUE,TRUE,FALSE,,,TRUE,,FALSE,FALSE,FALSE,FALSE,FALSE,FALSE,FALSE,FALSE,FALSE,FALSE,0,Follow Yaw,-6.6,0,42.6,42.6,FALSE,FALSE,FALSE,FALSE,FALSE,FALSE,,TRUE,Normal,,100,1024,1024,1024,1024,2,FALSE,FALSE,FALSE,FALSE,FALSE,0,FALSE,FALSE,FALSE,FALSE,82,7.886,1686,2056,7.877,FALSE,3.947,3.939,0.008,FALSE,FALSE,NA,98.8,98.7,98.7,0,0,0,0,5,2675.4,668.86,,Idle,0,20,FALSE,5,TRUE,6,Go Home,FALSE,FALSE,FALSE,FALSE,FALSE,FALSE,FALSE,FALSE,FALSE,FALSE,FALSE,FALSE,6.974219778,79.91415662,2.3,98,328,TRUE,1,1,FALSE,FALSE,FALSE,FALSE,,TRUE,FALSE,FALSE,Course Lock,49.2,,16.4,Calm,33,,1.12.8,Mavic Mini,1SDCH7G0169R0K,1SFLH6Q0AB03DJ,1SRCH7F014TAHX,1U5X071EXP6C9Y,70.7,0.2,39.3,8.997867,3.35541,0,18,Mavic Mini,1SDCH7G0169R0K,1SFLH6Q0AB03DJ,1SRCH7F014TAHX,1U5X071EXP6C9Y,DJI Fly,,1.12.8,E510E1A2-828C-E274-0990-E66BDF305ADB,1SDCH7G0169R0K,,,,,,,,,
2/22/2024,18:07.9,4m 11.5s,251.5,6.9742235,79.91415129,0,0,0.3,50,0.1,0,0,0,0,0,0,0,0,1.5,2.2,25.8,25.8,,Starting Motors,Drop Calibration,Takeoff (RC Assisted),13,5,TRUE,,Mavic Mini,TRUE,FALSE,,Smart,RC,TRUE,TRUE,FALSE,,,TRUE,,FALSE,FALSE,FALSE,FALSE,FALSE,FALSE,FALSE,FALSE,FALSE,FALSE,0,Follow Yaw,-6.6,0,42.5,42.5,FALSE,FALSE,FALSE,FALSE,FALSE,FALSE,,TRUE,Normal,,100,1024,1024,1024,1024,2,FALSE,FALSE,FALSE,FALSE,FALSE,0,FALSE,FALSE,FALSE,FALSE,82,7.886,1686,2056,7.877,FALSE,3.947,3.939,0.008,FALSE,FALSE,NA,98.8,98.7,98.7,0,0,0,0,5,2675.4,668.86,,Idle,0,20,FALSE,5,TRUE,6,Go Home,FALSE,FALSE,FALSE,FALSE,FALSE,FALSE,FALSE,FALSE,FALSE,FALSE,FALSE,FALSE,6.974219778,79.91415662,2.3,98,328,TRUE,1,1,FALSE,FALSE,FALSE,FALSE,,TRUE,FALSE,FALSE,Course Lock,49.2,,16.4,Calm,33,,1.12.8,Mavic Mini,1SDCH7G0169R0K,1SFLH6Q0AB03DJ,1SRCH7F014TAHX,1U5X071EXP6C9Y,70.7,0.2,39.3,8.997867,3.35541,0,18,Mavic Mini,1SDCH7G0169R0K,1SFLH6Q0AB03DJ,1SRCH7F014TAHX,1U5X071EXP6C9Y,DJI Fly,,1.12.8,E510E1A2-828C-E274-0990-E66BDF305ADB,1SDCH7G0169R0K,,,,,,,,,
2/22/2024,18:08.0,4m 11.6s,251.6,6.974223402,79.91415125,0,0,0.3,50,0.1,0,0,0,0,0,0,0,0,1.5,2.2,25.8,25.8,,Starting Motors,Drop Calibration,Takeoff (RC Assisted),13,5,TRUE,,Mavic Mini,TRUE,FALSE,,Smart,RC,TRUE,TRUE,FALSE,,,TRUE,,FALSE,FALSE,FALSE,FALSE,FALSE,FALSE,FALSE,FALSE,FALSE,FALSE,0,Follow Yaw,-6.6,0,42.5,42.5,FALSE,FALSE,FALSE,FALSE,FALSE,FALSE,,TRUE,Normal,,100,1024,1024,1024,1024,2,FALSE,FALSE,FALSE,FALSE,FALSE,0,FALSE,FALSE,FALSE,FALSE,82,7.886,1686,2056,7.877,FALSE,3.947,3.939,0.008,FALSE,FALSE,NA,98.8,98.7,98.7,0,0,0,0,5,2675.4,668.86,,Idle,0,20,FALSE,5,TRUE,6,Go Home,FALSE,FALSE,FALSE,FALSE,FALSE,FALSE,FALSE,FALSE,FALSE,FALSE,FALSE,FALSE,6.974219778,79.91415662,2.3,98,328,TRUE,1,1,FALSE,FALSE,FALSE,FALSE,,TRUE,FALSE,FALSE,Course Lock,49.2,,16.4,Calm,33,,1.12.8,Mavic Mini,1SDCH7G0169R0K,1SFLH6Q0AB03DJ,1SRCH7F014TAHX,1U5X071EXP6C9Y,70.7,0.2,39.3,8.997867,3.35541,0,18,Mavic Mini,1SDCH7G0169R0K,1SFLH6Q0AB03DJ,1SRCH7F014TAHX,1U5X071EXP6C9Y,DJI Fly,,1.12.8,E510E1A2-828C-E274-0990-E66BDF305ADB,1SDCH7G0169R0K,,,,,,,,,
2/22/2024,18:08.2,4m 11.7s,251.7,6.974223312,79.91415121,0,0,0.3,50,0.2,0,0,0,0,0,0,0,0,1.5,2.1,25.8,25.8,,Starting Motors,Drop Calibration,Takeoff (RC Assisted),13,5,TRUE,,Mavic Mini,TRUE,FALSE,,Smart,RC,TRUE,TRUE,FALSE,,,TRUE,,FALSE,FALSE,FALSE,FALSE,FALSE,FALSE,FALSE,FALSE,FALSE,FALSE,0,Follow Yaw,-6.6,0,42.5,42.5,FALSE,FALSE,FALSE,FALSE,FALSE,FALSE,,TRUE,Normal,,100,1024,1024,1024,1024,2,FALSE,FALSE,FALSE,FALSE,FALSE,0,FALSE,FALSE,FALSE,FALSE,82,7.857,1686,2056,7.877,FALSE,3.93,3.927,0.008,FALSE,FALSE,NA,98.8,98.7,98.7,0,0,0,0,5,2675.4,668.86,,Idle,0,20,FALSE,5,TRUE,6,Go Home,FALSE,FALSE,FALSE,FALSE,FALSE,FALSE,FALSE,FALSE,FALSE,FALSE,FALSE,FALSE,6.974219778,79.91415662,2.3,98,328,TRUE,1,1,FALSE,FALSE,FALSE,FALSE,,TRUE,FALSE,FALSE,Course Lock,49.2,,16.4,Calm,33,,1.12.8,Mavic Mini,1SDCH7G0169R0K,1SFLH6Q0AB03DJ,1SRCH7F014TAHX,1U5X071EXP6C9Y,70.7,0.2,39.3,8.997867,3.35541,0,18,Mavic Mini,1SDCH7G0169R0K,1SFLH6Q0AB03DJ,1SRCH7F014TAHX,1U5X071EXP6C9Y,DJI Fly,,1.12.8,E510E1A2-828C-E274-0990-E66BDF305ADB,1SDCH7G0169R0K,,,,,,,,,
2/22/2024,18:08.3,4m 11.8s,251.8,6.974223233,79.9141512,0,0,0.3,50,0.2,0,0,0,0,0,0,0,0,1.5,2.2,25.8,25.8,,Manual Takeoff,Drop Calibration,Takeoff (RC Assisted),13,5,TRUE,,Mavic Mini,TRUE,FALSE,,Smart,RC,TRUE,TRUE,FALSE,,,TRUE,,FALSE,FALSE,FALSE,FALSE,FALSE,FALSE,FALSE,FALSE,FALSE,FALSE,0,Follow Yaw,-6.6,0,42.5,42.5,FALSE,FALSE,FALSE,FALSE,FALSE,FALSE,,TRUE,Normal,,100,1024,1024,1024,1024,2,FALSE,FALSE,FALSE,FALSE,FALSE,0,FALSE,FALSE,FALSE,FALSE,82,7.857,1686,2056,7.877,FALSE,3.93,3.927,0.008,FALSE,FALSE,NA,98.8,98.7,98.7,0,0,0,0,5,2675.4,668.86,,Idle,0,20,FALSE,5,TRUE,6,Go Home,FALSE,FALSE,FALSE,FALSE,FALSE,FALSE,FALSE,FALSE,FALSE,FALSE,FALSE,FALSE,6.974219778,79.91415662,2.3,98,328,TRUE,1,1,FALSE,FALSE,FALSE,FALSE,,TRUE,FALSE,FALSE,Course Lock,49.2,,16.4,Calm,33,,1.12.8,Mavic Mini,1SDCH7G0169R0K,1SFLH6Q0AB03DJ,1SRCH7F014TAHX,1U5X071EXP6C9Y,70.7,0.2,39.3,8.997867,3.35541,0,18,Mavic Mini,1SDCH7G0169R0K,1SFLH6Q0AB03DJ,1SRCH7F014TAHX,1U5X071EXP6C9Y,DJI Fly,,1.12.8,E510E1A2-828C-E274-0990-E66BDF305ADB,1SDCH7G0169R0K,,,,,,,,Flight mode changed to Manual Takeoff.,
2/22/2024,18:08.4,4m 11.9s,251.9,6.974223076,79.91415117,0,0,0.3,50,0.3,0,0,0,0,0,0,0,0,1.5,2.2,25.7,25.7,,Manual Takeoff,Drop Calibration,Takeoff (RC Assisted),13,5,TRUE,,Mavic Mini,TRUE,FALSE,,Smart,RC,TRUE,TRUE,FALSE,,,TRUE,,FALSE,FALSE,FALSE,FALSE,FALSE,FALSE,FALSE,FALSE,FALSE,FALSE,0,Follow Yaw,-6.6,0,42.5,42.5,FALSE,FALSE,FALSE,FALSE,FALSE,FALSE,,TRUE,Normal,,100,1024,1024,1024,1024,2,FALSE,FALSE,FALSE,FALSE,FALSE,0,FALSE,FALSE,FALSE,FALSE,82,7.857,1686,2056,7.877,FALSE,3.93,3.927,0.008,FALSE,FALSE,NA,98.8,98.7,98.7,0,0,0,0,5,2675.4,668.86,,Idle,0,20,FALSE,5,TRUE,6,Go Home,FALSE,FALSE,FALSE,FALSE,FALSE,FALSE,FALSE,FALSE,FALSE,FALSE,FALSE,FALSE,6.974219778,79.91415662,2.3,98,328,TRUE,1,1,FALSE,FALSE,FALSE,FALSE,,TRUE,FALSE,FALSE,Course Lock,49.2,,16.4,Calm,33,,1.12.8,Mavic Mini,1SDCH7G0169R0K,1SFLH6Q0AB03DJ,1SRCH7F014TAHX,1U5X071EXP6C9Y,70.7,0.2,39.3,8.997867,3.35541,0,18,Mavic Mini,1SDCH7G0169R0K,1SFLH6Q0AB03DJ,1SRCH7F014TAHX,1U5X071EXP6C9Y,DJI Fly,,1.12.8,E510E1A2-828C-E274-0990-E66BDF305ADB,1SDCH7G0169R0K,,,,,,,,,
2/22/2024,18:08.5,4m 12.0s,252,6.97422301,79.91415117,0,0,0.3,50,0.3,0,0,0,0,0,0,0,0,1.5,2.1,25.7,25.7,,Manual Takeoff,Drop Calibration,Takeoff (RC Assisted),13,5,TRUE,,Mavic Mini,TRUE,FALSE,,Smart,RC,TRUE,TRUE,FALSE,,,TRUE,,FALSE,FALSE,FALSE,FALSE,FALSE,FALSE,FALSE,FALSE,FALSE,FALSE,0,Follow Yaw,-6.6,0,42.5,42.5,FALSE,FALSE,FALSE,FALSE,FALSE,FALSE,,TRUE,Normal,,100,1024,1024,1024,1024,2,FALSE,FALSE,FALSE,FALSE,FALSE,0,FALSE,FALSE,FALSE,FALSE,82,7.857,1686,2056,7.884,FALSE,3.93,3.927,0.008,FALSE,FALSE,NA,98.8,98.7,98.7,0,0,0,0,5,2772.7,693.18,,Idle,0,20,FALSE,5,TRUE,6,Go Home,FALSE,FALSE,FALSE,FALSE,FALSE,FALSE,FALSE,FALSE,FALSE,FALSE,FALSE,FALSE,6.974219778,79.91415662,2.2,98,328,TRUE,1,1,FALSE,FALSE,FALSE,FALSE,,TRUE,FALSE,FALSE,Course Lock,49.2,,16.4,Calm,33,,1.12.8,Mavic Mini,1SDCH7G0169R0K,1SFLH6Q0AB03DJ,1SRCH7F014TAHX,1U5X071EXP6C9Y,70.7,0.2,39.3,8.997867,3.35541,0,18,Mavic Mini,1SDCH7G0169R0K,1SFLH6Q0AB03DJ,1SRCH7F014TAHX,1U5X071EXP6C9Y,DJI Fly,,1.12.8,E510E1A2-828C-E274-0990-E66BDF305ADB,1SDCH7G0169R0K,,,,,,,,,
2/22/2024,18:08.6,4m 12.1s,252.1,6.974222948,79.91415118,0,0,0.3,50,0.3,0,0,0,0,0,0,0,0,1.5,2.1,25.7,25.7,,Manual Takeoff,Drop Calibration,Takeoff (RC Assisted),13,5,TRUE,,Mavic Mini,TRUE,FALSE,,Smart,RC,TRUE,TRUE,FALSE,,,TRUE,,FALSE,FALSE,FALSE,FALSE,FALSE,FALSE,FALSE,FALSE,FALSE,FALSE,0,Follow Yaw,-6.6,0,42.5,42.5,FALSE,FALSE,FALSE,FALSE,FALSE,FALSE,,TRUE,Normal,,100,1024,1024,1024,1024,2,FALSE,FALSE,FALSE,FALSE,FALSE,0,FALSE,FALSE,FALSE,FALSE,82,7.857,1686,2056,7.884,FALSE,3.93,3.927,0.008,FALSE,FALSE,NA,98.8,98.7,98.7,0,0,0,0,5,2772.7,693.18,,Idle,0,20,FALSE,5,TRUE,6,Go Home,FALSE,FALSE,FALSE,FALSE,FALSE,FALSE,FALSE,FALSE,FALSE,FALSE,FALSE,FALSE,6.974219778,79.91415662,2.2,98,328,TRUE,1,1,FALSE,FALSE,FALSE,FALSE,,TRUE,FALSE,FALSE,Course Lock,49.2,,16.4,Calm,33,,1.12.8,Mavic Mini,1SDCH7G0169R0K,1SFLH6Q0AB03DJ,1SRCH7F014TAHX,1U5X071EXP6C9Y,70.7,0.2,39.3,8.997867,3.35541,0,18,Mavic Mini,1SDCH7G0169R0K,1SFLH6Q0AB03DJ,1SRCH7F014TAHX,1U5X071EXP6C9Y,DJI Fly,,1.12.8,E510E1A2-828C-E274-0990-E66BDF305ADB,1SDCH7G0169R0K,,,,,,,,,
2/22/2024,18:08.7,4m 12.2s,252.2,6.974222888,79.91415119,0,0,0.3,50,0.3,0,0,0,0,0,0,0,0,1.5,2.2,25.7,25.7,,Manual Takeoff,Drop Calibration,Takeoff (RC Assisted),13,5,TRUE,,Mavic Mini,TRUE,FALSE,,Smart,RC,TRUE,TRUE,FALSE,,,TRUE,,FALSE,FALSE,FALSE,FALSE,FALSE,FALSE,FALSE,FALSE,FALSE,FALSE,0,Follow Yaw,-6.6,0,42.5,42.5,FALSE,FALSE,FALSE,FALSE,FALSE,FALSE,,TRUE,Normal,,100,1024,1024,1024,1024,2,FALSE,FALSE,FALSE,FALSE,FALSE,0,FALSE,FALSE,FALSE,FALSE,82,7.857,1686,2056,7.884,FALSE,3.93,3.927,0.008,FALSE,FALSE,NA,98.8,98.7,98.7,0,0,0,0,5,2772.7,693.18,,Idle,0,20,FALSE,5,TRUE,6,Go Home,FALSE,FALSE,FALSE,FALSE,FALSE,FALSE,FALSE,FALSE,FALSE,FALSE,FALSE,FALSE,6.974219778,79.91415662,2.2,98,328,TRUE,1,1,FALSE,FALSE,FALSE,FALSE,,TRUE,FALSE,FALSE,Course Lock,49.2,,16.4,Calm,33,,1.12.8,Mavic Mini,1SDCH7G0169R0K,1SFLH6Q0AB03DJ,1SRCH7F014TAHX,1U5X071EXP6C9Y,70.7,0.2,39.3,8.997867,3.35541,0,18,Mavic Mini,1SDCH7G0169R0K,1SFLH6Q0AB03DJ,1SRCH7F014TAHX,1U5X071EXP6C9Y,DJI Fly,,1.12.8,E510E1A2-828C-E274-0990-E66BDF305ADB,1SDCH7G0169R0K,,,,,,,,,
2/22/2024,18:08.8,4m 12.3s,252.3,6.97422288,79.91415125,0,0,0.3,50,0.4,0,0,0,0,0,0,0,0,1.5,2.1,25.7,25.7,,Manual Takeoff,Drop Calibration,Takeoff (RC Assisted),13,5,TRUE,,Mavic Mini,TRUE,FALSE,,Smart,RC,TRUE,TRUE,FALSE,,,TRUE,,FALSE,FALSE,FALSE,FALSE,FALSE,FALSE,FALSE,FALSE,FALSE,FALSE,0,Follow Yaw,-6.6,0,42.5,42.5,FALSE,FALSE,FALSE,FALSE,FALSE,FALSE,,TRUE,Normal,,100,1024,1024,1024,1024,2,FALSE,FALSE,FALSE,FALSE,FALSE,0,FALSE,FALSE,FALSE,FALSE,82,7.857,1686,2056,7.884,FALSE,3.93,3.927,0.008,FALSE,FALSE,NA,98.8,98.7,98.7,0,0,0,0,5,2772.7,693.18,,Idle,0,20,FALSE,5,TRUE,6,Go Home,FALSE,FALSE,FALSE,FALSE,FALSE,FALSE,FALSE,FALSE,FALSE,FALSE,FALSE,FALSE,6.974219778,79.91415662,2.2,98,328,TRUE,1,1,FALSE,FALSE,FALSE,FALSE,,TRUE,FALSE,FALSE,Course Lock,49.2,,16.4,Calm,33,,1.12.8,Mavic Mini,1SDCH7G0169R0K,1SFLH6Q0AB03DJ,1SRCH7F014TAHX,1U5X071EXP6C9Y,70.7,0.2,39.3,8.997867,3.35541,0,18,Mavic Mini,1SDCH7G0169R0K,1SFLH6Q0AB03DJ,1SRCH7F014TAHX,1U5X071EXP6C9Y,DJI Fly,,1.12.8,E510E1A2-828C-E274-0990-E66BDF305ADB,1SDCH7G0169R0K,,,,,,,,,
2/22/2024,18:08.8,4m 12.4s,252.4,6.974222822,79.91415126,0,0,0.3,50,0.4,0,0,0,0,0,0,0,0,1.5,2.1,25.7,25.7,,Manual Takeoff,Drop Calibration,Takeoff (RC Assisted),13,5,TRUE,,Mavic Mini,TRUE,FALSE,,Smart,RC,TRUE,TRUE,FALSE,,,TRUE,,FALSE,FALSE,FALSE,FALSE,FALSE,FALSE,FALSE,FALSE,FALSE,FALSE,0,Follow Yaw,-6.6,0,42.5,42.5,FALSE,FALSE,FALSE,FALSE,FALSE,FALSE,,TRUE,Normal,,100,1024,1024,1024,1024,2,FALSE,FALSE,FALSE,FALSE,FALSE,0,FALSE,FALSE,FALSE,FALSE,82,7.857,1686,2056,7.884,FALSE,3.93,3.927,0.008,FALSE,FALSE,NA,98.8,98.7,98.7,0,0,0,0,5,2772.7,693.18,,Idle,0,20,FALSE,5,TRUE,6,Go Home,FALSE,FALSE,FALSE,FALSE,FALSE,FALSE,FALSE,FALSE,FALSE,FALSE,FALSE,FALSE,6.974219778,79.91415662,2.2,98,328,TRUE,1,1,FALSE,FALSE,FALSE,FALSE,,TRUE,FALSE,FALSE,Course Lock,49.2,,16.4,Calm,33,,1.12.8,Mavic Mini,1SDCH7G0169R0K,1SFLH6Q0AB03DJ,1SRCH7F014TAHX,1U5X071EXP6C9Y,70.7,0.2,39.3,8.997867,3.35541,0,18,Mavic Mini,1SDCH7G0169R0K,1SFLH6Q0AB03DJ,1SRCH7F014TAHX,1U5X071EXP6C9Y,DJI Fly,,1.12.8,E510E1A2-828C-E274-0990-E66BDF305ADB,1SDCH7G0169R0K,,,,,,,,,
2/22/2024,18:09.0,4m 12.5s,252.5,6.974222751,79.91415124,0,0,0.3,50,0.4,0,0,0,0,0,0,0,0,1.5,2.1,25.8,25.8,,Manual Takeoff,Drop Calibration,Takeoff (RC Assisted),13,5,TRUE,,Mavic Mini,TRUE,FALSE,,Smart,RC,TRUE,TRUE,FALSE,,,TRUE,,FALSE,FALSE,FALSE,FALSE,FALSE,FALSE,FALSE,FALSE,FALSE,FALSE,0,Follow Yaw,-6.6,0,42.5,42.5,FALSE,FALSE,FALSE,FALSE,FALSE,FALSE,,TRUE,Normal,,100,1024,1024,1024,1024,2,FALSE,FALSE,FALSE,FALSE,FALSE,0,FALSE,FALSE,FALSE,FALSE,82,7.857,1686,2056,7.884,FALSE,3.93,3.927,0.008,FALSE,FALSE,NA,98.8,98.7,98.7,0,0,0,0,5,2772.7,693.18,,Idle,0,20,FALSE,5,TRUE,6,Go Home,FALSE,FALSE,FALSE,FALSE,FALSE,FALSE,FALSE,FALSE,FALSE,FALSE,FALSE,FALSE,6.974219778,79.91415662,2.2,98,328,TRUE,1,1,FALSE,FALSE,FALSE,FALSE,,TRUE,FALSE,FALSE,Course Lock,49.2,,16.4,Calm,33,,1.12.8,Mavic Mini,1SDCH7G0169R0K,1SFLH6Q0AB03DJ,1SRCH7F014TAHX,1U5X071EXP6C9Y,70.7,0.2,39.3,8.997867,3.35541,0,18,Mavic Mini,1SDCH7G0169R0K,1SFLH6Q0AB03DJ,1SRCH7F014TAHX,1U5X071EXP6C9Y,DJI Fly,,1.12.8,E510E1A2-828C-E274-0990-E66BDF305ADB,1SDCH7G0169R0K,,,,,,,,,
2/22/2024,18:09.1,4m 12.6s,252.6,6.97422264,79.91415119,0,0,0.3,50,0.5,0,0,0,0,0,0,0,0,1.5,2.1,25.7,25.7,,Manual Takeoff,Drop Calibration,Takeoff (RC Assisted),13,5,TRUE,,Mavic Mini,TRUE,FALSE,,Smart,RC,TRUE,TRUE,FALSE,,,TRUE,,FALSE,FALSE,FALSE,FALSE,FALSE,FALSE,FALSE,FALSE,FALSE,FALSE,0,Follow Yaw,-6.6,0,42.5,42.5,FALSE,FALSE,FALSE,FALSE,FALSE,FALSE,,TRUE,Normal,,100,1024,1024,1024,1024,2,FALSE,FALSE,FALSE,FALSE,FALSE,0,FALSE,FALSE,FALSE,FALSE,82,7.857,1686,2056,7.884,FALSE,3.93,3.927,0.008,FALSE,FALSE,NA,98.8,98.7,98.7,0,0,0,0,5,2772.7,693.18,,Idle,0,20,FALSE,5,TRUE,6,Go Home,FALSE,FALSE,FALSE,FALSE,FALSE,FALSE,FALSE,FALSE,FALSE,FALSE,FALSE,FALSE,6.974219778,79.91415662,2.2,98,328,TRUE,1,1,FALSE,FALSE,FALSE,FALSE,,TRUE,FALSE,FALSE,Course Lock,49.2,,16.4,Calm,33,,1.12.8,Mavic Mini,1SDCH7G0169R0K,1SFLH6Q0AB03DJ,1SRCH7F014TAHX,1U5X071EXP6C9Y,70.7,0.2,39.3,8.997867,3.35541,0,18,Mavic Mini,1SDCH7G0169R0K,1SFLH6Q0AB03DJ,1SRCH7F014TAHX,1U5X071EXP6C9Y,DJI Fly,,1.12.8,E510E1A2-828C-E274-0990-E66BDF305ADB,1SDCH7G0169R0K,,,,,,,,,
2/22/2024,18:09.1,4m 12.7s,252.7,6.97422253,79.91415111,0,0,0.3,50,0.5,0,0,0,0,0,0,0,0,1.5,2.1,25.7,25.7,,Manual Takeoff,Drop Calibration,Takeoff (RC Assisted),13,5,TRUE,,Mavic Mini,TRUE,FALSE,,Smart,RC,TRUE,TRUE,FALSE,,,TRUE,,FALSE,FALSE,FALSE,FALSE,FALSE,FALSE,FALSE,FALSE,FALSE,FALSE,0,Follow Yaw,-6.6,0,42.5,42.5,FALSE,FALSE,FALSE,FALSE,FALSE,FALSE,,TRUE,Normal,,100,1024,1024,1024,1024,2,FALSE,FALSE,FALSE,FALSE,FALSE,0,FALSE,FALSE,FALSE,FALSE,82,7.857,1686,2056,7.884,FALSE,3.93,3.927,0.008,FALSE,FALSE,NA,98.8,98.7,98.7,0,0,0,0,5,2772.7,693.18,,Idle,0,20,FALSE,5,TRUE,6,Go Home,FALSE,FALSE,FALSE,FALSE,FALSE,FALSE,FALSE,FALSE,FALSE,FALSE,FALSE,FALSE,6.974219778,79.91415662,2.2,98,328,TRUE,1,1,FALSE,FALSE,FALSE,FALSE,,TRUE,FALSE,FALSE,Course Lock,49.2,,16.4,Calm,33,,1.12.8,Mavic Mini,1SDCH7G0169R0K,1SFLH6Q0AB03DJ,1SRCH7F014TAHX,1U5X071EXP6C9Y,70.7,0.2,39.3,8.997867,3.35541,0,18,Mavic Mini,1SDCH7G0169R0K,1SFLH6Q0AB03DJ,1SRCH7F014TAHX,1U5X071EXP6C9Y,DJI Fly,,1.12.8,E510E1A2-828C-E274-0990-E66BDF305ADB,1SDCH7G0169R0K,,,,,,,,,
2/22/2024,18:09.2,4m 12.8s,252.8,6.974222451,79.91415109,0,0,0.3,50,0.5,0,0,0,0,0,0,0,0,1.5,2.2,25.7,25.7,,Manual Takeoff,Drop Calibration,Takeoff (RC Assisted),13,5,TRUE,,Mavic Mini,TRUE,FALSE,,Smart,RC,TRUE,TRUE,FALSE,,,TRUE,,FALSE,FALSE,FALSE,FALSE,FALSE,FALSE,FALSE,FALSE,FALSE,FALSE,0,Follow Yaw,-6.6,0,42.5,42.5,FALSE,FALSE,FALSE,FALSE,FALSE,FALSE,,TRUE,Normal,,100,1024,1024,1024,1024,2,FALSE,FALSE,FALSE,FALSE,FALSE,0,FALSE,FALSE,FALSE,FALSE,82,7.857,1686,2056,7.884,FALSE,3.93,3.927,0.008,FALSE,FALSE,NA,98.8,98.7,98.7,0,0,0,0,5,2772.7,693.18,,Idle,0,20,FALSE,5,TRUE,6,Go Home,FALSE,FALSE,FALSE,FALSE,FALSE,FALSE,FALSE,FALSE,FALSE,FALSE,FALSE,FALSE,6.974219778,79.91415662,2.2,98,328,TRUE,1,1,FALSE,FALSE,FALSE,FALSE,,TRUE,FALSE,FALSE,Course Lock,49.2,,16.4,Calm,33,,1.12.8,Mavic Mini,1SDCH7G0169R0K,1SFLH6Q0AB03DJ,1SRCH7F014TAHX,1U5X071EXP6C9Y,70.7,0.2,39.3,8.997867,3.35541,0,18,Mavic Mini,1SDCH7G0169R0K,1SFLH6Q0AB03DJ,1SRCH7F014TAHX,1U5X071EXP6C9Y,DJI Fly,,1.12.8,E510E1A2-828C-E274-0990-E66BDF305ADB,1SDCH7G0169R0K,,,,,6.974202641,79.91414342,5,,
2/22/2024,18:09.3,4m 12.9s,252.9,6.974222397,79.91415109,0,0,0.3,50,0.6,0,0,0,0,0,0,0,0,1.5,2.2,25.7,25.7,,Manual Takeoff,Drop Calibration,Takeoff (RC Assisted),13,5,TRUE,,Mavic Mini,TRUE,FALSE,,Smart,RC,TRUE,TRUE,FALSE,,,TRUE,,FALSE,FALSE,FALSE,FALSE,FALSE,FALSE,FALSE,FALSE,FALSE,FALSE,0,Follow Yaw,-6.6,0,42.5,42.5,FALSE,FALSE,FALSE,FALSE,FALSE,FALSE,,TRUE,Normal,,100,1024,1024,1024,1024,2,FALSE,FALSE,FALSE,FALSE,FALSE,0,FALSE,FALSE,FALSE,FALSE,82,7.877,1685,2056,7.884,FALSE,3.943,3.934,0.009,FALSE,FALSE,NA,98.8,98.7,98.7,0,0,0,0,5,2772.7,693.18,,Idle,0,20,FALSE,5,TRUE,6,Go Home,FALSE,FALSE,FALSE,FALSE,FALSE,FALSE,FALSE,FALSE,FALSE,FALSE,FALSE,FALSE,6.974219778,79.91415662,2.2,98,328,TRUE,1,1,FALSE,FALSE,FALSE,FALSE,,TRUE,FALSE,FALSE,Course Lock,49.2,,16.4,Calm,33,,1.12.8,Mavic Mini,1SDCH7G0169R0K,1SFLH6Q0AB03DJ,1SRCH7F014TAHX,1U5X071EXP6C9Y,70.7,0.2,39.3,8.997867,3.35541,0,18,Mavic Mini,1SDCH7G0169R0K,1SFLH6Q0AB03DJ,1SRCH7F014TAHX,1U5X071EXP6C9Y,DJI Fly,,1.12.8,E510E1A2-828C-E274-0990-E66BDF305ADB,1SDCH7G0169R0K,,,,,6.974202641,79.91414342,5,,
2/22/2024,18:09.5,4m 13.0s,253,6.974222389,79.91415114,0,0,0.3,50,0.6,0,0,0,0,0,0,0,0,1.5,2.1,25.7,25.7,,Manual Takeoff,Drop Calibration,Takeoff (RC Assisted),13,5,TRUE,,Mavic Mini,TRUE,FALSE,,Smart,RC,TRUE,TRUE,FALSE,,,TRUE,,FALSE,FALSE,FALSE,FALSE,FALSE,FALSE,FALSE,FALSE,FALSE,FALSE,0,Follow Yaw,-6.6,0,42.5,42.5,FALSE,FALSE,FALSE,FALSE,FALSE,FALSE,,TRUE,Normal,,100,1024,1024,1024,1024,2,FALSE,FALSE,FALSE,FALSE,FALSE,0,FALSE,FALSE,FALSE,FALSE,82,7.877,1685,2056,7.864,FALSE,3.943,3.934,0.009,FALSE,FALSE,NA,98.8,98.7,98.7,0,0,0,0,5,2943.5,735.87,,Idle,0,20,FALSE,5,TRUE,6,Go Home,FALSE,FALSE,FALSE,FALSE,FALSE,FALSE,FALSE,FALSE,FALSE,FALSE,FALSE,FALSE,6.974219778,79.91415662,2.2,98,328,TRUE,1,1,FALSE,FALSE,FALSE,FALSE,,TRUE,FALSE,FALSE,Course Lock,49.2,,16.4,Calm,33,,1.12.8,Mavic Mini,1SDCH7G0169R0K,1SFLH6Q0AB03DJ,1SRCH7F014TAHX,1U5X071EXP6C9Y,70.7,0.2,39.3,8.997867,3.35541,0,18,Mavic Mini,1SDCH7G0169R0K,1SFLH6Q0AB03DJ,1SRCH7F014TAHX,1U5X071EXP6C9Y,DJI Fly,,1.12.8,E510E1A2-828C-E274-0990-E66BDF305ADB,1SDCH7G0169R0K,,,,,6.974202641,79.91414342,5,,
2/22/2024,18:09.6,4m 13.1s,253.1,6.974222358,79.91415117,0,0,0.3,50,0.6,0,0,0,0,0,0,0,0,1.5,2.1,25.7,25.7,,Manual Takeoff,Drop Calibration,Takeoff (RC Assisted),13,5,TRUE,,Mavic Mini,TRUE,FALSE,,Smart,RC,TRUE,TRUE,FALSE,,,TRUE,,FALSE,FALSE,FALSE,FALSE,FALSE,FALSE,FALSE,FALSE,FALSE,FALSE,0,Follow Yaw,-6.6,0,42.5,42.5,FALSE,FALSE,FALSE,FALSE,FALSE,FALSE,,TRUE,Normal,,100,1024,1024,1024,1024,2,FALSE,FALSE,FALSE,FALSE,FALSE,0,FALSE,FALSE,FALSE,FALSE,82,7.877,1685,2056,7.864,FALSE,3.943,3.934,0.009,FALSE,FALSE,NA,98.8,98.7,98.7,0,0,0,0,5,2943.5,735.87,,Idle,0,20,FALSE,5,TRUE,6,Go Home,FALSE,FALSE,FALSE,FALSE,FALSE,FALSE,FALSE,FALSE,FALSE,FALSE,FALSE,FALSE,6.974219778,79.91415662,2.1,98,328,TRUE,1,1,FALSE,FALSE,FALSE,FALSE,,TRUE,FALSE,FALSE,Course Lock,49.2,,16.4,Calm,33,,1.12.8,Mavic Mini,1SDCH7G0169R0K,1SFLH6Q0AB03DJ,1SRCH7F014TAHX,1U5X071EXP6C9Y,70.7,0.2,39.3,8.997867,3.35541,0,18,Mavic Mini,1SDCH7G0169R0K,1SFLH6Q0AB03DJ,1SRCH7F014TAHX,1U5X071EXP6C9Y,DJI Fly,,1.12.8,E510E1A2-828C-E274-0990-E66BDF305ADB,1SDCH7G0169R0K,,,,,6.974202641,79.91414342,5,,
2/22/2024,18:09.7,4m 13.2s,253.2,6.974222368,79.91415119,0,0,0.3,50,0.6,0,0,0,0,0,0,0,0,1.5,2.1,25.7,25.7,,Manual Takeoff,Drop Calibration,Takeoff (RC Assisted),13,5,TRUE,,Mavic Mini,TRUE,FALSE,,Smart,RC,TRUE,TRUE,FALSE,,,TRUE,,FALSE,FALSE,FALSE,FALSE,FALSE,FALSE,FALSE,FALSE,FALSE,FALSE,0,Follow Yaw,-6.6,0,42.5,42.5,FALSE,FALSE,FALSE,FALSE,FALSE,FALSE,,TRUE,Normal,,100,1024,1024,1024,1024,2,FALSE,FALSE,FALSE,FALSE,FALSE,0,FALSE,FALSE,FALSE,FALSE,82,7.877,1685,2056,7.864,FALSE,3.943,3.934,0.009,FALSE,FALSE,NA,98.8,98.7,98.7,0,0,0,0,5,2943.5,735.87,,Idle,0,20,FALSE,5,TRUE,6,Go Home,FALSE,FALSE,FALSE,FALSE,FALSE,FALSE,FALSE,FALSE,FALSE,FALSE,FALSE,FALSE,6.974219778,79.91415662,2.1,98,328,TRUE,1,1,FALSE,FALSE,FALSE,FALSE,,TRUE,FALSE,FALSE,Course Lock,49.2,,16.4,Calm,33,,1.12.8,Mavic Mini,1SDCH7G0169R0K,1SFLH6Q0AB03DJ,1SRCH7F014TAHX,1U5X071EXP6C9Y,70.7,0.2,39.3,8.997867,3.35541,0,18,Mavic Mini,1SDCH7G0169R0K,1SFLH6Q0AB03DJ,1SRCH7F014TAHX,1U5X071EXP6C9Y,DJI Fly,,1.12.8,E510E1A2-828C-E274-0990-E66BDF305ADB,1SDCH7G0169R0K,,,,,6.974202641,79.91414342,5,,
2/22/2024,18:09.8,4m 13.3s,253.3,6.974222272,79.91415117,0,0,0.3,50,0.6,0,0,0,0,0,0,0,0,1.5,2.1,25.7,25.7,,Manual Takeoff,Drop Calibration,Takeoff (RC Assisted),13,5,TRUE,,Mavic Mini,TRUE,FALSE,,Smart,RC,TRUE,TRUE,FALSE,,,TRUE,,FALSE,FALSE,FALSE,FALSE,FALSE,FALSE,FALSE,FALSE,FALSE,FALSE,0,Follow Yaw,-6.6,0,42.5,42.5,FALSE,FALSE,FALSE,FALSE,FALSE,FALSE,,TRUE,Normal,,100,1024,1024,1024,1024,2,FALSE,FALSE,FALSE,FALSE,FALSE,0,FALSE,FALSE,FALSE,FALSE,82,7.877,1685,2056,7.864,FALSE,3.943,3.934,0.009,FALSE,FALSE,NA,98.8,98.7,98.7,0,0,0,0,5,2943.5,735.87,,Idle,0,20,FALSE,5,TRUE,6,Go Home,FALSE,FALSE,FALSE,FALSE,FALSE,FALSE,FALSE,FALSE,FALSE,FALSE,FALSE,FALSE,6.974219778,79.91415662,2.1,98,328,TRUE,1,1,FALSE,FALSE,FALSE,FALSE,,TRUE,FALSE,FALSE,Course Lock,49.2,,16.4,Calm,33,,1.12.8,Mavic Mini,1SDCH7G0169R0K,1SFLH6Q0AB03DJ,1SRCH7F014TAHX,1U5X071EXP6C9Y,70.7,0.2,39.3,8.997867,3.35541,0,18,Mavic Mini,1SDCH7G0169R0K,1SFLH6Q0AB03DJ,1SRCH7F014TAHX,1U5X071EXP6C9Y,DJI Fly,,1.12.8,E510E1A2-828C-E274-0990-E66BDF305ADB,1SDCH7G0169R0K,,,,,6.974202641,79.91414342,5,,
2/22/2024,18:09.9,4m 13.4s,253.4,6.974222149,79.91415115,0,0,0.3,50,0.7,0,0,0,0,0,0,0,0,1.4,2.1,25.7,25.7,,Manual Takeoff,Drop Calibration,Takeoff (RC Assisted),13,5,TRUE,,Mavic Mini,TRUE,FALSE,,Smart,RC,TRUE,TRUE,FALSE,,,TRUE,,FALSE,FALSE,FALSE,FALSE,FALSE,FALSE,FALSE,FALSE,FALSE,FALSE,0,Follow Yaw,-6.6,0,42.5,42.5,FALSE,FALSE,FALSE,FALSE,FALSE,FALSE,,TRUE,Normal,,100,1024,1024,1024,1024,2,FALSE,FALSE,FALSE,FALSE,FALSE,0,FALSE,FALSE,FALSE,FALSE,82,7.877,1685,2056,7.864,FALSE,3.943,3.934,0.009,FALSE,FALSE,NA,98.8,98.7,98.7,0,0,0,0,5,2943.5,735.87,,Idle,0,20,FALSE,5,TRUE,6,Go Home,FALSE,FALSE,FALSE,FALSE,FALSE,FALSE,FALSE,FALSE,FALSE,FALSE,FALSE,FALSE,6.974219778,79.91415662,2.1,98,328,TRUE,1,1,FALSE,FALSE,FALSE,FALSE,,TRUE,FALSE,FALSE,Course Lock,49.2,,16.4,Calm,33,,1.12.8,Mavic Mini,1SDCH7G0169R0K,1SFLH6Q0AB03DJ,1SRCH7F014TAHX,1U5X071EXP6C9Y,70.7,0.2,39.3,8.997867,3.35541,0,18,Mavic Mini,1SDCH7G0169R0K,1SFLH6Q0AB03DJ,1SRCH7F014TAHX,1U5X071EXP6C9Y,DJI Fly,,1.12.8,E510E1A2-828C-E274-0990-E66BDF305ADB,1SDCH7G0169R0K,,,,,6.974202641,79.91414342,5,,
2/22/2024,18:10.0,4m 13.5s,253.5,6.974222044,79.91415114,0,0,0.3,50,0.7,0,0,0,0,0,0,0,0,1.4,2.1,25.7,25.7,,Manual Takeoff,Drop Calibration,Takeoff (RC Assisted),13,5,TRUE,,Mavic Mini,TRUE,FALSE,,Smart,RC,TRUE,TRUE,FALSE,,,TRUE,,FALSE,FALSE,FALSE,FALSE,FALSE,FALSE,FALSE,FALSE,FALSE,FALSE,0,Follow Yaw,-6.6,0,42.5,42.5,FALSE,FALSE,FALSE,FALSE,FALSE,FALSE,,TRUE,Normal,,100,1024,1024,1024,1024,2,FALSE,FALSE,FALSE,FALSE,FALSE,0,FALSE,FALSE,FALSE,FALSE,82,7.877,1685,2056,7.864,FALSE,3.943,3.934,0.009,FALSE,FALSE,NA,98.8,98.7,98.7,0,0,0,0,5,2943.5,735.87,,Idle,0,20,FALSE,5,TRUE,6,Go Home,FALSE,FALSE,FALSE,FALSE,FALSE,FALSE,FALSE,FALSE,FALSE,FALSE,FALSE,FALSE,6.974219778,79.91415662,2.1,98,328,TRUE,1,1,FALSE,FALSE,FALSE,FALSE,,TRUE,FALSE,FALSE,Course Lock,49.2,,16.4,Calm,33,,1.12.8,Mavic Mini,1SDCH7G0169R0K,1SFLH6Q0AB03DJ,1SRCH7F014TAHX,1U5X071EXP6C9Y,70.7,0.2,39.3,8.997867,3.35541,0,18,Mavic Mini,1SDCH7G0169R0K,1SFLH6Q0AB03DJ,1SRCH7F014TAHX,1U5X071EXP6C9Y,DJI Fly,,1.12.8,E510E1A2-828C-E274-0990-E66BDF305ADB,1SDCH7G0169R0K,,,,,6.974202641,79.91414342,5,,
2/22/2024,18:10.2,4m 13.6s,253.6,6.974221937,79.91415114,0,0,0.3,50,0.8,0,0,0,0,0,0,0,0,1.5,2.1,25.7,25.7,,Manual Takeoff,Drop Calibration,Takeoff (RC Assisted),13,5,TRUE,,Mavic Mini,TRUE,FALSE,,Smart,RC,TRUE,TRUE,FALSE,,,TRUE,,FALSE,FALSE,FALSE,FALSE,FALSE,FALSE,FALSE,FALSE,FALSE,FALSE,0,Follow Yaw,-6.6,0,42.5,42.5,FALSE,FALSE,FALSE,FALSE,FALSE,FALSE,,TRUE,Normal,,100,1024,1024,1024,1024,2,FALSE,FALSE,FALSE,FALSE,FALSE,0,FALSE,FALSE,FALSE,FALSE,82,7.877,1685,2056,7.864,FALSE,3.943,3.934,0.009,FALSE,FALSE,NA,98.8,98.7,98.7,0,0,0,0,5,2943.5,735.87,,Idle,0,20,FALSE,5,TRUE,6,Go Home,FALSE,FALSE,FALSE,FALSE,FALSE,FALSE,FALSE,FALSE,FALSE,FALSE,FALSE,FALSE,6.974219778,79.91415662,2.1,98,328,TRUE,1,1,FALSE,FALSE,FALSE,FALSE,,TRUE,FALSE,FALSE,Course Lock,49.2,,16.4,Calm,33,,1.12.8,Mavic Mini,1SDCH7G0169R0K,1SFLH6Q0AB03DJ,1SRCH7F014TAHX,1U5X071EXP6C9Y,70.7,0.2,39.3,8.997867,3.35541,0,18,Mavic Mini,1SDCH7G0169R0K,1SFLH6Q0AB03DJ,1SRCH7F014TAHX,1U5X071EXP6C9Y,DJI Fly,,1.12.8,E510E1A2-828C-E274-0990-E66BDF305ADB,1SDCH7G0169R0K,,,,,6.974202641,79.91414342,5,,
2/22/2024,18:10.2,4m 13.7s,253.7,6.974221853,79.91415112,0,0,0.3,50,0.8,0,0,0,0,0,0,0,0,1.5,2.1,25.7,25.7,,Manual Takeoff,Drop Calibration,Takeoff (RC Assisted),13,5,TRUE,,Mavic Mini,TRUE,FALSE,,Smart,RC,TRUE,TRUE,FALSE,,,TRUE,,FALSE,FALSE,FALSE,FALSE,FALSE,FALSE,FALSE,FALSE,FALSE,FALSE,0,Follow Yaw,-6.6,0,42.5,42.5,FALSE,FALSE,FALSE,FALSE,FALSE,FALSE,,TRUE,Normal,,100,1024,1024,1024,1024,2,FALSE,FALSE,FALSE,FALSE,FALSE,0,FALSE,FALSE,FALSE,FALSE,82,7.877,1685,2056,7.864,FALSE,3.943,3.934,0.009,FALSE,FALSE,NA,98.8,98.7,98.7,0,0,0,0,5,2943.5,735.87,,Idle,0,20,FALSE,5,TRUE,6,Go Home,FALSE,FALSE,FALSE,FALSE,FALSE,FALSE,FALSE,FALSE,FALSE,FALSE,FALSE,FALSE,6.974219778,79.91415662,2.1,98,328,TRUE,1,1,FALSE,FALSE,FALSE,FALSE,,TRUE,FALSE,FALSE,Course Lock,49.2,,16.4,Calm,33,,1.12.8,Mavic Mini,1SDCH7G0169R0K,1SFLH6Q0AB03DJ,1SRCH7F014TAHX,1U5X071EXP6C9Y,70.7,0.2,39.3,8.997867,3.35541,0,18,Mavic Mini,1SDCH7G0169R0K,1SFLH6Q0AB03DJ,1SRCH7F014TAHX,1U5X071EXP6C9Y,DJI Fly,,1.12.8,E510E1A2-828C-E274-0990-E66BDF305ADB,1SDCH7G0169R0K,,,,,6.974202641,79.91414342,5,,
2/22/2024,18:10.3,4m 13.8s,253.8,6.974221744,79.91415106,0,0,0.3,50,0.8,0,0,0,0,0,0,0,0,1.5,2.1,25.7,25.7,,Manual Takeoff,Drop Calibration,Takeoff (RC Assisted),13,5,TRUE,,Mavic Mini,TRUE,FALSE,,Smart,RC,TRUE,TRUE,FALSE,,,TRUE,,FALSE,FALSE,FALSE,FALSE,FALSE,FALSE,FALSE,FALSE,FALSE,FALSE,0,Follow Yaw,-6.6,0,42.5,42.5,FALSE,FALSE,FALSE,FALSE,FALSE,FALSE,,TRUE,Normal,,100,1024,1024,1154,1024,2,FALSE,FALSE,FALSE,FALSE,FALSE,0,FALSE,FALSE,FALSE,FALSE,82,7.877,1685,2056,7.864,FALSE,3.943,3.934,0.009,FALSE,FALSE,NA,98.8,98.7,98.7,0,0,0,0,5,2943.5,735.87,,Idle,0,20,FALSE,5,TRUE,6,Go Home,FALSE,FALSE,FALSE,FALSE,FALSE,FALSE,FALSE,FALSE,FALSE,FALSE,FALSE,FALSE,6.974219778,79.91415662,2.1,98,328,TRUE,1,1,FALSE,FALSE,FALSE,FALSE,,TRUE,FALSE,FALSE,Course Lock,49.2,,16.4,Calm,33,,1.12.8,Mavic Mini,1SDCH7G0169R0K,1SFLH6Q0AB03DJ,1SRCH7F014TAHX,1U5X071EXP6C9Y,70.7,0.2,39.3,8.997867,3.35541,0,18,Mavic Mini,1SDCH7G0169R0K,1SFLH6Q0AB03DJ,1SRCH7F014TAHX,1U5X071EXP6C9Y,DJI Fly,,1.12.8,E510E1A2-828C-E274-0990-E66BDF305ADB,1SDCH7G0169R0K,,,,,6.974202641,79.91414342,5,,
2/22/2024,18:10.3,4m 13.9s,253.9,6.974221663,79.91415102,0,0,0.3,50,0.9,0,0,0,0,0,0,0,0,1.5,2.1,25.7,25.7,,Manual Takeoff,Drop Calibration,Takeoff (RC Assisted),13,5,TRUE,,Mavic Mini,TRUE,FALSE,,Smart,RC,TRUE,TRUE,FALSE,,,TRUE,,FALSE,FALSE,FALSE,FALSE,FALSE,FALSE,FALSE,FALSE,FALSE,FALSE,0,Follow Yaw,-6.6,0,42.5,42.5,FALSE,FALSE,FALSE,FALSE,FALSE,FALSE,,TRUE,Normal,,100,1024,1024,1154,1024,2,FALSE,FALSE,FALSE,FALSE,FALSE,0,FALSE,FALSE,FALSE,FALSE,82,7.881,1685,2056,7.864,FALSE,3.945,3.936,0.009,FALSE,FALSE,NA,98.8,98.7,98.7,0,0,0,0,5,2943.5,735.87,,Idle,0,20,FALSE,5,TRUE,6,Go Home,FALSE,FALSE,FALSE,FALSE,FALSE,FALSE,FALSE,FALSE,FALSE,FALSE,FALSE,FALSE,6.974219778,79.91415662,2.1,98,328,TRUE,1,1,FALSE,FALSE,FALSE,FALSE,,TRUE,FALSE,FALSE,Course Lock,49.2,,16.4,Calm,33,,1.12.8,Mavic Mini,1SDCH7G0169R0K,1SFLH6Q0AB03DJ,1SRCH7F014TAHX,1U5X071EXP6C9Y,70.7,0.2,39.3,8.997867,3.35541,0,18,Mavic Mini,1SDCH7G0169R0K,1SFLH6Q0AB03DJ,1SRCH7F014TAHX,1U5X071EXP6C9Y,DJI Fly,,1.12.8,E510E1A2-828C-E274-0990-E66BDF305ADB,1SDCH7G0169R0K,,,,,6.974202641,79.91414342,5,,
2/22/2024,18:10.4,4m 14.0s,254,6.974221766,79.91415097,0,0,0.3,50,0.9,0,0,0,0,0,0,0,0,1.5,2.1,25.7,25.7,,Manual Takeoff,Drop Calibration,Takeoff (RC Assisted),13,5,TRUE,,Mavic Mini,TRUE,FALSE,,Smart,RC,TRUE,TRUE,FALSE,,,TRUE,,FALSE,FALSE,FALSE,FALSE,FALSE,FALSE,FALSE,FALSE,FALSE,FALSE,0,Follow Yaw,-6.6,0,42.5,42.5,FALSE,FALSE,FALSE,FALSE,FALSE,FALSE,,TRUE,Normal,,100,1024,1024,1443,1024,2,FALSE,FALSE,FALSE,FALSE,FALSE,0,FALSE,FALSE,FALSE,FALSE,82,7.881,1685,2056,7.876,FALSE,3.945,3.936,0.009,FALSE,FALSE,NA,98.8,98.7,98.7,0,0,0,0,5,2943.5,735.87,,Idle,0,20,FALSE,5,TRUE,6,Go Home,FALSE,FALSE,FALSE,FALSE,FALSE,FALSE,FALSE,FALSE,FALSE,FALSE,FALSE,FALSE,6.974219778,79.91415662,2.1,98,328,TRUE,1,1,FALSE,FALSE,FALSE,FALSE,,TRUE,FALSE,FALSE,Course Lock,49.2,,16.4,Calm,33,,1.12.8,Mavic Mini,1SDCH7G0169R0K,1SFLH6Q0AB03DJ,1SRCH7F014TAHX,1U5X071EXP6C9Y,70.7,0.2,39.3,8.997867,3.35541,0,18,Mavic Mini,1SDCH7G0169R0K,1SFLH6Q0AB03DJ,1SRCH7F014TAHX,1U5X071EXP6C9Y,DJI Fly,,1.12.8,E510E1A2-828C-E274-0990-E66BDF305ADB,1SDCH7G0169R0K,,,,,6.974202641,79.91414342,5,,
2/22/2024,18:10.5,4m 14.1s,254.1,6.974221751,79.91415098,0,0,0.3,50,0.9,0,0,0,0,0,0,0,0,1.5,2,25.7,25.7,,Manual Takeoff,Drop Calibration,Takeoff (RC Assisted),13,5,TRUE,,Mavic Mini,TRUE,FALSE,,Smart,RC,TRUE,TRUE,FALSE,,,TRUE,,FALSE,FALSE,FALSE,FALSE,FALSE,FALSE,FALSE,FALSE,FALSE,FALSE,0,Follow Yaw,-6.6,0,42.5,42.5,FALSE,FALSE,FALSE,FALSE,FALSE,FALSE,,TRUE,Normal,,100,1024,1024,1443,1024,2,FALSE,FALSE,FALSE,FALSE,FALSE,0,FALSE,FALSE,FALSE,FALSE,82,7.881,1685,2056,7.876,FALSE,3.945,3.936,0.009,FALSE,FALSE,NA,98.8,98.7,98.7,0,0,0,0,5,2943.5,735.87,,Idle,0,20,FALSE,5,TRUE,6,Go Home,FALSE,FALSE,FALSE,FALSE,FALSE,FALSE,FALSE,FALSE,FALSE,FALSE,FALSE,FALSE,6.974219778,79.91415662,2.1,98,328,TRUE,1,1,FALSE,FALSE,FALSE,FALSE,,TRUE,FALSE,FALSE,Course Lock,49.2,,16.4,Calm,33,,1.12.8,Mavic Mini,1SDCH7G0169R0K,1SFLH6Q0AB03DJ,1SRCH7F014TAHX,1U5X071EXP6C9Y,70.7,0.2,39.3,8.997867,3.35541,0,18,Mavic Mini,1SDCH7G0169R0K,1SFLH6Q0AB03DJ,1SRCH7F014TAHX,1U5X071EXP6C9Y,DJI Fly,,1.12.8,E510E1A2-828C-E274-0990-E66BDF305ADB,1SDCH7G0169R0K,,,,,6.974202641,79.91414342,5,,
2/22/2024,18:10.6,4m 14.2s,254.2,6.97422172,79.91415103,0,0,0.3,50,0.9,0,0,0,0,0,0,0,0,1.3,1.4,25.7,25.7,,Manual Takeoff,Drop Calibration,Takeoff (RC Assisted),13,5,TRUE,,Mavic Mini,TRUE,FALSE,,Smart,RC,TRUE,TRUE,FALSE,,,TRUE,,FALSE,FALSE,FALSE,FALSE,FALSE,FALSE,FALSE,FALSE,FALSE,FALSE,0,Follow Yaw,-6.6,0,42.5,42.5,FALSE,FALSE,FALSE,FALSE,FALSE,FALSE,,TRUE,Normal,,100,1024,1024,1492,1024,2,FALSE,FALSE,FALSE,FALSE,FALSE,0,FALSE,FALSE,FALSE,FALSE,82,7.881,1685,2056,7.876,FALSE,3.945,3.936,0.009,FALSE,FALSE,NA,98.8,98.7,98.7,0,0,0,0,5,2943.5,735.87,,Idle,0,20,FALSE,5,TRUE,6,Go Home,FALSE,FALSE,FALSE,FALSE,FALSE,FALSE,FALSE,FALSE,FALSE,FALSE,FALSE,FALSE,6.974219778,79.91415662,2.1,98,328,TRUE,1,1,FALSE,FALSE,FALSE,FALSE,,TRUE,FALSE,FALSE,Course Lock,49.2,,16.4,Calm,33,,1.12.8,Mavic Mini,1SDCH7G0169R0K,1SFLH6Q0AB03DJ,1SRCH7F014TAHX,1U5X071EXP6C9Y,70.7,0.2,39.3,8.997867,3.35541,0,18,Mavic Mini,1SDCH7G0169R0K,1SFLH6Q0AB03DJ,1SRCH7F014TAHX,1U5X071EXP6C9Y,DJI Fly,,1.12.8,E510E1A2-828C-E274-0990-E66BDF305ADB,1SDCH7G0169R0K,,,,,6.974202641,79.91414342,5,,
2/22/2024,18:10.7,4m 14.3s,254.3,6.974221677,79.91415106,0,0,0.3,50,1,0,0,0,0,0,0,0,0,1.1,0.4,25.6,25.6,,Manual Takeoff,Drop Calibration,Takeoff (RC Assisted),13,5,TRUE,,Mavic Mini,TRUE,FALSE,,Smart,RC,TRUE,TRUE,FALSE,,,TRUE,,FALSE,FALSE,FALSE,FALSE,FALSE,FALSE,FALSE,FALSE,FALSE,FALSE,0,Follow Yaw,-6.6,0,42.5,42.5,FALSE,FALSE,FALSE,FALSE,FALSE,FALSE,,TRUE,Normal,,100,1024,1024,1602,1024,2,FALSE,FALSE,FALSE,FALSE,FALSE,0,FALSE,FALSE,FALSE,FALSE,82,7.881,1685,2056,7.876,FALSE,3.945,3.936,0.009,FALSE,FALSE,NA,98.8,98.7,98.7,0,0,0,0,5,2943.5,735.87,,Idle,0,20,FALSE,5,TRUE,6,Go Home,FALSE,FALSE,FALSE,FALSE,FALSE,FALSE,FALSE,FALSE,FALSE,FALSE,FALSE,FALSE,6.974219778,79.91415662,2.1,98,328,TRUE,1,1,FALSE,FALSE,FALSE,FALSE,,TRUE,FALSE,FALSE,Course Lock,49.2,,16.4,Calm,33,,1.12.8,Mavic Mini,1SDCH7G0169R0K,1SFLH6Q0AB03DJ,1SRCH7F014TAHX,1U5X071EXP6C9Y,70.7,0.2,39.3,8.997867,3.35541,0,18,Mavic Mini,1SDCH7G0169R0K,1SFLH6Q0AB03DJ,1SRCH7F014TAHX,1U5X071EXP6C9Y,DJI Fly,,1.12.8,E510E1A2-828C-E274-0990-E66BDF305ADB,1SDCH7G0169R0K,,,,,6.974202641,79.91414342,5,,
2/22/2024,18:10.8,4m 14.4s,254.4,6.97422158,79.91415122,0,0,0.3,50,1,0,0,0,0,0,0,0,0,1.1,-0.2,25,25,,Manual Takeoff,Drop Calibration,Takeoff (RC Assisted),13,5,TRUE,,Mavic Mini,TRUE,FALSE,,Smart,RC,TRUE,TRUE,FALSE,,,TRUE,,FALSE,FALSE,FALSE,FALSE,FALSE,FALSE,FALSE,FALSE,FALSE,FALSE,0,Follow Yaw,-6.6,0,42.4,42.4,FALSE,FALSE,FALSE,FALSE,FALSE,FALSE,,TRUE,Normal,,100,1024,1024,1670,1024,2,FALSE,FALSE,FALSE,FALSE,FALSE,0,FALSE,FALSE,FALSE,FALSE,82,7.881,1685,2056,7.876,FALSE,3.945,3.936,0.009,FALSE,FALSE,NA,98.8,98.7,98.7,0,0,0,0,5,2943.5,735.87,,Idle,0,20,FALSE,5,TRUE,6,Go Home,FALSE,FALSE,FALSE,FALSE,FALSE,FALSE,FALSE,FALSE,FALSE,FALSE,FALSE,FALSE,6.974219778,79.91415662,2,98,328,TRUE,1,1,FALSE,FALSE,FALSE,FALSE,,TRUE,FALSE,FALSE,Course Lock,49.2,,16.4,Calm,33,,1.12.8,Mavic Mini,1SDCH7G0169R0K,1SFLH6Q0AB03DJ,1SRCH7F014TAHX,1U5X071EXP6C9Y,70.7,0.2,39.3,8.997867,3.35541,0,18,Mavic Mini,1SDCH7G0169R0K,1SFLH6Q0AB03DJ,1SRCH7F014TAHX,1U5X071EXP6C9Y,DJI Fly,,1.12.8,E510E1A2-828C-E274-0990-E66BDF305ADB,1SDCH7G0169R0K,,,,,6.974202641,79.91414342,5,,
2/22/2024,18:10.9,4m 14.5s,254.5,6.974221497,79.91415121,0,0,0.3,50,1.1,0,0,0,0,0,0,0,0,0.9,-0.6,24.3,24.3,,Manual Takeoff,Drop Calibration,Takeoff (RC Assisted),13,5,TRUE,,Mavic Mini,TRUE,FALSE,,Smart,RC,TRUE,TRUE,FALSE,,,TRUE,,FALSE,FALSE,FALSE,FALSE,FALSE,FALSE,FALSE,FALSE,FALSE,FALSE,0,Follow Yaw,-6.6,0,42.2,42.2,FALSE,FALSE,FALSE,FALSE,FALSE,FALSE,,TRUE,Normal,,100,1024,1024,1684,1024,2,FALSE,FALSE,FALSE,FALSE,FALSE,0,FALSE,FALSE,FALSE,FALSE,82,7.881,1685,2056,7.876,FALSE,3.945,3.936,0.009,FALSE,FALSE,NA,98.8,98.7,98.7,0,0,0,0,5,2943.5,735.87,,Idle,0,20,FALSE,5,TRUE,6,Go Home,FALSE,FALSE,FALSE,FALSE,FALSE,FALSE,FALSE,FALSE,FALSE,FALSE,FALSE,FALSE,6.974219778,79.91415662,2,98,328,TRUE,1,1,FALSE,FALSE,FALSE,FALSE,,TRUE,FALSE,FALSE,Course Lock,49.2,,16.4,Calm,33,,1.12.8,Mavic Mini,1SDCH7G0169R0K,1SFLH6Q0AB03DJ,1SRCH7F014TAHX,1U5X071EXP6C9Y,70.7,0.2,39.3,8.997867,3.35541,0,18,Mavic Mini,1SDCH7G0169R0K,1SFLH6Q0AB03DJ,1SRCH7F014TAHX,1U5X071EXP6C9Y,DJI Fly,,1.12.8,E510E1A2-828C-E274-0990-E66BDF305ADB,1SDCH7G0169R0K,,,,,6.974202641,79.91414342,5,,
2/22/2024,18:11.2,4m 14.6s,254.6,6.974221428,79.91415115,0,0,0.3,50,1.1,0,0,0,0,0,0,0,0,0.5,-1,23.3,23.3,,Manual Takeoff,Drop Calibration,Takeoff (RC Assisted),13,5,TRUE,,Mavic Mini,TRUE,FALSE,,Smart,RC,TRUE,TRUE,FALSE,,,TRUE,,FALSE,FALSE,FALSE,FALSE,FALSE,FALSE,FALSE,FALSE,FALSE,FALSE,0,Follow Yaw,-6.6,0,41.7,41.7,FALSE,FALSE,FALSE,FALSE,FALSE,FALSE,,TRUE,Normal,,100,1024,1024,1684,1024,2,FALSE,FALSE,FALSE,FALSE,FALSE,0,FALSE,FALSE,FALSE,FALSE,82,7.881,1685,2056,7.876,FALSE,3.945,3.936,0.009,FALSE,FALSE,NA,98.8,98.7,98.7,0,0,0,0,5,2943.5,735.87,,Idle,0,20,FALSE,5,TRUE,6,Go Home,FALSE,FALSE,FALSE,FALSE,FALSE,FALSE,FALSE,FALSE,FALSE,FALSE,FALSE,FALSE,6.974219778,79.91415662,2,98,328,TRUE,1,1,FALSE,FALSE,FALSE,FALSE,,TRUE,FALSE,FALSE,Course Lock,49.2,,16.4,Calm,33,,1.12.8,Mavic Mini,1SDCH7G0169R0K,1SFLH6Q0AB03DJ,1SRCH7F014TAHX,1U5X071EXP6C9Y,70.7,0.2,39.3,8.997867,3.35541,0,18,Mavic Mini,1SDCH7G0169R0K,1SFLH6Q0AB03DJ,1SRCH7F014TAHX,1U5X071EXP6C9Y,DJI Fly,,1.12.8,E510E1A2-828C-E274-0990-E66BDF305ADB,1SDCH7G0169R0K,,,,,6.974202641,79.91414342,5,,
2/22/2024,18:11.2,4m 14.7s,254.7,6.974221392,79.91415111,0,0,0.3,50,1.1,0,0,0,0,0,0,0,0,0.1,-1.9,22.3,22.3,,Manual Takeoff,Drop Calibration,Takeoff (RC Assisted),13,5,TRUE,,Mavic Mini,TRUE,FALSE,,Smart,RC,TRUE,TRUE,FALSE,,,TRUE,,FALSE,FALSE,FALSE,FALSE,FALSE,FALSE,FALSE,FALSE,FALSE,FALSE,0,Follow Yaw,-6.6,0,41,41,FALSE,FALSE,FALSE,FALSE,FALSE,FALSE,,TRUE,Normal,,100,1024,1024,1684,1024,2,FALSE,FALSE,FALSE,FALSE,FALSE,0,FALSE,FALSE,FALSE,FALSE,82,7.881,1685,2056,7.876,FALSE,3.945,3.936,0.009,FALSE,FALSE,NA,98.8,98.7,98.7,0,0,0,0,5,2943.5,735.87,,Idle,0,20,FALSE,5,TRUE,6,Go Home,FALSE,FALSE,FALSE,FALSE,FALSE,FALSE,FALSE,FALSE,FALSE,FALSE,FALSE,FALSE,6.974219778,79.91415662,2,98,328,TRUE,1,1,FALSE,FALSE,FALSE,FALSE,,TRUE,FALSE,FALSE,Course Lock,49.2,,16.4,Calm,33,,1.12.8,Mavic Mini,1SDCH7G0169R0K,1SFLH6Q0AB03DJ,1SRCH7F014TAHX,1U5X071EXP6C9Y,70.7,0.2,39.3,8.997867,3.35541,0,18,Mavic Mini,1SDCH7G0169R0K,1SFLH6Q0AB03DJ,1SRCH7F014TAHX,1U5X071EXP6C9Y,DJI Fly,,1.12.8,E510E1A2-828C-E274-0990-E66BDF305ADB,1SDCH7G0169R0K,,,,,6.974202641,79.91414342,5,,
2/22/2024,18:11.3,4m 14.8s,254.8,6.974221432,79.91415107,0,0,0.3,50,1.1,0,0,0,0,0,0,-0.223694,0,0.6,-3.5,21.1,21.1,,Manual Takeoff,Drop Calibration,Takeoff (RC Assisted),13,5,TRUE,,Mavic Mini,TRUE,FALSE,,Smart,RC,TRUE,TRUE,FALSE,,,TRUE,,FALSE,FALSE,FALSE,FALSE,FALSE,FALSE,FALSE,FALSE,FALSE,FALSE,0,Follow Yaw,-6.6,0,40.2,40.2,FALSE,FALSE,FALSE,FALSE,FALSE,FALSE,,TRUE,Normal,,100,1024,1024,1684,1024,2,FALSE,FALSE,FALSE,FALSE,FALSE,0,FALSE,FALSE,FALSE,FALSE,82,7.881,1685,2056,7.876,FALSE,3.945,3.936,0.009,FALSE,FALSE,NA,98.8,98.7,98.7,0,0,0,0,5,2943.5,735.87,,Idle,0,20,FALSE,5,TRUE,6,Go Home,FALSE,FALSE,FALSE,FALSE,FALSE,FALSE,FALSE,FALSE,FALSE,FALSE,FALSE,FALSE,6.974219778,79.91415662,2.1,98,328,TRUE,1,1,FALSE,FALSE,FALSE,FALSE,,TRUE,FALSE,FALSE,Course Lock,49.2,,16.4,Calm,33,,1.12.8,Mavic Mini,1SDCH7G0169R0K,1SFLH6Q0AB03DJ,1SRCH7F014TAHX,1U5X071EXP6C9Y,70.7,0.2,39.3,8.997867,3.35541,0,18,Mavic Mini,1SDCH7G0169R0K,1SFLH6Q0AB03DJ,1SRCH7F014TAHX,1U5X071EXP6C9Y,DJI Fly,,1.12.8,E510E1A2-828C-E274-0990-E66BDF305ADB,1SDCH7G0169R0K,,,,,6.974208048,79.91414736,5,,
2/22/2024,18:11.3,4m 14.9s,254.9,6.974221606,79.91415093,0,0,0.3,50,1.2,0,0,0,0,0,0,-0.447388,0,-0.3,-1.9,20.7,20.7,,Tripod,Drop Calibration,,13,5,TRUE,,Mavic Mini,TRUE,FALSE,,Smart,RC,FALSE,TRUE,FALSE,,,TRUE,,FALSE,FALSE,FALSE,FALSE,FALSE,FALSE,FALSE,FALSE,FALSE,FALSE,0,Follow Yaw,-6.6,0,39.4,39.4,FALSE,FALSE,FALSE,FALSE,FALSE,FALSE,,TRUE,Normal,,100,1024,1024,1684,1024,2,FALSE,FALSE,FALSE,FALSE,FALSE,0,FALSE,FALSE,FALSE,FALSE,82,7.881,1685,2056,7.876,FALSE,3.945,3.936,0.009,FALSE,FALSE,NA,98.8,98.7,98.7,0,0,0,0,5,2943.5,735.87,,Idle,0,20,FALSE,5,TRUE,6,Go Home,FALSE,FALSE,FALSE,FALSE,FALSE,FALSE,FALSE,FALSE,FALSE,FALSE,FALSE,FALSE,6.974219778,79.91415662,2.1,98,328,TRUE,1,1,FALSE,FALSE,FALSE,FALSE,,TRUE,FALSE,FALSE,Course Lock,49.2,,16.4,Calm,33,,1.12.8,Mavic Mini,1SDCH7G0169R0K,1SFLH6Q0AB03DJ,1SRCH7F014TAHX,1U5X071EXP6C9Y,70.7,0.2,39.3,8.997867,3.35541,0,18,Mavic Mini,1SDCH7G0169R0K,1SFLH6Q0AB03DJ,1SRCH7F014TAHX,1U5X071EXP6C9Y,DJI Fly,,1.12.8,E510E1A2-828C-E274-0990-E66BDF305ADB,1SDCH7G0169R0K,,,,,6.974208048,79.91414736,5,Flight mode changed to Tripod.,
2/22/2024,18:11.4,4m 15.0s,255,6.974221684,79.91415087,0,0,0.6,50,1.2,0.223694,0.223694,0.223694,0.223694,0,0,-0.894776,0,0.9,0,20.7,20.7,329.8,Tripod,Drop Calibration,,13,5,TRUE,,Mavic Mini,TRUE,FALSE,,Smart,RC,FALSE,TRUE,FALSE,,,TRUE,,FALSE,FALSE,FALSE,FALSE,FALSE,FALSE,FALSE,FALSE,FALSE,FALSE,0,Follow Yaw,-6.6,0,39,39,FALSE,FALSE,FALSE,FALSE,FALSE,FALSE,,TRUE,Normal,,100,1024,1024,1684,1024,2,FALSE,FALSE,FALSE,FALSE,FALSE,0,FALSE,FALSE,FALSE,FALSE,82,7.881,1685,2056,7.824,FALSE,3.945,3.936,0.009,FALSE,FALSE,NA,98.8,98.7,98.7,0,0,3,0,5,3137.9,784.47,,Idle,0,20,FALSE,5,TRUE,6,Go Home,FALSE,FALSE,FALSE,FALSE,FALSE,FALSE,FALSE,FALSE,FALSE,FALSE,FALSE,FALSE,6.974221567,79.91415096,0,98,328,TRUE,1,1,FALSE,FALSE,FALSE,FALSE,,TRUE,FALSE,FALSE,Course Lock,49.2,,16.4,Calm,33,,1.12.8,Mavic Mini,1SDCH7G0169R0K,1SFLH6Q0AB03DJ,1SRCH7F014TAHX,1U5X071EXP6C9Y,70.7,0.2,39.3,8.997867,3.35541,0,18,Mavic Mini,1SDCH7G0169R0K,1SFLH6Q0AB03DJ,1SRCH7F014TAHX,1U5X071EXP6C9Y,DJI Fly,,1.12.8,E510E1A2-828C-E274-0990-E66BDF305ADB,1SDCH7G0169R0K,,,,,6.974208048,79.91414736,5,Home Point Updated.,
2/22/2024,18:11.5,4m 15.1s,255.1,6.974221779,79.91415082,0.3,0.3,0.6,50,1.3,0.223694,0.223694,0.223694,0.223694,0,0,-1.342164,0,1.6,1.6,20.5,20.5,338.6,Tripod,Drop Calibration,,13,5,TRUE,,Mavic Mini,TRUE,FALSE,,Smart,RC,FALSE,TRUE,FALSE,,,TRUE,,FALSE,FALSE,FALSE,FALSE,FALSE,FALSE,FALSE,FALSE,FALSE,FALSE,0,Follow Yaw,-6.6,0,38.7,38.7,FALSE,FALSE,FALSE,FALSE,FALSE,FALSE,,TRUE,Normal,,100,1024,1024,1684,1024,2,FALSE,FALSE,FALSE,FALSE,FALSE,0,FALSE,FALSE,FALSE,FALSE,82,7.729,1685,2056,7.824,FALSE,3.872,3.857,0.015,FALSE,FALSE,NA,99,98.7,98.9,0,0,3,0,5,3137.9,784.47,,Idle,0,20,FALSE,5,TRUE,6,Go Home,FALSE,FALSE,FALSE,FALSE,FALSE,FALSE,FALSE,FALSE,FALSE,FALSE,FALSE,FALSE,6.974221567,79.91415096,0,98,328,TRUE,1,1,FALSE,FALSE,FALSE,FALSE,,TRUE,FALSE,FALSE,Course Lock,49.2,,16.4,Calm,33,,1.12.8,Mavic Mini,1SDCH7G0169R0K,1SFLH6Q0AB03DJ,1SRCH7F014TAHX,1U5X071EXP6C9Y,70.7,0.2,39.3,8.997867,3.35541,0,18,Mavic Mini,1SDCH7G0169R0K,1SFLH6Q0AB03DJ,1SRCH7F014TAHX,1U5X071EXP6C9Y,DJI Fly,,1.12.8,E510E1A2-828C-E274-0990-E66BDF305ADB,1SDCH7G0169R0K,,,,,6.974208048,79.91414736,5,,
2/22/2024,18:11.6,4m 15.2s,255.2,6.974221876,79.91415082,0.3,0.3,0.9,50,1.3,0.223694,0.223694,0.223694,0.223694,0,0,-2.013246,0,2.2,1.2,20.5,20.5,358.5,Tripod,Drop Calibration,,13,5,TRUE,,Mavic Mini,TRUE,FALSE,,Smart,RC,FALSE,TRUE,FALSE,,,TRUE,,FALSE,FALSE,FALSE,FALSE,FALSE,FALSE,FALSE,FALSE,FALSE,FALSE,0,Follow Yaw,-6.6,0,38.6,38.6,FALSE,FALSE,FALSE,FALSE,FALSE,FALSE,,TRUE,Normal,,100,1024,1024,1684,1024,2,FALSE,FALSE,FALSE,FALSE,FALSE,0,FALSE,FALSE,FALSE,FALSE,82,7.729,1685,2056,7.824,FALSE,3.872,3.857,0.015,FALSE,FALSE,NA,99,98.7,98.9,0,0,3,0,5,3137.9,784.47,,Idle,0,20,FALSE,5,TRUE,6,Go Home,FALSE,FALSE,FALSE,FALSE,FALSE,FALSE,FALSE,FALSE,FALSE,FALSE,FALSE,FALSE,6.974221567,79.91415096,0.1,98,328,TRUE,1,1,FALSE,FALSE,FALSE,FALSE,,TRUE,FALSE,FALSE,Course Lock,49.2,,16.4,Calm,33,,1.12.8,Mavic Mini,1SDCH7G0169R0K,1SFLH6Q0AB03DJ,1SRCH7F014TAHX,1U5X071EXP6C9Y,70.7,0.2,39.3,8.997867,3.35541,0,18,Mavic Mini,1SDCH7G0169R0K,1SFLH6Q0AB03DJ,1SRCH7F014TAHX,1U5X071EXP6C9Y,DJI Fly,,1.12.8,E510E1A2-828C-E274-0990-E66BDF305ADB,1SDCH7G0169R0K,,,,,6.974208048,79.91414736,5,,
2/22/2024,18:11.7,4m 15.3s,255.3,6.974221991,79.91415092,0.6,0.6,1.3,50,1.4,0.223694,0.223694,0.223694,0.223694,0,0,-2.460634,0,2.1,-0.2,20.5,20.5,33.2,Tripod,Drop Calibration,,12,5,TRUE,,Mavic Mini,TRUE,FALSE,,Smart,RC,FALSE,TRUE,FALSE,,,TRUE,,FALSE,FALSE,FALSE,FALSE,FALSE,FALSE,FALSE,FALSE,FALSE,FALSE,0,Follow Yaw,-6.6,0,38.5,38.5,FALSE,FALSE,FALSE,FALSE,FALSE,FALSE,,TRUE,Normal,,100,1024,1024,1684,1024,2,FALSE,FALSE,FALSE,FALSE,FALSE,0,FALSE,FALSE,FALSE,FALSE,82,7.729,1685,2056,7.824,FALSE,3.872,3.857,0.015,FALSE,FALSE,NA,99,98.7,98.9,0,0,3,0,5,3137.9,784.47,,Idle,0,20,FALSE,5,TRUE,6,Go Home,FALSE,FALSE,FALSE,FALSE,FALSE,FALSE,FALSE,FALSE,FALSE,FALSE,FALSE,FALSE,6.974221567,79.91415096,0.1,98,328,TRUE,1,1,FALSE,FALSE,FALSE,FALSE,,TRUE,FALSE,FALSE,Course Lock,49.2,,16.4,Calm,33,,1.12.8,Mavic Mini,1SDCH7G0169R0K,1SFLH6Q0AB03DJ,1SRCH7F014TAHX,1U5X071EXP6C9Y,70.7,0.2,39.3,8.997867,3.35541,0,18,Mavic Mini,1SDCH7G0169R0K,1SFLH6Q0AB03DJ,1SRCH7F014TAHX,1U5X071EXP6C9Y,DJI Fly,,1.12.8,E510E1A2-828C-E274-0990-E66BDF305ADB,1SDCH7G0169R0K,,,,,6.974208048,79.91414736,5,Home Point updated. RTH altitude adjusted to 15 m! (Code: 120852).,
2/22/2024,18:11.8,4m 15.4s,255.4,6.974222141,79.91415093,1.3,1.3,1.6,51,1.4,0.223694,0.223694,0.223694,0.223694,0,0,-2.908022,0,2.2,0.2,20.5,20.5,4.9,Tripod,Drop Calibration,,12,5,TRUE,,Mavic Mini,TRUE,FALSE,,Smart,RC,FALSE,TRUE,FALSE,,,TRUE,,FALSE,FALSE,FALSE,FALSE,FALSE,FALSE,FALSE,FALSE,FALSE,FALSE,0,Follow Yaw,-6.6,0,38.4,38.4,FALSE,FALSE,FALSE,FALSE,FALSE,FALSE,,TRUE,Normal,,100,1024,1024,1684,1024,2,FALSE,FALSE,FALSE,FALSE,FALSE,0,FALSE,FALSE,FALSE,FALSE,82,7.729,1685,2056,7.824,FALSE,3.872,3.857,0.015,FALSE,FALSE,NA,99,98.7,98.9,0,0,3,0,5,3137.9,784.47,,Idle,0,20,FALSE,5,TRUE,6,Go Home,FALSE,FALSE,FALSE,FALSE,FALSE,FALSE,FALSE,FALSE,FALSE,FALSE,FALSE,FALSE,6.974221567,79.91415096,0.2,98,328,TRUE,1,1,FALSE,FALSE,FALSE,FALSE,,TRUE,FALSE,FALSE,Course Lock,49.2,,16.4,Calm,33,,1.12.8,Mavic Mini,1SDCH7G0169R0K,1SFLH6Q0AB03DJ,1SRCH7F014TAHX,1U5X071EXP6C9Y,70.7,0.2,39.3,8.997867,3.35541,0,18,Mavic Mini,1SDCH7G0169R0K,1SFLH6Q0AB03DJ,1SRCH7F014TAHX,1U5X071EXP6C9Y,DJI Fly,,1.12.8,E510E1A2-828C-E274-0990-E66BDF305ADB,1SDCH7G0169R0K,,,,,6.974208048,79.91414736,5,,
2/22/2024,18:11.9,4m 15.5s,255.5,6.974222253,79.91415096,1.6,1.6,1.9,51,1.5,0.223694,0.223694,0.223694,0.223694,0,0,-3.131716,0,2.7,-0.3,20.7,20.7,11.7,Tripod,Drop Calibration,,13,5,TRUE,,Mavic Mini,TRUE,FALSE,,Smart,RC,FALSE,TRUE,FALSE,,,TRUE,,FALSE,FALSE,FALSE,FALSE,FALSE,FALSE,FALSE,FALSE,FALSE,FALSE,0,Follow Yaw,-6.6,0,38.4,38.4,FALSE,FALSE,FALSE,FALSE,FALSE,FALSE,,TRUE,Normal,,100,1024,1024,1684,1024,2,FALSE,FALSE,FALSE,FALSE,FALSE,0,FALSE,FALSE,FALSE,FALSE,82,7.729,1685,2056,7.824,FALSE,3.872,3.857,0.015,FALSE,FALSE,NA,99,98.7,98.9,0,0,3,0,5,3137.9,784.47,,Idle,0,20,FALSE,5,TRUE,6,Go Home,FALSE,FALSE,FALSE,FALSE,FALSE,FALSE,FALSE,FALSE,FALSE,FALSE,FALSE,FALSE,6.974221567,79.91415096,0.2,98,328,TRUE,1,1,FALSE,FALSE,FALSE,FALSE,,TRUE,FALSE,FALSE,Course Lock,49.2,,16.4,Calm,33,,1.12.8,Mavic Mini,1SDCH7G0169R0K,1SFLH6Q0AB03DJ,1SRCH7F014TAHX,1U5X071EXP6C9Y,70.7,0.2,39.3,8.997867,3.35541,0,18,Mavic Mini,1SDCH7G0169R0K,1SFLH6Q0AB03DJ,1SRCH7F014TAHX,1U5X071EXP6C9Y,DJI Fly,,1.12.8,E510E1A2-828C-E274-0990-E66BDF305ADB,1SDCH7G0169R0K,,,,,6.974208048,79.91414736,5,,
2/22/2024,18:12.0,4m 15.6s,255.6,6.974222301,79.91415102,2.2,2.2,2.6,52,1.5,0.223694,0.223694,0.223694,0.223694,0,0,-3.35541,0,2.9,-0.4,21,21,39.7,Tripod,Drop Calibration,,13,5,TRUE,,Mavic Mini,TRUE,FALSE,,Smart,RC,FALSE,TRUE,FALSE,,,TRUE,,FALSE,FALSE,FALSE,FALSE,FALSE,FALSE,FALSE,FALSE,FALSE,FALSE,0,Follow Yaw,-6.6,0,38.4,38.4,FALSE,FALSE,FALSE,FALSE,FALSE,FALSE,,TRUE,Normal,,100,1024,1024,1684,1024,2,FALSE,FALSE,FALSE,FALSE,FALSE,0,FALSE,FALSE,FALSE,FALSE,82,7.729,1685,2056,7.824,FALSE,3.872,3.857,0.015,FALSE,FALSE,NA,99,98.7,98.9,0,0,3,0,5,3137.9,784.47,,Idle,0,20,FALSE,5,TRUE,6,Go Home,FALSE,FALSE,FALSE,FALSE,FALSE,FALSE,FALSE,FALSE,FALSE,FALSE,FALSE,FALSE,6.974221567,79.91415096,0.2,98,328,TRUE,1,1,FALSE,FALSE,FALSE,FALSE,,TRUE,FALSE,FALSE,Course Lock,49.2,,16.4,Calm,33,,1.12.8,Mavic Mini,1SDCH7G0169R0K,1SFLH6Q0AB03DJ,1SRCH7F014TAHX,1U5X071EXP6C9Y,70.7,0.2,39.3,8.997867,3.35541,0,18,Mavic Mini,1SDCH7G0169R0K,1SFLH6Q0AB03DJ,1SRCH7F014TAHX,1U5X071EXP6C9Y,DJI Fly,,1.12.8,E510E1A2-828C-E274-0990-E66BDF305ADB,1SDCH7G0169R0K,,,,,6.974208048,79.91414736,5,,
2/22/2024,18:12.1,4m 15.7s,255.7,6.974222402,79.91415107,2.6,2.6,2.9,52,1.5,0.223694,0.223694,0.223694,0.223694,0,0,-3.35541,0,3.5,0,21.2,21.2,23,Tripod,Drop Calibration,,13,5,TRUE,,Mavic Mini,TRUE,FALSE,,Smart,RC,FALSE,TRUE,FALSE,,,TRUE,,FALSE,FALSE,FALSE,FALSE,FALSE,FALSE,FALSE,FALSE,FALSE,FALSE,0,Follow Yaw,-6.6,0,38.4,38.4,FALSE,FALSE,FALSE,FALSE,FALSE,FALSE,,TRUE,Normal,,100,1024,1024,1684,1024,2,FALSE,FALSE,FALSE,FALSE,FALSE,0,FALSE,FALSE,FALSE,FALSE,82,7.729,1685,2056,7.824,FALSE,3.872,3.857,0.015,FALSE,FALSE,NA,99,98.7,98.9,0,0,3,0,5,3137.9,784.47,,Idle,0,20,FALSE,5,TRUE,6,Go Home,FALSE,FALSE,FALSE,FALSE,FALSE,FALSE,FALSE,FALSE,FALSE,FALSE,FALSE,FALSE,6.974221567,79.91415096,0.3,98,328,TRUE,1,1,FALSE,FALSE,FALSE,FALSE,,TRUE,FALSE,FALSE,Course Lock,49.2,,16.4,Calm,33,,1.12.8,Mavic Mini,1SDCH7G0169R0K,1SFLH6Q0AB03DJ,1SRCH7F014TAHX,1U5X071EXP6C9Y,70.7,0.2,39.3,8.997867,3.35541,0,18,Mavic Mini,1SDCH7G0169R0K,1SFLH6Q0AB03DJ,1SRCH7F014TAHX,1U5X071EXP6C9Y,DJI Fly,,1.12.8,E510E1A2-828C-E274-0990-E66BDF305ADB,1SDCH7G0169R0K,,,,,6.974208048,79.91414736,5,,
2/22/2024,18:12.2,4m 15.8s,255.8,6.974222678,79.9141512,3.2,3.2,3.6,53,1.6,0.223694,0.223694,0.223694,0.223694,0,0,-3.35541,0,3.9,0,21.3,21.3,19.7,Tripod,Drop Calibration,,13,5,TRUE,,Mavic Mini,TRUE,FALSE,,Smart,RC,FALSE,TRUE,FALSE,,,TRUE,,FALSE,FALSE,FALSE,FALSE,FALSE,FALSE,FALSE,FALSE,FALSE,FALSE,0,Follow Yaw,-6.6,0,38.4,38.4,FALSE,FALSE,FALSE,FALSE,FALSE,FALSE,,TRUE,Normal,,100,1024,1024,1684,1024,2,FALSE,FALSE,FALSE,FALSE,FALSE,0,FALSE,FALSE,FALSE,FALSE,82,7.729,1685,2056,7.824,FALSE,3.872,3.857,0.015,FALSE,FALSE,NA,99,98.7,98.9,0,0,3,0,5,3137.9,784.47,,Idle,0,20,FALSE,5,TRUE,6,Go Home,FALSE,FALSE,FALSE,FALSE,FALSE,FALSE,FALSE,FALSE,FALSE,FALSE,FALSE,FALSE,6.974221567,79.91415096,0.4,98,328,TRUE,1,1,FALSE,FALSE,FALSE,FALSE,,TRUE,FALSE,FALSE,Course Lock,49.2,,16.4,Calm,33,,1.12.8,Mavic Mini,1SDCH7G0169R0K,1SFLH6Q0AB03DJ,1SRCH7F014TAHX,1U5X071EXP6C9Y,70.7,0.2,39.3,8.997867,3.35541,0,18,Mavic Mini,1SDCH7G0169R0K,1SFLH6Q0AB03DJ,1SRCH7F014TAHX,1U5X071EXP6C9Y,DJI Fly,,1.12.8,E510E1A2-828C-E274-0990-E66BDF305ADB,1SDCH7G0169R0K,,,,,6.974208048,79.91414736,5,,
2/22/2024,18:12.3,4m 15.9s,255.9,6.97422288,79.9141513,3.6,3.6,3.9,53,1.7,0.223694,0.223694,0.223694,0.223694,0,0,-3.35541,0,4,0,21.3,21.3,20.6,Tripod,Drop Calibration,,13,5,TRUE,,Mavic Mini,TRUE,FALSE,,Smart,RC,FALSE,TRUE,FALSE,,,TRUE,,FALSE,FALSE,FALSE,FALSE,FALSE,FALSE,FALSE,FALSE,FALSE,FALSE,0,Follow Yaw,-6.6,0,38.4,38.4,FALSE,FALSE,FALSE,FALSE,FALSE,FALSE,,TRUE,Normal,,100,1024,1024,1595,1024,2,FALSE,FALSE,FALSE,FALSE,FALSE,0,FALSE,FALSE,FALSE,FALSE,82,7.729,1685,2056,7.824,FALSE,3.872,3.857,0.015,FALSE,FALSE,NA,99,98.7,98.9,0,0,3,0,5,3137.9,784.47,,Idle,0,20,FALSE,5,TRUE,6,Go Home,FALSE,FALSE,FALSE,FALSE,FALSE,FALSE,FALSE,FALSE,FALSE,FALSE,FALSE,FALSE,6.974221567,79.91415096,0.4,98,328,TRUE,1,1,FALSE,FALSE,FALSE,FALSE,,TRUE,FALSE,FALSE,Course Lock,49.2,,16.4,Calm,33,,1.12.8,Mavic Mini,1SDCH7G0169R0K,1SFLH6Q0AB03DJ,1SRCH7F014TAHX,1U5X071EXP6C9Y,70.7,0.2,39.3,8.997867,3.35541,0,18,Mavic Mini,1SDCH7G0169R0K,1SFLH6Q0AB03DJ,1SRCH7F014TAHX,1U5X071EXP6C9Y,DJI Fly,,1.12.8,E510E1A2-828C-E274-0990-E66BDF305ADB,1SDCH7G0169R0K,,,,,6.974208048,79.91414736,5,,
