CUSTOM.date [local],CUSTOM.updateTime [local],OSD.flyTime,OSD.flyTime [s],OSD.latitude,OSD.longitude,OSD.height [ft],OSD.heightMax [ft],OSD.vpsHeight [ft],OSD.altitude [ft],OSD.mileage [ft],OSD.hSpeed [MPH],OSD.hSpeedMax [MPH],OSD.xSpeed [MPH],OSD.xSpeedMax [MPH],OSD.ySpeed [MPH],OSD.ySpeedMax [MPH],OSD.zSpeed [MPH],OSD.zSpeedMax [MPH],OSD.pitch,OSD.roll,OSD.yaw,OSD.yaw [360],OSD.directionOfTravel,OSD.flycState,OSD.flycCommand,OSD.flightAction,OSD.gpsNum,OSD.gpsLevel,OSD.isGPSUsed,OSD.nonGPSCause,OSD.droneType,OSD.isSwaveWork,OSD.waveError,OSD.goHomeStatus,OSD.batteryType,OSD.ctrlDevice,OSD.isOnGround,OSD.isMotorOn,OSD.isMotorBlocked,OSD.motorStartFailedCause,OSD.motorFailReason,OSD.isImuPreheated,OSD.imuInitFailReason,OSD.isAcceletorOverRange,OSD.isBarometerDeadInAir,OSD.isCompassError,OSD.isGoHomeHeightModified,OSD.canIOCWork,OSD.isNotEnoughForce,OSD.isOutOfLimit,OSD.isPropellerCatapult,OSD.isVibrating,OSD.isVisionUsed,OSD.voltageWarning,GIMBAL.mode,GIMBAL.pitch,GIMBAL.roll,GIMBAL.yaw,GIMBAL.yaw [360],GIMBAL.isPitchAtLimit,GIMBAL.isRollAtLimit,GIMBAL.isYawAtLimit,GIMBAL.isStuck,CAMERA.isPhoto,CAMERA.isVideo,CAMERA.filename,CAMERA.sdCardIsInserted,CAMERA.sdCardState,RC.downlinkSignal,RC.uplinkSignal,RC.aileron,RC.elevator,RC.throttle,RC.rudder,RC.mode,RC.goHomeDepressed,RC.recordDepressed,RC.shutterDepressed,RC.playbackDepressed,RC.wheelDepressed,RC.wheelOffset,RC.custom1Depressed,RC.custom2Depressed,RC.custom3Depressed,RC.custom4Depressed,BATTERY.chargeLevel,BATTERY.currentPV [V],BATTERY.currentCapacity [mAh],BATTERY.fullCapacity [mAh],BATTERY.voltage [V],BATTERY.isCellVoltageEstimated,BATTERY.cellVoltage1 [V],BATTERY.cellVoltage2 [V],BATTERY.maxCellVoltageDeviation,BATTERY.isCellVoltageDeviationHigh,BATTERY.isVoltageLow,BATTERY.current [A],BATTERY.temperature [F],BATTERY.minTemperature [F],BATTERY.maxTemperature [F],BATTERY.usefulTime [s],BATTERY.goHomeTime [s],BATTERY.landTime [s],BATTERY.goHomeBattery,BATTERY.landBattery,BATTERY.safeFlyRadius,BATTERY.volumeConsume,BATTERY.status,BATTERY.goHomeStatus,BATTERY.goHomeCountdown,BATTERY.lowWarning,BATTERY.lowWarningGoHome,BATTERY.seriousLowWarning,BATTERY.seriousLowWarningLanding,BATTERY.timesCharged,MC.failSafeAction,MC.isObstacleAvoidanceEnabled,MC.isCollisionAvoidanceEnabled,MC.isRthObstacleAvoidanceEnabled,MC.isBraking,MC.isAvoidingObstacle,MC.isAvoidingActiveObstacle,MC.isAscentLimitedByObstacle,MC.isLandingConfirmationNeeded,MC.atLowAltitudeLimit,MC.atDistanceLimit,MC.atAirportAltitudeLimit,MC.atAirportBoundary,HOME.latitude,HOME.longitude,HOME.distance [ft],HOME.height [ft],HOME.heightLimit [ft],HOME.isHomeRecord,HOME.goHomeMode,HOME.aircraftHeadDirection,HOME.isDynamicHomePointEnabled,HOME.isReachedLimitDistance,HOME.isReachedLimitHeight,HOME.isCompassCalibrating,HOME.compassCalibrationState,HOME.isMultipleFlightModeEnabled,HOME.isBeginnerMode,HOME.isIOCEnabled,HOME.iocMode,HOME.goHomeHeight [ft],HOME.courseLockAngle,HOME.forceLandingHeight [ft],HOME.wind,HOME.dataRecorderFileIndex,RECOVER.appType,RECOVER.appVersion,RECOVER.aircraftName,RECOVER.aircraftSerial,RECOVER.cameraSerial,RECOVER.rcSerial,RECOVER.batterySerial,DETAILS.totalTime [s],DETAILS.totalDistance [ft],DETAILS.maxHeight [ft],DETAILS.maxHorizontalSpeed [MPH],DETAILS.maxVerticalSpeed [MPH],DETAILS.photoNum,DETAILS.videoTime [s],DETAILS.aircraftName,DETAILS.aircraftSerial,DETAILS.cameraSerial,DETAILS.rcSerial,DETAILS.batterySerial,DETAILS.appName,DETAILS.appType,DETAILS.appVersion,DETAILS.guid,SERIAL.flightController,SERIAL.camera,SERIAL.gimbal,SERIAL.rc,SERIAL.battery,APPGPS.latitude,APPGPS.longitude,APPGPS.accuracy,APP.tip,APP.warning
2/22/2024,31:53.2,8m 17.2s,497.2,6.9742239,79.91415981,0,0,0.3,50,0,0,0,0,0,0,0,0,0,6.4,2.4,-52.2,307.8,,Starting Motors,Drop Calibration,Takeoff (RC Assisted),16,5,TRUE,,Mavic Mini,FALSE,FALSE,,Smart,RC,TRUE,TRUE,FALSE,,,TRUE,,FALSE,FALSE,FALSE,FALSE,FALSE,FALSE,FALSE,FALSE,FALSE,FALSE,0,Follow Yaw,0,0,-35.7,324.3,FALSE,FALSE,FALSE,FALSE,FALSE,FALSE,,FALSE,Normal,,,364,578,364,1684,2,FALSE,FALSE,FALSE,FALSE,FALSE,0,FALSE,FALSE,FALSE,FALSE,65,7.683,1339,2056,7.683,TRUE,3.842,3.842,,FALSE,FALSE,NA,111.2,111.2,111.2,,,,,,,,,Idle,,,TRUE,,FALSE,6,Hover,FALSE,FALSE,FALSE,FALSE,FALSE,FALSE,FALSE,FALSE,FALSE,FALSE,FALSE,FALSE,,,,,,FALSE,,,FALSE,FALSE,FALSE,FALSE,,FALSE,FALSE,FALSE,,,,,Calm,,,,,,,,,88.4,0.3,3.2,7.172077,2.908022,0,40964,Mavic Mini,1SDCH7G0169R0K,1SFLH6Q0AB03DJ,1SRCH7F014TAHX,1U5X071EXP6C9Y,DJI Fly,,1.12.8,5EB997F7-D295-4317-440F-80F3C5889A63,1SDCH7G0169R0K,,,,,,,,Flight mode changed to Starting Motors.,
2/22/2024,23:36.1,8m 17.3s,497.3,6.974223987,79.91415973,0,0,0.3,50,0,0,0,0,0,0,0,0,0,6.4,2.4,-52.2,307.8,,Starting Motors,Drop Calibration,Takeoff (RC Assisted),16,5,TRUE,,Mavic Mini,FALSE,FALSE,,Smart,RC,TRUE,TRUE,FALSE,,,TRUE,,FALSE,FALSE,FALSE,FALSE,FALSE,FALSE,FALSE,FALSE,FALSE,FALSE,0,Follow Yaw,0,0,-35.7,324.3,FALSE,FALSE,FALSE,FALSE,FALSE,TRUE,,TRUE,Normal,,,1024,1024,1024,1024,2,FALSE,FALSE,FALSE,FALSE,FALSE,0,FALSE,FALSE,FALSE,FALSE,65,7.686,1338,2056,7.686,FALSE,3.845,3.841,0.004,FALSE,FALSE,NA,111.2,111.2,111.2,,,,,,,,,Idle,,,TRUE,,FALSE,6,Go Home,FALSE,FALSE,FALSE,FALSE,FALSE,FALSE,FALSE,FALSE,FALSE,FALSE,FALSE,FALSE,,,,,,FALSE,,,FALSE,FALSE,FALSE,FALSE,,FALSE,FALSE,FALSE,,,,,Calm,,,1.12.8,Mavic Mini,1SDCH7G0169R0K,1SFLH6Q0AB03DJ,1SRCH7F014TAHX,1U5X071EXP6C9Y,88.4,0.3,3.2,7.172077,2.908022,0,40964,Mavic Mini,1SDCH7G0169R0K,1SFLH6Q0AB03DJ,1SRCH7F014TAHX,1U5X071EXP6C9Y,DJI Fly,,1.12.8,5EB997F7-D295-4317-440F-80F3C5889A63,1SDCH7G0169R0K,,,,,,,,,
2/22/2024,23:36.1,8m 17.4s,497.4,6.97422399,79.91415971,0,0,0.3,50,0,0,0,0,0,0,0,0,0,6.4,2.4,-52.2,307.8,,Starting Motors,Drop Calibration,Takeoff (RC Assisted),16,5,TRUE,,Mavic Mini,TRUE,FALSE,,Smart,RC,TRUE,TRUE,FALSE,,,TRUE,,FALSE,FALSE,FALSE,FALSE,FALSE,FALSE,FALSE,FALSE,FALSE,FALSE,0,Follow Yaw,0,0,-35.7,324.3,FALSE,FALSE,FALSE,FALSE,FALSE,TRUE,,TRUE,Normal,,,1024,1024,1024,1024,2,FALSE,FALSE,FALSE,FALSE,FALSE,0,FALSE,FALSE,FALSE,FALSE,65,7.686,1338,2056,7.686,FALSE,3.845,3.841,0.004,FALSE,FALSE,NA,111.2,111.2,111.2,,,,,,,,,Idle,,,TRUE,,FALSE,6,Go Home,FALSE,FALSE,FALSE,FALSE,FALSE,FALSE,FALSE,FALSE,FALSE,FALSE,FALSE,FALSE,,,,,,FALSE,,,FALSE,FALSE,FALSE,FALSE,,FALSE,FALSE,FALSE,,,,,Calm,,,1.12.8,Mavic Mini,1SDCH7G0169R0K,1SFLH6Q0AB03DJ,1SRCH7F014TAHX,1U5X071EXP6C9Y,88.4,0.3,3.2,7.172077,2.908022,0,40964,Mavic Mini,1SDCH7G0169R0K,1SFLH6Q0AB03DJ,1SRCH7F014TAHX,1U5X071EXP6C9Y,DJI Fly,,1.12.8,5EB997F7-D295-4317-440F-80F3C5889A63,1SDCH7G0169R0K,,,,,,,,,
2/22/2024,23:36.2,8m 17.5s,497.5,6.974223991,79.91415966,0,0,0.3,50,0,0,0,0,0,0,0,0,0,6.4,2.4,-52.2,307.8,,Starting Motors,Drop Calibration,Takeoff (RC Assisted),16,5,TRUE,,Mavic Mini,TRUE,FALSE,,Smart,RC,TRUE,TRUE,FALSE,,,TRUE,,FALSE,FALSE,FALSE,FALSE,FALSE,FALSE,FALSE,FALSE,FALSE,FALSE,0,Follow Yaw,0,0,-35.7,324.3,FALSE,FALSE,FALSE,FALSE,FALSE,TRUE,,TRUE,Normal,,,1024,1024,1024,1024,2,FALSE,FALSE,FALSE,FALSE,FALSE,0,FALSE,FALSE,FALSE,FALSE,65,7.686,1338,2056,7.686,FALSE,3.845,3.841,0.004,FALSE,FALSE,NA,111.2,111.2,111.2,,,,,,,,,Idle,,,TRUE,,FALSE,6,Go Home,FALSE,FALSE,FALSE,FALSE,FALSE,FALSE,FALSE,FALSE,FALSE,FALSE,FALSE,FALSE,,,,,,FALSE,,,FALSE,FALSE,FALSE,FALSE,,FALSE,FALSE,FALSE,,,,,Calm,,,1.12.8,Mavic Mini,1SDCH7G0169R0K,1SFLH6Q0AB03DJ,1SRCH7F014TAHX,1U5X071EXP6C9Y,88.4,0.3,3.2,7.172077,2.908022,0,40964,Mavic Mini,1SDCH7G0169R0K,1SFLH6Q0AB03DJ,1SRCH7F014TAHX,1U5X071EXP6C9Y,DJI Fly,,1.12.8,5EB997F7-D295-4317-440F-80F3C5889A63,1SDCH7G0169R0K,,,,,,,,,
2/22/2024,23:36.3,8m 17.6s,497.6,6.974223992,79.91415962,0,0,0.3,50,0,0,0,0,0,0,0,0,0,6.4,2.4,-52.2,307.8,,Starting Motors,Drop Calibration,Takeoff (RC Assisted),16,5,TRUE,,Mavic Mini,TRUE,FALSE,,Smart,RC,TRUE,TRUE,FALSE,,,TRUE,,FALSE,FALSE,FALSE,FALSE,FALSE,FALSE,FALSE,FALSE,FALSE,FALSE,0,Follow Yaw,0,0,-35.7,324.3,FALSE,FALSE,FALSE,FALSE,FALSE,TRUE,,TRUE,Normal,,,1024,1024,1024,1024,2,FALSE,FALSE,FALSE,FALSE,FALSE,0,FALSE,FALSE,FALSE,FALSE,65,7.686,1338,2056,7.686,FALSE,3.845,3.841,0.004,FALSE,FALSE,NA,111.2,111.2,111.2,,,,,,,,,Idle,,,TRUE,,FALSE,6,Go Home,FALSE,FALSE,FALSE,FALSE,FALSE,FALSE,FALSE,FALSE,FALSE,FALSE,FALSE,FALSE,,,,,,FALSE,,,FALSE,FALSE,FALSE,FALSE,,FALSE,FALSE,FALSE,,,,,Calm,,,1.12.8,Mavic Mini,1SDCH7G0169R0K,1SFLH6Q0AB03DJ,1SRCH7F014TAHX,1U5X071EXP6C9Y,88.4,0.3,3.2,7.172077,2.908022,0,40964,Mavic Mini,1SDCH7G0169R0K,1SFLH6Q0AB03DJ,1SRCH7F014TAHX,1U5X071EXP6C9Y,DJI Fly,,1.12.8,5EB997F7-D295-4317-440F-80F3C5889A63,1SDCH7G0169R0K,,,,,,,,,
2/22/2024,23:36.4,8m 17.7s,497.7,6.97422403,79.91415949,0,0,0.3,50,0,0,0,0,0,0,0,0,0,6.4,2.4,-52.2,307.8,,Starting Motors,Drop Calibration,Takeoff (RC Assisted),16,5,TRUE,,Mavic Mini,TRUE,FALSE,,Smart,RC,TRUE,TRUE,FALSE,,,TRUE,,FALSE,FALSE,FALSE,FALSE,FALSE,FALSE,FALSE,FALSE,FALSE,FALSE,0,Follow Yaw,0,0,-35.7,324.3,FALSE,FALSE,FALSE,FALSE,FALSE,TRUE,,TRUE,Normal,,,1024,1024,1024,1024,2,FALSE,FALSE,FALSE,FALSE,FALSE,0,FALSE,FALSE,FALSE,FALSE,65,7.686,1338,2056,7.67,FALSE,3.845,3.841,0.004,FALSE,FALSE,NA,111.2,111.2,111.2,0,0,0,0,5,3237.2,809.32,,Idle,0,20,FALSE,5,TRUE,6,Go Home,FALSE,FALSE,FALSE,FALSE,FALSE,FALSE,FALSE,FALSE,FALSE,FALSE,FALSE,FALSE,6.974218421,79.91415548,2.5,96.9,328,TRUE,1,1,FALSE,FALSE,FALSE,FALSE,,TRUE,FALSE,FALSE,Course Lock,49.2,,16.4,Calm,33,,1.12.8,Mavic Mini,1SDCH7G0169R0K,1SFLH6Q0AB03DJ,1SRCH7F014TAHX,1U5X071EXP6C9Y,88.4,0.3,3.2,7.172077,2.908022,0,40964,Mavic Mini,1SDCH7G0169R0K,1SFLH6Q0AB03DJ,1SRCH7F014TAHX,1U5X071EXP6C9Y,DJI Fly,,1.12.8,5EB997F7-D295-4317-440F-80F3C5889A63,1SDCH7G0169R0K,,,,,,,,Data Recorder File Index is 33.; Set Return to Home (RTH) altitude to 15 m (49 ft).; Set maximum flight altitude to 100 m (328 ft).,
2/22/2024,23:36.6,8m 17.8s,497.8,6.974224027,79.91415949,0,0,0.3,50,0,0,0,0,0,0,0,0,0,6.4,2.3,-52.2,307.8,,Starting Motors,Drop Calibration,Takeoff (RC Assisted),16,5,TRUE,,Mavic Mini,TRUE,FALSE,,Smart,RC,TRUE,TRUE,FALSE,,,TRUE,,FALSE,FALSE,FALSE,FALSE,FALSE,FALSE,FALSE,FALSE,FALSE,FALSE,0,Follow Yaw,0,0,-35.7,324.3,FALSE,FALSE,FALSE,FALSE,FALSE,TRUE,,TRUE,Normal,,100,1024,1024,1024,1024,2,FALSE,FALSE,FALSE,FALSE,FALSE,0,FALSE,FALSE,FALSE,FALSE,65,7.686,1338,2056,7.67,FALSE,3.845,3.841,0.004,FALSE,FALSE,NA,111.2,111.2,111.2,0,0,0,0,5,3237.2,809.32,,Idle,0,20,FALSE,5,TRUE,6,Go Home,FALSE,FALSE,FALSE,FALSE,FALSE,FALSE,FALSE,FALSE,FALSE,FALSE,FALSE,FALSE,6.974218421,79.91415548,2.5,96.9,328,TRUE,1,1,FALSE,FALSE,FALSE,FALSE,,TRUE,FALSE,FALSE,Course Lock,49.2,,16.4,Calm,33,,1.12.8,Mavic Mini,1SDCH7G0169R0K,1SFLH6Q0AB03DJ,1SRCH7F014TAHX,1U5X071EXP6C9Y,88.4,0.3,3.2,7.172077,2.908022,0,40964,Mavic Mini,1SDCH7G0169R0K,1SFLH6Q0AB03DJ,1SRCH7F014TAHX,1U5X071EXP6C9Y,DJI Fly,,1.12.8,5EB997F7-D295-4317-440F-80F3C5889A63,1SDCH7G0169R0K,,,,,,,,,
2/22/2024,23:36.7,8m 17.9s,497.9,6.974224023,79.91415949,0,0,0.3,50,0,0,0,0,0,0,0,0,0,6.4,2.3,-52.3,307.7,,Starting Motors,Drop Calibration,Takeoff (RC Assisted),16,5,TRUE,,Mavic Mini,TRUE,FALSE,,Smart,RC,TRUE,TRUE,FALSE,,,TRUE,,FALSE,FALSE,FALSE,FALSE,FALSE,FALSE,FALSE,FALSE,FALSE,FALSE,0,Follow Yaw,0,0,-35.7,324.3,FALSE,FALSE,FALSE,FALSE,FALSE,TRUE,,TRUE,Normal,,100,1024,1024,1024,1024,2,FALSE,FALSE,FALSE,FALSE,FALSE,0,FALSE,FALSE,FALSE,FALSE,65,7.686,1338,2056,7.67,FALSE,3.845,3.841,0.004,FALSE,FALSE,NA,111.2,111.2,111.2,0,0,0,0,5,3237.2,809.32,,Idle,0,20,FALSE,5,TRUE,6,Go Home,FALSE,FALSE,FALSE,FALSE,FALSE,FALSE,FALSE,FALSE,FALSE,FALSE,FALSE,FALSE,6.974218421,79.91415548,2.5,96.9,328,TRUE,1,1,FALSE,FALSE,FALSE,FALSE,,TRUE,FALSE,FALSE,Course Lock,49.2,,16.4,Calm,33,,1.12.8,Mavic Mini,1SDCH7G0169R0K,1SFLH6Q0AB03DJ,1SRCH7F014TAHX,1U5X071EXP6C9Y,88.4,0.3,3.2,7.172077,2.908022,0,40964,Mavic Mini,1SDCH7G0169R0K,1SFLH6Q0AB03DJ,1SRCH7F014TAHX,1U5X071EXP6C9Y,DJI Fly,,1.12.8,5EB997F7-D295-4317-440F-80F3C5889A63,1SDCH7G0169R0K,,,,,,,,,
2/22/2024,23:36.8,8m 18.0s,498,6.974224019,79.9141595,0,0,0.3,50,0,0,0,0,0,0,0,0,0,6.4,2.3,-52.4,307.6,,Starting Motors,Drop Calibration,Takeoff (RC Assisted),16,5,TRUE,,Mavic Mini,TRUE,FALSE,,Smart,RC,TRUE,TRUE,FALSE,,,TRUE,,FALSE,FALSE,FALSE,FALSE,FALSE,FALSE,FALSE,FALSE,FALSE,FALSE,0,Follow Yaw,0,0,-35.7,324.3,FALSE,FALSE,FALSE,FALSE,FALSE,TRUE,,TRUE,Normal,,100,1024,1024,1024,1024,2,FALSE,FALSE,FALSE,FALSE,FALSE,0,FALSE,FALSE,FALSE,FALSE,65,7.686,1338,2056,7.67,FALSE,3.845,3.841,0.004,FALSE,FALSE,NA,111.2,111.2,111.2,0,0,0,0,5,3237.2,809.32,,Idle,0,20,FALSE,5,TRUE,6,Go Home,FALSE,FALSE,FALSE,FALSE,FALSE,FALSE,FALSE,FALSE,FALSE,FALSE,FALSE,FALSE,6.974218421,79.91415548,2.5,96.9,328,TRUE,1,1,FALSE,FALSE,FALSE,FALSE,,TRUE,FALSE,FALSE,Course Lock,49.2,,16.4,Calm,33,,1.12.8,Mavic Mini,1SDCH7G0169R0K,1SFLH6Q0AB03DJ,1SRCH7F014TAHX,1U5X071EXP6C9Y,88.4,0.3,3.2,7.172077,2.908022,0,40964,Mavic Mini,1SDCH7G0169R0K,1SFLH6Q0AB03DJ,1SRCH7F014TAHX,1U5X071EXP6C9Y,DJI Fly,,1.12.8,5EB997F7-D295-4317-440F-80F3C5889A63,1SDCH7G0169R0K,,,,,,,,,
2/22/2024,23:36.9,8m 18.1s,498.1,6.974224041,79.91415955,0,0,0.3,50,0.1,0,0,0,0,0,0,0,0,6.4,2.3,-52.3,307.7,,Starting Motors,Drop Calibration,Takeoff (RC Assisted),16,5,TRUE,,Mavic Mini,TRUE,FALSE,,Smart,RC,TRUE,TRUE,FALSE,,,TRUE,,FALSE,FALSE,FALSE,FALSE,FALSE,FALSE,FALSE,FALSE,FALSE,FALSE,0,Follow Yaw,0,0,-35.7,324.3,FALSE,FALSE,FALSE,FALSE,FALSE,TRUE,,TRUE,Normal,,100,1024,1024,1024,1024,2,FALSE,FALSE,FALSE,FALSE,FALSE,0,FALSE,FALSE,FALSE,FALSE,65,7.686,1338,2056,7.67,FALSE,3.845,3.841,0.004,FALSE,FALSE,NA,111.2,111.2,111.2,0,0,0,0,5,3237.2,809.32,,Idle,0,20,FALSE,5,TRUE,6,Go Home,FALSE,FALSE,FALSE,FALSE,FALSE,FALSE,FALSE,FALSE,FALSE,FALSE,FALSE,FALSE,6.974218421,79.91415548,2.5,96.9,328,TRUE,1,1,FALSE,FALSE,FALSE,FALSE,,TRUE,FALSE,FALSE,Course Lock,49.2,,16.4,Calm,33,,1.12.8,Mavic Mini,1SDCH7G0169R0K,1SFLH6Q0AB03DJ,1SRCH7F014TAHX,1U5X071EXP6C9Y,88.4,0.3,3.2,7.172077,2.908022,0,40964,Mavic Mini,1SDCH7G0169R0K,1SFLH6Q0AB03DJ,1SRCH7F014TAHX,1U5X071EXP6C9Y,DJI Fly,,1.12.8,5EB997F7-D295-4317-440F-80F3C5889A63,1SDCH7G0169R0K,,,,,,,,,
2/22/2024,23:37.1,8m 18.2s,498.2,6.974224038,79.91415958,0,0,0.3,50,0.1,0,0,0,0,0,0,0,0,6.4,2.3,-52.3,307.7,,Starting Motors,Drop Calibration,Takeoff (RC Assisted),16,5,TRUE,,Mavic Mini,TRUE,FALSE,,Smart,RC,TRUE,TRUE,FALSE,,,TRUE,,FALSE,FALSE,FALSE,FALSE,FALSE,FALSE,FALSE,FALSE,FALSE,FALSE,0,Follow Yaw,0,0,-35.7,324.3,FALSE,FALSE,FALSE,FALSE,FALSE,TRUE,,TRUE,Normal,,100,1024,1024,1024,1024,2,FALSE,FALSE,FALSE,FALSE,FALSE,0,FALSE,FALSE,FALSE,FALSE,65,7.686,1338,2056,7.67,FALSE,3.845,3.841,0.004,FALSE,FALSE,NA,111.2,111.2,111.2,0,0,0,0,5,3237.2,809.32,,Idle,0,20,FALSE,5,TRUE,6,Go Home,FALSE,FALSE,FALSE,FALSE,FALSE,FALSE,FALSE,FALSE,FALSE,FALSE,FALSE,FALSE,6.974218421,79.91415548,2.5,96.9,328,TRUE,1,1,FALSE,FALSE,FALSE,FALSE,,TRUE,FALSE,FALSE,Course Lock,49.2,,16.4,Calm,33,,1.12.8,Mavic Mini,1SDCH7G0169R0K,1SFLH6Q0AB03DJ,1SRCH7F014TAHX,1U5X071EXP6C9Y,88.4,0.3,3.2,7.172077,2.908022,0,40964,Mavic Mini,1SDCH7G0169R0K,1SFLH6Q0AB03DJ,1SRCH7F014TAHX,1U5X071EXP6C9Y,DJI Fly,,1.12.8,5EB997F7-D295-4317-440F-80F3C5889A63,1SDCH7G0169R0K,,,,,,,,,
2/22/2024,23:37.1,8m 18.3s,498.3,6.974224035,79.91415964,0,0,0.3,50,0.1,0,0,0,0,0,0,0,0,6.4,2.3,-52.3,307.7,,Manual Takeoff,Drop Calibration,Takeoff (RC Assisted),16,5,TRUE,,Mavic Mini,TRUE,FALSE,,Smart,RC,TRUE,TRUE,FALSE,,,TRUE,,FALSE,FALSE,FALSE,FALSE,FALSE,FALSE,FALSE,FALSE,FALSE,FALSE,0,Follow Yaw,0,0,-35.8,324.2,FALSE,FALSE,FALSE,FALSE,FALSE,TRUE,,TRUE,Normal,,100,1024,1024,1024,1024,2,FALSE,FALSE,FALSE,FALSE,FALSE,0,FALSE,FALSE,FALSE,FALSE,65,7.686,1338,2056,7.67,FALSE,3.845,3.841,0.004,FALSE,FALSE,NA,111.2,111.2,111.2,0,0,0,0,5,3237.2,809.32,,Idle,0,20,FALSE,5,TRUE,6,Go Home,FALSE,FALSE,FALSE,FALSE,FALSE,FALSE,FALSE,FALSE,FALSE,FALSE,FALSE,FALSE,6.974218421,79.91415548,2.5,96.9,328,TRUE,1,1,FALSE,FALSE,FALSE,FALSE,,TRUE,FALSE,FALSE,Course Lock,49.2,,16.4,Calm,33,,1.12.8,Mavic Mini,1SDCH7G0169R0K,1SFLH6Q0AB03DJ,1SRCH7F014TAHX,1U5X071EXP6C9Y,88.4,0.3,3.2,7.172077,2.908022,0,40964,Mavic Mini,1SDCH7G0169R0K,1SFLH6Q0AB03DJ,1SRCH7F014TAHX,1U5X071EXP6C9Y,DJI Fly,,1.12.8,5EB997F7-D295-4317-440F-80F3C5889A63,1SDCH7G0169R0K,,,,,,,,Flight mode changed to Manual Takeoff.,
2/22/2024,23:37.1,8m 18.4s,498.4,6.974224033,79.91415969,0,0,0.3,50,0.1,0,0,0,0,0,0,0,0,6.4,2.3,-52.3,307.7,,Manual Takeoff,Drop Calibration,Takeoff (RC Assisted),16,5,TRUE,,Mavic Mini,TRUE,FALSE,,Smart,RC,TRUE,TRUE,FALSE,,,TRUE,,FALSE,FALSE,FALSE,FALSE,FALSE,FALSE,FALSE,FALSE,FALSE,FALSE,0,Follow Yaw,0,0,-35.8,324.2,FALSE,FALSE,FALSE,FALSE,FALSE,TRUE,,TRUE,Normal,,100,1024,1024,1024,1024,2,FALSE,FALSE,FALSE,FALSE,FALSE,0,FALSE,FALSE,FALSE,FALSE,65,7.677,1338,2056,7.67,FALSE,3.84,3.837,0.004,FALSE,FALSE,NA,111.2,111.2,111.2,0,0,0,0,5,3237.2,809.32,,Idle,0,20,FALSE,5,TRUE,6,Go Home,FALSE,FALSE,FALSE,FALSE,FALSE,FALSE,FALSE,FALSE,FALSE,FALSE,FALSE,FALSE,6.974218421,79.91415548,2.5,96.9,328,TRUE,1,1,FALSE,FALSE,FALSE,FALSE,,TRUE,FALSE,FALSE,Course Lock,49.2,,16.4,Calm,33,,1.12.8,Mavic Mini,1SDCH7G0169R0K,1SFLH6Q0AB03DJ,1SRCH7F014TAHX,1U5X071EXP6C9Y,88.4,0.3,3.2,7.172077,2.908022,0,40964,Mavic Mini,1SDCH7G0169R0K,1SFLH6Q0AB03DJ,1SRCH7F014TAHX,1U5X071EXP6C9Y,DJI Fly,,1.12.8,5EB997F7-D295-4317-440F-80F3C5889A63,1SDCH7G0169R0K,,,,,,,,,
2/22/2024,23:37.3,8m 18.5s,498.5,6.974224045,79.91415979,0,0,0.3,50,0.2,0,0,0,0,0,0,0,0,6.4,2.3,-52.3,307.7,,Manual Takeoff,Drop Calibration,Takeoff (RC Assisted),16,5,TRUE,,Mavic Mini,TRUE,FALSE,,Smart,RC,TRUE,TRUE,FALSE,,,TRUE,,FALSE,FALSE,FALSE,FALSE,FALSE,FALSE,FALSE,FALSE,FALSE,FALSE,0,Follow Yaw,0,0,-35.8,324.2,FALSE,FALSE,FALSE,FALSE,FALSE,TRUE,,TRUE,Normal,,100,1024,1024,1024,1024,2,FALSE,FALSE,FALSE,FALSE,FALSE,0,FALSE,FALSE,FALSE,FALSE,65,7.677,1338,2056,7.67,FALSE,3.84,3.837,0.004,FALSE,FALSE,NA,111.2,111.2,111.2,0,0,0,0,5,3237.2,809.32,,Idle,0,20,FALSE,5,TRUE,6,Go Home,FALSE,FALSE,FALSE,FALSE,FALSE,FALSE,FALSE,FALSE,FALSE,FALSE,FALSE,FALSE,6.974218421,79.91415548,2.5,96.9,328,TRUE,1,1,FALSE,FALSE,FALSE,FALSE,,TRUE,FALSE,FALSE,Course Lock,49.2,,16.4,Calm,33,,1.12.8,Mavic Mini,1SDCH7G0169R0K,1SFLH6Q0AB03DJ,1SRCH7F014TAHX,1U5X071EXP6C9Y,88.4,0.3,3.2,7.172077,2.908022,0,40964,Mavic Mini,1SDCH7G0169R0K,1SFLH6Q0AB03DJ,1SRCH7F014TAHX,1U5X071EXP6C9Y,DJI Fly,,1.12.8,5EB997F7-D295-4317-440F-80F3C5889A63,1SDCH7G0169R0K,,,,,,,,,
2/22/2024,23:37.4,8m 18.6s,498.6,6.974224042,79.91415979,0,0,0.3,50,0.2,0,0,0,0,0,0,0,0,6.4,2.3,-52.3,307.7,,Manual Takeoff,Drop Calibration,Takeoff (RC Assisted),16,5,TRUE,,Mavic Mini,TRUE,FALSE,,Smart,RC,TRUE,TRUE,FALSE,,,TRUE,,FALSE,FALSE,FALSE,FALSE,FALSE,FALSE,FALSE,FALSE,FALSE,FALSE,0,Follow Yaw,0,0,-35.8,324.2,FALSE,FALSE,FALSE,FALSE,FALSE,TRUE,,TRUE,Normal,,100,1024,1024,1024,1024,2,FALSE,FALSE,FALSE,FALSE,FALSE,0,FALSE,FALSE,FALSE,FALSE,65,7.677,1338,2056,7.67,FALSE,3.84,3.837,0.004,FALSE,FALSE,NA,111.2,111.2,111.2,0,0,0,0,5,3237.2,809.32,,Idle,0,20,FALSE,5,TRUE,6,Go Home,FALSE,FALSE,FALSE,FALSE,FALSE,FALSE,FALSE,FALSE,FALSE,FALSE,FALSE,FALSE,6.974218421,79.91415548,2.5,96.9,328,TRUE,1,1,FALSE,FALSE,FALSE,FALSE,,TRUE,FALSE,FALSE,Course Lock,49.2,,16.4,Calm,33,,1.12.8,Mavic Mini,1SDCH7G0169R0K,1SFLH6Q0AB03DJ,1SRCH7F014TAHX,1U5X071EXP6C9Y,88.4,0.3,3.2,7.172077,2.908022,0,40964,Mavic Mini,1SDCH7G0169R0K,1SFLH6Q0AB03DJ,1SRCH7F014TAHX,1U5X071EXP6C9Y,DJI Fly,,1.12.8,5EB997F7-D295-4317-440F-80F3C5889A63,1SDCH7G0169R0K,,,,,,,,,
2/22/2024,23:37.4,8m 18.7s,498.7,6.974224037,79.91415974,0,0,0.3,50,0.2,0,0,0,0,0,0,0,0,6.4,2.3,-52.3,307.7,,Manual Takeoff,Drop Calibration,Takeoff (RC Assisted),16,5,TRUE,,Mavic Mini,TRUE,FALSE,,Smart,RC,TRUE,TRUE,FALSE,,,TRUE,,FALSE,FALSE,FALSE,FALSE,FALSE,FALSE,FALSE,FALSE,FALSE,FALSE,0,Follow Yaw,0,0,-35.8,324.2,FALSE,FALSE,FALSE,FALSE,FALSE,TRUE,,TRUE,Normal,,100,1024,1024,1024,1024,2,FALSE,FALSE,FALSE,FALSE,FALSE,0,FALSE,FALSE,FALSE,FALSE,65,7.677,1338,2056,7.687,FALSE,3.84,3.837,0.004,FALSE,FALSE,NA,111.2,111.2,111.2,0,0,0,0,5,3264.9,816.24,,Idle,0,20,FALSE,5,TRUE,6,Go Home,FALSE,FALSE,FALSE,FALSE,FALSE,FALSE,FALSE,FALSE,FALSE,FALSE,FALSE,FALSE,6.974218421,79.91415548,2.5,96.9,328,TRUE,1,1,FALSE,FALSE,FALSE,FALSE,,TRUE,FALSE,FALSE,Course Lock,49.2,,16.4,Calm,33,,1.12.8,Mavic Mini,1SDCH7G0169R0K,1SFLH6Q0AB03DJ,1SRCH7F014TAHX,1U5X071EXP6C9Y,88.4,0.3,3.2,7.172077,2.908022,0,40964,Mavic Mini,1SDCH7G0169R0K,1SFLH6Q0AB03DJ,1SRCH7F014TAHX,1U5X071EXP6C9Y,DJI Fly,,1.12.8,5EB997F7-D295-4317-440F-80F3C5889A63,1SDCH7G0169R0K,,,,,,,,,
2/22/2024,23:37.6,8m 18.8s,498.8,6.974224014,79.91415972,0,0,0.3,50,0.2,0,0,0,0,0,0,0,0,6.4,2.3,-52.3,307.7,,Manual Takeoff,Drop Calibration,Takeoff (RC Assisted),16,5,TRUE,,Mavic Mini,TRUE,FALSE,,Smart,RC,TRUE,TRUE,FALSE,,,TRUE,,FALSE,FALSE,FALSE,FALSE,FALSE,FALSE,FALSE,FALSE,FALSE,FALSE,0,Follow Yaw,0,0,-35.8,324.2,FALSE,FALSE,FALSE,FALSE,FALSE,TRUE,,TRUE,Normal,,100,1024,1024,1024,1024,2,FALSE,FALSE,FALSE,FALSE,FALSE,0,FALSE,FALSE,FALSE,FALSE,65,7.677,1338,2056,7.687,FALSE,3.84,3.837,0.004,FALSE,FALSE,NA,111.2,111.2,111.2,0,0,0,0,5,3264.9,816.24,,Idle,0,20,FALSE,5,TRUE,6,Go Home,FALSE,FALSE,FALSE,FALSE,FALSE,FALSE,FALSE,FALSE,FALSE,FALSE,FALSE,FALSE,6.974218421,79.91415548,2.5,96.9,328,TRUE,1,1,FALSE,FALSE,FALSE,FALSE,,TRUE,FALSE,FALSE,Course Lock,49.2,,16.4,Calm,33,,1.12.8,Mavic Mini,1SDCH7G0169R0K,1SFLH6Q0AB03DJ,1SRCH7F014TAHX,1U5X071EXP6C9Y,88.4,0.3,3.2,7.172077,2.908022,0,40964,Mavic Mini,1SDCH7G0169R0K,1SFLH6Q0AB03DJ,1SRCH7F014TAHX,1U5X071EXP6C9Y,DJI Fly,,1.12.8,5EB997F7-D295-4317-440F-80F3C5889A63,1SDCH7G0169R0K,,,,,,,,,
2/22/2024,23:37.6,8m 18.9s,498.9,6.974223957,79.91415975,0,0,0.3,50,0.2,0,0,0,0,0,0,0,0,6.4,2.3,-52.3,307.7,,Manual Takeoff,Drop Calibration,Takeoff (RC Assisted),16,5,TRUE,,Mavic Mini,TRUE,FALSE,,Smart,RC,TRUE,TRUE,FALSE,,,TRUE,,FALSE,FALSE,FALSE,FALSE,FALSE,FALSE,FALSE,FALSE,FALSE,FALSE,0,Follow Yaw,0,0,-35.8,324.2,FALSE,FALSE,FALSE,FALSE,FALSE,TRUE,,TRUE,Normal,,100,1024,1024,1024,1024,2,FALSE,FALSE,FALSE,FALSE,FALSE,0,FALSE,FALSE,FALSE,FALSE,65,7.677,1338,2056,7.687,FALSE,3.84,3.837,0.004,FALSE,FALSE,NA,111.2,111.2,111.2,0,0,0,0,5,3264.9,816.24,,Idle,0,20,FALSE,5,TRUE,6,Go Home,FALSE,FALSE,FALSE,FALSE,FALSE,FALSE,FALSE,FALSE,FALSE,FALSE,FALSE,FALSE,6.974218421,79.91415548,2.5,96.9,328,TRUE,1,1,FALSE,FALSE,FALSE,FALSE,,TRUE,FALSE,FALSE,Course Lock,49.2,,16.4,Calm,33,,1.12.8,Mavic Mini,1SDCH7G0169R0K,1SFLH6Q0AB03DJ,1SRCH7F014TAHX,1U5X071EXP6C9Y,88.4,0.3,3.2,7.172077,2.908022,0,40964,Mavic Mini,1SDCH7G0169R0K,1SFLH6Q0AB03DJ,1SRCH7F014TAHX,1U5X071EXP6C9Y,DJI Fly,,1.12.8,5EB997F7-D295-4317-440F-80F3C5889A63,1SDCH7G0169R0K,,,,,,,,,
2/22/2024,23:37.7,8m 19.0s,499,6.974223848,79.91415973,0,0,0.3,50,0.2,0,0,0,0,0,0,0,0,6.3,2.3,-52.3,307.7,,Manual Takeoff,Drop Calibration,Takeoff (RC Assisted),16,5,TRUE,,Mavic Mini,TRUE,FALSE,,Smart,RC,TRUE,TRUE,FALSE,,,TRUE,,FALSE,FALSE,FALSE,FALSE,FALSE,FALSE,FALSE,FALSE,FALSE,FALSE,0,Follow Yaw,0,0,-35.8,324.2,FALSE,FALSE,FALSE,FALSE,FALSE,TRUE,,TRUE,Normal,,100,1024,1024,1024,1024,2,FALSE,FALSE,FALSE,FALSE,FALSE,0,FALSE,FALSE,FALSE,FALSE,65,7.677,1338,2056,7.687,FALSE,3.84,3.837,0.004,FALSE,FALSE,NA,111.2,111.2,111.2,0,0,0,0,5,3264.9,816.24,,Idle,0,20,FALSE,5,TRUE,6,Go Home,FALSE,FALSE,FALSE,FALSE,FALSE,FALSE,FALSE,FALSE,FALSE,FALSE,FALSE,FALSE,6.974218421,79.91415548,2.5,96.9,328,TRUE,1,1,FALSE,FALSE,FALSE,FALSE,,TRUE,FALSE,FALSE,Course Lock,49.2,,16.4,Calm,33,,1.12.8,Mavic Mini,1SDCH7G0169R0K,1SFLH6Q0AB03DJ,1SRCH7F014TAHX,1U5X071EXP6C9Y,88.4,0.3,3.2,7.172077,2.908022,0,40964,Mavic Mini,1SDCH7G0169R0K,1SFLH6Q0AB03DJ,1SRCH7F014TAHX,1U5X071EXP6C9Y,DJI Fly,,1.12.8,5EB997F7-D295-4317-440F-80F3C5889A63,1SDCH7G0169R0K,,,,,,,,,
2/22/2024,23:37.9,8m 19.1s,499.1,6.974223825,79.91415974,0,0,0.3,50,0.3,0,0,0,0,0,0,0,0,6.4,2.3,-52.3,307.7,,Manual Takeoff,Drop Calibration,Takeoff (RC Assisted),16,5,TRUE,,Mavic Mini,TRUE,FALSE,,Smart,RC,TRUE,TRUE,FALSE,,,TRUE,,FALSE,FALSE,FALSE,FALSE,FALSE,FALSE,FALSE,FALSE,FALSE,FALSE,0,Follow Yaw,0,0,-35.8,324.2,FALSE,FALSE,FALSE,FALSE,FALSE,TRUE,,TRUE,Normal,,100,1024,1024,1024,1024,2,FALSE,FALSE,FALSE,FALSE,FALSE,0,FALSE,FALSE,FALSE,FALSE,65,7.677,1338,2056,7.687,FALSE,3.84,3.837,0.004,FALSE,FALSE,NA,111.2,111.2,111.2,0,0,0,0,5,3264.9,816.24,,Idle,0,20,FALSE,5,TRUE,6,Go Home,FALSE,FALSE,FALSE,FALSE,FALSE,FALSE,FALSE,FALSE,FALSE,FALSE,FALSE,FALSE,6.974218421,79.91415548,2.5,96.9,328,TRUE,1,1,FALSE,FALSE,FALSE,FALSE,,TRUE,FALSE,FALSE,Course Lock,49.2,,16.4,Calm,33,,1.12.8,Mavic Mini,1SDCH7G0169R0K,1SFLH6Q0AB03DJ,1SRCH7F014TAHX,1U5X071EXP6C9Y,88.4,0.3,3.2,7.172077,2.908022,0,40964,Mavic Mini,1SDCH7G0169R0K,1SFLH6Q0AB03DJ,1SRCH7F014TAHX,1U5X071EXP6C9Y,DJI Fly,,1.12.8,5EB997F7-D295-4317-440F-80F3C5889A63,1SDCH7G0169R0K,,,,,,,,,
2/22/2024,23:38.0,8m 19.2s,499.2,6.974223809,79.91415976,0,0,0.3,50,0.3,0,0,0,0,0,0,0,0,6.4,2.3,-52.3,307.7,,Manual Takeoff,Drop Calibration,Takeoff (RC Assisted),16,5,TRUE,,Mavic Mini,TRUE,FALSE,,Smart,RC,TRUE,TRUE,FALSE,,,TRUE,,FALSE,FALSE,FALSE,FALSE,FALSE,FALSE,FALSE,FALSE,FALSE,FALSE,0,Follow Yaw,0,0,-35.8,324.2,FALSE,FALSE,FALSE,FALSE,FALSE,TRUE,,TRUE,Normal,,100,1024,1024,1024,1024,2,FALSE,FALSE,FALSE,FALSE,FALSE,0,FALSE,FALSE,FALSE,FALSE,65,7.677,1338,2056,7.687,FALSE,3.84,3.837,0.004,FALSE,FALSE,NA,111.2,111.2,111.2,0,0,0,0,5,3264.9,816.24,,Idle,0,20,FALSE,5,TRUE,6,Go Home,FALSE,FALSE,FALSE,FALSE,FALSE,FALSE,FALSE,FALSE,FALSE,FALSE,FALSE,FALSE,6.974218421,79.91415548,2.5,96.9,328,TRUE,1,1,FALSE,FALSE,FALSE,FALSE,,TRUE,FALSE,FALSE,Course Lock,49.2,,16.4,Calm,33,,1.12.8,Mavic Mini,1SDCH7G0169R0K,1SFLH6Q0AB03DJ,1SRCH7F014TAHX,1U5X071EXP6C9Y,88.4,0.3,3.2,7.172077,2.908022,0,40964,Mavic Mini,1SDCH7G0169R0K,1SFLH6Q0AB03DJ,1SRCH7F014TAHX,1U5X071EXP6C9Y,DJI Fly,,1.12.8,5EB997F7-D295-4317-440F-80F3C5889A63,1SDCH7G0169R0K,,,,,6.974235624,79.91415231,5,,
2/22/2024,23:38.2,8m 19.3s,499.3,6.974223804,79.91415976,0,0,0.3,50,0.3,0,0,0,0,0,0,0,0,6.4,2.3,-52.3,307.7,,Manual Takeoff,Drop Calibration,Takeoff (RC Assisted),16,5,TRUE,,Mavic Mini,TRUE,FALSE,,Smart,RC,TRUE,TRUE,FALSE,,,TRUE,,FALSE,FALSE,FALSE,FALSE,FALSE,FALSE,FALSE,FALSE,FALSE,FALSE,0,Follow Yaw,0,0,-35.8,324.2,FALSE,FALSE,FALSE,FALSE,FALSE,TRUE,,TRUE,Normal,,100,1024,1024,1024,1024,2,FALSE,FALSE,FALSE,FALSE,FALSE,0,FALSE,FALSE,FALSE,FALSE,65,7.677,1338,2056,7.687,FALSE,3.84,3.837,0.004,FALSE,FALSE,NA,111.2,111.2,111.2,0,0,0,0,5,3264.9,816.24,,Idle,0,20,FALSE,5,TRUE,6,Go Home,FALSE,FALSE,FALSE,FALSE,FALSE,FALSE,FALSE,FALSE,FALSE,FALSE,FALSE,FALSE,6.974218421,79.91415548,2.5,96.9,328,TRUE,1,1,FALSE,FALSE,FALSE,FALSE,,TRUE,FALSE,FALSE,Course Lock,49.2,,16.4,Calm,33,,1.12.8,Mavic Mini,1SDCH7G0169R0K,1SFLH6Q0AB03DJ,1SRCH7F014TAHX,1U5X071EXP6C9Y,88.4,0.3,3.2,7.172077,2.908022,0,40964,Mavic Mini,1SDCH7G0169R0K,1SFLH6Q0AB03DJ,1SRCH7F014TAHX,1U5X071EXP6C9Y,DJI Fly,,1.12.8,5EB997F7-D295-4317-440F-80F3C5889A63,1SDCH7G0169R0K,,,,,6.974235624,79.91415231,5,,
2/22/2024,23:38.2,8m 19.4s,499.4,6.974223833,79.91415974,0,0,0.3,50,0.3,0,0,0,0,0,0,0,0,6.4,2.3,-52.3,307.7,,Manual Takeoff,Drop Calibration,Takeoff (RC Assisted),15,5,TRUE,,Mavic Mini,TRUE,FALSE,,Smart,RC,TRUE,TRUE,FALSE,,,TRUE,,FALSE,FALSE,FALSE,FALSE,FALSE,FALSE,FALSE,FALSE,FALSE,FALSE,0,Follow Yaw,0,0,-35.8,324.2,FALSE,FALSE,FALSE,FALSE,FALSE,TRUE,,TRUE,Normal,,100,1024,1024,1024,1024,2,FALSE,FALSE,FALSE,FALSE,FALSE,0,FALSE,FALSE,FALSE,FALSE,65,7.677,1338,2056,7.687,FALSE,3.84,3.837,0.004,FALSE,FALSE,NA,111.2,111.2,111.2,0,0,0,0,5,3264.9,816.24,,Idle,0,20,FALSE,5,TRUE,6,Go Home,FALSE,FALSE,FALSE,FALSE,FALSE,FALSE,FALSE,FALSE,FALSE,FALSE,FALSE,FALSE,6.974218421,79.91415548,2.5,96.9,328,TRUE,1,1,FALSE,FALSE,FALSE,FALSE,,TRUE,FALSE,FALSE,Course Lock,49.2,,16.4,Calm,33,,1.12.8,Mavic Mini,1SDCH7G0169R0K,1SFLH6Q0AB03DJ,1SRCH7F014TAHX,1U5X071EXP6C9Y,88.4,0.3,3.2,7.172077,2.908022,0,40964,Mavic Mini,1SDCH7G0169R0K,1SFLH6Q0AB03DJ,1SRCH7F014TAHX,1U5X071EXP6C9Y,DJI Fly,,1.12.8,5EB997F7-D295-4317-440F-80F3C5889A63,1SDCH7G0169R0K,,,,,6.974235624,79.91415231,5,,
2/22/2024,23:38.3,8m 19.5s,499.5,6.974223781,79.91415974,0,0,0.3,50,0.3,0,0,0,0,0,0,0,0,6.4,2.3,-52.3,307.7,,Manual Takeoff,Drop Calibration,Takeoff (RC Assisted),15,5,TRUE,,Mavic Mini,TRUE,FALSE,,Smart,RC,TRUE,TRUE,FALSE,,,TRUE,,FALSE,FALSE,FALSE,FALSE,FALSE,FALSE,FALSE,FALSE,FALSE,FALSE,0,Follow Yaw,0,0,-35.8,324.2,FALSE,FALSE,FALSE,FALSE,FALSE,TRUE,,TRUE,Normal,,100,1024,1024,1024,1024,2,FALSE,FALSE,FALSE,FALSE,FALSE,0,FALSE,FALSE,FALSE,FALSE,65,7.673,1337,2056,7.687,FALSE,3.839,3.834,0.005,FALSE,FALSE,NA,111.2,111.2,111.2,0,0,0,0,5,3264.9,816.24,,Idle,0,20,FALSE,5,TRUE,6,Go Home,FALSE,FALSE,FALSE,FALSE,FALSE,FALSE,FALSE,FALSE,FALSE,FALSE,FALSE,FALSE,6.974218421,79.91415548,2.4,96.9,328,TRUE,1,1,FALSE,FALSE,FALSE,FALSE,,TRUE,FALSE,FALSE,Course Lock,49.2,,16.4,Calm,33,,1.12.8,Mavic Mini,1SDCH7G0169R0K,1SFLH6Q0AB03DJ,1SRCH7F014TAHX,1U5X071EXP6C9Y,88.4,0.3,3.2,7.172077,2.908022,0,40964,Mavic Mini,1SDCH7G0169R0K,1SFLH6Q0AB03DJ,1SRCH7F014TAHX,1U5X071EXP6C9Y,DJI Fly,,1.12.8,5EB997F7-D295-4317-440F-80F3C5889A63,1SDCH7G0169R0K,,,,,6.974235624,79.91415231,5,,
2/22/2024,23:38.4,8m 19.6s,499.6,6.974223743,79.91415974,0,0,0.3,50,0.3,0,0,0,0,0,0,0,0,6.4,2.3,-52.3,307.7,,Manual Takeoff,Drop Calibration,Takeoff (RC Assisted),16,5,TRUE,,Mavic Mini,TRUE,FALSE,,Smart,RC,TRUE,TRUE,FALSE,,,TRUE,,FALSE,FALSE,FALSE,FALSE,FALSE,FALSE,FALSE,FALSE,FALSE,FALSE,0,Follow Yaw,0,0,-35.8,324.2,FALSE,FALSE,FALSE,FALSE,FALSE,TRUE,,TRUE,Normal,,100,1024,1024,1123,1024,2,FALSE,FALSE,FALSE,FALSE,FALSE,0,FALSE,FALSE,FALSE,FALSE,65,7.673,1337,2056,7.687,FALSE,3.839,3.834,0.005,FALSE,FALSE,NA,111.2,111.2,111.2,0,0,0,0,5,3264.9,816.24,,Idle,0,20,FALSE,5,TRUE,6,Go Home,FALSE,FALSE,FALSE,FALSE,FALSE,FALSE,FALSE,FALSE,FALSE,FALSE,FALSE,FALSE,6.974218421,79.91415548,2.4,96.9,328,TRUE,1,1,FALSE,FALSE,FALSE,FALSE,,TRUE,FALSE,FALSE,Course Lock,49.2,,16.4,Calm,33,,1.12.8,Mavic Mini,1SDCH7G0169R0K,1SFLH6Q0AB03DJ,1SRCH7F014TAHX,1U5X071EXP6C9Y,88.4,0.3,3.2,7.172077,2.908022,0,40964,Mavic Mini,1SDCH7G0169R0K,1SFLH6Q0AB03DJ,1SRCH7F014TAHX,1U5X071EXP6C9Y,DJI Fly,,1.12.8,5EB997F7-D295-4317-440F-80F3C5889A63,1SDCH7G0169R0K,,,,,6.974235624,79.91415231,5,,
2/22/2024,23:38.4,8m 19.7s,499.7,6.974223725,79.91415974,0,0,0.3,50,0.3,0,0,0,0,0,0,0,0,6.4,2.3,-52.3,307.7,,Manual Takeoff,Drop Calibration,Takeoff (RC Assisted),16,5,TRUE,,Mavic Mini,TRUE,FALSE,,Smart,RC,TRUE,TRUE,FALSE,,,TRUE,,FALSE,FALSE,FALSE,FALSE,FALSE,FALSE,FALSE,FALSE,FALSE,FALSE,0,Follow Yaw,0,0,-35.8,324.2,FALSE,FALSE,FALSE,FALSE,FALSE,TRUE,,TRUE,Normal,,100,1024,1024,1257,1024,2,FALSE,FALSE,FALSE,FALSE,FALSE,0,FALSE,FALSE,FALSE,FALSE,65,7.673,1337,2056,7.678,FALSE,3.839,3.834,0.005,FALSE,FALSE,NA,111.2,111.2,111.2,0,0,0,0,5,3384.6,846.15,,Idle,0,20,FALSE,5,TRUE,6,Go Home,FALSE,FALSE,FALSE,FALSE,FALSE,FALSE,FALSE,FALSE,FALSE,FALSE,FALSE,FALSE,6.974218421,79.91415548,2.4,96.9,328,TRUE,1,1,FALSE,FALSE,FALSE,FALSE,,TRUE,FALSE,FALSE,Course Lock,49.2,,16.4,Calm,33,,1.12.8,Mavic Mini,1SDCH7G0169R0K,1SFLH6Q0AB03DJ,1SRCH7F014TAHX,1U5X071EXP6C9Y,88.4,0.3,3.2,7.172077,2.908022,0,40964,Mavic Mini,1SDCH7G0169R0K,1SFLH6Q0AB03DJ,1SRCH7F014TAHX,1U5X071EXP6C9Y,DJI Fly,,1.12.8,5EB997F7-D295-4317-440F-80F3C5889A63,1SDCH7G0169R0K,,,,,6.974235624,79.91415231,5,,
2/22/2024,23:38.6,8m 19.8s,499.8,6.974223687,79.91415971,0,0,0.3,50,0.3,0,0,0,0,0,0,0,0,6.4,2.3,-52.2,307.8,,Manual Takeoff,Drop Calibration,Takeoff (RC Assisted),15,5,TRUE,,Mavic Mini,TRUE,FALSE,,Smart,RC,TRUE,TRUE,FALSE,,,TRUE,,FALSE,FALSE,FALSE,FALSE,FALSE,FALSE,FALSE,FALSE,FALSE,FALSE,0,Follow Yaw,0,0,-35.8,324.2,FALSE,FALSE,FALSE,FALSE,FALSE,TRUE,,TRUE,Normal,,100,1024,1024,1264,1024,2,FALSE,FALSE,FALSE,FALSE,FALSE,0,FALSE,FALSE,FALSE,FALSE,65,7.673,1337,2056,7.678,FALSE,3.839,3.834,0.005,FALSE,FALSE,NA,111.2,111.2,111.2,0,0,0,0,5,3384.6,846.15,,Idle,0,20,FALSE,5,TRUE,6,Go Home,FALSE,FALSE,FALSE,FALSE,FALSE,FALSE,FALSE,FALSE,FALSE,FALSE,FALSE,FALSE,6.974218421,79.91415548,2.4,96.9,328,TRUE,1,1,FALSE,FALSE,FALSE,FALSE,,TRUE,FALSE,FALSE,Course Lock,49.2,,16.4,Calm,33,,1.12.8,Mavic Mini,1SDCH7G0169R0K,1SFLH6Q0AB03DJ,1SRCH7F014TAHX,1U5X071EXP6C9Y,88.4,0.3,3.2,7.172077,2.908022,0,40964,Mavic Mini,1SDCH7G0169R0K,1SFLH6Q0AB03DJ,1SRCH7F014TAHX,1U5X071EXP6C9Y,DJI Fly,,1.12.8,5EB997F7-D295-4317-440F-80F3C5889A63,1SDCH7G0169R0K,,,,,6.974235624,79.91415231,5,,
2/22/2024,23:38.6,8m 19.9s,499.9,6.974223633,79.91415972,0,0,0.3,50,0.4,0,0,0,0,0,0,0,0,6.4,2.3,-52.3,307.7,,Manual Takeoff,Drop Calibration,Takeoff (RC Assisted),15,5,TRUE,,Mavic Mini,TRUE,FALSE,,Smart,RC,TRUE,TRUE,FALSE,,,TRUE,,FALSE,FALSE,FALSE,FALSE,FALSE,FALSE,FALSE,FALSE,FALSE,FALSE,0,Follow Yaw,0,0,-35.8,324.2,FALSE,FALSE,FALSE,FALSE,FALSE,TRUE,,TRUE,Normal,,100,1024,1024,1280,1024,2,FALSE,FALSE,FALSE,FALSE,FALSE,0,FALSE,FALSE,FALSE,FALSE,65,7.673,1337,2056,7.678,FALSE,3.839,3.834,0.005,FALSE,FALSE,NA,111.2,111.2,111.2,0,0,0,0,5,3384.6,846.15,,Idle,0,20,FALSE,5,TRUE,6,Go Home,FALSE,FALSE,FALSE,FALSE,FALSE,FALSE,FALSE,FALSE,FALSE,FALSE,FALSE,FALSE,6.974218421,79.91415548,2.4,96.9,328,TRUE,1,1,FALSE,FALSE,FALSE,FALSE,,TRUE,FALSE,FALSE,Course Lock,49.2,,16.4,Calm,33,,1.12.8,Mavic Mini,1SDCH7G0169R0K,1SFLH6Q0AB03DJ,1SRCH7F014TAHX,1U5X071EXP6C9Y,88.4,0.3,3.2,7.172077,2.908022,0,40964,Mavic Mini,1SDCH7G0169R0K,1SFLH6Q0AB03DJ,1SRCH7F014TAHX,1U5X071EXP6C9Y,DJI Fly,,1.12.8,5EB997F7-D295-4317-440F-80F3C5889A63,1SDCH7G0169R0K,,,,,6.974235624,79.91415231,5,,
2/22/2024,23:38.8,8m 20.0s,500,6.974223595,79.91415974,0,0,0.3,50,0.4,0,0,0,0,0,0,0,0,6.3,2.2,-52.3,307.7,,Manual Takeoff,Drop Calibration,Takeoff (RC Assisted),15,5,TRUE,,Mavic Mini,TRUE,FALSE,,Smart,RC,TRUE,TRUE,FALSE,,,TRUE,,FALSE,FALSE,FALSE,FALSE,FALSE,FALSE,FALSE,FALSE,FALSE,FALSE,0,Follow Yaw,0,0,-35.8,324.2,FALSE,FALSE,FALSE,FALSE,FALSE,TRUE,,TRUE,Normal,,100,1024,1024,1288,1024,2,FALSE,FALSE,FALSE,FALSE,FALSE,0,FALSE,FALSE,FALSE,FALSE,65,7.673,1337,2056,7.678,FALSE,3.839,3.834,0.005,FALSE,FALSE,NA,111.2,111.2,111.2,0,0,0,0,5,3384.6,846.15,,Idle,0,20,FALSE,5,TRUE,6,Go Home,FALSE,FALSE,FALSE,FALSE,FALSE,FALSE,FALSE,FALSE,FALSE,FALSE,FALSE,FALSE,6.974218421,79.91415548,2.4,96.9,328,TRUE,1,1,FALSE,FALSE,FALSE,FALSE,,TRUE,FALSE,FALSE,Course Lock,49.2,,16.4,Calm,33,,1.12.8,Mavic Mini,1SDCH7G0169R0K,1SFLH6Q0AB03DJ,1SRCH7F014TAHX,1U5X071EXP6C9Y,88.4,0.3,3.2,7.172077,2.908022,0,40964,Mavic Mini,1SDCH7G0169R0K,1SFLH6Q0AB03DJ,1SRCH7F014TAHX,1U5X071EXP6C9Y,DJI Fly,,1.12.8,5EB997F7-D295-4317-440F-80F3C5889A63,1SDCH7G0169R0K,,,,,6.974235624,79.91415231,5,,
2/22/2024,23:38.9,8m 20.1s,500.1,6.974223581,79.9141598,0,0,0.3,50,0.4,0,0,0,0,0,0,0,0,6.3,2.2,-52.3,307.7,,Manual Takeoff,Drop Calibration,Takeoff (RC Assisted),15,5,TRUE,,Mavic Mini,TRUE,FALSE,,Smart,RC,TRUE,TRUE,FALSE,,,TRUE,,FALSE,FALSE,FALSE,FALSE,FALSE,FALSE,FALSE,FALSE,FALSE,FALSE,0,Follow Yaw,0,0,-35.8,324.2,FALSE,FALSE,FALSE,FALSE,FALSE,TRUE,,TRUE,Normal,,100,1024,1024,1288,1024,2,FALSE,FALSE,FALSE,FALSE,FALSE,0,FALSE,FALSE,FALSE,FALSE,65,7.673,1337,2056,7.678,FALSE,3.839,3.834,0.005,FALSE,FALSE,NA,111.2,111.2,111.2,0,0,0,0,5,3384.6,846.15,,Idle,0,20,FALSE,5,TRUE,6,Go Home,FALSE,FALSE,FALSE,FALSE,FALSE,FALSE,FALSE,FALSE,FALSE,FALSE,FALSE,FALSE,6.974218421,79.91415548,2.4,96.9,328,TRUE,1,1,FALSE,FALSE,FALSE,FALSE,,TRUE,FALSE,FALSE,Course Lock,49.2,,16.4,Calm,33,,1.12.8,Mavic Mini,1SDCH7G0169R0K,1SFLH6Q0AB03DJ,1SRCH7F014TAHX,1U5X071EXP6C9Y,88.4,0.3,3.2,7.172077,2.908022,0,40964,Mavic Mini,1SDCH7G0169R0K,1SFLH6Q0AB03DJ,1SRCH7F014TAHX,1U5X071EXP6C9Y,DJI Fly,,1.12.8,5EB997F7-D295-4317-440F-80F3C5889A63,1SDCH7G0169R0K,,,,,6.974235624,79.91415231,5,,
2/22/2024,23:38.9,8m 20.2s,500.2,6.974223542,79.91415978,0,0,0.3,50,0.4,0,0,0,0,0,0,0,0,6.5,2.1,-52.5,307.5,,Manual Takeoff,Drop Calibration,Takeoff (RC Assisted),15,5,TRUE,,Mavic Mini,TRUE,FALSE,,Smart,RC,TRUE,TRUE,FALSE,,,TRUE,,FALSE,FALSE,FALSE,FALSE,FALSE,FALSE,FALSE,FALSE,FALSE,FALSE,0,Follow Yaw,0,0,-35.8,324.2,FALSE,FALSE,FALSE,FALSE,FALSE,TRUE,,TRUE,Normal,,100,1024,1024,1288,1024,2,FALSE,FALSE,FALSE,FALSE,FALSE,0,FALSE,FALSE,FALSE,FALSE,65,7.673,1337,2056,7.678,FALSE,3.839,3.834,0.005,FALSE,FALSE,NA,111.2,111.2,111.2,0,0,0,0,5,3384.6,846.15,,Idle,0,20,FALSE,5,TRUE,6,Go Home,FALSE,FALSE,FALSE,FALSE,FALSE,FALSE,FALSE,FALSE,FALSE,FALSE,FALSE,FALSE,6.974218421,79.91415548,2.4,96.9,328,TRUE,1,1,FALSE,FALSE,FALSE,FALSE,,TRUE,FALSE,FALSE,Course Lock,49.2,,16.4,Calm,33,,1.12.8,Mavic Mini,1SDCH7G0169R0K,1SFLH6Q0AB03DJ,1SRCH7F014TAHX,1U5X071EXP6C9Y,88.4,0.3,3.2,7.172077,2.908022,0,40964,Mavic Mini,1SDCH7G0169R0K,1SFLH6Q0AB03DJ,1SRCH7F014TAHX,1U5X071EXP6C9Y,DJI Fly,,1.12.8,5EB997F7-D295-4317-440F-80F3C5889A63,1SDCH7G0169R0K,,,,,6.974235624,79.91415231,5,,
2/22/2024,23:39.1,8m 20.3s,500.3,6.974223494,79.91415975,0,0,0.3,50,0.4,0,0,0,0,0,0,0,0,6.2,2.1,-53.8,306.2,,Manual Takeoff,Drop Calibration,Takeoff (RC Assisted),15,5,TRUE,,Mavic Mini,TRUE,FALSE,,Smart,RC,TRUE,TRUE,FALSE,,,TRUE,,FALSE,FALSE,FALSE,FALSE,FALSE,FALSE,FALSE,FALSE,FALSE,FALSE,0,Follow Yaw,0,0,-36.1,323.9,FALSE,FALSE,FALSE,FALSE,FALSE,TRUE,,TRUE,Normal,,100,1024,1024,1289,1024,2,FALSE,FALSE,FALSE,FALSE,FALSE,0,FALSE,FALSE,FALSE,FALSE,65,7.673,1337,2056,7.678,FALSE,3.839,3.834,0.005,FALSE,FALSE,NA,111.2,111.2,111.2,0,0,0,0,5,3384.6,846.15,,Idle,0,20,FALSE,5,TRUE,6,Go Home,FALSE,FALSE,FALSE,FALSE,FALSE,FALSE,FALSE,FALSE,FALSE,FALSE,FALSE,FALSE,6.974218421,79.91415548,2.4,96.9,328,TRUE,1,1,FALSE,FALSE,FALSE,FALSE,,TRUE,FALSE,FALSE,Course Lock,49.2,,16.4,Calm,33,,1.12.8,Mavic Mini,1SDCH7G0169R0K,1SFLH6Q0AB03DJ,1SRCH7F014TAHX,1U5X071EXP6C9Y,88.4,0.3,3.2,7.172077,2.908022,0,40964,Mavic Mini,1SDCH7G0169R0K,1SFLH6Q0AB03DJ,1SRCH7F014TAHX,1U5X071EXP6C9Y,DJI Fly,,1.12.8,5EB997F7-D295-4317-440F-80F3C5889A63,1SDCH7G0169R0K,,,,,6.974235624,79.91415231,5,,
2/22/2024,23:39.1,8m 20.4s,500.4,6.974223464,79.91415973,0,0,0.3,50,0.4,0,0,0,0,0,0,0,0,5.1,2.5,-54.9,305.1,,Manual Takeoff,Drop Calibration,Takeoff (RC Assisted),15,5,TRUE,,Mavic Mini,TRUE,FALSE,,Smart,RC,TRUE,TRUE,FALSE,,,TRUE,,FALSE,FALSE,FALSE,FALSE,FALSE,FALSE,FALSE,FALSE,FALSE,FALSE,0,Follow Yaw,0,0,-37.2,322.8,FALSE,FALSE,FALSE,FALSE,FALSE,TRUE,,TRUE,Normal,,100,1024,1024,1289,1024,2,FALSE,FALSE,FALSE,FALSE,FALSE,0,FALSE,FALSE,FALSE,FALSE,65,7.673,1337,2056,7.678,FALSE,3.839,3.834,0.005,FALSE,FALSE,NA,111.2,111.2,111.2,0,0,0,0,5,3384.6,846.15,,Idle,0,20,FALSE,5,TRUE,6,Go Home,FALSE,FALSE,FALSE,FALSE,FALSE,FALSE,FALSE,FALSE,FALSE,FALSE,FALSE,FALSE,6.974218421,79.91415548,2.3,96.9,328,TRUE,1,1,FALSE,FALSE,FALSE,FALSE,,TRUE,FALSE,FALSE,Course Lock,49.2,,16.4,Calm,33,,1.12.8,Mavic Mini,1SDCH7G0169R0K,1SFLH6Q0AB03DJ,1SRCH7F014TAHX,1U5X071EXP6C9Y,88.4,0.3,3.2,7.172077,2.908022,0,40964,Mavic Mini,1SDCH7G0169R0K,1SFLH6Q0AB03DJ,1SRCH7F014TAHX,1U5X071EXP6C9Y,DJI Fly,,1.12.8,5EB997F7-D295-4317-440F-80F3C5889A63,1SDCH7G0169R0K,,,,,6.974235624,79.91415231,5,,
2/22/2024,23:39.2,8m 20.5s,500.5,6.97422347,79.91415972,0,0,0.3,50,0.5,0,0,0,0,0,0,0,0,4,2.6,-56,304,,Manual Takeoff,Drop Calibration,Takeoff (RC Assisted),15,5,TRUE,,Mavic Mini,TRUE,FALSE,,Smart,RC,TRUE,TRUE,FALSE,,,TRUE,,FALSE,FALSE,FALSE,FALSE,FALSE,FALSE,FALSE,FALSE,FALSE,FALSE,0,Follow Yaw,0,0,-38.2,321.8,FALSE,FALSE,FALSE,FALSE,FALSE,TRUE,,TRUE,Normal,,100,1024,1024,1289,1024,2,FALSE,FALSE,FALSE,FALSE,FALSE,0,FALSE,FALSE,FALSE,FALSE,65,7.673,1337,2056,7.678,FALSE,3.839,3.834,0.005,FALSE,FALSE,NA,111.2,111.2,111.2,0,0,0,0,5,3384.6,846.15,,Idle,0,20,FALSE,5,TRUE,6,Go Home,FALSE,FALSE,FALSE,FALSE,FALSE,FALSE,FALSE,FALSE,FALSE,FALSE,FALSE,FALSE,6.974218421,79.91415548,2.3,96.9,328,TRUE,1,1,FALSE,FALSE,FALSE,FALSE,,TRUE,FALSE,FALSE,Course Lock,49.2,,16.4,Calm,33,,1.12.8,Mavic Mini,1SDCH7G0169R0K,1SFLH6Q0AB03DJ,1SRCH7F014TAHX,1U5X071EXP6C9Y,88.4,0.3,3.2,7.172077,2.908022,0,40964,Mavic Mini,1SDCH7G0169R0K,1SFLH6Q0AB03DJ,1SRCH7F014TAHX,1U5X071EXP6C9Y,DJI Fly,,1.12.8,5EB997F7-D295-4317-440F-80F3C5889A63,1SDCH7G0169R0K,,,,,6.974235624,79.91415231,5,,
2/22/2024,23:39.4,8m 20.6s,500.6,6.974223491,79.91415973,0,0,0.3,50,0.5,0,0,0,0,0,0,0,0,1.7,2.4,-56.9,303.1,,Manual Takeoff,Drop Calibration,Takeoff (RC Assisted),15,5,TRUE,,Mavic Mini,TRUE,FALSE,,Smart,RC,TRUE,TRUE,FALSE,,,TRUE,,FALSE,FALSE,FALSE,FALSE,FALSE,FALSE,FALSE,FALSE,FALSE,FALSE,0,Follow Yaw,0,0,-39,321,FALSE,FALSE,FALSE,FALSE,FALSE,TRUE,,TRUE,Normal,,100,1024,1024,1289,1024,2,FALSE,FALSE,FALSE,FALSE,FALSE,0,FALSE,FALSE,FALSE,FALSE,65,7.592,1337,2056,7.678,FALSE,3.799,3.793,0.006,FALSE,FALSE,NA,111.2,111.2,111.2,0,0,0,0,5,3384.6,846.15,,Idle,0,20,FALSE,5,TRUE,6,Go Home,FALSE,FALSE,FALSE,FALSE,FALSE,FALSE,FALSE,FALSE,FALSE,FALSE,FALSE,FALSE,6.974218421,79.91415548,2.4,96.9,328,TRUE,1,1,FALSE,FALSE,FALSE,FALSE,,TRUE,FALSE,FALSE,Course Lock,49.2,,16.4,Calm,33,,1.12.8,Mavic Mini,1SDCH7G0169R0K,1SFLH6Q0AB03DJ,1SRCH7F014TAHX,1U5X071EXP6C9Y,88.4,0.3,3.2,7.172077,2.908022,0,40964,Mavic Mini,1SDCH7G0169R0K,1SFLH6Q0AB03DJ,1SRCH7F014TAHX,1U5X071EXP6C9Y,DJI Fly,,1.12.8,5EB997F7-D295-4317-440F-80F3C5889A63,1SDCH7G0169R0K,,,,,6.974235624,79.91415231,5,,
2/22/2024,23:39.4,8m 20.7s,500.7,6.974223555,79.91415974,0,0,0.3,50,0.5,0.223694,0.223694,0.223694,0.223694,0,0,0,0,-0.9,1,-57.8,302.2,7.5,Manual Takeoff,Drop Calibration,Takeoff (RC Assisted),15,5,TRUE,,Mavic Mini,TRUE,FALSE,,Smart,RC,TRUE,TRUE,FALSE,,,TRUE,,FALSE,FALSE,FALSE,FALSE,FALSE,FALSE,FALSE,FALSE,FALSE,FALSE,0,Follow Yaw,0,0,-39.8,320.2,FALSE,FALSE,FALSE,FALSE,FALSE,TRUE,,TRUE,Normal,,100,1024,1024,1288,1024,2,FALSE,FALSE,FALSE,FALSE,FALSE,0,FALSE,FALSE,FALSE,FALSE,65,7.592,1337,2056,7.639,FALSE,3.799,3.793,0.006,FALSE,FALSE,NA,111.2,111.2,111.2,0,0,0,0,5,3664.6,916.17,,Idle,0,20,FALSE,5,TRUE,6,Go Home,FALSE,FALSE,FALSE,FALSE,FALSE,FALSE,FALSE,FALSE,FALSE,FALSE,FALSE,FALSE,6.974218421,79.91415548,2.4,96.9,328,TRUE,1,1,FALSE,FALSE,FALSE,FALSE,,TRUE,FALSE,FALSE,Course Lock,49.2,,16.4,Calm,33,,1.12.8,Mavic Mini,1SDCH7G0169R0K,1SFLH6Q0AB03DJ,1SRCH7F014TAHX,1U5X071EXP6C9Y,88.4,0.3,3.2,7.172077,2.908022,0,40964,Mavic Mini,1SDCH7G0169R0K,1SFLH6Q0AB03DJ,1SRCH7F014TAHX,1U5X071EXP6C9Y,DJI Fly,,1.12.8,5EB997F7-D295-4317-440F-80F3C5889A63,1SDCH7G0169R0K,,,,,6.974235624,79.91415231,5,,
2/22/2024,23:39.5,8m 20.8s,500.8,6.974223646,79.9141598,0,0,0.3,50,0.5,0.223694,0.223694,0.223694,0.223694,0,0,-0.223694,0,-0.9,-0.7,-59.1,300.9,25.7,Manual Takeoff,Drop Calibration,,15,5,TRUE,,Mavic Mini,TRUE,FALSE,,Smart,RC,FALSE,TRUE,FALSE,,,TRUE,,FALSE,FALSE,FALSE,FALSE,FALSE,FALSE,FALSE,FALSE,FALSE,FALSE,0,Follow Yaw,0,0,-40.7,319.3,FALSE,FALSE,FALSE,FALSE,FALSE,TRUE,,TRUE,Normal,,100,1024,1024,1287,1024,2,FALSE,FALSE,FALSE,FALSE,FALSE,0,FALSE,FALSE,FALSE,FALSE,65,7.592,1337,2056,7.639,FALSE,3.799,3.793,0.006,FALSE,FALSE,NA,111.2,111.2,111.2,0,0,0,0,5,3664.6,916.17,,Idle,0,20,FALSE,5,TRUE,6,Go Home,FALSE,FALSE,FALSE,FALSE,FALSE,FALSE,FALSE,FALSE,FALSE,FALSE,FALSE,FALSE,6.974218421,79.91415548,2.4,96.9,328,TRUE,1,1,FALSE,FALSE,FALSE,FALSE,,TRUE,FALSE,FALSE,Course Lock,49.2,,16.4,Calm,33,,1.12.8,Mavic Mini,1SDCH7G0169R0K,1SFLH6Q0AB03DJ,1SRCH7F014TAHX,1U5X071EXP6C9Y,88.4,0.3,3.2,7.172077,2.908022,0,40964,Mavic Mini,1SDCH7G0169R0K,1SFLH6Q0AB03DJ,1SRCH7F014TAHX,1U5X071EXP6C9Y,DJI Fly,,1.12.8,5EB997F7-D295-4317-440F-80F3C5889A63,1SDCH7G0169R0K,,,,,6.974235624,79.91415231,5,,
2/22/2024,23:39.7,8m 20.9s,500.9,6.974223805,79.91415984,0,0,0.3,50,0.6,0.447388,0.447388,0.447388,0.447388,0,0,-0.447388,0,-0.2,-1.5,-59.1,300.9,11.7,Tripod,Drop Calibration,,15,5,TRUE,,Mavic Mini,TRUE,FALSE,,Smart,RC,FALSE,TRUE,FALSE,,,TRUE,,FALSE,FALSE,FALSE,FALSE,FALSE,FALSE,FALSE,FALSE,FALSE,FALSE,0,Follow Yaw,0,0,-41.4,318.6,FALSE,FALSE,FALSE,FALSE,FALSE,TRUE,,TRUE,Normal,,100,1024,1024,1287,1024,2,FALSE,FALSE,FALSE,FALSE,FALSE,0,FALSE,FALSE,FALSE,FALSE,65,7.592,1337,2056,7.639,FALSE,3.799,3.793,0.006,FALSE,FALSE,NA,111.2,111.2,111.2,0,0,0,0,5,3664.6,916.17,,Idle,0,20,FALSE,5,TRUE,6,Go Home,FALSE,FALSE,FALSE,FALSE,FALSE,FALSE,FALSE,FALSE,FALSE,FALSE,FALSE,FALSE,6.974218421,79.91415548,2.5,96.9,328,TRUE,1,1,FALSE,FALSE,FALSE,FALSE,,TRUE,FALSE,FALSE,Course Lock,49.2,,16.4,Calm,33,,1.12.8,Mavic Mini,1SDCH7G0169R0K,1SFLH6Q0AB03DJ,1SRCH7F014TAHX,1U5X071EXP6C9Y,88.4,0.3,3.2,7.172077,2.908022,0,40964,Mavic Mini,1SDCH7G0169R0K,1SFLH6Q0AB03DJ,1SRCH7F014TAHX,1U5X071EXP6C9Y,DJI Fly,,1.12.8,5EB997F7-D295-4317-440F-80F3C5889A63,1SDCH7G0169R0K,,,,,6.974235624,79.91415231,5,Flight mode changed to Tripod.,
2/22/2024,23:39.8,8m 21.0s,501,6.974223985,79.91415985,0,0,0.6,50,0.6,0.447388,0.447388,0.447388,0.447388,0,0,-0.894776,0,1.3,-2.9,-59.3,300.7,2.2,Tripod,Drop Calibration,,16,5,TRUE,,Mavic Mini,TRUE,FALSE,,Smart,RC,FALSE,TRUE,FALSE,,,TRUE,,FALSE,FALSE,FALSE,FALSE,FALSE,FALSE,FALSE,FALSE,FALSE,FALSE,0,Follow Yaw,0,0,-41.5,318.5,FALSE,FALSE,FALSE,FALSE,FALSE,TRUE,,TRUE,Normal,,100,1024,1024,1287,1024,2,FALSE,FALSE,FALSE,FALSE,FALSE,0,FALSE,FALSE,FALSE,FALSE,65,7.592,1337,2056,7.639,FALSE,3.799,3.793,0.006,FALSE,FALSE,NA,111.2,111.2,111.2,0,0,0,0,5,3664.6,916.17,,Idle,0,20,FALSE,5,TRUE,6,Go Home,FALSE,FALSE,FALSE,FALSE,FALSE,FALSE,FALSE,FALSE,FALSE,FALSE,FALSE,FALSE,6.974218421,79.91415548,2.5,96.9,328,TRUE,1,1,FALSE,FALSE,FALSE,FALSE,,TRUE,FALSE,FALSE,Course Lock,49.2,,16.4,Calm,33,,1.12.8,Mavic Mini,1SDCH7G0169R0K,1SFLH6Q0AB03DJ,1SRCH7F014TAHX,1U5X071EXP6C9Y,88.4,0.3,3.2,7.172077,2.908022,0,40964,Mavic Mini,1SDCH7G0169R0K,1SFLH6Q0AB03DJ,1SRCH7F014TAHX,1U5X071EXP6C9Y,DJI Fly,,1.12.8,5EB997F7-D295-4317-440F-80F3C5889A63,1SDCH7G0169R0K,,,,,6.974235624,79.91415231,5,,
2/22/2024,23:39.9,8m 21.1s,501.1,6.974224333,79.91415983,0.3,0.3,0.6,50,0.8,0.223694,0.447388,0.223694,0.447388,0,0,-1.11847,0,2.2,-2.1,-59.1,300.9,357,Tripod,Drop Calibration,,16,5,TRUE,,Mavic Mini,TRUE,FALSE,,Smart,RC,FALSE,TRUE,FALSE,,,TRUE,,FALSE,FALSE,FALSE,FALSE,FALSE,FALSE,FALSE,FALSE,FALSE,FALSE,0,Follow Yaw,0,0,-41.5,318.5,FALSE,FALSE,FALSE,FALSE,FALSE,TRUE,,TRUE,Normal,,100,1024,1024,1287,1024,2,FALSE,FALSE,FALSE,FALSE,FALSE,0,FALSE,FALSE,FALSE,FALSE,65,7.592,1337,2056,7.639,FALSE,3.799,3.793,0.006,FALSE,FALSE,NA,111.2,111.2,111.2,0,0,0,0,5,3664.6,916.17,,Idle,0,20,FALSE,5,TRUE,6,Go Home,FALSE,FALSE,FALSE,FALSE,FALSE,FALSE,FALSE,FALSE,FALSE,FALSE,FALSE,FALSE,6.974218421,79.91415548,2.6,96.9,328,TRUE,1,1,FALSE,FALSE,FALSE,FALSE,,TRUE,FALSE,FALSE,Course Lock,49.2,,16.4,Calm,33,,1.12.8,Mavic Mini,1SDCH7G0169R0K,1SFLH6Q0AB03DJ,1SRCH7F014TAHX,1U5X071EXP6C9Y,88.4,0.3,3.2,7.172077,2.908022,0,40964,Mavic Mini,1SDCH7G0169R0K,1SFLH6Q0AB03DJ,1SRCH7F014TAHX,1U5X071EXP6C9Y,DJI Fly,,1.12.8,5EB997F7-D295-4317-440F-80F3C5889A63,1SDCH7G0169R0K,,,,,6.974235624,79.91415231,5,,
2/22/2024,23:40.1,8m 21.2s,501.2,6.974224491,79.91415982,0.3,0.3,0.6,50,0.8,0.223694,0.447388,0.223694,0.447388,0,0,-1.342164,0,1.3,-1.4,-59,301,357.4,Tripod,Drop Calibration,,16,5,TRUE,,Mavic Mini,TRUE,FALSE,,Smart,RC,FALSE,TRUE,FALSE,,,TRUE,,FALSE,FALSE,FALSE,FALSE,FALSE,FALSE,FALSE,FALSE,FALSE,FALSE,0,Follow Yaw,0,0,-41.5,318.5,FALSE,FALSE,FALSE,FALSE,FALSE,TRUE,,TRUE,Normal,,100,1024,1024,1287,1024,2,FALSE,FALSE,FALSE,FALSE,FALSE,0,FALSE,FALSE,FALSE,FALSE,65,7.592,1337,2056,7.639,FALSE,3.799,3.793,0.006,FALSE,FALSE,NA,111.2,111.2,111.2,0,0,0,0,5,3664.6,916.17,,Idle,0,20,FALSE,5,TRUE,6,Go Home,FALSE,FALSE,FALSE,FALSE,FALSE,FALSE,FALSE,FALSE,FALSE,FALSE,FALSE,FALSE,6.974218421,79.91415548,2.7,96.9,328,TRUE,1,1,FALSE,FALSE,FALSE,FALSE,,TRUE,FALSE,FALSE,Course Lock,49.2,,16.4,Calm,33,,1.12.8,Mavic Mini,1SDCH7G0169R0K,1SFLH6Q0AB03DJ,1SRCH7F014TAHX,1U5X071EXP6C9Y,88.4,0.3,3.2,7.172077,2.908022,0,40964,Mavic Mini,1SDCH7G0169R0K,1SFLH6Q0AB03DJ,1SRCH7F014TAHX,1U5X071EXP6C9Y,DJI Fly,,1.12.8,5EB997F7-D295-4317-440F-80F3C5889A63,1SDCH7G0169R0K,,,,,6.974235624,79.91415231,5,,
2/22/2024,23:40.1,8m 21.3s,501.3,6.974224648,79.91415985,0.6,0.6,0.9,50,0.9,0.223694,0.447388,0.223694,0.447388,0,0,-1.565858,0,1.5,-1.3,-58.9,301.1,9,Tripod,Drop Calibration,,16,5,TRUE,,Mavic Mini,TRUE,FALSE,,Smart,RC,FALSE,TRUE,FALSE,,,TRUE,,FALSE,FALSE,FALSE,FALSE,FALSE,FALSE,FALSE,FALSE,FALSE,FALSE,0,Follow Yaw,0,0,-41.5,318.5,FALSE,FALSE,FALSE,FALSE,FALSE,TRUE,,TRUE,Normal,,100,1024,1024,1287,1024,2,FALSE,FALSE,FALSE,FALSE,FALSE,0,FALSE,FALSE,FALSE,FALSE,65,7.592,1337,2056,7.639,FALSE,3.799,3.793,0.006,FALSE,FALSE,NA,111.2,111.2,111.2,0,0,0,0,5,3664.6,916.17,,Idle,0,20,FALSE,5,TRUE,6,Go Home,FALSE,FALSE,FALSE,FALSE,FALSE,FALSE,FALSE,FALSE,FALSE,FALSE,FALSE,FALSE,6.974218421,79.91415548,2.7,96.9,328,TRUE,1,1,FALSE,FALSE,FALSE,FALSE,,TRUE,FALSE,FALSE,Course Lock,49.2,,16.4,Calm,33,,1.12.8,Mavic Mini,1SDCH7G0169R0K,1SFLH6Q0AB03DJ,1SRCH7F014TAHX,1U5X071EXP6C9Y,88.4,0.3,3.2,7.172077,2.908022,0,40964,Mavic Mini,1SDCH7G0169R0K,1SFLH6Q0AB03DJ,1SRCH7F014TAHX,1U5X071EXP6C9Y,DJI Fly,,1.12.8,5EB997F7-D295-4317-440F-80F3C5889A63,1SDCH7G0169R0K,,,,,6.974235624,79.91415231,5,,
2/22/2024,23:40.1,8m 21.4s,501.4,6.974224787,79.91415986,0.9,0.9,1.3,51,0.9,0.223694,0.447388,0.223694,0.447388,0,0,-1.342164,0,1.9,-1.8,-58.9,301.1,3,Tripod,Drop Calibration,,15,5,TRUE,,Mavic Mini,TRUE,FALSE,,Smart,RC,FALSE,TRUE,FALSE,,,TRUE,,FALSE,FALSE,FALSE,FALSE,FALSE,FALSE,FALSE,FALSE,FALSE,FALSE,0,Follow Yaw,0,0,-41.5,318.5,FALSE,FALSE,FALSE,FALSE,FALSE,TRUE,,TRUE,Normal,,100,1024,1024,1287,1024,2,FALSE,FALSE,FALSE,FALSE,FALSE,0,FALSE,FALSE,FALSE,FALSE,65,7.592,1337,2056,7.639,FALSE,3.799,3.793,0.006,FALSE,FALSE,NA,111.2,111.2,111.2,0,0,0,0,5,3664.6,916.17,,Idle,0,20,FALSE,5,TRUE,6,Go Home,FALSE,FALSE,FALSE,FALSE,FALSE,FALSE,FALSE,FALSE,FALSE,FALSE,FALSE,FALSE,6.974218421,79.91415548,2.8,96.9,328,TRUE,1,1,FALSE,FALSE,FALSE,FALSE,,TRUE,FALSE,FALSE,Course Lock,49.2,,16.4,Calm,33,,1.12.8,Mavic Mini,1SDCH7G0169R0K,1SFLH6Q0AB03DJ,1SRCH7F014TAHX,1U5X071EXP6C9Y,88.4,0.3,3.2,7.172077,2.908022,0,40964,Mavic Mini,1SDCH7G0169R0K,1SFLH6Q0AB03DJ,1SRCH7F014TAHX,1U5X071EXP6C9Y,DJI Fly,,1.12.8,5EB997F7-D295-4317-440F-80F3C5889A63,1SDCH7G0169R0K,,,,,6.974235624,79.91415231,5,,
2/22/2024,23:40.3,8m 21.5s,501.5,6.974224954,79.91415983,0.9,0.9,1.3,51,1,0.223694,0.447388,0.223694,0.447388,0,0,-1.342164,0,2,-1.8,-58.9,301.1,352.4,Tripod,Drop Calibration,,15,5,TRUE,,Mavic Mini,TRUE,FALSE,,Smart,RC,FALSE,TRUE,FALSE,,,TRUE,,FALSE,FALSE,FALSE,FALSE,FALSE,FALSE,FALSE,FALSE,FALSE,FALSE,0,Follow Yaw,0,0,-41.5,318.5,FALSE,FALSE,FALSE,FALSE,FALSE,TRUE,,TRUE,Normal,,100,1024,1024,1287,1024,2,FALSE,FALSE,FALSE,FALSE,FALSE,0,FALSE,FALSE,FALSE,FALSE,65,7.592,1337,2056,7.639,FALSE,3.799,3.793,0.006,FALSE,FALSE,NA,111.2,111.2,111.2,0,0,0,0,5,3664.6,916.17,,Idle,0,20,FALSE,5,TRUE,6,Go Home,FALSE,FALSE,FALSE,FALSE,FALSE,FALSE,FALSE,FALSE,FALSE,FALSE,FALSE,FALSE,6.974218421,79.91415548,2.8,96.9,328,TRUE,1,1,FALSE,FALSE,FALSE,FALSE,,TRUE,FALSE,FALSE,Course Lock,49.2,,16.4,Calm,33,,1.12.8,Mavic Mini,1SDCH7G0169R0K,1SFLH6Q0AB03DJ,1SRCH7F014TAHX,1U5X071EXP6C9Y,88.4,0.3,3.2,7.172077,2.908022,0,40964,Mavic Mini,1SDCH7G0169R0K,1SFLH6Q0AB03DJ,1SRCH7F014TAHX,1U5X071EXP6C9Y,DJI Fly,,1.12.8,5EB997F7-D295-4317-440F-80F3C5889A63,1SDCH7G0169R0K,,,,,6.974235624,79.91415231,5,,
2/22/2024,23:40.4,8m 21.6s,501.6,6.974225043,79.91415978,1.3,1.3,1.6,51,1,0,0.447388,0,0.447388,0,0,-1.11847,0,1.7,-1.5,-58.8,301.2,,Tripod,Drop Calibration,,15,5,TRUE,,Mavic Mini,TRUE,FALSE,,Smart,RC,FALSE,TRUE,FALSE,,,TRUE,,FALSE,FALSE,FALSE,FALSE,FALSE,FALSE,FALSE,FALSE,FALSE,FALSE,0,Follow Yaw,0,0,-41.5,318.5,FALSE,FALSE,FALSE,FALSE,FALSE,TRUE,,TRUE,Normal,,100,1024,1024,1287,1024,2,FALSE,FALSE,FALSE,FALSE,FALSE,0,FALSE,FALSE,FALSE,FALSE,65,7.592,1337,2056,7.639,FALSE,3.799,3.793,0.006,FALSE,FALSE,NA,111.2,111.2,111.2,0,0,0,0,5,3664.6,916.17,,Idle,0,20,FALSE,5,TRUE,6,Go Home,FALSE,FALSE,FALSE,FALSE,FALSE,FALSE,FALSE,FALSE,FALSE,FALSE,FALSE,FALSE,6.974218421,79.91415548,2.8,96.9,328,TRUE,1,1,FALSE,FALSE,FALSE,FALSE,,TRUE,FALSE,FALSE,Course Lock,49.2,,16.4,Calm,33,,1.12.8,Mavic Mini,1SDCH7G0169R0K,1SFLH6Q0AB03DJ,1SRCH7F014TAHX,1U5X071EXP6C9Y,88.4,0.3,3.2,7.172077,2.908022,0,40964,Mavic Mini,1SDCH7G0169R0K,1SFLH6Q0AB03DJ,1SRCH7F014TAHX,1U5X071EXP6C9Y,DJI Fly,,1.12.8,5EB997F7-D295-4317-440F-80F3C5889A63,1SDCH7G0169R0K,,,,,6.974235624,79.91415231,5,,
2/22/2024,23:40.5,8m 21.7s,501.7,6.974225124,79.91415971,1.3,1.3,1.9,51,1.1,0,0.447388,0,0.447388,0,0,-0.894776,0,1.9,-1.4,-58.8,301.2,,Tripod,Drop Calibration,,15,5,TRUE,,Mavic Mini,TRUE,FALSE,,Smart,RC,FALSE,TRUE,FALSE,,,TRUE,,FALSE,FALSE,FALSE,FALSE,FALSE,FALSE,FALSE,FALSE,FALSE,FALSE,0,Follow Yaw,0,0,-41.5,318.5,FALSE,FALSE,FALSE,FALSE,FALSE,TRUE,,TRUE,Normal,,100,1024,1024,1287,1024,2,FALSE,FALSE,FALSE,FALSE,FALSE,0,FALSE,FALSE,FALSE,FALSE,65,7.592,1337,2056,7.6,FALSE,3.799,3.793,0.006,FALSE,FALSE,NA,111.2,111.2,111.2,0,0,5,0,5,3664.6,916.17,,Idle,0,20,FALSE,5,TRUE,6,Go Home,FALSE,FALSE,FALSE,FALSE,FALSE,FALSE,FALSE,FALSE,FALSE,FALSE,FALSE,FALSE,6.974223646,79.9141598,0.5,96.9,328,TRUE,1,1,FALSE,FALSE,FALSE,FALSE,,TRUE,FALSE,FALSE,Course Lock,49.2,,16.4,Calm,33,,1.12.8,Mavic Mini,1SDCH7G0169R0K,1SFLH6Q0AB03DJ,1SRCH7F014TAHX,1U5X071EXP6C9Y,88.4,0.3,3.2,7.172077,2.908022,0,40964,Mavic Mini,1SDCH7G0169R0K,1SFLH6Q0AB03DJ,1SRCH7F014TAHX,1U5X071EXP6C9Y,DJI Fly,,1.12.8,5EB997F7-D295-4317-440F-80F3C5889A63,1SDCH7G0169R0K,,,,,6.974235624,79.91415231,5,Home Point Updated.,
2/22/2024,23:40.6,8m 21.8s,501.8,6.974225168,79.91415966,1.6,1.6,1.9,51,1.1,0,0.447388,0,0.447388,0,0,-0.894776,0,2.2,-1.4,-58.6,301.4,,Tripod,Drop Calibration,,14,5,TRUE,,Mavic Mini,TRUE,FALSE,,Smart,RC,FALSE,TRUE,FALSE,,,TRUE,,FALSE,FALSE,FALSE,FALSE,FALSE,FALSE,FALSE,FALSE,FALSE,FALSE,0,Follow Yaw,0,0,-41.5,318.5,FALSE,FALSE,FALSE,FALSE,FALSE,TRUE,,TRUE,Normal,,100,1024,1024,1287,1024,2,FALSE,FALSE,FALSE,FALSE,FALSE,0,FALSE,FALSE,FALSE,FALSE,65,7.513,1335,2056,7.6,FALSE,3.759,3.755,0.006,FALSE,FALSE,NA,111.4,111.2,111.3,0,0,5,0,5,3664.6,916.17,,Idle,0,20,FALSE,5,TRUE,6,Go Home,FALSE,FALSE,FALSE,FALSE,FALSE,FALSE,FALSE,FALSE,FALSE,FALSE,FALSE,FALSE,6.974223646,79.9141598,0.5,96.9,328,TRUE,1,1,FALSE,FALSE,FALSE,FALSE,,TRUE,FALSE,FALSE,Course Lock,49.2,,16.4,Calm,33,,1.12.8,Mavic Mini,1SDCH7G0169R0K,1SFLH6Q0AB03DJ,1SRCH7F014TAHX,1U5X071EXP6C9Y,88.4,0.3,3.2,7.172077,2.908022,0,40964,Mavic Mini,1SDCH7G0169R0K,1SFLH6Q0AB03DJ,1SRCH7F014TAHX,1U5X071EXP6C9Y,DJI Fly,,1.12.8,5EB997F7-D295-4317-440F-80F3C5889A63,1SDCH7G0169R0K,,,,,6.974235624,79.91415231,5,Home Point updated. RTH altitude adjusted to 15 m!t'k (Code: 120852).,
2/22/2024,23:40.6,8m 21.9s,501.9,6.974225024,79.91415949,1.6,1.6,2.2,51,1.2,0,0.447388,0,0.447388,0,0,-0.894776,0,2,-1.3,-58.6,301.4,,Tripod,Drop Calibration,,14,5,TRUE,,Mavic Mini,TRUE,FALSE,,Smart,RC,FALSE,TRUE,FALSE,,,TRUE,,FALSE,FALSE,FALSE,FALSE,FALSE,FALSE,FALSE,FALSE,FALSE,FALSE,0,Follow Yaw,0,0,-41.5,318.5,FALSE,FALSE,FALSE,FALSE,FALSE,TRUE,,TRUE,Normal,,100,1024,1024,1285,1024,2,FALSE,FALSE,FALSE,FALSE,FALSE,0,FALSE,FALSE,FALSE,FALSE,65,7.513,1335,2056,7.6,FALSE,3.759,3.755,0.006,FALSE,FALSE,NA,111.4,111.2,111.3,0,0,5,0,5,3664.6,916.17,,Idle,0,20,FALSE,5,TRUE,6,Go Home,FALSE,FALSE,FALSE,FALSE,FALSE,FALSE,FALSE,FALSE,FALSE,FALSE,FALSE,FALSE,6.974223646,79.9141598,0.5,96.9,328,TRUE,1,1,FALSE,FALSE,FALSE,FALSE,,TRUE,FALSE,FALSE,Course Lock,49.2,,16.4,Calm,33,,1.12.8,Mavic Mini,1SDCH7G0169R0K,1SFLH6Q0AB03DJ,1SRCH7F014TAHX,1U5X071EXP6C9Y,88.4,0.3,3.2,7.172077,2.908022,0,40964,Mavic Mini,1SDCH7G0169R0K,1SFLH6Q0AB03DJ,1SRCH7F014TAHX,1U5X071EXP6C9Y,DJI Fly,,1.12.8,5EB997F7-D295-4317-440F-80F3C5889A63,1SDCH7G0169R0K,,,,,6.974235624,79.91415231,5,,
2/22/2024,23:40.8,8m 22.0s,502,6.974225039,79.91415948,1.6,1.6,2.2,51,1.2,0,0.447388,0,0.447388,0,0,-0.894776,0,1.7,-1.1,-58.6,301.4,,Tripod,Drop Calibration,,16,5,TRUE,,Mavic Mini,TRUE,FALSE,,Smart,RC,FALSE,TRUE,FALSE,,,TRUE,,FALSE,FALSE,FALSE,FALSE,FALSE,FALSE,FALSE,FALSE,FALSE,FALSE,0,Follow Yaw,0,0,-41.5,318.5,FALSE,FALSE,FALSE,FALSE,FALSE,TRUE,,TRUE,Normal,,100,1024,1024,1283,1024,2,FALSE,FALSE,FALSE,FALSE,FALSE,0,FALSE,FALSE,FALSE,FALSE,65,7.513,1335,2056,7.6,FALSE,3.759,3.755,0.006,FALSE,FALSE,NA,111.4,111.2,111.3,0,0,5,0,5,3664.6,916.17,,Idle,0,20,FALSE,5,TRUE,6,Go Home,FALSE,FALSE,FALSE,FALSE,FALSE,FALSE,FALSE,FALSE,FALSE,FALSE,FALSE,FALSE,6.974223646,79.9141598,0.5,96.9,328,TRUE,1,1,FALSE,FALSE,FALSE,FALSE,,TRUE,FALSE,FALSE,Course Lock,49.2,,16.4,Calm,33,,1.12.8,Mavic Mini,1SDCH7G0169R0K,1SFLH6Q0AB03DJ,1SRCH7F014TAHX,1U5X071EXP6C9Y,88.4,0.3,3.2,7.172077,2.908022,0,40964,Mavic Mini,1SDCH7G0169R0K,1SFLH6Q0AB03DJ,1SRCH7F014TAHX,1U5X071EXP6C9Y,DJI Fly,,1.12.8,5EB997F7-D295-4317-440F-80F3C5889A63,1SDCH7G0169R0K,,,,,6.974235624,79.91415231,5,,
2/22/2024,23:40.9,8m 22.1s,502.1,6.974225117,79.91415952,1.9,1.9,2.6,52,1.2,0,0.447388,0,0.447388,0,0,-0.671082,0,1,-1.2,-58.6,301.4,,Tripod,Drop Calibration,,16,5,TRUE,,Mavic Mini,TRUE,FALSE,,Smart,RC,FALSE,TRUE,FALSE,,,TRUE,,FALSE,FALSE,FALSE,FALSE,FALSE,FALSE,FALSE,FALSE,FALSE,FALSE,0,Follow Yaw,0,0,-41.5,318.5,FALSE,FALSE,FALSE,FALSE,FALSE,TRUE,,TRUE,Normal,,100,1024,1024,1252,1024,2,FALSE,FALSE,FALSE,FALSE,FALSE,0,FALSE,FALSE,FALSE,FALSE,65,7.513,1335,2056,7.6,FALSE,3.759,3.755,0.006,FALSE,FALSE,NA,111.4,111.2,111.3,0,0,5,0,5,3664.6,916.17,,Idle,0,20,FALSE,5,TRUE,6,Go Home,FALSE,FALSE,FALSE,FALSE,FALSE,FALSE,FALSE,FALSE,FALSE,FALSE,FALSE,FALSE,6.974223646,79.9141598,0.5,96.9,328,TRUE,1,1,FALSE,FALSE,FALSE,FALSE,,TRUE,FALSE,FALSE,Course Lock,49.2,,16.4,Calm,33,,1.12.8,Mavic Mini,1SDCH7G0169R0K,1SFLH6Q0AB03DJ,1SRCH7F014TAHX,1U5X071EXP6C9Y,88.4,0.3,3.2,7.172077,2.908022,0,40964,Mavic Mini,1SDCH7G0169R0K,1SFLH6Q0AB03DJ,1SRCH7F014TAHX,1U5X071EXP6C9Y,DJI Fly,,1.12.8,5EB997F7-D295-4317-440F-80F3C5889A63,1SDCH7G0169R0K,,,,,6.974235624,79.91415231,5,,
2/22/2024,23:41.0,8m 22.2s,502.2,6.974225163,79.91415956,1.9,1.9,2.6,52,1.2,0,0.447388,0,0.447388,0,0,-0.671082,0,0.9,-1.4,-58.6,301.4,,Tripod,Drop Calibration,,16,5,TRUE,,Mavic Mini,TRUE,FALSE,,Smart,RC,FALSE,TRUE,FALSE,,,TRUE,,FALSE,FALSE,FALSE,FALSE,FALSE,FALSE,FALSE,FALSE,FALSE,FALSE,0,Follow Yaw,0,0,-41.5,318.5,FALSE,FALSE,FALSE,FALSE,FALSE,TRUE,,TRUE,Normal,,100,1024,1024,1245,1024,2,FALSE,FALSE,FALSE,FALSE,FALSE,0,FALSE,FALSE,FALSE,FALSE,65,7.513,1335,2056,7.6,FALSE,3.759,3.755,0.006,FALSE,FALSE,NA,111.4,111.2,111.3,0,0,5,0,5,3664.6,916.17,,Idle,0,20,FALSE,5,TRUE,6,Go Home,FALSE,FALSE,FALSE,FALSE,FALSE,FALSE,FALSE,FALSE,FALSE,FALSE,FALSE,FALSE,6.974223646,79.9141598,0.5,96.9,328,TRUE,1,1,FALSE,FALSE,FALSE,FALSE,,TRUE,FALSE,FALSE,Course Lock,49.2,,16.4,Calm,33,,1.12.8,Mavic Mini,1SDCH7G0169R0K,1SFLH6Q0AB03DJ,1SRCH7F014TAHX,1U5X071EXP6C9Y,88.4,0.3,3.2,7.172077,2.908022,0,40964,Mavic Mini,1SDCH7G0169R0K,1SFLH6Q0AB03DJ,1SRCH7F014TAHX,1U5X071EXP6C9Y,DJI Fly,,1.12.8,5EB997F7-D295-4317-440F-80F3C5889A63,1SDCH7G0169R0K,,,,,6.974235624,79.91415231,5,,
2/22/2024,23:41.1,8m 22.3s,502.3,6.974225155,79.91415961,2.2,2.2,2.6,52,1.3,0,0.447388,0,0.447388,0,0,-0.671082,0,1.1,-1.7,-58.6,301.4,,Tripod,Drop Calibration,,16,5,TRUE,,Mavic Mini,TRUE,FALSE,,Smart,RC,FALSE,TRUE,FALSE,,,TRUE,,FALSE,FALSE,FALSE,FALSE,FALSE,FALSE,FALSE,FALSE,FALSE,FALSE,0,Follow Yaw,0,0,-41.5,318.5,FALSE,FALSE,FALSE,FALSE,FALSE,TRUE,,TRUE,Normal,,100,1024,1024,1252,1024,2,FALSE,FALSE,FALSE,FALSE,FALSE,0,FALSE,FALSE,FALSE,FALSE,65,7.513,1335,2056,7.6,FALSE,3.759,3.755,0.006,FALSE,FALSE,NA,111.4,111.2,111.3,0,0,5,0,5,3664.6,916.17,,Idle,0,20,FALSE,5,TRUE,6,Go Home,FALSE,FALSE,FALSE,FALSE,FALSE,FALSE,FALSE,FALSE,FALSE,FALSE,FALSE,FALSE,6.974223646,79.9141598,0.5,96.9,328,TRUE,1,1,FALSE,FALSE,FALSE,FALSE,,TRUE,FALSE,FALSE,Course Lock,49.2,,16.4,Calm,33,,1.12.8,Mavic Mini,1SDCH7G0169R0K,1SFLH6Q0AB03DJ,1SRCH7F014TAHX,1U5X071EXP6C9Y,88.4,0.3,3.2,7.172077,2.908022,0,40964,Mavic Mini,1SDCH7G0169R0K,1SFLH6Q0AB03DJ,1SRCH7F014TAHX,1U5X071EXP6C9Y,DJI Fly,,1.12.8,5EB997F7-D295-4317-440F-80F3C5889A63,1SDCH7G0169R0K,,,,,6.974235624,79.91415231,5,,
2/22/2024,23:41.3,8m 22.4s,502.4,6.974225133,79.91415974,2.2,2.2,2.9,52,1.3,0,0.447388,0,0.447388,0,0,-0.671082,0,1,-2.2,-58.6,301.4,,Tripod,Drop Calibration,,15,5,TRUE,,Mavic Mini,TRUE,FALSE,,Smart,RC,FALSE,TRUE,FALSE,,,TRUE,,FALSE,FALSE,FALSE,FALSE,FALSE,FALSE,FALSE,FALSE,FALSE,FALSE,0,Follow Yaw,0,0,-41.5,318.5,FALSE,FALSE,FALSE,FALSE,FALSE,TRUE,,TRUE,Normal,,100,1024,1024,1253,1024,2,FALSE,FALSE,FALSE,FALSE,FALSE,0,FALSE,FALSE,FALSE,FALSE,65,7.513,1335,2056,7.6,FALSE,3.759,3.755,0.006,FALSE,FALSE,NA,111.4,111.2,111.3,0,0,5,0,5,3664.6,916.17,,Idle,0,20,FALSE,5,TRUE,6,Go Home,FALSE,FALSE,FALSE,FALSE,FALSE,FALSE,FALSE,FALSE,FALSE,FALSE,FALSE,FALSE,6.974223646,79.9141598,0.5,96.9,328,TRUE,1,1,FALSE,FALSE,FALSE,FALSE,,TRUE,FALSE,FALSE,Course Lock,49.2,,16.4,Calm,33,,1.12.8,Mavic Mini,1SDCH7G0169R0K,1SFLH6Q0AB03DJ,1SRCH7F014TAHX,1U5X071EXP6C9Y,88.4,0.3,3.2,7.172077,2.908022,0,40964,Mavic Mini,1SDCH7G0169R0K,1SFLH6Q0AB03DJ,1SRCH7F014TAHX,1U5X071EXP6C9Y,DJI Fly,,1.12.8,5EB997F7-D295-4317-440F-80F3C5889A63,1SDCH7G0169R0K,,,,,6.974235624,79.91415231,5,,
