CUSTOM.date [local],CUSTOM.updateTime [local],OSD.flyTime,OSD.flyTime [s],OSD.latitude,OSD.longitude,OSD.height [ft],OSD.heightMax [ft],OSD.vpsHeight [ft],OSD.altitude [ft],OSD.mileage [ft],OSD.hSpeed [MPH],OSD.hSpeedMax [MPH],OSD.xSpeed [MPH],OSD.xSpeedMax [MPH],OSD.ySpeed [MPH],OSD.ySpeedMax [MPH],OSD.zSpeed [MPH],OSD.zSpeedMax [MPH],OSD.pitch,OSD.roll,OSD.yaw,OSD.yaw [360],OSD.directionOfTravel,OSD.flycState,OSD.flycCommand,OSD.flightAction,OSD.gpsNum,OSD.gpsLevel,OSD.isGPSUsed,OSD.nonGPSCause,OSD.droneType,OSD.isSwaveWork,OSD.waveError,OSD.goHomeStatus,OSD.batteryType,OSD.ctrlDevice,OSD.isOnGround,OSD.isMotorOn,OSD.isMotorBlocked,OSD.motorStartFailedCause,OSD.motorFailReason,OSD.isImuPreheated,OSD.imuInitFailReason,OSD.isAcceletorOverRange,OSD.isBarometerDeadInAir,OSD.isCompassError,OSD.isGoHomeHeightModified,OSD.canIOCWork,OSD.isNotEnoughForce,OSD.isOutOfLimit,OSD.isPropellerCatapult,OSD.isVibrating,OSD.isVisionUsed,OSD.voltageWarning,GIMBAL.mode,GIMBAL.pitch,GIMBAL.roll,GIMBAL.yaw,GIMBAL.yaw [360],GIMBAL.isPitchAtLimit,GIMBAL.isRollAtLimit,GIMBAL.isYawAtLimit,GIMBAL.isStuck,CAMERA.isPhoto,CAMERA.isVideo,CAMERA.filename,CAMERA.sdCardIsInserted,CAMERA.sdCardState,RC.downlinkSignal,RC.uplinkSignal,RC.aileron,RC.elevator,RC.throttle,RC.rudder,RC.mode,RC.goHomeDepressed,RC.recordDepressed,RC.shutterDepressed,RC.playbackDepressed,RC.wheelDepressed,RC.wheelOffset,RC.custom1Depressed,RC.custom2Depressed,RC.custom3Depressed,RC.custom4Depressed,BATTERY.chargeLevel,BATTERY.currentPV [V],BATTERY.currentCapacity [mAh],BATTERY.fullCapacity [mAh],BATTERY.voltage [V],BATTERY.isCellVoltageEstimated,BATTERY.cellVoltage1 [V],BATTERY.cellVoltage2 [V],BATTERY.maxCellVoltageDeviation,BATTERY.isCellVoltageDeviationHigh,BATTERY.isVoltageLow,BATTERY.current [A],BATTERY.temperature [F],BATTERY.minTemperature [F],BATTERY.maxTemperature [F],BATTERY.usefulTime [s],BATTERY.goHomeTime [s],BATTERY.landTime [s],BATTERY.goHomeBattery,BATTERY.landBattery,BATTERY.safeFlyRadius,BATTERY.volumeConsume,BATTERY.status,BATTERY.goHomeStatus,BATTERY.goHomeCountdown,BATTERY.lowWarning,BATTERY.lowWarningGoHome,BATTERY.seriousLowWarning,BATTERY.seriousLowWarningLanding,BATTERY.timesCharged,MC.failSafeAction,MC.isObstacleAvoidanceEnabled,MC.isCollisionAvoidanceEnabled,MC.isRthObstacleAvoidanceEnabled,MC.isBraking,MC.isAvoidingObstacle,MC.isAvoidingActiveObstacle,MC.isAscentLimitedByObstacle,MC.isLandingConfirmationNeeded,MC.atLowAltitudeLimit,MC.atDistanceLimit,MC.atAirportAltitudeLimit,MC.atAirportBoundary,HOME.latitude,HOME.longitude,HOME.distance [ft],HOME.height [ft],HOME.heightLimit [ft],HOME.isHomeRecord,HOME.goHomeMode,HOME.aircraftHeadDirection,HOME.isDynamicHomePointEnabled,HOME.isReachedLimitDistance,HOME.isReachedLimitHeight,HOME.isCompassCalibrating,HOME.compassCalibrationState,HOME.isMultipleFlightModeEnabled,HOME.isBeginnerMode,HOME.isIOCEnabled,HOME.iocMode,HOME.goHomeHeight [ft],HOME.courseLockAngle,HOME.forceLandingHeight [ft],HOME.wind,HOME.dataRecorderFileIndex,RECOVER.appType,RECOVER.appVersion,RECOVER.aircraftName,RECOVER.aircraftSerial,RECOVER.cameraSerial,RECOVER.rcSerial,RECOVER.batterySerial,DETAILS.totalTime [s],DETAILS.totalDistance [ft],DETAILS.maxHeight [ft],DETAILS.maxHorizontalSpeed [MPH],DETAILS.maxVerticalSpeed [MPH],DETAILS.photoNum,DETAILS.videoTime [s],DETAILS.aircraftName,DETAILS.aircraftSerial,DETAILS.cameraSerial,DETAILS.rcSerial,DETAILS.batterySerial,DETAILS.appName,DETAILS.appType,DETAILS.appVersion,DETAILS.guid,SERIAL.flightController,SERIAL.camera,SERIAL.gimbal,SERIAL.rc,SERIAL.battery,APPGPS.latitude,APPGPS.longitude,APPGPS.accuracy,APP.tip,APP.warning
2/25/2024,59:32.4,1m 44.2s,104.2,6.972712725,79.91579193,0,0,0.3,63,0,0,0,0,0,0,0,0,0,3,2.6,-9.1,350.9,,Starting Motors,Other,Takeoff (RC Assisted),15,5,TRUE,,Mavic Mini,FALSE,FALSE,,Smart,RC,TRUE,TRUE,FALSE,,,TRUE,,FALSE,FALSE,FALSE,FALSE,FALSE,FALSE,FALSE,FALSE,FALSE,FALSE,0,Follow Yaw,0,0,-0.7,359.3,FALSE,FALSE,FALSE,FALSE,FALSE,FALSE,,TRUE,Normal,,,1024,1024,1024,1024,2,FALSE,FALSE,FALSE,FALSE,FALSE,0,FALSE,FALSE,FALSE,FALSE,90,7.985,1844,2050,7.985,TRUE,3.993,3.993,,FALSE,FALSE,NA,90.5,90.5,90.5,,,,,,,,,Idle,,,TRUE,,FALSE,11,Go Home,FALSE,FALSE,FALSE,FALSE,FALSE,FALSE,FALSE,FALSE,FALSE,FALSE,FALSE,FALSE,,,,,,FALSE,,,FALSE,FALSE,FALSE,FALSE,,FALSE,FALSE,FALSE,,,,,Calm,,,1.12.8,Mavic Mini,1SDCH7G0169R0K,1SFLH6Q0AB03DJ,1SRCH7F014TAHX,1U5X071EXP5ZJG,72.6,0.2,3.2,4.818592,1.789552,0,0,Mavic Mini,1SDCH7G0169R0K,1SFLH6Q0AB03DJ,1SRCH7F014TAHX,1U5X071EXP5ZJG,DJI Fly,,1.12.8,954320B2-9F6C-B714-B2EF-D450BBE512BC,1SDCH7G0169R0K,,,,,,,,Flight mode changed to Starting Motors.,
2/25/2024,59:32.5,1m 44.3s,104.3,6.972712628,79.91579197,0,0,0.3,63,0,0,0,0,0,0,0,0,0,3,2.6,-9.1,350.9,,Starting Motors,Other,Takeoff (RC Assisted),15,5,TRUE,,Mavic Mini,FALSE,FALSE,,Smart,RC,TRUE,TRUE,FALSE,,,TRUE,,FALSE,FALSE,FALSE,FALSE,FALSE,FALSE,FALSE,FALSE,FALSE,FALSE,0,Follow Yaw,0,0,-0.7,359.3,FALSE,FALSE,FALSE,FALSE,FALSE,FALSE,,TRUE,Normal,,,1024,1024,1024,1024,2,FALSE,FALSE,FALSE,FALSE,FALSE,0,FALSE,FALSE,FALSE,FALSE,90,7.985,1844,2050,7.985,TRUE,3.993,3.993,,FALSE,FALSE,NA,90.5,90.5,90.5,,,,,,,,,Idle,,,TRUE,,FALSE,11,Go Home,FALSE,FALSE,FALSE,FALSE,FALSE,FALSE,FALSE,FALSE,FALSE,FALSE,FALSE,FALSE,,,,,,FALSE,,,FALSE,FALSE,FALSE,FALSE,,FALSE,FALSE,FALSE,,,,,Calm,,,1.12.8,Mavic Mini,1SDCH7G0169R0K,1SFLH6Q0AB03DJ,1SRCH7F014TAHX,1U5X071EXP5ZJG,72.6,0.2,3.2,4.818592,1.789552,0,0,Mavic Mini,1SDCH7G0169R0K,1SFLH6Q0AB03DJ,1SRCH7F014TAHX,1U5X071EXP5ZJG,DJI Fly,,1.12.8,954320B2-9F6C-B714-B2EF-D450BBE512BC,1SDCH7G0169R0K,,,,,,,,,
2/25/2024,59:32.5,1m 44.4s,104.4,6.972712555,79.915792,0,0,0.3,63,0,0,0,0,0,0,0,0,0,3,2.6,-9.1,350.9,,Starting Motors,Other,Takeoff (RC Assisted),15,5,TRUE,,Mavic Mini,TRUE,FALSE,,Smart,RC,TRUE,TRUE,FALSE,,,TRUE,,FALSE,FALSE,FALSE,FALSE,FALSE,FALSE,FALSE,FALSE,FALSE,FALSE,0,Follow Yaw,0,0,-0.7,359.3,FALSE,FALSE,FALSE,FALSE,FALSE,FALSE,,TRUE,Normal,,,1024,1024,1024,1024,2,FALSE,FALSE,FALSE,FALSE,FALSE,0,FALSE,FALSE,FALSE,FALSE,90,7.985,1844,2050,7.985,TRUE,3.993,3.993,,FALSE,FALSE,NA,90.5,90.5,90.5,,,,,,,,,Idle,,,TRUE,,FALSE,11,Go Home,FALSE,FALSE,FALSE,FALSE,FALSE,FALSE,FALSE,FALSE,FALSE,FALSE,FALSE,FALSE,,,,,,FALSE,,,FALSE,FALSE,FALSE,FALSE,,FALSE,FALSE,FALSE,,,,,Calm,,,1.12.8,Mavic Mini,1SDCH7G0169R0K,1SFLH6Q0AB03DJ,1SRCH7F014TAHX,1U5X071EXP5ZJG,72.6,0.2,3.2,4.818592,1.789552,0,0,Mavic Mini,1SDCH7G0169R0K,1SFLH6Q0AB03DJ,1SRCH7F014TAHX,1U5X071EXP5ZJG,DJI Fly,,1.12.8,954320B2-9F6C-B714-B2EF-D450BBE512BC,1SDCH7G0169R0K,,,,,,,,,
2/25/2024,59:32.6,1m 44.5s,104.5,6.97271256,79.91579202,0,0,0.3,63,0,0,0,0,0,0,0,0,0,3.1,2.6,-9.1,350.9,,Starting Motors,Other,Takeoff (RC Assisted),15,5,TRUE,,Mavic Mini,TRUE,FALSE,,Smart,RC,TRUE,TRUE,FALSE,,,TRUE,,FALSE,FALSE,FALSE,FALSE,FALSE,FALSE,FALSE,FALSE,FALSE,FALSE,0,Follow Yaw,0,0,-0.7,359.3,FALSE,FALSE,FALSE,FALSE,FALSE,FALSE,,TRUE,Normal,,100,1024,1024,1024,1024,2,FALSE,FALSE,FALSE,FALSE,FALSE,0,FALSE,FALSE,FALSE,FALSE,90,7.984,1844,2050,7.984,FALSE,3.992,3.992,,FALSE,FALSE,NA,90.5,90.5,90.5,,,,,,,,,Idle,,,TRUE,,FALSE,11,Go Home,FALSE,FALSE,FALSE,FALSE,FALSE,FALSE,FALSE,FALSE,FALSE,FALSE,FALSE,FALSE,,,,,,FALSE,,,FALSE,FALSE,FALSE,FALSE,,FALSE,FALSE,FALSE,,,,,Calm,,,1.12.8,Mavic Mini,1SDCH7G0169R0K,1SFLH6Q0AB03DJ,1SRCH7F014TAHX,1U5X071EXP5ZJG,72.6,0.2,3.2,4.818592,1.789552,0,0,Mavic Mini,1SDCH7G0169R0K,1SFLH6Q0AB03DJ,1SRCH7F014TAHX,1U5X071EXP5ZJG,DJI Fly,,1.12.8,954320B2-9F6C-B714-B2EF-D450BBE512BC,1SDCH7G0169R0K,,,,,,,,,
2/25/2024,59:32.7,1m 44.6s,104.6,6.972712557,79.91579202,0,0,0.3,63,0,0,0,0,0,0,0,0,0,3.1,2.5,-9.1,350.9,,Starting Motors,Other,Takeoff (RC Assisted),15,5,TRUE,,Mavic Mini,TRUE,FALSE,,Smart,RC,TRUE,TRUE,FALSE,,,TRUE,,FALSE,FALSE,FALSE,FALSE,FALSE,FALSE,FALSE,FALSE,FALSE,FALSE,0,Follow Yaw,0,0,-0.7,359.3,FALSE,FALSE,FALSE,FALSE,FALSE,FALSE,,TRUE,Normal,,100,1024,1024,1024,1024,2,FALSE,FALSE,FALSE,FALSE,FALSE,0,FALSE,FALSE,FALSE,FALSE,90,7.984,1844,2050,7.973,FALSE,3.992,3.992,,FALSE,FALSE,NA,90.5,90.5,90.5,0,3,0,0,5,2630.7,657.69,,Idle,0,20,FALSE,5,TRUE,11,Go Home,FALSE,FALSE,FALSE,FALSE,FALSE,FALSE,FALSE,FALSE,FALSE,FALSE,FALSE,FALSE,6.972739418,79.91578651,10,209.6,328,TRUE,1,1,FALSE,FALSE,FALSE,FALSE,,TRUE,FALSE,FALSE,Course Lock,49.2,,16.4,Calm,37,,1.12.8,Mavic Mini,1SDCH7G0169R0K,1SFLH6Q0AB03DJ,1SRCH7F014TAHX,1U5X071EXP5ZJG,72.6,0.2,3.2,4.818592,1.789552,0,0,Mavic Mini,1SDCH7G0169R0K,1SFLH6Q0AB03DJ,1SRCH7F014TAHX,1U5X071EXP5ZJG,DJI Fly,,1.12.8,954320B2-9F6C-B714-B2EF-D450BBE512BC,1SDCH7G0169R0K,,,,,,,,Data Recorder File Index is 37.; Set Return to Home (RTH) altitude to 15 m (49 ft).; Set maximum flight altitude to 100 m (328 ft).,
2/25/2024,59:32.9,1m 44.7s,104.7,6.972712574,79.91579201,0,0,0.3,63,0,0,0,0,0,0,0,0,0,3.1,2.6,-9.1,350.9,,Starting Motors,Other,Takeoff (RC Assisted),15,5,TRUE,,Mavic Mini,TRUE,FALSE,,Smart,RC,TRUE,TRUE,FALSE,,,TRUE,,FALSE,FALSE,FALSE,FALSE,FALSE,FALSE,FALSE,FALSE,FALSE,FALSE,0,Follow Yaw,0,0,-0.7,359.3,FALSE,FALSE,FALSE,FALSE,FALSE,FALSE,,TRUE,Normal,,100,1024,1024,1024,1024,2,FALSE,FALSE,FALSE,FALSE,FALSE,0,FALSE,FALSE,FALSE,FALSE,90,7.984,1844,2050,7.973,FALSE,3.992,3.992,,FALSE,FALSE,NA,90.5,90.5,90.5,0,3,0,0,5,2630.7,657.69,,Idle,0,20,FALSE,5,TRUE,11,Go Home,FALSE,FALSE,FALSE,FALSE,FALSE,FALSE,FALSE,FALSE,FALSE,FALSE,FALSE,FALSE,6.972739418,79.91578651,9.9,209.6,328,TRUE,1,1,FALSE,FALSE,FALSE,FALSE,,TRUE,FALSE,FALSE,Course Lock,49.2,,16.4,Calm,37,,1.12.8,Mavic Mini,1SDCH7G0169R0K,1SFLH6Q0AB03DJ,1SRCH7F014TAHX,1U5X071EXP5ZJG,72.6,0.2,3.2,4.818592,1.789552,0,0,Mavic Mini,1SDCH7G0169R0K,1SFLH6Q0AB03DJ,1SRCH7F014TAHX,1U5X071EXP5ZJG,DJI Fly,,1.12.8,954320B2-9F6C-B714-B2EF-D450BBE512BC,1SDCH7G0169R0K,,,,,,,,,
2/25/2024,59:32.9,1m 44.8s,104.8,6.972712594,79.915792,0,0,0.3,63,0,0,0,0,0,0,0,0,0,3,2.6,-9.2,350.8,,Starting Motors,Other,Takeoff (RC Assisted),15,5,TRUE,,Mavic Mini,TRUE,FALSE,,Smart,RC,TRUE,TRUE,FALSE,,,TRUE,,FALSE,FALSE,FALSE,FALSE,FALSE,FALSE,FALSE,FALSE,FALSE,FALSE,0,Follow Yaw,0,0,-0.8,359.2,FALSE,FALSE,FALSE,FALSE,FALSE,FALSE,,TRUE,Normal,,100,1024,1024,1024,1024,2,FALSE,FALSE,FALSE,FALSE,FALSE,0,FALSE,FALSE,FALSE,FALSE,90,7.984,1844,2050,7.973,FALSE,3.992,3.992,,FALSE,FALSE,NA,90.5,90.5,90.5,0,3,0,0,5,2630.7,657.69,,Idle,0,20,FALSE,5,TRUE,11,Go Home,FALSE,FALSE,FALSE,FALSE,FALSE,FALSE,FALSE,FALSE,FALSE,FALSE,FALSE,FALSE,6.972739418,79.91578651,9.9,209.6,328,TRUE,1,1,FALSE,FALSE,FALSE,FALSE,,TRUE,FALSE,FALSE,Course Lock,49.2,,16.4,Calm,37,,1.12.8,Mavic Mini,1SDCH7G0169R0K,1SFLH6Q0AB03DJ,1SRCH7F014TAHX,1U5X071EXP5ZJG,72.6,0.2,3.2,4.818592,1.789552,0,0,Mavic Mini,1SDCH7G0169R0K,1SFLH6Q0AB03DJ,1SRCH7F014TAHX,1U5X071EXP5ZJG,DJI Fly,,1.12.8,954320B2-9F6C-B714-B2EF-D450BBE512BC,1SDCH7G0169R0K,,,,,,,,,
2/25/2024,59:33.0,1m 44.9s,104.9,6.972712789,79.91579194,0,0,0.3,63,0.1,0,0,0,0,0,0,0,0,3.1,2.6,-9.2,350.8,,Starting Motors,Other,Takeoff (RC Assisted),15,5,TRUE,,Mavic Mini,TRUE,FALSE,,Smart,RC,TRUE,TRUE,FALSE,,,TRUE,,FALSE,FALSE,FALSE,FALSE,FALSE,FALSE,FALSE,FALSE,FALSE,FALSE,0,Follow Yaw,0,0,-0.8,359.2,FALSE,FALSE,FALSE,FALSE,FALSE,FALSE,,TRUE,Normal,,100,1024,1024,1024,1024,2,FALSE,FALSE,FALSE,FALSE,FALSE,0,FALSE,FALSE,FALSE,FALSE,90,7.984,1844,2050,7.973,FALSE,3.992,3.992,,FALSE,FALSE,NA,90.5,90.5,90.5,0,3,0,0,5,2630.7,657.69,,Idle,0,20,FALSE,5,TRUE,11,Go Home,FALSE,FALSE,FALSE,FALSE,FALSE,FALSE,FALSE,FALSE,FALSE,FALSE,FALSE,FALSE,6.972739418,79.91578651,9.9,209.6,328,TRUE,1,1,FALSE,FALSE,FALSE,FALSE,,TRUE,FALSE,FALSE,Course Lock,49.2,,16.4,Calm,37,,1.12.8,Mavic Mini,1SDCH7G0169R0K,1SFLH6Q0AB03DJ,1SRCH7F014TAHX,1U5X071EXP5ZJG,72.6,0.2,3.2,4.818592,1.789552,0,0,Mavic Mini,1SDCH7G0169R0K,1SFLH6Q0AB03DJ,1SRCH7F014TAHX,1U5X071EXP5ZJG,DJI Fly,,1.12.8,954320B2-9F6C-B714-B2EF-D450BBE512BC,1SDCH7G0169R0K,,,,,,,,,
2/25/2024,59:33.1,1m 45.0s,105,6.972712806,79.91579193,0,0,0.3,63,0.1,0,0,0,0,0,0,0,0,3.1,2.6,-9.2,350.8,,Starting Motors,Other,Takeoff (RC Assisted),15,5,TRUE,,Mavic Mini,TRUE,FALSE,,Smart,RC,TRUE,TRUE,FALSE,,,TRUE,,FALSE,FALSE,FALSE,FALSE,FALSE,FALSE,FALSE,FALSE,FALSE,FALSE,0,Follow Yaw,0,0,-0.9,359.1,FALSE,FALSE,FALSE,FALSE,FALSE,FALSE,,TRUE,Normal,,100,1024,1024,1024,1024,2,FALSE,FALSE,FALSE,FALSE,FALSE,0,FALSE,FALSE,FALSE,FALSE,90,7.984,1844,2050,7.973,FALSE,3.992,3.992,,FALSE,FALSE,NA,90.5,90.5,90.5,0,3,0,0,5,2630.7,657.69,,Idle,0,20,FALSE,5,TRUE,11,Go Home,FALSE,FALSE,FALSE,FALSE,FALSE,FALSE,FALSE,FALSE,FALSE,FALSE,FALSE,FALSE,6.972739418,79.91578651,9.9,209.6,328,TRUE,1,1,FALSE,FALSE,FALSE,FALSE,,TRUE,FALSE,FALSE,Course Lock,49.2,,16.4,Calm,37,,1.12.8,Mavic Mini,1SDCH7G0169R0K,1SFLH6Q0AB03DJ,1SRCH7F014TAHX,1U5X071EXP5ZJG,72.6,0.2,3.2,4.818592,1.789552,0,0,Mavic Mini,1SDCH7G0169R0K,1SFLH6Q0AB03DJ,1SRCH7F014TAHX,1U5X071EXP5ZJG,DJI Fly,,1.12.8,954320B2-9F6C-B714-B2EF-D450BBE512BC,1SDCH7G0169R0K,,,,,,,,,
2/25/2024,59:33.2,1m 45.1s,105.1,6.972712818,79.91579192,0,0,0.3,63,0.1,0,0,0,0,0,0,0,0,3.1,2.6,-9.3,350.7,,Starting Motors,Other,Takeoff (RC Assisted),15,5,TRUE,,Mavic Mini,TRUE,FALSE,,Smart,RC,TRUE,TRUE,FALSE,,,TRUE,,FALSE,FALSE,FALSE,FALSE,FALSE,FALSE,FALSE,FALSE,FALSE,FALSE,0,Follow Yaw,0,0,-0.9,359.1,FALSE,FALSE,FALSE,FALSE,FALSE,FALSE,,TRUE,Normal,,100,1024,1024,1024,1024,2,FALSE,FALSE,FALSE,FALSE,FALSE,0,FALSE,FALSE,FALSE,FALSE,90,7.984,1844,2050,7.973,FALSE,3.992,3.992,,FALSE,FALSE,NA,90.5,90.5,90.5,0,3,0,0,5,2630.7,657.69,,Idle,0,20,FALSE,5,TRUE,11,Go Home,FALSE,FALSE,FALSE,FALSE,FALSE,FALSE,FALSE,FALSE,FALSE,FALSE,FALSE,FALSE,6.972739418,79.91578651,9.9,209.6,328,TRUE,1,1,FALSE,FALSE,FALSE,FALSE,,TRUE,FALSE,FALSE,Course Lock,49.2,,16.4,Calm,37,,1.12.8,Mavic Mini,1SDCH7G0169R0K,1SFLH6Q0AB03DJ,1SRCH7F014TAHX,1U5X071EXP5ZJG,72.6,0.2,3.2,4.818592,1.789552,0,0,Mavic Mini,1SDCH7G0169R0K,1SFLH6Q0AB03DJ,1SRCH7F014TAHX,1U5X071EXP5ZJG,DJI Fly,,1.12.8,954320B2-9F6C-B714-B2EF-D450BBE512BC,1SDCH7G0169R0K,,,,,,,,,
2/25/2024,59:33.3,1m 45.2s,105.2,6.972712813,79.91579192,0,0,0.3,63,0.1,0,0,0,0,0,0,0,0,3.1,2.6,-9.2,350.8,,Starting Motors,Other,Takeoff (RC Assisted),15,5,TRUE,,Mavic Mini,TRUE,FALSE,,Smart,RC,TRUE,TRUE,FALSE,,,TRUE,,FALSE,FALSE,FALSE,FALSE,FALSE,FALSE,FALSE,FALSE,FALSE,FALSE,0,Follow Yaw,0,0,-0.9,359.1,FALSE,FALSE,FALSE,FALSE,FALSE,FALSE,,TRUE,Normal,,100,1024,1024,1024,1024,2,FALSE,FALSE,FALSE,FALSE,FALSE,0,FALSE,FALSE,FALSE,FALSE,90,7.984,1844,2050,7.973,FALSE,3.992,3.992,,FALSE,FALSE,NA,90.5,90.5,90.5,0,3,0,0,5,2630.7,657.69,,Idle,0,20,FALSE,5,TRUE,11,Go Home,FALSE,FALSE,FALSE,FALSE,FALSE,FALSE,FALSE,FALSE,FALSE,FALSE,FALSE,FALSE,6.972739418,79.91578651,9.9,209.6,328,TRUE,1,1,FALSE,FALSE,FALSE,FALSE,,TRUE,FALSE,FALSE,Course Lock,49.2,,16.4,Calm,37,,1.12.8,Mavic Mini,1SDCH7G0169R0K,1SFLH6Q0AB03DJ,1SRCH7F014TAHX,1U5X071EXP5ZJG,72.6,0.2,3.2,4.818592,1.789552,0,0,Mavic Mini,1SDCH7G0169R0K,1SFLH6Q0AB03DJ,1SRCH7F014TAHX,1U5X071EXP5ZJG,DJI Fly,,1.12.8,954320B2-9F6C-B714-B2EF-D450BBE512BC,1SDCH7G0169R0K,,,,,,,,,
2/25/2024,59:33.5,1m 45.3s,105.3,6.972712744,79.9157919,0,0,0.3,63,0.1,0,0,0,0,0,0,0,0,3.1,2.6,-9.3,350.7,,Manual Takeoff,Other,Takeoff (RC Assisted),15,5,TRUE,,Mavic Mini,TRUE,FALSE,,Smart,RC,TRUE,TRUE,FALSE,,,TRUE,,FALSE,FALSE,FALSE,FALSE,FALSE,FALSE,FALSE,FALSE,FALSE,FALSE,0,Follow Yaw,0,0,-0.9,359.1,FALSE,FALSE,FALSE,FALSE,FALSE,FALSE,,TRUE,Normal,,100,1024,1024,1024,1024,2,FALSE,FALSE,FALSE,FALSE,FALSE,0,FALSE,FALSE,FALSE,FALSE,90,7.984,1844,2050,7.973,FALSE,3.992,3.992,,FALSE,FALSE,NA,90.5,90.5,90.5,0,3,0,0,5,2630.7,657.69,,Idle,0,20,FALSE,5,TRUE,11,Go Home,FALSE,FALSE,FALSE,FALSE,FALSE,FALSE,FALSE,FALSE,FALSE,FALSE,FALSE,FALSE,6.972739418,79.91578651,9.9,209.6,328,TRUE,1,1,FALSE,FALSE,FALSE,FALSE,,TRUE,FALSE,FALSE,Course Lock,49.2,,16.4,Calm,37,,1.12.8,Mavic Mini,1SDCH7G0169R0K,1SFLH6Q0AB03DJ,1SRCH7F014TAHX,1U5X071EXP5ZJG,72.6,0.2,3.2,4.818592,1.789552,0,0,Mavic Mini,1SDCH7G0169R0K,1SFLH6Q0AB03DJ,1SRCH7F014TAHX,1U5X071EXP5ZJG,DJI Fly,,1.12.8,954320B2-9F6C-B714-B2EF-D450BBE512BC,1SDCH7G0169R0K,,,,,,,,Flight mode changed to Manual Takeoff.,
2/25/2024,59:33.5,1m 45.4s,105.4,6.972712703,79.91579189,0,0,0.3,63,0.1,0,0,0,0,0,0,0,0,3.1,2.6,-9.2,350.8,,Manual Takeoff,Other,Takeoff (RC Assisted),15,5,TRUE,,Mavic Mini,TRUE,FALSE,,Smart,RC,TRUE,TRUE,FALSE,,,TRUE,,FALSE,FALSE,FALSE,FALSE,FALSE,FALSE,FALSE,FALSE,FALSE,FALSE,0,Follow Yaw,0,0,-0.9,359.1,FALSE,FALSE,FALSE,FALSE,FALSE,FALSE,,TRUE,Normal,,100,1024,1024,1024,1024,2,FALSE,FALSE,FALSE,FALSE,FALSE,0,FALSE,FALSE,FALSE,FALSE,90,7.984,1844,2050,7.973,FALSE,3.992,3.992,,FALSE,FALSE,NA,90.5,90.5,90.5,0,3,0,0,5,2630.7,657.69,,Idle,0,20,FALSE,5,TRUE,11,Go Home,FALSE,FALSE,FALSE,FALSE,FALSE,FALSE,FALSE,FALSE,FALSE,FALSE,FALSE,FALSE,6.972739418,79.91578651,9.9,209.6,328,TRUE,1,1,FALSE,FALSE,FALSE,FALSE,,TRUE,FALSE,FALSE,Course Lock,49.2,,16.4,Calm,37,,1.12.8,Mavic Mini,1SDCH7G0169R0K,1SFLH6Q0AB03DJ,1SRCH7F014TAHX,1U5X071EXP5ZJG,72.6,0.2,3.2,4.818592,1.789552,0,0,Mavic Mini,1SDCH7G0169R0K,1SFLH6Q0AB03DJ,1SRCH7F014TAHX,1U5X071EXP5ZJG,DJI Fly,,1.12.8,954320B2-9F6C-B714-B2EF-D450BBE512BC,1SDCH7G0169R0K,,,,,,,,,
2/25/2024,59:33.6,1m 45.5s,105.5,6.972712684,79.91579189,0,0,0.3,63,0.1,0,0,0,0,0,0,0,0,3.1,2.6,-9.3,350.7,,Manual Takeoff,Other,Takeoff (RC Assisted),15,5,TRUE,,Mavic Mini,TRUE,FALSE,,Smart,RC,TRUE,TRUE,FALSE,,,TRUE,,FALSE,FALSE,FALSE,FALSE,FALSE,FALSE,FALSE,FALSE,FALSE,FALSE,0,Follow Yaw,0,0,-0.9,359.1,FALSE,FALSE,FALSE,FALSE,FALSE,FALSE,,TRUE,Normal,,100,1024,1024,1024,1024,2,FALSE,FALSE,FALSE,FALSE,FALSE,0,FALSE,FALSE,FALSE,FALSE,90,7.984,1844,2050,7.973,FALSE,3.992,3.992,,FALSE,FALSE,NA,90.5,90.5,90.5,0,3,0,0,5,2630.7,657.69,,Idle,0,20,FALSE,5,TRUE,11,Go Home,FALSE,FALSE,FALSE,FALSE,FALSE,FALSE,FALSE,FALSE,FALSE,FALSE,FALSE,FALSE,6.972739418,79.91578651,9.9,209.6,328,TRUE,1,1,FALSE,FALSE,FALSE,FALSE,,TRUE,FALSE,FALSE,Course Lock,49.2,,16.4,Calm,37,,1.12.8,Mavic Mini,1SDCH7G0169R0K,1SFLH6Q0AB03DJ,1SRCH7F014TAHX,1U5X071EXP5ZJG,72.6,0.2,3.2,4.818592,1.789552,0,0,Mavic Mini,1SDCH7G0169R0K,1SFLH6Q0AB03DJ,1SRCH7F014TAHX,1U5X071EXP5ZJG,DJI Fly,,1.12.8,954320B2-9F6C-B714-B2EF-D450BBE512BC,1SDCH7G0169R0K,,,,,,,,,
2/25/2024,59:33.6,1m 45.6s,105.6,6.972712683,79.91579189,0,0,0.3,63,0.1,0,0,0,0,0,0,0,0,3.1,2.6,-9.2,350.8,,Manual Takeoff,Other,Takeoff (RC Assisted),15,5,TRUE,,Mavic Mini,TRUE,FALSE,,Smart,RC,TRUE,TRUE,FALSE,,,TRUE,,FALSE,FALSE,FALSE,FALSE,FALSE,FALSE,FALSE,FALSE,FALSE,FALSE,0,Follow Yaw,0,0,-0.9,359.1,FALSE,FALSE,FALSE,FALSE,FALSE,FALSE,,TRUE,Normal,,100,1024,1024,1024,1024,2,FALSE,FALSE,FALSE,FALSE,FALSE,0,FALSE,FALSE,FALSE,FALSE,90,7.965,1843,2050,7.994,FALSE,3.979,3.986,0.007,FALSE,FALSE,NA,90.5,90.5,90.5,0,3,0,0,5,2630.7,657.69,,Idle,0,20,FALSE,5,TRUE,11,Go Home,FALSE,FALSE,FALSE,FALSE,FALSE,FALSE,FALSE,FALSE,FALSE,FALSE,FALSE,FALSE,6.972739418,79.91578651,9.9,209.6,328,TRUE,1,1,FALSE,FALSE,FALSE,FALSE,,TRUE,FALSE,FALSE,Course Lock,49.2,,16.4,Calm,37,,1.12.8,Mavic Mini,1SDCH7G0169R0K,1SFLH6Q0AB03DJ,1SRCH7F014TAHX,1U5X071EXP5ZJG,72.6,0.2,3.2,4.818592,1.789552,0,0,Mavic Mini,1SDCH7G0169R0K,1SFLH6Q0AB03DJ,1SRCH7F014TAHX,1U5X071EXP5ZJG,DJI Fly,,1.12.8,954320B2-9F6C-B714-B2EF-D450BBE512BC,1SDCH7G0169R0K,,,,,,,,,
2/25/2024,59:33.9,1m 45.7s,105.7,6.97271284,79.91579204,0,0,0.3,63,0.2,0,0,0,0,0,0,0,0,3.1,2.6,-9.2,350.8,,Manual Takeoff,Other,Takeoff (RC Assisted),15,5,TRUE,,Mavic Mini,TRUE,FALSE,,Smart,RC,TRUE,TRUE,FALSE,,,TRUE,,FALSE,FALSE,FALSE,FALSE,FALSE,FALSE,FALSE,FALSE,FALSE,FALSE,0,Follow Yaw,0,0,-0.9,359.1,FALSE,FALSE,FALSE,FALSE,FALSE,FALSE,,TRUE,Normal,,100,1024,1024,1028,1024,2,FALSE,FALSE,FALSE,FALSE,FALSE,0,FALSE,FALSE,FALSE,FALSE,90,7.965,1843,2050,7.994,FALSE,3.979,3.986,0.007,FALSE,FALSE,NA,90.5,90.5,90.5,0,3,0,0,5,2630.7,657.69,,Idle,0,20,FALSE,5,TRUE,11,Go Home,FALSE,FALSE,FALSE,FALSE,FALSE,FALSE,FALSE,FALSE,FALSE,FALSE,FALSE,FALSE,6.972739418,79.91578651,9.9,209.6,328,TRUE,1,1,FALSE,FALSE,FALSE,FALSE,,TRUE,FALSE,FALSE,Course Lock,49.2,,16.4,Calm,37,,1.12.8,Mavic Mini,1SDCH7G0169R0K,1SFLH6Q0AB03DJ,1SRCH7F014TAHX,1U5X071EXP5ZJG,72.6,0.2,3.2,4.818592,1.789552,0,0,Mavic Mini,1SDCH7G0169R0K,1SFLH6Q0AB03DJ,1SRCH7F014TAHX,1U5X071EXP5ZJG,DJI Fly,,1.12.8,954320B2-9F6C-B714-B2EF-D450BBE512BC,1SDCH7G0169R0K,,,,,,,,,
2/25/2024,59:33.9,1m 45.8s,105.8,6.972712878,79.91579208,0,0,0.3,63,0.2,0,0,0,0,0,0,0,0,3.1,2.6,-9.2,350.8,,Manual Takeoff,Other,Takeoff (RC Assisted),15,5,TRUE,,Mavic Mini,TRUE,FALSE,,Smart,RC,TRUE,TRUE,FALSE,,,TRUE,,FALSE,FALSE,FALSE,FALSE,FALSE,FALSE,FALSE,FALSE,FALSE,FALSE,0,Follow Yaw,0,0,-0.9,359.1,FALSE,FALSE,FALSE,FALSE,FALSE,FALSE,,TRUE,Normal,,100,1024,1024,1028,1024,2,FALSE,FALSE,FALSE,FALSE,FALSE,0,FALSE,FALSE,FALSE,FALSE,90,7.965,1843,2050,7.994,FALSE,3.979,3.986,0.007,FALSE,FALSE,NA,90.5,90.5,90.5,0,3,0,0,5,2630.7,657.69,,Idle,0,20,FALSE,5,TRUE,11,Go Home,FALSE,FALSE,FALSE,FALSE,FALSE,FALSE,FALSE,FALSE,FALSE,FALSE,FALSE,FALSE,6.972739418,79.91578651,9.8,209.6,328,TRUE,1,1,FALSE,FALSE,FALSE,FALSE,,TRUE,FALSE,FALSE,Course Lock,49.2,,16.4,Calm,37,,1.12.8,Mavic Mini,1SDCH7G0169R0K,1SFLH6Q0AB03DJ,1SRCH7F014TAHX,1U5X071EXP5ZJG,72.6,0.2,3.2,4.818592,1.789552,0,0,Mavic Mini,1SDCH7G0169R0K,1SFLH6Q0AB03DJ,1SRCH7F014TAHX,1U5X071EXP5ZJG,DJI Fly,,1.12.8,954320B2-9F6C-B714-B2EF-D450BBE512BC,1SDCH7G0169R0K,,,,,,,,,
2/25/2024,59:34.0,1m 45.9s,105.9,6.972712895,79.91579209,0,0,0.3,63,0.3,0,0,0,0,0,0,0,0,3.1,2.6,-9.3,350.7,,Manual Takeoff,Other,Takeoff (RC Assisted),15,5,TRUE,,Mavic Mini,TRUE,FALSE,,Smart,RC,TRUE,TRUE,FALSE,,,TRUE,,FALSE,FALSE,FALSE,FALSE,FALSE,FALSE,FALSE,FALSE,FALSE,FALSE,0,Follow Yaw,0,0,-0.9,359.1,FALSE,FALSE,FALSE,FALSE,FALSE,FALSE,,TRUE,Normal,,100,1024,1024,1070,1024,2,FALSE,FALSE,FALSE,FALSE,FALSE,0,FALSE,FALSE,FALSE,FALSE,90,7.965,1843,2050,7.994,FALSE,3.979,3.986,0.007,FALSE,FALSE,NA,90.5,90.5,90.5,0,3,0,0,5,2630.7,657.69,,Idle,0,20,FALSE,5,TRUE,11,Go Home,FALSE,FALSE,FALSE,FALSE,FALSE,FALSE,FALSE,FALSE,FALSE,FALSE,FALSE,FALSE,6.972739418,79.91578651,9.8,209.6,328,TRUE,1,1,FALSE,FALSE,FALSE,FALSE,,TRUE,FALSE,FALSE,Course Lock,49.2,,16.4,Calm,37,,1.12.8,Mavic Mini,1SDCH7G0169R0K,1SFLH6Q0AB03DJ,1SRCH7F014TAHX,1U5X071EXP5ZJG,72.6,0.2,3.2,4.818592,1.789552,0,0,Mavic Mini,1SDCH7G0169R0K,1SFLH6Q0AB03DJ,1SRCH7F014TAHX,1U5X071EXP5ZJG,DJI Fly,,1.12.8,954320B2-9F6C-B714-B2EF-D450BBE512BC,1SDCH7G0169R0K,,,,,,,,,
2/25/2024,59:34.1,1m 46.0s,106,6.972712908,79.9157921,0,0,0.3,63,0.3,0,0,0,0,0,0,0,0,3.1,2.6,-9.2,350.8,,Manual Takeoff,Other,Takeoff (RC Assisted),15,5,TRUE,,Mavic Mini,TRUE,FALSE,,Smart,RC,TRUE,TRUE,FALSE,,,TRUE,,FALSE,FALSE,FALSE,FALSE,FALSE,FALSE,FALSE,FALSE,FALSE,FALSE,0,Follow Yaw,0,0,-0.9,359.1,FALSE,FALSE,FALSE,FALSE,FALSE,FALSE,,TRUE,Normal,,100,1024,1024,1143,1024,2,FALSE,FALSE,FALSE,FALSE,FALSE,0,FALSE,FALSE,FALSE,FALSE,90,7.965,1843,2050,7.994,FALSE,3.979,3.986,0.007,FALSE,FALSE,NA,90.5,90.5,90.5,0,3,0,0,5,2630.7,657.69,,Idle,0,20,FALSE,5,TRUE,11,Go Home,FALSE,FALSE,FALSE,FALSE,FALSE,FALSE,FALSE,FALSE,FALSE,FALSE,FALSE,FALSE,6.972739418,79.91578651,9.8,209.6,328,TRUE,1,1,FALSE,FALSE,FALSE,FALSE,,TRUE,FALSE,FALSE,Course Lock,49.2,,16.4,Calm,37,,1.12.8,Mavic Mini,1SDCH7G0169R0K,1SFLH6Q0AB03DJ,1SRCH7F014TAHX,1U5X071EXP5ZJG,72.6,0.2,3.2,4.818592,1.789552,0,0,Mavic Mini,1SDCH7G0169R0K,1SFLH6Q0AB03DJ,1SRCH7F014TAHX,1U5X071EXP5ZJG,DJI Fly,,1.12.8,954320B2-9F6C-B714-B2EF-D450BBE512BC,1SDCH7G0169R0K,,,,,,,,,
2/25/2024,59:34.3,1m 46.1s,106.1,6.972712908,79.9157921,0,0,0.3,63,0.3,0,0,0,0,0,0,0,0,3.1,2.6,-9.3,350.7,,Manual Takeoff,Other,Takeoff (RC Assisted),15,5,TRUE,,Mavic Mini,TRUE,FALSE,,Smart,RC,TRUE,TRUE,FALSE,,,TRUE,,FALSE,FALSE,FALSE,FALSE,FALSE,FALSE,FALSE,FALSE,FALSE,FALSE,0,Follow Yaw,0,0,-0.9,359.1,FALSE,FALSE,FALSE,FALSE,FALSE,FALSE,,TRUE,Normal,,100,1024,1024,1222,1024,2,FALSE,FALSE,FALSE,FALSE,FALSE,0,FALSE,FALSE,FALSE,FALSE,90,7.965,1843,2050,7.994,FALSE,3.979,3.986,0.007,FALSE,FALSE,NA,90.5,90.5,90.5,0,3,0,0,5,2630.7,657.69,,Idle,0,20,FALSE,5,TRUE,11,Go Home,FALSE,FALSE,FALSE,FALSE,FALSE,FALSE,FALSE,FALSE,FALSE,FALSE,FALSE,FALSE,6.972739418,79.91578651,9.8,209.6,328,TRUE,1,1,FALSE,FALSE,FALSE,FALSE,,TRUE,FALSE,FALSE,Course Lock,49.2,,16.4,Calm,37,,1.12.8,Mavic Mini,1SDCH7G0169R0K,1SFLH6Q0AB03DJ,1SRCH7F014TAHX,1U5X071EXP5ZJG,72.6,0.2,3.2,4.818592,1.789552,0,0,Mavic Mini,1SDCH7G0169R0K,1SFLH6Q0AB03DJ,1SRCH7F014TAHX,1U5X071EXP5ZJG,DJI Fly,,1.12.8,954320B2-9F6C-B714-B2EF-D450BBE512BC,1SDCH7G0169R0K,,,,,6.972708232,79.91576842,5,,
2/25/2024,59:34.3,1m 46.2s,106.2,6.972712924,79.91579208,0,0,0.3,63,0.3,0,0,0,0,0,0,0,0,2.8,1.6,-9.3,350.7,,Manual Takeoff,Other,Takeoff (RC Assisted),15,5,TRUE,,Mavic Mini,TRUE,FALSE,,Smart,RC,TRUE,TRUE,FALSE,,,TRUE,,FALSE,FALSE,FALSE,FALSE,FALSE,FALSE,FALSE,FALSE,FALSE,FALSE,0,Follow Yaw,0,0,-0.9,359.1,FALSE,FALSE,FALSE,FALSE,FALSE,FALSE,,TRUE,Normal,,100,1024,1024,1319,1024,2,FALSE,FALSE,FALSE,FALSE,FALSE,0,FALSE,FALSE,FALSE,FALSE,90,7.965,1843,2050,7.994,FALSE,3.979,3.986,0.007,FALSE,FALSE,NA,90.5,90.5,90.5,0,3,0,0,5,2630.7,657.69,,Idle,0,20,FALSE,5,TRUE,11,Go Home,FALSE,FALSE,FALSE,FALSE,FALSE,FALSE,FALSE,FALSE,FALSE,FALSE,FALSE,FALSE,6.972739418,79.91578651,9.8,209.6,328,TRUE,1,1,FALSE,FALSE,FALSE,FALSE,,TRUE,FALSE,FALSE,Course Lock,49.2,,16.4,Calm,37,,1.12.8,Mavic Mini,1SDCH7G0169R0K,1SFLH6Q0AB03DJ,1SRCH7F014TAHX,1U5X071EXP5ZJG,72.6,0.2,3.2,4.818592,1.789552,0,0,Mavic Mini,1SDCH7G0169R0K,1SFLH6Q0AB03DJ,1SRCH7F014TAHX,1U5X071EXP5ZJG,DJI Fly,,1.12.8,954320B2-9F6C-B714-B2EF-D450BBE512BC,1SDCH7G0169R0K,,,,,6.972708232,79.91576842,5,,
2/25/2024,59:34.5,1m 46.3s,106.3,6.972712918,79.91579206,0,0,0.3,63,0.3,0,0,0,0,0,0,0,0,2.6,1.1,-9.4,350.6,,Manual Takeoff,Other,Takeoff (RC Assisted),15,5,TRUE,,Mavic Mini,TRUE,FALSE,,Smart,RC,TRUE,TRUE,FALSE,,,TRUE,,FALSE,FALSE,FALSE,FALSE,FALSE,FALSE,FALSE,FALSE,FALSE,FALSE,0,Follow Yaw,0,0,-0.9,359.1,FALSE,FALSE,FALSE,FALSE,FALSE,FALSE,,TRUE,Normal,,100,1024,1024,1411,1024,2,FALSE,FALSE,FALSE,FALSE,FALSE,0,FALSE,FALSE,FALSE,FALSE,90,7.965,1843,2050,7.994,FALSE,3.979,3.986,0.007,FALSE,FALSE,NA,90.5,90.5,90.5,0,3,0,0,5,2630.7,657.69,,Idle,0,20,FALSE,5,TRUE,11,Go Home,FALSE,FALSE,FALSE,FALSE,FALSE,FALSE,FALSE,FALSE,FALSE,FALSE,FALSE,FALSE,6.972739418,79.91578651,9.8,209.6,328,TRUE,1,1,FALSE,FALSE,FALSE,FALSE,,TRUE,FALSE,FALSE,Course Lock,49.2,,16.4,Calm,37,,1.12.8,Mavic Mini,1SDCH7G0169R0K,1SFLH6Q0AB03DJ,1SRCH7F014TAHX,1U5X071EXP5ZJG,72.6,0.2,3.2,4.818592,1.789552,0,0,Mavic Mini,1SDCH7G0169R0K,1SFLH6Q0AB03DJ,1SRCH7F014TAHX,1U5X071EXP5ZJG,DJI Fly,,1.12.8,954320B2-9F6C-B714-B2EF-D450BBE512BC,1SDCH7G0169R0K,,,,,6.972708232,79.91576842,5,,
2/25/2024,59:34.5,1m 46.4s,106.4,6.97271291,79.91579204,0,0,0.3,63,0.3,0,0,0,0,0,0,0,0,2.7,0.9,-9.8,350.2,,Manual Takeoff,Other,Takeoff (RC Assisted),15,5,TRUE,,Mavic Mini,TRUE,FALSE,,Smart,RC,TRUE,TRUE,FALSE,,,TRUE,,FALSE,FALSE,FALSE,FALSE,FALSE,FALSE,FALSE,FALSE,FALSE,FALSE,0,Follow Yaw,0,0,-1,359,FALSE,FALSE,FALSE,FALSE,FALSE,FALSE,,TRUE,Normal,,100,1024,1024,1451,1024,2,FALSE,FALSE,FALSE,FALSE,FALSE,0,FALSE,FALSE,FALSE,FALSE,90,7.965,1843,2050,7.994,FALSE,3.979,3.986,0.007,FALSE,FALSE,NA,90.5,90.5,90.5,0,3,0,0,5,2630.7,657.69,,Idle,0,20,FALSE,5,TRUE,11,Go Home,FALSE,FALSE,FALSE,FALSE,FALSE,FALSE,FALSE,FALSE,FALSE,FALSE,FALSE,FALSE,6.972739418,79.91578651,9.8,209.6,328,TRUE,1,1,FALSE,FALSE,FALSE,FALSE,,TRUE,FALSE,FALSE,Course Lock,49.2,,16.4,Calm,37,,1.12.8,Mavic Mini,1SDCH7G0169R0K,1SFLH6Q0AB03DJ,1SRCH7F014TAHX,1U5X071EXP5ZJG,72.6,0.2,3.2,4.818592,1.789552,0,0,Mavic Mini,1SDCH7G0169R0K,1SFLH6Q0AB03DJ,1SRCH7F014TAHX,1U5X071EXP5ZJG,DJI Fly,,1.12.8,954320B2-9F6C-B714-B2EF-D450BBE512BC,1SDCH7G0169R0K,,,,,6.972708232,79.91576842,5,,
2/25/2024,59:34.6,1m 46.5s,106.5,6.972712905,79.91579203,0,0,0.3,63,0.3,0,0,0,0,0,0,0,0,2.5,0.5,-11.1,348.9,,Manual Takeoff,Other,Takeoff (RC Assisted),15,5,TRUE,,Mavic Mini,TRUE,FALSE,,Smart,RC,TRUE,TRUE,FALSE,,,TRUE,,FALSE,FALSE,FALSE,FALSE,FALSE,FALSE,FALSE,FALSE,FALSE,FALSE,0,Follow Yaw,0,0,-1.7,358.3,FALSE,FALSE,FALSE,FALSE,FALSE,FALSE,,TRUE,Normal,,100,1024,1024,1452,1024,2,FALSE,FALSE,FALSE,FALSE,FALSE,0,FALSE,FALSE,FALSE,FALSE,90,7.965,1843,2050,7.994,FALSE,3.979,3.986,0.007,FALSE,FALSE,NA,90.5,90.5,90.5,0,3,0,0,5,2630.7,657.69,,Idle,0,20,FALSE,5,TRUE,11,Go Home,FALSE,FALSE,FALSE,FALSE,FALSE,FALSE,FALSE,FALSE,FALSE,FALSE,FALSE,FALSE,6.972739418,79.91578651,9.8,209.6,328,TRUE,1,1,FALSE,FALSE,FALSE,FALSE,,TRUE,FALSE,FALSE,Course Lock,49.2,,16.4,Calm,37,,1.12.8,Mavic Mini,1SDCH7G0169R0K,1SFLH6Q0AB03DJ,1SRCH7F014TAHX,1U5X071EXP5ZJG,72.6,0.2,3.2,4.818592,1.789552,0,0,Mavic Mini,1SDCH7G0169R0K,1SFLH6Q0AB03DJ,1SRCH7F014TAHX,1U5X071EXP5ZJG,DJI Fly,,1.12.8,954320B2-9F6C-B714-B2EF-D450BBE512BC,1SDCH7G0169R0K,,,,,6.972708232,79.91576842,5,,
2/25/2024,59:34.7,1m 46.6s,106.6,6.972712885,79.91579199,0,0,0.3,63,0.3,0,0,0,0,0,0,0,0,1.9,0,-12.7,347.3,,Manual Takeoff,Other,Takeoff (RC Assisted),15,5,TRUE,,Mavic Mini,TRUE,FALSE,,Smart,RC,TRUE,TRUE,FALSE,,,TRUE,,FALSE,FALSE,FALSE,FALSE,FALSE,FALSE,FALSE,FALSE,FALSE,FALSE,0,Follow Yaw,0,0,-3.1,356.9,FALSE,FALSE,FALSE,FALSE,FALSE,FALSE,,TRUE,Normal,,100,1024,1024,1451,1024,2,FALSE,FALSE,FALSE,FALSE,FALSE,0,FALSE,FALSE,FALSE,FALSE,90,7.965,1843,2050,7.931,FALSE,3.979,3.986,0.007,FALSE,FALSE,NA,90.5,90.5,90.5,0,3,0,0,5,2656.9,664.24,,Idle,0,20,FALSE,5,TRUE,11,Go Home,FALSE,FALSE,FALSE,FALSE,FALSE,FALSE,FALSE,FALSE,FALSE,FALSE,FALSE,FALSE,6.972739418,79.91578651,9.8,209.6,328,TRUE,1,1,FALSE,FALSE,FALSE,FALSE,,TRUE,FALSE,FALSE,Course Lock,49.2,,16.4,Calm,37,,1.12.8,Mavic Mini,1SDCH7G0169R0K,1SFLH6Q0AB03DJ,1SRCH7F014TAHX,1U5X071EXP5ZJG,72.6,0.2,3.2,4.818592,1.789552,0,0,Mavic Mini,1SDCH7G0169R0K,1SFLH6Q0AB03DJ,1SRCH7F014TAHX,1U5X071EXP5ZJG,DJI Fly,,1.12.8,954320B2-9F6C-B714-B2EF-D450BBE512BC,1SDCH7G0169R0K,,,,,6.972708232,79.91576842,5,,
2/25/2024,59:34.8,1m 46.7s,106.7,6.97271289,79.91579192,0,0,0.3,63,0.3,0,0,0,0,0,0,0,0,-0.1,0,-13.9,346.1,,Manual Takeoff,Other,Takeoff (RC Assisted),15,5,TRUE,,Mavic Mini,TRUE,FALSE,,Smart,RC,TRUE,TRUE,FALSE,,,TRUE,,FALSE,FALSE,FALSE,FALSE,FALSE,FALSE,FALSE,FALSE,FALSE,FALSE,0,Follow Yaw,0,0,-4.3,355.7,FALSE,FALSE,FALSE,FALSE,FALSE,FALSE,,TRUE,Normal,,100,1024,1024,1452,1024,2,FALSE,FALSE,FALSE,FALSE,FALSE,0,FALSE,FALSE,FALSE,FALSE,90,7.883,1843,2050,7.931,FALSE,3.942,3.941,0.007,FALSE,FALSE,NA,90.5,90.5,90.5,0,3,0,0,5,2656.9,664.24,,Idle,0,20,FALSE,5,TRUE,11,Go Home,FALSE,FALSE,FALSE,FALSE,FALSE,FALSE,FALSE,FALSE,FALSE,FALSE,FALSE,FALSE,6.972739418,79.91578651,9.8,209.6,328,TRUE,1,1,FALSE,FALSE,FALSE,FALSE,,TRUE,FALSE,FALSE,Course Lock,49.2,,16.4,Calm,37,,1.12.8,Mavic Mini,1SDCH7G0169R0K,1SFLH6Q0AB03DJ,1SRCH7F014TAHX,1U5X071EXP5ZJG,72.6,0.2,3.2,4.818592,1.789552,0,0,Mavic Mini,1SDCH7G0169R0K,1SFLH6Q0AB03DJ,1SRCH7F014TAHX,1U5X071EXP5ZJG,DJI Fly,,1.12.8,954320B2-9F6C-B714-B2EF-D450BBE512BC,1SDCH7G0169R0K,,,,,6.972708232,79.91576842,5,,
2/25/2024,59:34.9,1m 46.8s,106.8,6.97271293,79.91579188,0,0,0.3,63,0.3,0,0,0,0,0,0,0,0,-1.4,-0.5,-14.7,345.3,,Manual Takeoff,Other,Takeoff (RC Assisted),15,5,TRUE,,Mavic Mini,TRUE,FALSE,,Smart,RC,TRUE,TRUE,FALSE,,,TRUE,,FALSE,FALSE,FALSE,FALSE,FALSE,FALSE,FALSE,FALSE,FALSE,FALSE,0,Follow Yaw,0,0,-5.4,354.6,FALSE,FALSE,FALSE,FALSE,FALSE,FALSE,,TRUE,Normal,,100,1024,1024,1452,1024,2,FALSE,FALSE,FALSE,FALSE,FALSE,0,FALSE,FALSE,FALSE,FALSE,90,7.883,1843,2050,7.931,FALSE,3.942,3.941,0.007,FALSE,FALSE,NA,90.5,90.5,90.5,0,3,0,0,5,2656.9,664.24,,Idle,0,20,FALSE,5,TRUE,11,Go Home,FALSE,FALSE,FALSE,FALSE,FALSE,FALSE,FALSE,FALSE,FALSE,FALSE,FALSE,FALSE,6.972739418,79.91578651,9.8,209.6,328,TRUE,1,1,FALSE,FALSE,FALSE,FALSE,,TRUE,FALSE,FALSE,Course Lock,49.2,,16.4,Calm,37,,1.12.8,Mavic Mini,1SDCH7G0169R0K,1SFLH6Q0AB03DJ,1SRCH7F014TAHX,1U5X071EXP5ZJG,72.6,0.2,3.2,4.818592,1.789552,0,0,Mavic Mini,1SDCH7G0169R0K,1SFLH6Q0AB03DJ,1SRCH7F014TAHX,1U5X071EXP5ZJG,DJI Fly,,1.12.8,954320B2-9F6C-B714-B2EF-D450BBE512BC,1SDCH7G0169R0K,,,,,6.972708232,79.91576842,5,,
2/25/2024,59:35.0,1m 46.9s,106.9,6.972713063,79.91579187,0,0,0.3,63,0.4,0.223694,0.223694,0.223694,0.223694,0,0,0,0,-3.4,-1,-15.5,344.5,358.1,Manual Takeoff,Other,Takeoff (RC Assisted),15,5,TRUE,,Mavic Mini,TRUE,FALSE,,Smart,RC,TRUE,TRUE,FALSE,,,TRUE,,FALSE,FALSE,FALSE,FALSE,FALSE,FALSE,FALSE,FALSE,FALSE,FALSE,0,Follow Yaw,0,0,-6.1,353.9,FALSE,FALSE,FALSE,FALSE,FALSE,FALSE,,TRUE,Normal,,100,1024,1024,1451,1024,2,FALSE,FALSE,FALSE,FALSE,FALSE,0,FALSE,FALSE,FALSE,FALSE,90,7.883,1843,2050,7.931,FALSE,3.942,3.941,0.007,FALSE,FALSE,NA,90.5,90.5,90.5,0,3,0,0,5,2656.9,664.24,,Idle,0,20,FALSE,5,TRUE,11,Go Home,FALSE,FALSE,FALSE,FALSE,FALSE,FALSE,FALSE,FALSE,FALSE,FALSE,FALSE,FALSE,6.972739418,79.91578651,9.8,209.6,328,TRUE,1,1,FALSE,FALSE,FALSE,FALSE,,TRUE,FALSE,FALSE,Course Lock,49.2,,16.4,Calm,37,,1.12.8,Mavic Mini,1SDCH7G0169R0K,1SFLH6Q0AB03DJ,1SRCH7F014TAHX,1U5X071EXP5ZJG,72.6,0.2,3.2,4.818592,1.789552,0,0,Mavic Mini,1SDCH7G0169R0K,1SFLH6Q0AB03DJ,1SRCH7F014TAHX,1U5X071EXP5ZJG,DJI Fly,,1.12.8,954320B2-9F6C-B714-B2EF-D450BBE512BC,1SDCH7G0169R0K,,,,,6.972708232,79.91576842,5,,
2/25/2024,59:35.1,1m 47.0s,107,6.972713334,79.9157918,0,0,0.3,63,0.5,0.447388,0.447388,0.447388,0.447388,0,0,-0.223694,0,-1.5,-0.3,-16.1,343.9,348.8,Tripod,Other,,15,5,TRUE,,Mavic Mini,TRUE,FALSE,,Smart,RC,FALSE,TRUE,FALSE,,,TRUE,,FALSE,FALSE,FALSE,FALSE,FALSE,FALSE,FALSE,FALSE,FALSE,FALSE,0,Follow Yaw,0,0,-6.8,353.2,FALSE,FALSE,FALSE,FALSE,FALSE,FALSE,,TRUE,Normal,,100,1024,1024,1451,1024,2,FALSE,FALSE,FALSE,FALSE,FALSE,0,FALSE,FALSE,FALSE,FALSE,90,7.883,1843,2050,7.931,FALSE,3.942,3.941,0.007,FALSE,FALSE,NA,90.5,90.5,90.5,0,3,0,0,5,2656.9,664.24,,Idle,0,20,FALSE,5,TRUE,11,Go Home,FALSE,FALSE,FALSE,FALSE,FALSE,FALSE,FALSE,FALSE,FALSE,FALSE,FALSE,FALSE,6.972739418,79.91578651,9.7,209.6,328,TRUE,1,1,FALSE,FALSE,FALSE,FALSE,,TRUE,FALSE,FALSE,Course Lock,49.2,,16.4,Calm,37,,1.12.8,Mavic Mini,1SDCH7G0169R0K,1SFLH6Q0AB03DJ,1SRCH7F014TAHX,1U5X071EXP5ZJG,72.6,0.2,3.2,4.818592,1.789552,0,0,Mavic Mini,1SDCH7G0169R0K,1SFLH6Q0AB03DJ,1SRCH7F014TAHX,1U5X071EXP5ZJG,DJI Fly,,1.12.8,954320B2-9F6C-B714-B2EF-D450BBE512BC,1SDCH7G0169R0K,,,,,6.972708232,79.91576842,5,Flight mode changed to Tripod.,
2/25/2024,59:35.3,1m 47.1s,107.1,6.972713579,79.91579179,0,0,0.3,63,0.6,0.447388,0.447388,0.447388,0.447388,0,0,-0.671082,0,1.4,-1.1,-16,344,357.9,Tripod,Other,,15,5,TRUE,,Mavic Mini,TRUE,FALSE,,Smart,RC,FALSE,TRUE,FALSE,,,TRUE,,FALSE,FALSE,FALSE,FALSE,FALSE,FALSE,FALSE,FALSE,FALSE,FALSE,0,Follow Yaw,0,0,-6.8,353.2,FALSE,FALSE,FALSE,FALSE,FALSE,FALSE,,TRUE,Normal,,100,1024,1024,1450,1024,2,FALSE,FALSE,FALSE,FALSE,FALSE,0,FALSE,FALSE,FALSE,FALSE,90,7.883,1843,2050,7.931,FALSE,3.942,3.941,0.007,FALSE,FALSE,NA,90.5,90.5,90.5,0,3,0,0,5,2656.9,664.24,,Idle,0,20,FALSE,5,TRUE,11,Go Home,FALSE,FALSE,FALSE,FALSE,FALSE,FALSE,FALSE,FALSE,FALSE,FALSE,FALSE,FALSE,6.972739418,79.91578651,9.6,209.6,328,TRUE,1,1,FALSE,FALSE,FALSE,FALSE,,TRUE,FALSE,FALSE,Course Lock,49.2,,16.4,Calm,37,,1.12.8,Mavic Mini,1SDCH7G0169R0K,1SFLH6Q0AB03DJ,1SRCH7F014TAHX,1U5X071EXP5ZJG,72.6,0.2,3.2,4.818592,1.789552,0,0,Mavic Mini,1SDCH7G0169R0K,1SFLH6Q0AB03DJ,1SRCH7F014TAHX,1U5X071EXP5ZJG,DJI Fly,,1.12.8,954320B2-9F6C-B714-B2EF-D450BBE512BC,1SDCH7G0169R0K,,,,,6.972708232,79.91576842,5,,
2/25/2024,59:35.4,1m 47.2s,107.2,6.972713833,79.91579177,0,0,0.6,63,0.7,0.447388,0.447388,0.447388,0.447388,0,0,-1.11847,0,3.8,-0.9,-15.8,344.2,355.5,Tripod,Other,,14,5,TRUE,,Mavic Mini,TRUE,FALSE,,Smart,RC,FALSE,TRUE,FALSE,,,TRUE,,FALSE,FALSE,FALSE,FALSE,FALSE,FALSE,FALSE,FALSE,FALSE,FALSE,0,Follow Yaw,0,0,-6.8,353.2,FALSE,FALSE,FALSE,FALSE,FALSE,FALSE,,TRUE,Normal,,100,1024,1024,1448,1024,2,FALSE,FALSE,FALSE,FALSE,FALSE,0,FALSE,FALSE,FALSE,FALSE,90,7.883,1843,2050,7.931,FALSE,3.942,3.941,0.007,FALSE,FALSE,NA,90.5,90.5,90.5,0,3,0,0,5,2656.9,664.24,,Idle,0,20,FALSE,5,TRUE,11,Go Home,FALSE,FALSE,FALSE,FALSE,FALSE,FALSE,FALSE,FALSE,FALSE,FALSE,FALSE,FALSE,6.972739418,79.91578651,9.5,209.6,328,TRUE,1,1,FALSE,FALSE,FALSE,FALSE,,TRUE,FALSE,FALSE,Course Lock,49.2,,16.4,Calm,37,,1.12.8,Mavic Mini,1SDCH7G0169R0K,1SFLH6Q0AB03DJ,1SRCH7F014TAHX,1U5X071EXP5ZJG,72.6,0.2,3.2,4.818592,1.789552,0,0,Mavic Mini,1SDCH7G0169R0K,1SFLH6Q0AB03DJ,1SRCH7F014TAHX,1U5X071EXP5ZJG,DJI Fly,,1.12.8,954320B2-9F6C-B714-B2EF-D450BBE512BC,1SDCH7G0169R0K,,,,,6.972708232,79.91576842,5,,
2/25/2024,59:35.5,1m 47.3s,107.3,6.972714093,79.91579174,0.3,0.3,0.6,63,0.8,0.447388,0.447388,0.447388,0.447388,0,0,-1.342164,0,4,-0.5,-15.8,344.2,355.2,Tripod,Other,,14,5,TRUE,,Mavic Mini,TRUE,FALSE,,Smart,RC,FALSE,TRUE,FALSE,,,TRUE,,FALSE,FALSE,FALSE,FALSE,FALSE,FALSE,FALSE,FALSE,FALSE,FALSE,0,Follow Yaw,0,0,-6.8,353.2,FALSE,FALSE,FALSE,FALSE,FALSE,FALSE,,TRUE,Normal,,100,1024,1024,1443,1024,2,FALSE,FALSE,FALSE,FALSE,FALSE,0,FALSE,FALSE,FALSE,FALSE,90,7.883,1843,2050,7.931,FALSE,3.942,3.941,0.007,FALSE,FALSE,NA,90.5,90.5,90.5,0,3,0,0,5,2656.9,664.24,,Idle,0,20,FALSE,5,TRUE,11,Go Home,FALSE,FALSE,FALSE,FALSE,FALSE,FALSE,FALSE,FALSE,FALSE,FALSE,FALSE,FALSE,6.972739418,79.91578651,9.4,209.6,328,TRUE,1,1,FALSE,FALSE,FALSE,FALSE,,TRUE,FALSE,FALSE,Course Lock,49.2,,16.4,Calm,37,,1.12.8,Mavic Mini,1SDCH7G0169R0K,1SFLH6Q0AB03DJ,1SRCH7F014TAHX,1U5X071EXP5ZJG,72.6,0.2,3.2,4.818592,1.789552,0,0,Mavic Mini,1SDCH7G0169R0K,1SFLH6Q0AB03DJ,1SRCH7F014TAHX,1U5X071EXP5ZJG,DJI Fly,,1.12.8,954320B2-9F6C-B714-B2EF-D450BBE512BC,1SDCH7G0169R0K,,,,,6.972708232,79.91576842,5,,
2/25/2024,59:35.6,1m 47.4s,107.4,6.972714437,79.91579182,0.6,0.6,0.9,64,0.9,0.223694,0.447388,0.223694,0.447388,0,0,-1.565858,0,3.3,-0.5,-15.7,344.3,10.3,Tripod,Other,,15,5,TRUE,,Mavic Mini,TRUE,FALSE,,Smart,RC,FALSE,TRUE,FALSE,,,TRUE,,FALSE,FALSE,FALSE,FALSE,FALSE,FALSE,FALSE,FALSE,FALSE,FALSE,0,Follow Yaw,0,0,-6.8,353.2,FALSE,FALSE,FALSE,FALSE,FALSE,FALSE,,TRUE,Normal,,100,1024,1024,1443,1024,2,FALSE,FALSE,FALSE,FALSE,FALSE,0,FALSE,FALSE,FALSE,FALSE,90,7.883,1843,2050,7.931,FALSE,3.942,3.941,0.007,FALSE,FALSE,NA,90.5,90.5,90.5,0,3,0,0,5,2656.9,664.24,,Idle,0,20,FALSE,5,TRUE,11,Go Home,FALSE,FALSE,FALSE,FALSE,FALSE,FALSE,FALSE,FALSE,FALSE,FALSE,FALSE,FALSE,6.972739418,79.91578651,9.3,209.6,328,TRUE,1,1,FALSE,FALSE,FALSE,FALSE,,TRUE,FALSE,FALSE,Course Lock,49.2,,16.4,Calm,37,,1.12.8,Mavic Mini,1SDCH7G0169R0K,1SFLH6Q0AB03DJ,1SRCH7F014TAHX,1U5X071EXP5ZJG,72.6,0.2,3.2,4.818592,1.789552,0,0,Mavic Mini,1SDCH7G0169R0K,1SFLH6Q0AB03DJ,1SRCH7F014TAHX,1U5X071EXP5ZJG,DJI Fly,,1.12.8,954320B2-9F6C-B714-B2EF-D450BBE512BC,1SDCH7G0169R0K,,,,,6.972708232,79.91576842,5,,
2/25/2024,59:35.7,1m 47.5s,107.5,6.972714675,79.91579181,0.9,0.9,1.3,64,1,0.223694,0.447388,0.223694,0.447388,0,0,-1.789552,0,3.1,-1.1,-15.6,344.4,358.5,Tripod,Other,,15,5,TRUE,,Mavic Mini,TRUE,FALSE,,Smart,RC,FALSE,TRUE,FALSE,,,TRUE,,FALSE,FALSE,FALSE,FALSE,FALSE,FALSE,FALSE,FALSE,FALSE,FALSE,0,Follow Yaw,0,0,-6.8,353.2,FALSE,FALSE,FALSE,FALSE,FALSE,FALSE,,TRUE,Normal,,100,1024,1024,1439,1024,2,FALSE,FALSE,FALSE,FALSE,FALSE,0,FALSE,FALSE,FALSE,FALSE,90,7.883,1843,2050,7.931,FALSE,3.942,3.941,0.007,FALSE,FALSE,NA,90.5,90.5,90.5,0,3,0,0,5,2656.9,664.24,,Idle,0,20,FALSE,5,TRUE,11,Go Home,FALSE,FALSE,FALSE,FALSE,FALSE,FALSE,FALSE,FALSE,FALSE,FALSE,FALSE,FALSE,6.972739418,79.91578651,9.2,209.6,328,TRUE,1,1,FALSE,FALSE,FALSE,FALSE,,TRUE,FALSE,FALSE,Course Lock,49.2,,16.4,Calm,37,,1.12.8,Mavic Mini,1SDCH7G0169R0K,1SFLH6Q0AB03DJ,1SRCH7F014TAHX,1U5X071EXP5ZJG,72.6,0.2,3.2,4.818592,1.789552,0,0,Mavic Mini,1SDCH7G0169R0K,1SFLH6Q0AB03DJ,1SRCH7F014TAHX,1U5X071EXP5ZJG,DJI Fly,,1.12.8,954320B2-9F6C-B714-B2EF-D450BBE512BC,1SDCH7G0169R0K,,,,,6.972708232,79.91576842,5,,
2/25/2024,59:35.7,1m 47.6s,107.6,6.97271488,79.9157918,1.3,1.3,1.6,64,1.1,0.223694,0.447388,0.223694,0.447388,0,0,-1.789552,0,3.2,-0.9,-15.6,344.4,357.8,Tripod,Other,,15,5,TRUE,,Mavic Mini,TRUE,FALSE,,Smart,RC,FALSE,TRUE,FALSE,,,TRUE,,FALSE,FALSE,FALSE,FALSE,FALSE,FALSE,FALSE,FALSE,FALSE,FALSE,0,Follow Yaw,0,0,-6.8,353.2,FALSE,FALSE,FALSE,FALSE,FALSE,FALSE,,TRUE,Normal,,100,1024,1024,1439,1024,2,FALSE,FALSE,FALSE,FALSE,FALSE,0,FALSE,FALSE,FALSE,FALSE,90,7.883,1843,2050,7.935,FALSE,3.942,3.941,0.007,FALSE,FALSE,NA,90.5,90.5,90.5,0,0,0,0,5,2878.1,719.53,,Idle,0,20,FALSE,5,TRUE,11,Go Home,FALSE,FALSE,FALSE,FALSE,FALSE,FALSE,FALSE,FALSE,FALSE,FALSE,FALSE,FALSE,6.972713127,79.91579187,0.6,209.6,328,TRUE,1,1,FALSE,FALSE,FALSE,FALSE,,TRUE,FALSE,FALSE,Course Lock,49.2,,16.4,Calm,37,,1.12.8,Mavic Mini,1SDCH7G0169R0K,1SFLH6Q0AB03DJ,1SRCH7F014TAHX,1U5X071EXP5ZJG,72.6,0.2,3.2,4.818592,1.789552,0,0,Mavic Mini,1SDCH7G0169R0K,1SFLH6Q0AB03DJ,1SRCH7F014TAHX,1U5X071EXP5ZJG,DJI Fly,,1.12.8,954320B2-9F6C-B714-B2EF-D450BBE512BC,1SDCH7G0169R0K,,,,,6.972708232,79.91576842,5,Home Point Updated.,
2/25/2024,59:35.8,1m 47.7s,107.7,6.972715055,79.91579176,1.6,1.6,1.9,65,1.1,0,0.447388,0,0.447388,0,0,-1.789552,0,3.1,-0.7,-15.5,344.5,,Tripod,Other,,15,5,TRUE,,Mavic Mini,TRUE,FALSE,,Smart,RC,FALSE,TRUE,FALSE,,,TRUE,,FALSE,FALSE,FALSE,FALSE,FALSE,FALSE,FALSE,FALSE,FALSE,FALSE,0,Follow Yaw,0,0,-6.8,353.2,FALSE,FALSE,FALSE,FALSE,FALSE,FALSE,,TRUE,Normal,,100,1024,1024,1357,1024,2,FALSE,FALSE,FALSE,FALSE,FALSE,0,FALSE,FALSE,FALSE,FALSE,90,7.883,1843,2050,7.935,FALSE,3.942,3.941,0.007,FALSE,FALSE,NA,90.5,90.5,90.5,0,0,0,0,5,2878.1,719.53,,Idle,0,20,FALSE,5,TRUE,11,Go Home,FALSE,FALSE,FALSE,FALSE,FALSE,FALSE,FALSE,FALSE,FALSE,FALSE,FALSE,FALSE,6.972713127,79.91579187,0.7,209.6,328,TRUE,1,1,FALSE,FALSE,FALSE,FALSE,,TRUE,FALSE,FALSE,Course Lock,49.2,,16.4,Calm,37,,1.12.8,Mavic Mini,1SDCH7G0169R0K,1SFLH6Q0AB03DJ,1SRCH7F014TAHX,1U5X071EXP5ZJG,72.6,0.2,3.2,4.818592,1.789552,0,0,Mavic Mini,1SDCH7G0169R0K,1SFLH6Q0AB03DJ,1SRCH7F014TAHX,1U5X071EXP5ZJG,DJI Fly,,1.12.8,954320B2-9F6C-B714-B2EF-D450BBE512BC,1SDCH7G0169R0K,,,,,6.972708232,79.91576842,5,,
2/25/2024,59:35.9,1m 47.8s,107.8,6.972715191,79.9157917,1.9,1.9,2.2,65,1.2,0,0.447388,0,0.447388,0,0,-1.789552,0,3,-0.3,-15.4,344.6,,Tripod,Other,,15,5,TRUE,,Mavic Mini,TRUE,FALSE,,Smart,RC,FALSE,TRUE,FALSE,,,TRUE,,FALSE,FALSE,FALSE,FALSE,FALSE,FALSE,FALSE,FALSE,FALSE,FALSE,0,Follow Yaw,0,0,-6.8,353.2,FALSE,FALSE,FALSE,FALSE,FALSE,FALSE,,TRUE,Normal,,100,1024,1024,1144,1024,2,FALSE,FALSE,FALSE,FALSE,FALSE,0,FALSE,FALSE,FALSE,FALSE,90,7.883,1843,2050,7.935,FALSE,3.942,3.941,0.007,FALSE,FALSE,NA,90.5,90.5,90.5,0,0,0,0,5,2878.1,719.53,,Idle,0,20,FALSE,5,TRUE,11,Go Home,FALSE,FALSE,FALSE,FALSE,FALSE,FALSE,FALSE,FALSE,FALSE,FALSE,FALSE,FALSE,6.972713127,79.91579187,0.7,209.6,328,TRUE,1,1,FALSE,FALSE,FALSE,FALSE,,TRUE,FALSE,FALSE,Course Lock,49.2,,16.4,Calm,37,,1.12.8,Mavic Mini,1SDCH7G0169R0K,1SFLH6Q0AB03DJ,1SRCH7F014TAHX,1U5X071EXP5ZJG,72.6,0.2,3.2,4.818592,1.789552,0,0,Mavic Mini,1SDCH7G0169R0K,1SFLH6Q0AB03DJ,1SRCH7F014TAHX,1U5X071EXP5ZJG,DJI Fly,,1.12.8,954320B2-9F6C-B714-B2EF-D450BBE512BC,1SDCH7G0169R0K,,,,,6.972708232,79.91576842,5,,
2/25/2024,59:36.0,1m 47.9s,107.9,6.972715181,79.91579135,2.2,2.2,2.2,65,1.3,0,0.447388,0,0.447388,0,0,-1.789552,0,3.4,-0.2,-15.5,344.5,,Tripod,Other,,15,5,TRUE,,Mavic Mini,TRUE,FALSE,,Smart,RC,FALSE,TRUE,FALSE,,,TRUE,,FALSE,FALSE,FALSE,FALSE,FALSE,FALSE,FALSE,FALSE,FALSE,FALSE,0,Follow Yaw,0,0,-6.8,353.2,FALSE,FALSE,FALSE,FALSE,FALSE,FALSE,,TRUE,Normal,,100,1024,1024,1024,1024,2,FALSE,FALSE,FALSE,FALSE,FALSE,0,FALSE,FALSE,FALSE,FALSE,90,7.741,1842,2050,7.935,FALSE,3.87,3.871,0.007,FALSE,FALSE,NA,90.5,90.5,90.5,0,0,0,0,5,2878.1,719.53,,Idle,0,20,FALSE,5,TRUE,11,Go Home,FALSE,FALSE,FALSE,FALSE,FALSE,FALSE,FALSE,FALSE,FALSE,FALSE,FALSE,FALSE,6.972713127,79.91579187,0.7,209.6,328,TRUE,1,1,FALSE,FALSE,FALSE,FALSE,,TRUE,FALSE,FALSE,Course Lock,49.2,,16.4,Calm,37,,1.12.8,Mavic Mini,1SDCH7G0169R0K,1SFLH6Q0AB03DJ,1SRCH7F014TAHX,1U5X071EXP5ZJG,72.6,0.2,3.2,4.818592,1.789552,0,0,Mavic Mini,1SDCH7G0169R0K,1SFLH6Q0AB03DJ,1SRCH7F014TAHX,1U5X071EXP5ZJG,DJI Fly,,1.12.8,954320B2-9F6C-B714-B2EF-D450BBE512BC,1SDCH7G0169R0K,,,,,6.972708232,79.91576842,5,,
2/25/2024,59:36.1,1m 48.0s,108,6.972715211,79.91579126,2.2,2.2,2.6,65,1.3,0,0.447388,0,0.447388,0,0,-1.565858,0,2.4,-0.2,-15.4,344.6,,Tripod,Other,,15,5,TRUE,,Mavic Mini,TRUE,FALSE,,Smart,RC,FALSE,TRUE,FALSE,,,TRUE,,FALSE,FALSE,FALSE,FALSE,FALSE,FALSE,FALSE,FALSE,FALSE,FALSE,0,Follow Yaw,0,0,-6.8,353.2,FALSE,FALSE,FALSE,FALSE,FALSE,FALSE,,TRUE,Normal,,100,1024,1024,1024,763,2,FALSE,FALSE,FALSE,FALSE,FALSE,0,FALSE,FALSE,FALSE,FALSE,90,7.741,1842,2050,7.935,FALSE,3.87,3.871,0.007,FALSE,FALSE,NA,90.5,90.5,90.5,0,0,0,0,5,2878.1,719.53,,Idle,0,20,FALSE,5,TRUE,11,Go Home,FALSE,FALSE,FALSE,FALSE,FALSE,FALSE,FALSE,FALSE,FALSE,FALSE,FALSE,FALSE,6.972713127,79.91579187,0.7,209.6,328,TRUE,1,1,FALSE,FALSE,FALSE,FALSE,,TRUE,FALSE,FALSE,Course Lock,49.2,,16.4,Calm,37,,1.12.8,Mavic Mini,1SDCH7G0169R0K,1SFLH6Q0AB03DJ,1SRCH7F014TAHX,1U5X071EXP5ZJG,72.6,0.2,3.2,4.818592,1.789552,0,0,Mavic Mini,1SDCH7G0169R0K,1SFLH6Q0AB03DJ,1SRCH7F014TAHX,1U5X071EXP5ZJG,DJI Fly,,1.12.8,954320B2-9F6C-B714-B2EF-D450BBE512BC,1SDCH7G0169R0K,,,,,6.972708232,79.91576842,5,Home Point updated. RTH altitude adjusted to 15 m!' (Code: 120852).,
2/25/2024,59:36.2,1m 48.1s,108.1,6.972715204,79.9157913,2.6,2.6,2.9,66,1.4,0,0.447388,0,0.447388,0,0,-1.11847,0,1.7,0,-15.5,344.5,,Tripod,Other,,15,5,TRUE,,Mavic Mini,TRUE,FALSE,,Smart,RC,FALSE,TRUE,FALSE,,,TRUE,,FALSE,FALSE,FALSE,FALSE,FALSE,FALSE,FALSE,FALSE,FALSE,FALSE,0,Follow Yaw,0,0,-6.8,353.2,FALSE,FALSE,FALSE,FALSE,FALSE,FALSE,,TRUE,Normal,,100,1024,1024,1024,599,2,FALSE,FALSE,FALSE,FALSE,FALSE,0,FALSE,FALSE,FALSE,FALSE,90,7.741,1842,2050,7.935,FALSE,3.87,3.871,0.007,FALSE,FALSE,NA,90.5,90.5,90.5,0,0,0,0,5,2878.1,719.53,,Idle,0,20,FALSE,5,TRUE,11,Go Home,FALSE,FALSE,FALSE,FALSE,FALSE,FALSE,FALSE,FALSE,FALSE,FALSE,FALSE,FALSE,6.972713127,79.91579187,0.7,209.6,328,TRUE,1,1,FALSE,FALSE,FALSE,FALSE,,TRUE,FALSE,FALSE,Course Lock,49.2,,16.4,Calm,37,,1.12.8,Mavic Mini,1SDCH7G0169R0K,1SFLH6Q0AB03DJ,1SRCH7F014TAHX,1U5X071EXP5ZJG,72.6,0.2,3.2,4.818592,1.789552,0,0,Mavic Mini,1SDCH7G0169R0K,1SFLH6Q0AB03DJ,1SRCH7F014TAHX,1U5X071EXP5ZJG,DJI Fly,,1.12.8,954320B2-9F6C-B714-B2EF-D450BBE512BC,1SDCH7G0169R0K,,,,,6.972704208,79.91577186,5,,
2/25/2024,59:36.3,1m 48.2s,108.2,6.972715187,79.91579131,2.9,2.9,3.2,66,1.4,0,0.447388,0,0.447388,0,0,-0.671082,0,1.6,0.3,-15.5,344.5,,Tripod,Other,,15,5,TRUE,,Mavic Mini,TRUE,FALSE,,Smart,RC,FALSE,TRUE,FALSE,,,TRUE,,FALSE,FALSE,FALSE,FALSE,FALSE,FALSE,FALSE,FALSE,FALSE,FALSE,0,Follow Yaw,0,0,-6.9,353.1,FALSE,FALSE,FALSE,FALSE,FALSE,FALSE,,TRUE,Normal,,100,1024,1024,1024,596,2,FALSE,FALSE,FALSE,FALSE,FALSE,0,FALSE,FALSE,FALSE,FALSE,90,7.741,1842,2050,7.935,FALSE,3.87,3.871,0.007,FALSE,FALSE,NA,90.5,90.5,90.5,0,0,0,0,5,2878.1,719.53,,Idle,0,20,FALSE,5,TRUE,11,Go Home,FALSE,FALSE,FALSE,FALSE,FALSE,FALSE,FALSE,FALSE,FALSE,FALSE,FALSE,FALSE,6.972713127,79.91579187,0.7,209.6,328,TRUE,1,1,FALSE,FALSE,FALSE,FALSE,,TRUE,FALSE,FALSE,Course Lock,49.2,,16.4,Calm,37,,1.12.8,Mavic Mini,1SDCH7G0169R0K,1SFLH6Q0AB03DJ,1SRCH7F014TAHX,1U5X071EXP5ZJG,72.6,0.2,3.2,4.818592,1.789552,0,0,Mavic Mini,1SDCH7G0169R0K,1SFLH6Q0AB03DJ,1SRCH7F014TAHX,1U5X071EXP5ZJG,DJI Fly,,1.12.8,954320B2-9F6C-B714-B2EF-D450BBE512BC,1SDCH7G0169R0K,,,,,6.972704208,79.91577186,5,,
2/25/2024,59:36.4,1m 48.3s,108.3,6.972715114,79.91579131,2.9,2.9,3.2,66,1.4,0,0.447388,0,0.447388,0,0,-0.447388,0,1,0.4,-15.5,344.5,,Tripod,Other,,15,5,TRUE,,Mavic Mini,TRUE,FALSE,,Smart,RC,FALSE,TRUE,FALSE,,,TRUE,,FALSE,FALSE,FALSE,FALSE,FALSE,FALSE,FALSE,FALSE,FALSE,FALSE,0,Follow Yaw,0,0,-7.3,352.7,FALSE,FALSE,FALSE,FALSE,FALSE,FALSE,,TRUE,Normal,,100,1024,1024,1024,559,2,FALSE,FALSE,FALSE,FALSE,FALSE,0,FALSE,FALSE,FALSE,FALSE,90,7.741,1842,2050,7.935,FALSE,3.87,3.871,0.007,FALSE,FALSE,NA,90.5,90.5,90.5,0,0,0,0,5,2878.1,719.53,,Idle,0,20,FALSE,5,TRUE,11,Go Home,FALSE,FALSE,FALSE,FALSE,FALSE,FALSE,FALSE,FALSE,FALSE,FALSE,FALSE,FALSE,6.972713127,79.91579187,0.7,209.6,328,TRUE,1,1,FALSE,FALSE,FALSE,FALSE,,TRUE,FALSE,FALSE,Course Lock,49.2,,16.4,Calm,37,,1.12.8,Mavic Mini,1SDCH7G0169R0K,1SFLH6Q0AB03DJ,1SRCH7F014TAHX,1U5X071EXP5ZJG,72.6,0.2,3.2,4.818592,1.789552,0,0,Mavic Mini,1SDCH7G0169R0K,1SFLH6Q0AB03DJ,1SRCH7F014TAHX,1U5X071EXP5ZJG,DJI Fly,,1.12.8,954320B2-9F6C-B714-B2EF-D450BBE512BC,1SDCH7G0169R0K,,,,,6.972704208,79.91577186,5,,
2/25/2024,59:36.5,1m 48.4s,108.4,6.972715109,79.91579125,2.9,2.9,3.2,66,1.4,0,0.447388,0,0.447388,0,0,-0.223694,0,0.3,0.4,-15.8,344.2,,Tripod,Other,,15,5,TRUE,,Mavic Mini,TRUE,FALSE,,Smart,RC,FALSE,TRUE,FALSE,,,TRUE,,FALSE,FALSE,FALSE,FALSE,FALSE,FALSE,FALSE,FALSE,FALSE,FALSE,0,Follow Yaw,0,0,-8.1,351.9,FALSE,FALSE,FALSE,FALSE,FALSE,FALSE,,TRUE,Normal,,100,1024,1024,1024,525,2,FALSE,FALSE,FALSE,FALSE,FALSE,0,FALSE,FALSE,FALSE,FALSE,90,7.741,1842,2050,7.935,FALSE,3.87,3.871,0.007,FALSE,FALSE,NA,90.5,90.5,90.5,0,0,0,0,5,2878.1,719.53,,Idle,0,20,FALSE,5,TRUE,11,Go Home,FALSE,FALSE,FALSE,FALSE,FALSE,FALSE,FALSE,FALSE,FALSE,FALSE,FALSE,FALSE,6.972713127,79.91579187,0.7,209.6,328,TRUE,1,1,FALSE,FALSE,FALSE,FALSE,,TRUE,FALSE,FALSE,Course Lock,49.2,,16.4,Calm,37,,1.12.8,Mavic Mini,1SDCH7G0169R0K,1SFLH6Q0AB03DJ,1SRCH7F014TAHX,1U5X071EXP5ZJG,72.6,0.2,3.2,4.818592,1.789552,0,0,Mavic Mini,1SDCH7G0169R0K,1SFLH6Q0AB03DJ,1SRCH7F014TAHX,1U5X071EXP5ZJG,DJI Fly,,1.12.8,954320B2-9F6C-B714-B2EF-D450BBE512BC,1SDCH7G0169R0K,,,,,6.972704208,79.91577186,5,,
2/25/2024,59:36.6,1m 48.5s,108.5,6.97271511,79.91579127,2.9,2.9,3.2,66,1.4,0,0.447388,0,0.447388,0,0,0,0,-0.4,0.9,-16.1,343.9,,Tripod,Other,,15,5,TRUE,,Mavic Mini,TRUE,FALSE,,Smart,RC,FALSE,TRUE,FALSE,,,TRUE,,FALSE,FALSE,FALSE,FALSE,FALSE,FALSE,FALSE,FALSE,FALSE,FALSE,0,Follow Yaw,0,0,-9.1,350.9,FALSE,FALSE,FALSE,FALSE,FALSE,FALSE,,TRUE,Normal,,100,1024,1024,1024,525,2,FALSE,FALSE,FALSE,FALSE,FALSE,0,FALSE,FALSE,FALSE,FALSE,90,7.741,1842,2050,7.935,FALSE,3.87,3.871,0.007,FALSE,FALSE,NA,90.5,90.5,90.5,0,0,0,0,5,2878.1,719.53,,Idle,0,20,FALSE,5,TRUE,11,Go Home,FALSE,FALSE,FALSE,FALSE,FALSE,FALSE,FALSE,FALSE,FALSE,FALSE,FALSE,FALSE,6.972713127,79.91579187,0.7,209.6,328,TRUE,1,1,FALSE,FALSE,FALSE,FALSE,,TRUE,FALSE,FALSE,Course Lock,49.2,,16.4,Calm,37,,1.12.8,Mavic Mini,1SDCH7G0169R0K,1SFLH6Q0AB03DJ,1SRCH7F014TAHX,1U5X071EXP5ZJG,72.6,0.2,3.2,4.818592,1.789552,0,0,Mavic Mini,1SDCH7G0169R0K,1SFLH6Q0AB03DJ,1SRCH7F014TAHX,1U5X071EXP5ZJG,DJI Fly,,1.12.8,954320B2-9F6C-B714-B2EF-D450BBE512BC,1SDCH7G0169R0K,,,,,6.972704208,79.91577186,5,,
2/25/2024,59:36.7,1m 48.6s,108.6,6.972715116,79.91579129,2.9,2.9,3.2,66,1.4,0,0.447388,0,0.447388,0,0,0,0,0,1,-16.9,343.1,,Tripod,Other,,15,5,TRUE,,Mavic Mini,TRUE,FALSE,,Smart,RC,FALSE,TRUE,FALSE,,,TRUE,,FALSE,FALSE,FALSE,FALSE,FALSE,FALSE,FALSE,FALSE,FALSE,FALSE,0,Follow Yaw,0,0,-10.4,349.6,FALSE,FALSE,FALSE,FALSE,FALSE,FALSE,,TRUE,Normal,,100,1024,1024,1024,466,2,FALSE,FALSE,FALSE,FALSE,FALSE,0,FALSE,FALSE,FALSE,FALSE,90,7.741,1842,2050,7.749,FALSE,3.87,3.871,0.007,FALSE,FALSE,NA,90.5,90.5,90.5,0,0,1,0,5,3669.7,917.42,,Idle,0,20,FALSE,5,TRUE,11,Go Home,FALSE,FALSE,FALSE,FALSE,FALSE,FALSE,FALSE,FALSE,FALSE,FALSE,FALSE,FALSE,6.972713127,79.91579187,0.7,209.6,328,TRUE,1,1,FALSE,FALSE,FALSE,FALSE,,TRUE,FALSE,FALSE,Course Lock,49.2,,16.4,Calm,37,,1.12.8,Mavic Mini,1SDCH7G0169R0K,1SFLH6Q0AB03DJ,1SRCH7F014TAHX,1U5X071EXP5ZJG,72.6,0.2,3.2,4.818592,1.789552,0,0,Mavic Mini,1SDCH7G0169R0K,1SFLH6Q0AB03DJ,1SRCH7F014TAHX,1U5X071EXP5ZJG,DJI Fly,,1.12.8,954320B2-9F6C-B714-B2EF-D450BBE512BC,1SDCH7G0169R0K,,,,,6.972704208,79.91577186,5,,
2/25/2024,59:36.8,1m 48.7s,108.7,6.972715197,79.91579157,2.9,2.9,3.2,66,1.5,0,0.447388,0,0.447388,0,0,0,0,0,0.7,-18,342,,Tripod,Other,,15,5,TRUE,,Mavic Mini,TRUE,FALSE,,Smart,RC,FALSE,TRUE,FALSE,,,TRUE,,FALSE,FALSE,FALSE,FALSE,FALSE,FALSE,FALSE,FALSE,FALSE,FALSE,0,Follow Yaw,0,0,-11.7,348.3,FALSE,FALSE,FALSE,FALSE,FALSE,FALSE,,TRUE,Normal,,100,1024,1024,1024,443,2,FALSE,FALSE,FALSE,FALSE,FALSE,0,FALSE,FALSE,FALSE,FALSE,90,7.741,1842,2050,7.749,FALSE,3.87,3.871,0.007,FALSE,FALSE,NA,90.5,90.5,90.5,0,0,1,0,5,3669.7,917.42,,Idle,0,20,FALSE,5,TRUE,11,Go Home,FALSE,FALSE,FALSE,FALSE,FALSE,FALSE,FALSE,FALSE,FALSE,FALSE,FALSE,FALSE,6.972713127,79.91579187,0.7,209.6,328,TRUE,1,1,FALSE,FALSE,FALSE,FALSE,,TRUE,FALSE,FALSE,Course Lock,49.2,,16.4,Calm,37,,1.12.8,Mavic Mini,1SDCH7G0169R0K,1SFLH6Q0AB03DJ,1SRCH7F014TAHX,1U5X071EXP5ZJG,72.6,0.2,3.2,4.818592,1.789552,0,0,Mavic Mini,1SDCH7G0169R0K,1SFLH6Q0AB03DJ,1SRCH7F014TAHX,1U5X071EXP5ZJG,DJI Fly,,1.12.8,954320B2-9F6C-B714-B2EF-D450BBE512BC,1SDCH7G0169R0K,,,,,6.972704208,79.91577186,5,,
2/25/2024,59:36.9,1m 48.8s,108.8,6.97271522,79.9157916,2.9,2.9,3.2,66,1.5,0,0.447388,0,0.447388,0,0,0,0,-0.2,1.7,-19.3,340.7,,Tripod,Other,,15,5,TRUE,,Mavic Mini,TRUE,FALSE,,Smart,RC,FALSE,TRUE,FALSE,,,TRUE,,FALSE,FALSE,FALSE,FALSE,FALSE,FALSE,FALSE,FALSE,FALSE,FALSE,0,Follow Yaw,0,0,-13.3,346.7,FALSE,FALSE,FALSE,FALSE,FALSE,FALSE,,TRUE,Normal,,100,1024,1024,1024,419,2,FALSE,FALSE,FALSE,FALSE,FALSE,0,FALSE,FALSE,FALSE,FALSE,90,7.741,1842,2050,7.749,FALSE,3.87,3.871,0.007,FALSE,FALSE,NA,90.5,90.5,90.5,0,0,1,0,5,3669.7,917.42,,Idle,0,20,FALSE,5,TRUE,11,Go Home,FALSE,FALSE,FALSE,FALSE,FALSE,FALSE,FALSE,FALSE,FALSE,FALSE,FALSE,FALSE,6.972713127,79.91579187,0.7,209.6,328,TRUE,1,1,FALSE,FALSE,FALSE,FALSE,,TRUE,FALSE,FALSE,Course Lock,49.2,,16.4,Calm,37,,1.12.8,Mavic Mini,1SDCH7G0169R0K,1SFLH6Q0AB03DJ,1SRCH7F014TAHX,1U5X071EXP5ZJG,72.6,0.2,3.2,4.818592,1.789552,0,0,Mavic Mini,1SDCH7G0169R0K,1SFLH6Q0AB03DJ,1SRCH7F014TAHX,1U5X071EXP5ZJG,DJI Fly,,1.12.8,954320B2-9F6C-B714-B2EF-D450BBE512BC,1SDCH7G0169R0K,,,,,6.972704208,79.91577186,5,,
2/25/2024,59:37.0,1m 48.9s,108.9,6.972715238,79.91579159,2.9,2.9,3.2,66,1.6,0,0.447388,0,0.447388,0,0,0,0,0.8,1.8,-20.8,339.2,,Tripod,Other,,15,5,TRUE,,Mavic Mini,TRUE,FALSE,,Smart,RC,FALSE,TRUE,FALSE,,,TRUE,,FALSE,FALSE,FALSE,FALSE,FALSE,FALSE,FALSE,FALSE,FALSE,FALSE,0,Follow Yaw,0,0,-15.1,344.9,FALSE,FALSE,FALSE,FALSE,FALSE,FALSE,,TRUE,Normal,,100,1024,1024,1024,407,2,FALSE,FALSE,FALSE,FALSE,FALSE,0,FALSE,FALSE,FALSE,FALSE,90,7.741,1842,2050,7.749,FALSE,3.87,3.871,0.007,FALSE,FALSE,NA,90.5,90.5,90.5,0,0,1,0,5,3669.7,917.42,,Idle,0,20,FALSE,5,TRUE,11,Go Home,FALSE,FALSE,FALSE,FALSE,FALSE,FALSE,FALSE,FALSE,FALSE,FALSE,FALSE,FALSE,6.972713127,79.91579187,0.7,209.6,328,TRUE,1,1,FALSE,FALSE,FALSE,FALSE,,TRUE,FALSE,FALSE,Course Lock,49.2,,16.4,Calm,37,,1.12.8,Mavic Mini,1SDCH7G0169R0K,1SFLH6Q0AB03DJ,1SRCH7F014TAHX,1U5X071EXP5ZJG,72.6,0.2,3.2,4.818592,1.789552,0,0,Mavic Mini,1SDCH7G0169R0K,1SFLH6Q0AB03DJ,1SRCH7F014TAHX,1U5X071EXP5ZJG,DJI Fly,,1.12.8,954320B2-9F6C-B714-B2EF-D450BBE512BC,1SDCH7G0169R0K,,,,,6.972704208,79.91577186,5,,
2/25/2024,59:37.2,1m 49.0s,109,6.972715251,79.91579161,2.9,2.9,3.2,66,1.6,0,0.447388,0,0.447388,0,0,0,0,-0.1,1.4,-22.4,337.6,,Tripod,Other,,15,5,TRUE,,Mavic Mini,TRUE,FALSE,,Smart,RC,FALSE,TRUE,FALSE,,,TRUE,,FALSE,FALSE,FALSE,FALSE,FALSE,FALSE,FALSE,FALSE,FALSE,FALSE,0,Follow Yaw,0,0,-17,343,FALSE,FALSE,FALSE,FALSE,FALSE,FALSE,,TRUE,Normal,,100,1024,1024,1024,408,2,FALSE,FALSE,FALSE,FALSE,FALSE,0,FALSE,FALSE,FALSE,FALSE,90,7.759,1840,2050,7.749,FALSE,3.879,3.88,0.007,FALSE,FALSE,NA,90.7,90.5,90.6,0,0,1,0,5,3669.7,917.42,,Idle,0,20,FALSE,5,TRUE,11,Go Home,FALSE,FALSE,FALSE,FALSE,FALSE,FALSE,FALSE,FALSE,FALSE,FALSE,FALSE,FALSE,6.972713127,79.91579187,0.7,209.6,328,TRUE,1,1,FALSE,FALSE,FALSE,FALSE,,TRUE,FALSE,FALSE,Course Lock,49.2,,16.4,Calm,37,,1.12.8,Mavic Mini,1SDCH7G0169R0K,1SFLH6Q0AB03DJ,1SRCH7F014TAHX,1U5X071EXP5ZJG,72.6,0.2,3.2,4.818592,1.789552,0,0,Mavic Mini,1SDCH7G0169R0K,1SFLH6Q0AB03DJ,1SRCH7F014TAHX,1U5X071EXP5ZJG,DJI Fly,,1.12.8,954320B2-9F6C-B714-B2EF-D450BBE512BC,1SDCH7G0169R0K,,,,,6.972704208,79.91577186,5,,
2/25/2024,59:37.3,1m 49.1s,109.1,6.97271527,79.91579167,2.9,2.9,3.2,66,1.6,0,0.447388,0,0.447388,0,0,0,0,-0.1,0.1,-24.1,335.9,,Tripod,Other,,15,5,TRUE,,Mavic Mini,TRUE,FALSE,,Smart,RC,FALSE,TRUE,FALSE,,,TRUE,,FALSE,FALSE,FALSE,FALSE,FALSE,FALSE,FALSE,FALSE,FALSE,FALSE,0,Follow Yaw,0,0,-19,341,FALSE,FALSE,FALSE,FALSE,FALSE,FALSE,,TRUE,Normal,,100,1024,1024,1024,489,2,FALSE,FALSE,FALSE,FALSE,FALSE,0,FALSE,FALSE,FALSE,FALSE,90,7.759,1840,2050,7.749,FALSE,3.879,3.88,0.007,FALSE,FALSE,NA,90.7,90.5,90.6,0,0,1,0,5,3669.7,917.42,,Idle,0,20,FALSE,5,TRUE,11,Go Home,FALSE,FALSE,FALSE,FALSE,FALSE,FALSE,FALSE,FALSE,FALSE,FALSE,FALSE,FALSE,6.972713127,79.91579187,0.7,209.6,328,TRUE,1,1,FALSE,FALSE,FALSE,FALSE,,TRUE,FALSE,FALSE,Course Lock,49.2,,16.4,Calm,37,,1.12.8,Mavic Mini,1SDCH7G0169R0K,1SFLH6Q0AB03DJ,1SRCH7F014TAHX,1U5X071EXP5ZJG,72.6,0.2,3.2,4.818592,1.789552,0,0,Mavic Mini,1SDCH7G0169R0K,1SFLH6Q0AB03DJ,1SRCH7F014TAHX,1U5X071EXP5ZJG,DJI Fly,,1.12.8,954320B2-9F6C-B714-B2EF-D450BBE512BC,1SDCH7G0169R0K,,,,,6.972704208,79.91577186,5,,
2/25/2024,59:37.4,1m 49.2s,109.2,6.972715301,79.91579171,2.9,2.9,3.2,66,1.6,0,0.447388,0,0.447388,0,0,0,0,0.6,-0.7,-26,334,,Tripod,Other,,15,5,TRUE,,Mavic Mini,TRUE,FALSE,,Smart,RC,FALSE,TRUE,FALSE,,,TRUE,,FALSE,FALSE,FALSE,FALSE,FALSE,FALSE,FALSE,FALSE,FALSE,FALSE,0,Follow Yaw,0,0,-21.1,338.9,FALSE,FALSE,FALSE,FALSE,FALSE,FALSE,,TRUE,Normal,,100,1024,1024,1024,575,2,FALSE,FALSE,FALSE,FALSE,FALSE,0,FALSE,FALSE,FALSE,FALSE,90,7.759,1840,2050,7.749,FALSE,3.879,3.88,0.007,FALSE,FALSE,NA,90.7,90.5,90.6,0,0,1,0,5,3669.7,917.42,,Idle,0,20,FALSE,5,TRUE,11,Go Home,FALSE,FALSE,FALSE,FALSE,FALSE,FALSE,FALSE,FALSE,FALSE,FALSE,FALSE,FALSE,6.972713127,79.91579187,0.7,209.6,328,TRUE,1,1,FALSE,FALSE,FALSE,FALSE,,TRUE,FALSE,FALSE,Course Lock,49.2,,16.4,Calm,37,,1.12.8,Mavic Mini,1SDCH7G0169R0K,1SFLH6Q0AB03DJ,1SRCH7F014TAHX,1U5X071EXP5ZJG,72.6,0.2,3.2,4.818592,1.789552,0,0,Mavic Mini,1SDCH7G0169R0K,1SFLH6Q0AB03DJ,1SRCH7F014TAHX,1U5X071EXP5ZJG,DJI Fly,,1.12.8,954320B2-9F6C-B714-B2EF-D450BBE512BC,1SDCH7G0169R0K,,,,,6.972704208,79.91577186,5,,
2/25/2024,59:37.5,1m 49.3s,109.3,6.972715368,79.91579172,2.9,2.9,3.2,66,1.6,0,0.447388,0,0.447388,0,0,0,0,0.4,-0.6,-28.1,331.9,,Tripod,Other,,15,5,TRUE,,Mavic Mini,TRUE,FALSE,,Smart,RC,FALSE,TRUE,FALSE,,,TRUE,,FALSE,FALSE,FALSE,FALSE,FALSE,FALSE,FALSE,FALSE,FALSE,FALSE,0,Follow Yaw,0,0,-23.2,336.8,FALSE,FALSE,FALSE,FALSE,FALSE,FALSE,,TRUE,Normal,,100,1024,1024,669,776,2,FALSE,FALSE,FALSE,FALSE,FALSE,0,FALSE,FALSE,FALSE,FALSE,90,7.759,1840,2050,7.749,FALSE,3.879,3.88,0.007,FALSE,FALSE,NA,90.7,90.5,90.6,0,0,1,0,5,3669.7,917.42,,Idle,0,20,FALSE,5,TRUE,11,Go Home,FALSE,FALSE,FALSE,FALSE,FALSE,FALSE,FALSE,FALSE,FALSE,FALSE,FALSE,FALSE,6.972713127,79.91579187,0.8,209.6,328,TRUE,1,1,FALSE,FALSE,FALSE,FALSE,,TRUE,FALSE,FALSE,Course Lock,49.2,,16.4,Calm,37,,1.12.8,Mavic Mini,1SDCH7G0169R0K,1SFLH6Q0AB03DJ,1SRCH7F014TAHX,1U5X071EXP5ZJG,72.6,0.2,3.2,4.818592,1.789552,0,0,Mavic Mini,1SDCH7G0169R0K,1SFLH6Q0AB03DJ,1SRCH7F014TAHX,1U5X071EXP5ZJG,DJI Fly,,1.12.8,954320B2-9F6C-B714-B2EF-D450BBE512BC,1SDCH7G0169R0K,,,,,6.972704208,79.91577186,5,,
2/25/2024,59:37.6,1m 49.4s,109.4,6.972715417,79.91579172,2.9,2.9,3.2,66,1.6,0,0.447388,0,0.447388,0,0,0,0,1.1,-1.3,-30.3,329.7,,Tripod,Other,,15,5,TRUE,,Mavic Mini,TRUE,FALSE,,Smart,RC,FALSE,TRUE,FALSE,,,TRUE,,FALSE,FALSE,FALSE,FALSE,FALSE,FALSE,FALSE,FALSE,FALSE,FALSE,0,Follow Yaw,0,0,-25.2,334.8,FALSE,FALSE,FALSE,FALSE,FALSE,FALSE,,TRUE,Normal,,100,1024,1024,669,776,2,FALSE,FALSE,FALSE,FALSE,FALSE,0,FALSE,FALSE,FALSE,FALSE,90,7.759,1840,2050,7.749,FALSE,3.879,3.88,0.007,FALSE,FALSE,NA,90.7,90.5,90.6,0,0,1,0,5,3669.7,917.42,,Idle,0,20,FALSE,5,TRUE,11,Go Home,FALSE,FALSE,FALSE,FALSE,FALSE,FALSE,FALSE,FALSE,FALSE,FALSE,FALSE,FALSE,6.972713127,79.91579187,0.8,209.6,328,TRUE,1,1,FALSE,FALSE,FALSE,FALSE,,TRUE,FALSE,FALSE,Course Lock,49.2,,16.4,Calm,37,,1.12.8,Mavic Mini,1SDCH7G0169R0K,1SFLH6Q0AB03DJ,1SRCH7F014TAHX,1U5X071EXP5ZJG,72.6,0.2,3.2,4.818592,1.789552,0,0,Mavic Mini,1SDCH7G0169R0K,1SFLH6Q0AB03DJ,1SRCH7F014TAHX,1U5X071EXP5ZJG,DJI Fly,,1.12.8,954320B2-9F6C-B714-B2EF-D450BBE512BC,1SDCH7G0169R0K,,,,,6.972704208,79.91577186,5,,
2/25/2024,59:37.6,1m 49.5s,109.5,6.972715405,79.91579174,3.2,3.2,3.6,66,1.7,0,0.447388,0,0.447388,0,0,0,0,0.6,-0.8,-32.3,327.7,,Tripod,Other,,15,5,TRUE,,Mavic Mini,TRUE,FALSE,,Smart,RC,FALSE,TRUE,FALSE,,,TRUE,,FALSE,FALSE,FALSE,FALSE,FALSE,FALSE,FALSE,FALSE,FALSE,FALSE,0,Follow Yaw,0,0,-26.9,333.1,FALSE,FALSE,FALSE,FALSE,FALSE,FALSE,,TRUE,Normal,,100,1024,1024,485,855,2,FALSE,FALSE,FALSE,FALSE,FALSE,0,FALSE,FALSE,FALSE,FALSE,90,7.759,1840,2050,7.749,FALSE,3.879,3.88,0.007,FALSE,FALSE,NA,90.7,90.5,90.6,0,0,1,0,5,3669.7,917.42,,Idle,0,20,FALSE,5,TRUE,11,Go Home,FALSE,FALSE,FALSE,FALSE,FALSE,FALSE,FALSE,FALSE,FALSE,FALSE,FALSE,FALSE,6.972713127,79.91579187,0.8,209.6,328,TRUE,1,1,FALSE,FALSE,FALSE,FALSE,,TRUE,FALSE,FALSE,Course Lock,49.2,,16.4,Calm,37,,1.12.8,Mavic Mini,1SDCH7G0169R0K,1SFLH6Q0AB03DJ,1SRCH7F014TAHX,1U5X071EXP5ZJG,72.6,0.2,3.2,4.818592,1.789552,0,0,Mavic Mini,1SDCH7G0169R0K,1SFLH6Q0AB03DJ,1SRCH7F014TAHX,1U5X071EXP5ZJG,DJI Fly,,1.12.8,954320B2-9F6C-B714-B2EF-D450BBE512BC,1SDCH7G0169R0K,,,,,6.972704208,79.91577186,5,,
