CUSTOM.date [local],CUSTOM.updateTime [local],OSD.flyTime,OSD.flyTime [s],OSD.latitude,OSD.longitude,OSD.height [ft],OSD.heightMax [ft],OSD.vpsHeight [ft],OSD.altitude [ft],OSD.mileage [ft],OSD.hSpeed [MPH],OSD.hSpeedMax [MPH],OSD.xSpeed [MPH],OSD.xSpeedMax [MPH],OSD.ySpeed [MPH],OSD.ySpeedMax [MPH],OSD.zSpeed [MPH],OSD.zSpeedMax [MPH],OSD.pitch,OSD.roll,OSD.yaw,OSD.yaw [360],OSD.directionOfTravel,OSD.flycState,OSD.flycCommand,OSD.flightAction,OSD.gpsNum,OSD.gpsLevel,OSD.isGPSUsed,OSD.nonGPSCause,OSD.droneType,OSD.isSwaveWork,OSD.waveError,OSD.goHomeStatus,OSD.batteryType,OSD.ctrlDevice,OSD.isOnGround,OSD.isMotorOn,OSD.isMotorBlocked,OSD.motorStartFailedCause,OSD.motorFailReason,OSD.isImuPreheated,OSD.imuInitFailReason,OSD.isAcceletorOverRange,OSD.isBarometerDeadInAir,OSD.isCompassError,OSD.isGoHomeHeightModified,OSD.canIOCWork,OSD.isNotEnoughForce,OSD.isOutOfLimit,OSD.isPropellerCatapult,OSD.isVibrating,OSD.isVisionUsed,OSD.voltageWarning,GIMBAL.mode,GIMBAL.pitch,GIMBAL.roll,GIMBAL.yaw,GIMBAL.yaw [360],GIMBAL.isPitchAtLimit,GIMBAL.isRollAtLimit,GIMBAL.isYawAtLimit,GIMBAL.isStuck,CAMERA.isPhoto,CAMERA.isVideo,CAMERA.filename,CAMERA.sdCardIsInserted,CAMERA.sdCardState,RC.downlinkSignal,RC.uplinkSignal,RC.aileron,RC.elevator,RC.throttle,RC.rudder,RC.mode,RC.goHomeDepressed,RC.recordDepressed,RC.shutterDepressed,RC.playbackDepressed,RC.wheelDepressed,RC.wheelOffset,RC.custom1Depressed,RC.custom2Depressed,RC.custom3Depressed,RC.custom4Depressed,BATTERY.chargeLevel,BATTERY.currentPV [V],BATTERY.currentCapacity [mAh],BATTERY.fullCapacity [mAh],BATTERY.voltage [V],BATTERY.isCellVoltageEstimated,BATTERY.cellVoltage1 [V],BATTERY.cellVoltage2 [V],BATTERY.maxCellVoltageDeviation,BATTERY.isCellVoltageDeviationHigh,BATTERY.isVoltageLow,BATTERY.current [A],BATTERY.temperature [F],BATTERY.minTemperature [F],BATTERY.maxTemperature [F],BATTERY.usefulTime [s],BATTERY.goHomeTime [s],BATTERY.landTime [s],BATTERY.goHomeBattery,BATTERY.landBattery,BATTERY.safeFlyRadius,BATTERY.volumeConsume,BATTERY.status,BATTERY.goHomeStatus,BATTERY.goHomeCountdown,BATTERY.lowWarning,BATTERY.lowWarningGoHome,BATTERY.seriousLowWarning,BATTERY.seriousLowWarningLanding,BATTERY.timesCharged,MC.failSafeAction,MC.isObstacleAvoidanceEnabled,MC.isCollisionAvoidanceEnabled,MC.isRthObstacleAvoidanceEnabled,MC.isBraking,MC.isAvoidingObstacle,MC.isAvoidingActiveObstacle,MC.isAscentLimitedByObstacle,MC.isLandingConfirmationNeeded,MC.atLowAltitudeLimit,MC.atDistanceLimit,MC.atAirportAltitudeLimit,MC.atAirportBoundary,HOME.latitude,HOME.longitude,HOME.distance [ft],HOME.height [ft],HOME.heightLimit [ft],HOME.isHomeRecord,HOME.goHomeMode,HOME.aircraftHeadDirection,HOME.isDynamicHomePointEnabled,HOME.isReachedLimitDistance,HOME.isReachedLimitHeight,HOME.isCompassCalibrating,HOME.compassCalibrationState,HOME.isMultipleFlightModeEnabled,HOME.isBeginnerMode,HOME.isIOCEnabled,HOME.iocMode,HOME.goHomeHeight [ft],HOME.courseLockAngle,HOME.forceLandingHeight [ft],HOME.wind,HOME.dataRecorderFileIndex,RECOVER.appType,RECOVER.appVersion,RECOVER.aircraftName,RECOVER.aircraftSerial,RECOVER.cameraSerial,RECOVER.rcSerial,RECOVER.batterySerial,DETAILS.totalTime [s],DETAILS.totalDistance [ft],DETAILS.maxHeight [ft],DETAILS.maxHorizontalSpeed [MPH],DETAILS.maxVerticalSpeed [MPH],DETAILS.photoNum,DETAILS.videoTime [s],DETAILS.aircraftName,DETAILS.aircraftSerial,DETAILS.cameraSerial,DETAILS.rcSerial,DETAILS.batterySerial,DETAILS.appName,DETAILS.appType,DETAILS.appVersion,DETAILS.guid,SERIAL.flightController,SERIAL.camera,SERIAL.gimbal,SERIAL.rc,SERIAL.battery,APPGPS.latitude,APPGPS.longitude,APPGPS.accuracy,APP.tip,APP.warning
2/15/2024,38:33.7,6m 12.7s,372.7,6.974498919,79.91427464,0,0,1.6,49,0,0,0,0,0,0,0,0,0,4.4,0.4,33.5,33.5,,P-GPS,Auto Fly,Takeoff (RC Assisted),15,5,TRUE,,Mavic Mini,FALSE,FALSE,,Smart,RC,TRUE,TRUE,FALSE,,,TRUE,,FALSE,FALSE,FALSE,FALSE,FALSE,FALSE,FALSE,FALSE,FALSE,FALSE,0,Follow Yaw,1.9,0,60,60,FALSE,FALSE,FALSE,FALSE,FALSE,FALSE,,TRUE,Normal,,,430,380,426,1582,1,FALSE,FALSE,FALSE,FALSE,FALSE,0,FALSE,FALSE,FALSE,FALSE,74,7.774,1557,2113,7.774,TRUE,3.887,3.887,,FALSE,FALSE,NA,105.4,105.4,105.4,,,,,,,,,Idle,,,TRUE,,FALSE,9,Go Home,FALSE,FALSE,FALSE,FALSE,FALSE,FALSE,FALSE,FALSE,FALSE,FALSE,FALSE,FALSE,,,,,,FALSE,,,FALSE,FALSE,FALSE,FALSE,,FALSE,FALSE,FALSE,,,,,Calm,,,1.12.8,Mavic Mini,1SDCH7G0169R0K,1SFLH6Q0AB03DJ,1SRCH7F014TAHX,1U5X071EXP5ZJG,52,0.1,3.2,6.303249,2.013246,0,0,Mavic Mini,1SDCH7G0169R0K,1SFLH6Q0AB03DJ,1SRCH7F014TAHX,1U5X071EXP5ZJG,DJI Fly,,1.12.8,6B4AA69A-E28A-4728-3BB2-266FB97A0999,1SDCH7G0169R0K,,,,,,,,Flight mode changed to P-GPS.,
2/15/2024,32:21.1,6m 12.8s,372.8,6.974498967,79.91427468,0,0,1.6,49,0,0,0,0,0,0,0,0,0,4.4,0.4,33.5,33.5,,Starting Motors,Auto Fly,Takeoff (RC Assisted),15,5,TRUE,,Mavic Mini,FALSE,FALSE,,Smart,RC,TRUE,TRUE,FALSE,,,TRUE,,FALSE,FALSE,FALSE,FALSE,FALSE,FALSE,FALSE,FALSE,FALSE,FALSE,0,Follow Yaw,1.9,0,60,60,FALSE,FALSE,FALSE,FALSE,FALSE,FALSE,,TRUE,Normal,,,1024,1024,1024,1024,1,FALSE,FALSE,FALSE,FALSE,FALSE,0,FALSE,FALSE,FALSE,FALSE,74,7.774,1557,2113,7.774,TRUE,3.887,3.887,,FALSE,FALSE,NA,105.4,105.4,105.4,,,,,,,,,Idle,,,TRUE,,FALSE,9,Go Home,FALSE,FALSE,FALSE,FALSE,FALSE,FALSE,FALSE,FALSE,FALSE,FALSE,FALSE,FALSE,,,,,,FALSE,,,FALSE,FALSE,FALSE,FALSE,,FALSE,FALSE,FALSE,,,,,Calm,,,1.12.8,Mavic Mini,1SDCH7G0169R0K,1SFLH6Q0AB03DJ,1SRCH7F014TAHX,1U5X071EXP5ZJG,52,0.1,3.2,6.303249,2.013246,0,0,Mavic Mini,1SDCH7G0169R0K,1SFLH6Q0AB03DJ,1SRCH7F014TAHX,1U5X071EXP5ZJG,DJI Fly,,1.12.8,6B4AA69A-E28A-4728-3BB2-266FB97A0999,1SDCH7G0169R0K,,,,,,,,Flight mode changed to Starting Motors.,
2/15/2024,32:21.2,6m 12.9s,372.9,6.974498976,79.91427466,0,0,1.6,49,0,0,0,0,0,0,0,0,0,4.4,0.4,33.5,33.5,,Starting Motors,Auto Fly,Takeoff (RC Assisted),15,5,TRUE,,Mavic Mini,FALSE,FALSE,,Smart,RC,TRUE,TRUE,FALSE,,,TRUE,,FALSE,FALSE,FALSE,FALSE,FALSE,FALSE,FALSE,FALSE,FALSE,FALSE,0,Follow Yaw,1.9,0,60,60,FALSE,FALSE,FALSE,FALSE,FALSE,FALSE,,TRUE,Normal,,100,1024,1024,1024,1024,1,FALSE,FALSE,FALSE,FALSE,FALSE,0,FALSE,FALSE,FALSE,FALSE,74,7.774,1557,2113,7.774,TRUE,3.887,3.887,,FALSE,FALSE,NA,105.4,105.4,105.4,,,,,,,,,Idle,,,TRUE,,FALSE,9,Go Home,FALSE,FALSE,FALSE,FALSE,FALSE,FALSE,FALSE,FALSE,FALSE,FALSE,FALSE,FALSE,,,,,,FALSE,,,FALSE,FALSE,FALSE,FALSE,,FALSE,FALSE,FALSE,,,,,Calm,,,1.12.8,Mavic Mini,1SDCH7G0169R0K,1SFLH6Q0AB03DJ,1SRCH7F014TAHX,1U5X071EXP5ZJG,52,0.1,3.2,6.303249,2.013246,0,0,Mavic Mini,1SDCH7G0169R0K,1SFLH6Q0AB03DJ,1SRCH7F014TAHX,1U5X071EXP5ZJG,DJI Fly,,1.12.8,6B4AA69A-E28A-4728-3BB2-266FB97A0999,1SDCH7G0169R0K,,,,,,,,,
2/15/2024,32:21.3,6m 13.0s,373,6.974498985,79.9142747,0,0,1.6,49,0,0,0,0,0,0,0,0,0,4.4,0.4,33.5,33.5,,Starting Motors,Auto Fly,Takeoff (RC Assisted),15,5,TRUE,,Mavic Mini,FALSE,FALSE,,Smart,RC,TRUE,TRUE,FALSE,,,TRUE,,FALSE,FALSE,FALSE,FALSE,FALSE,FALSE,FALSE,FALSE,FALSE,FALSE,0,Follow Yaw,1.9,0,60,60,FALSE,FALSE,FALSE,FALSE,FALSE,FALSE,,TRUE,Normal,,100,1024,1024,1024,1024,1,FALSE,FALSE,FALSE,FALSE,FALSE,0,FALSE,FALSE,FALSE,FALSE,74,7.774,1557,2113,7.774,TRUE,3.887,3.887,,FALSE,FALSE,NA,105.4,105.4,105.4,,,,,,,,,Idle,,,TRUE,,FALSE,9,Go Home,FALSE,FALSE,FALSE,FALSE,FALSE,FALSE,FALSE,FALSE,FALSE,FALSE,FALSE,FALSE,,,,,,FALSE,,,FALSE,FALSE,FALSE,FALSE,,FALSE,FALSE,FALSE,,,,,Calm,,,1.12.8,Mavic Mini,1SDCH7G0169R0K,1SFLH6Q0AB03DJ,1SRCH7F014TAHX,1U5X071EXP5ZJG,52,0.1,3.2,6.303249,2.013246,0,0,Mavic Mini,1SDCH7G0169R0K,1SFLH6Q0AB03DJ,1SRCH7F014TAHX,1U5X071EXP5ZJG,DJI Fly,,1.12.8,6B4AA69A-E28A-4728-3BB2-266FB97A0999,1SDCH7G0169R0K,,,,,,,,,
2/15/2024,32:21.4,6m 13.1s,373.1,6.974499028,79.91427479,0,0,1.6,49,0,0,0,0,0,0,0,0,0,4.4,0.4,33.6,33.6,,Starting Motors,Auto Fly,Takeoff (RC Assisted),15,5,TRUE,,Mavic Mini,FALSE,FALSE,,Smart,RC,TRUE,TRUE,FALSE,,,TRUE,,FALSE,FALSE,FALSE,FALSE,FALSE,FALSE,FALSE,FALSE,FALSE,FALSE,0,Follow Yaw,1.9,0,60,60,FALSE,FALSE,FALSE,FALSE,FALSE,FALSE,,TRUE,Normal,,100,1024,1024,1024,1024,1,FALSE,FALSE,FALSE,FALSE,FALSE,0,FALSE,FALSE,FALSE,FALSE,74,7.774,1557,2113,7.774,TRUE,3.887,3.887,,FALSE,FALSE,NA,105.4,105.4,105.4,,,,,,,,,Idle,,,TRUE,,FALSE,9,Go Home,FALSE,FALSE,FALSE,FALSE,FALSE,FALSE,FALSE,FALSE,FALSE,FALSE,FALSE,FALSE,,,,,,FALSE,,,FALSE,FALSE,FALSE,FALSE,,FALSE,FALSE,FALSE,,,,,Calm,,,1.12.8,Mavic Mini,1SDCH7G0169R0K,1SFLH6Q0AB03DJ,1SRCH7F014TAHX,1U5X071EXP5ZJG,52,0.1,3.2,6.303249,2.013246,0,0,Mavic Mini,1SDCH7G0169R0K,1SFLH6Q0AB03DJ,1SRCH7F014TAHX,1U5X071EXP5ZJG,DJI Fly,,1.12.8,6B4AA69A-E28A-4728-3BB2-266FB97A0999,1SDCH7G0169R0K,,,,,,,,,
2/15/2024,32:21.4,6m 13.2s,373.2,6.974499074,79.91427488,0,0,1.6,49,0,0,0,0,0,0,0,0,0,4.4,0.5,33.3,33.3,,Starting Motors,Auto Fly,Takeoff (RC Assisted),15,5,TRUE,,Mavic Mini,FALSE,FALSE,,Smart,RC,TRUE,TRUE,FALSE,,,TRUE,,FALSE,FALSE,FALSE,FALSE,FALSE,FALSE,FALSE,FALSE,FALSE,FALSE,0,Follow Yaw,1.8,0,60,60,FALSE,FALSE,FALSE,FALSE,FALSE,FALSE,,TRUE,Normal,,100,1024,1024,1024,1024,1,FALSE,FALSE,FALSE,FALSE,FALSE,0,FALSE,FALSE,FALSE,FALSE,74,7.765,1557,2113,7.765,FALSE,3.884,3.881,0.003,FALSE,FALSE,NA,105.6,105.4,105.6,,,,,,,,,Idle,,,TRUE,,FALSE,9,Go Home,FALSE,FALSE,FALSE,FALSE,FALSE,FALSE,FALSE,FALSE,FALSE,FALSE,FALSE,FALSE,,,,,,FALSE,,,FALSE,FALSE,FALSE,FALSE,,FALSE,FALSE,FALSE,,,,,Calm,,,1.12.8,Mavic Mini,1SDCH7G0169R0K,1SFLH6Q0AB03DJ,1SRCH7F014TAHX,1U5X071EXP5ZJG,52,0.1,3.2,6.303249,2.013246,0,0,Mavic Mini,1SDCH7G0169R0K,1SFLH6Q0AB03DJ,1SRCH7F014TAHX,1U5X071EXP5ZJG,DJI Fly,,1.12.8,6B4AA69A-E28A-4728-3BB2-266FB97A0999,1SDCH7G0169R0K,,,,,,,,,
2/15/2024,32:21.5,6m 13.3s,373.3,6.974499085,79.91427501,0,0,1.6,49,0.1,0,0,0,0,0,0,0,0,4.4,0.4,33.4,33.4,,Starting Motors,Auto Fly,Takeoff (RC Assisted),15,5,TRUE,,Mavic Mini,FALSE,FALSE,,Smart,RC,TRUE,TRUE,FALSE,,,TRUE,,FALSE,FALSE,FALSE,FALSE,FALSE,FALSE,FALSE,FALSE,FALSE,FALSE,0,Follow Yaw,1.9,0,60,60,FALSE,FALSE,FALSE,FALSE,FALSE,FALSE,,TRUE,Normal,,100,1024,1024,1024,1024,1,FALSE,FALSE,FALSE,FALSE,FALSE,0,FALSE,FALSE,FALSE,FALSE,74,7.765,1557,2113,7.765,FALSE,3.884,3.881,0.003,FALSE,FALSE,NA,105.6,105.4,105.6,0,0,0,0,5,2052,513.02,,Idle,0,20,FALSE,5,TRUE,9,Go Home,FALSE,FALSE,FALSE,FALSE,FALSE,FALSE,FALSE,FALSE,FALSE,FALSE,FALSE,FALSE,6.974496694,79.91427517,0.8,125.9,328,TRUE,1,1,FALSE,FALSE,FALSE,FALSE,,TRUE,FALSE,FALSE,Course Lock,65.6,41.9,16.4,Calm,27,,1.12.8,Mavic Mini,1SDCH7G0169R0K,1SFLH6Q0AB03DJ,1SRCH7F014TAHX,1U5X071EXP5ZJG,52,0.1,3.2,6.303249,2.013246,0,0,Mavic Mini,1SDCH7G0169R0K,1SFLH6Q0AB03DJ,1SRCH7F014TAHX,1U5X071EXP5ZJG,DJI Fly,,1.12.8,6B4AA69A-E28A-4728-3BB2-266FB97A0999,1SDCH7G0169R0K,,,,,,,,Data Recorder File Index is 27.; Set Return to Home (RTH) altitude to 20 m (66 ft).; Set maximum flight altitude to 100 m (328 ft).,
2/15/2024,32:21.7,6m 13.4s,373.4,6.974499096,79.91427507,0,0,1.6,49,0.1,0,0,0,0,0,0,0,0,4.4,0.4,33.5,33.5,,Starting Motors,Auto Fly,Takeoff (RC Assisted),15,5,TRUE,,Mavic Mini,FALSE,FALSE,,Smart,RC,TRUE,TRUE,FALSE,,,TRUE,,FALSE,FALSE,FALSE,FALSE,FALSE,FALSE,FALSE,FALSE,FALSE,FALSE,0,Follow Yaw,1.9,0,60,60,FALSE,FALSE,FALSE,FALSE,FALSE,FALSE,,TRUE,Normal,,100,1024,1024,1024,1024,1,FALSE,FALSE,FALSE,FALSE,FALSE,0,FALSE,FALSE,FALSE,FALSE,74,7.765,1557,2113,7.765,FALSE,3.884,3.881,0.003,FALSE,FALSE,NA,105.6,105.4,105.6,0,0,0,0,5,2052,513.02,,Idle,0,20,FALSE,5,TRUE,9,Go Home,FALSE,FALSE,FALSE,FALSE,FALSE,FALSE,FALSE,FALSE,FALSE,FALSE,FALSE,FALSE,6.974496694,79.91427517,0.8,125.9,328,TRUE,1,1,FALSE,FALSE,FALSE,FALSE,,TRUE,FALSE,FALSE,Course Lock,65.6,41.9,16.4,Calm,27,,1.12.8,Mavic Mini,1SDCH7G0169R0K,1SFLH6Q0AB03DJ,1SRCH7F014TAHX,1U5X071EXP5ZJG,52,0.1,3.2,6.303249,2.013246,0,0,Mavic Mini,1SDCH7G0169R0K,1SFLH6Q0AB03DJ,1SRCH7F014TAHX,1U5X071EXP5ZJG,DJI Fly,,1.12.8,6B4AA69A-E28A-4728-3BB2-266FB97A0999,1SDCH7G0169R0K,,,,,,,,,
2/15/2024,32:21.7,6m 13.5s,373.5,6.974499092,79.91427511,0,0,1.6,49,0.1,0,0,0,0,0,0,0,0,4.5,0.3,33.5,33.5,,Starting Motors,Auto Fly,Takeoff (RC Assisted),15,5,TRUE,,Mavic Mini,FALSE,FALSE,,Smart,RC,TRUE,TRUE,FALSE,,,TRUE,,FALSE,FALSE,FALSE,FALSE,FALSE,FALSE,FALSE,FALSE,FALSE,FALSE,0,Follow Yaw,1.9,0,60,60,FALSE,FALSE,FALSE,FALSE,FALSE,FALSE,,TRUE,Normal,,100,1024,1024,1024,1024,1,FALSE,FALSE,FALSE,FALSE,FALSE,0,FALSE,FALSE,FALSE,FALSE,74,7.765,1557,2113,7.765,FALSE,3.884,3.881,0.003,FALSE,FALSE,NA,105.6,105.4,105.6,0,0,0,0,5,2052,513.02,,Idle,0,20,FALSE,5,TRUE,9,Go Home,FALSE,FALSE,FALSE,FALSE,FALSE,FALSE,FALSE,FALSE,FALSE,FALSE,FALSE,FALSE,6.974496694,79.91427517,0.8,125.9,328,TRUE,1,1,FALSE,FALSE,FALSE,FALSE,,TRUE,FALSE,FALSE,Course Lock,65.6,41.9,16.4,Calm,27,,1.12.8,Mavic Mini,1SDCH7G0169R0K,1SFLH6Q0AB03DJ,1SRCH7F014TAHX,1U5X071EXP5ZJG,52,0.1,3.2,6.303249,2.013246,0,0,Mavic Mini,1SDCH7G0169R0K,1SFLH6Q0AB03DJ,1SRCH7F014TAHX,1U5X071EXP5ZJG,DJI Fly,,1.12.8,6B4AA69A-E28A-4728-3BB2-266FB97A0999,1SDCH7G0169R0K,,,,,,,,,
2/15/2024,32:21.8,6m 13.6s,373.6,6.974499089,79.91427516,0,0,1.6,49,0.1,0,0,0,0,0,0,0,0,4.4,0.3,33.6,33.6,,Starting Motors,Auto Fly,Takeoff (RC Assisted),15,5,TRUE,,Mavic Mini,FALSE,FALSE,,Smart,RC,TRUE,TRUE,FALSE,,,TRUE,,FALSE,FALSE,FALSE,FALSE,FALSE,FALSE,FALSE,FALSE,FALSE,FALSE,0,Follow Yaw,1.8,0,60,60,FALSE,FALSE,FALSE,FALSE,FALSE,FALSE,,TRUE,Normal,,100,1024,1024,1024,1024,1,FALSE,FALSE,FALSE,FALSE,FALSE,0,FALSE,FALSE,FALSE,FALSE,74,7.765,1557,2113,7.765,FALSE,3.884,3.881,0.003,FALSE,FALSE,NA,105.6,105.4,105.6,0,0,0,0,5,2052,513.02,,Idle,0,20,FALSE,5,TRUE,9,Go Home,FALSE,FALSE,FALSE,FALSE,FALSE,FALSE,FALSE,FALSE,FALSE,FALSE,FALSE,FALSE,6.974496694,79.91427517,0.8,125.9,328,TRUE,1,1,FALSE,FALSE,FALSE,FALSE,,TRUE,FALSE,FALSE,Course Lock,65.6,41.9,16.4,Calm,27,,1.12.8,Mavic Mini,1SDCH7G0169R0K,1SFLH6Q0AB03DJ,1SRCH7F014TAHX,1U5X071EXP5ZJG,52,0.1,3.2,6.303249,2.013246,0,0,Mavic Mini,1SDCH7G0169R0K,1SFLH6Q0AB03DJ,1SRCH7F014TAHX,1U5X071EXP5ZJG,DJI Fly,,1.12.8,6B4AA69A-E28A-4728-3BB2-266FB97A0999,1SDCH7G0169R0K,,,,,,,,,
2/15/2024,32:22.1,6m 13.7s,373.7,6.97449912,79.91427516,0,0,1.6,49,0.2,0,0,0,0,0,0,0,0,4.4,0.3,33.6,33.6,,Starting Motors,Auto Fly,Takeoff (RC Assisted),15,5,TRUE,,Mavic Mini,FALSE,FALSE,,Smart,RC,TRUE,TRUE,FALSE,,,TRUE,,FALSE,FALSE,FALSE,FALSE,FALSE,FALSE,FALSE,FALSE,FALSE,FALSE,0,Follow Yaw,1.9,0,60,60,FALSE,FALSE,FALSE,FALSE,FALSE,FALSE,,TRUE,Normal,,100,1024,1024,1024,1024,1,FALSE,FALSE,FALSE,FALSE,FALSE,0,FALSE,FALSE,FALSE,FALSE,74,7.765,1557,2113,7.765,FALSE,3.884,3.881,0.003,FALSE,FALSE,NA,105.6,105.4,105.6,0,0,0,0,5,2052,513.02,,Idle,0,20,FALSE,5,TRUE,9,Go Home,FALSE,FALSE,FALSE,FALSE,FALSE,FALSE,FALSE,FALSE,FALSE,FALSE,FALSE,FALSE,6.974496694,79.91427517,0.8,125.9,328,TRUE,1,1,FALSE,FALSE,FALSE,FALSE,,TRUE,FALSE,FALSE,Course Lock,65.6,41.9,16.4,Calm,27,,1.12.8,Mavic Mini,1SDCH7G0169R0K,1SFLH6Q0AB03DJ,1SRCH7F014TAHX,1U5X071EXP5ZJG,52,0.1,3.2,6.303249,2.013246,0,0,Mavic Mini,1SDCH7G0169R0K,1SFLH6Q0AB03DJ,1SRCH7F014TAHX,1U5X071EXP5ZJG,DJI Fly,,1.12.8,6B4AA69A-E28A-4728-3BB2-266FB97A0999,1SDCH7G0169R0K,,,,,,,,,
2/15/2024,32:22.1,6m 13.8s,373.8,6.974499163,79.9142752,0,0,1.6,49,0.2,0,0,0,0,0,0,0,0,4.5,0.3,33.6,33.6,,Starting Motors,Auto Fly,Takeoff (RC Assisted),15,5,TRUE,,Mavic Mini,FALSE,FALSE,,Smart,RC,TRUE,TRUE,FALSE,,,TRUE,,FALSE,FALSE,FALSE,FALSE,FALSE,FALSE,FALSE,FALSE,FALSE,FALSE,0,Follow Yaw,1.9,0,60,60,FALSE,FALSE,FALSE,FALSE,FALSE,FALSE,,TRUE,Normal,,100,1024,1024,1024,1024,1,FALSE,FALSE,FALSE,FALSE,FALSE,0,FALSE,FALSE,FALSE,FALSE,74,7.765,1557,2113,7.765,FALSE,3.884,3.881,0.003,FALSE,FALSE,NA,105.6,105.4,105.6,0,0,0,0,5,2052,513.02,,Idle,0,20,FALSE,5,TRUE,9,Go Home,FALSE,FALSE,FALSE,FALSE,FALSE,FALSE,FALSE,FALSE,FALSE,FALSE,FALSE,FALSE,6.974496694,79.91427517,0.9,125.9,328,TRUE,1,1,FALSE,FALSE,FALSE,FALSE,,TRUE,FALSE,FALSE,Course Lock,65.6,41.9,16.4,Calm,27,,1.12.8,Mavic Mini,1SDCH7G0169R0K,1SFLH6Q0AB03DJ,1SRCH7F014TAHX,1U5X071EXP5ZJG,52,0.1,3.2,6.303249,2.013246,0,0,Mavic Mini,1SDCH7G0169R0K,1SFLH6Q0AB03DJ,1SRCH7F014TAHX,1U5X071EXP5ZJG,DJI Fly,,1.12.8,6B4AA69A-E28A-4728-3BB2-266FB97A0999,1SDCH7G0169R0K,,,,,,,,,
2/15/2024,32:22.2,6m 13.9s,373.9,6.974499174,79.91427524,0,0,1.6,49,0.2,0,0,0,0,0,0,0,0,4.4,0.3,33.6,33.6,,Manual Takeoff,Auto Fly,Takeoff (RC Assisted),15,5,TRUE,,Mavic Mini,FALSE,FALSE,,Smart,RC,TRUE,TRUE,FALSE,,,TRUE,,FALSE,FALSE,FALSE,FALSE,FALSE,FALSE,FALSE,FALSE,FALSE,FALSE,0,Follow Yaw,1.9,0,60,60,FALSE,FALSE,FALSE,FALSE,FALSE,FALSE,,TRUE,Normal,,100,1024,1024,1024,1024,1,FALSE,FALSE,FALSE,FALSE,FALSE,0,FALSE,FALSE,FALSE,FALSE,74,7.765,1557,2113,7.765,FALSE,3.884,3.881,0.003,FALSE,FALSE,NA,105.6,105.4,105.6,0,0,0,0,5,2052,513.02,,Idle,0,20,FALSE,5,TRUE,9,Go Home,FALSE,FALSE,FALSE,FALSE,FALSE,FALSE,FALSE,FALSE,FALSE,FALSE,FALSE,FALSE,6.974496694,79.91427517,0.9,125.9,328,TRUE,1,1,FALSE,FALSE,FALSE,FALSE,,TRUE,FALSE,FALSE,Course Lock,65.6,41.9,16.4,Calm,27,,1.12.8,Mavic Mini,1SDCH7G0169R0K,1SFLH6Q0AB03DJ,1SRCH7F014TAHX,1U5X071EXP5ZJG,52,0.1,3.2,6.303249,2.013246,0,0,Mavic Mini,1SDCH7G0169R0K,1SFLH6Q0AB03DJ,1SRCH7F014TAHX,1U5X071EXP5ZJG,DJI Fly,,1.12.8,6B4AA69A-E28A-4728-3BB2-266FB97A0999,1SDCH7G0169R0K,,,,,,,,Flight mode changed to Manual Takeoff.,
2/15/2024,32:22.3,6m 14.0s,374,6.974499184,79.91427528,0,0,1.6,49,0.2,0,0,0,0,0,0,0,0,4.4,0.3,33.5,33.5,,Manual Takeoff,Auto Fly,Takeoff (RC Assisted),15,5,TRUE,,Mavic Mini,FALSE,FALSE,,Smart,RC,TRUE,TRUE,FALSE,,,TRUE,,FALSE,FALSE,FALSE,FALSE,FALSE,FALSE,FALSE,FALSE,FALSE,FALSE,0,Follow Yaw,1.9,0,60,60,FALSE,FALSE,FALSE,FALSE,FALSE,FALSE,,TRUE,Normal,,100,1024,1024,1024,1024,1,FALSE,FALSE,FALSE,FALSE,FALSE,0,FALSE,FALSE,FALSE,FALSE,74,7.765,1557,2113,7.765,FALSE,3.884,3.881,0.003,FALSE,FALSE,NA,105.6,105.4,105.6,0,0,0,0,5,2052,513.02,,Idle,0,20,FALSE,5,TRUE,9,Go Home,FALSE,FALSE,FALSE,FALSE,FALSE,FALSE,FALSE,FALSE,FALSE,FALSE,FALSE,FALSE,6.974496694,79.91427517,0.9,125.9,328,TRUE,1,1,FALSE,FALSE,FALSE,FALSE,,TRUE,FALSE,FALSE,Course Lock,65.6,41.9,16.4,Calm,27,,1.12.8,Mavic Mini,1SDCH7G0169R0K,1SFLH6Q0AB03DJ,1SRCH7F014TAHX,1U5X071EXP5ZJG,52,0.1,3.2,6.303249,2.013246,0,0,Mavic Mini,1SDCH7G0169R0K,1SFLH6Q0AB03DJ,1SRCH7F014TAHX,1U5X071EXP5ZJG,DJI Fly,,1.12.8,6B4AA69A-E28A-4728-3BB2-266FB97A0999,1SDCH7G0169R0K,,,,,,,,,
2/15/2024,32:22.4,6m 14.1s,374.1,6.974499228,79.91427533,0,0,1.6,49,0.2,0,0,0,0,0,0,0,0,4.4,0.3,33.6,33.6,,Manual Takeoff,Auto Fly,Takeoff (RC Assisted),15,5,TRUE,,Mavic Mini,FALSE,FALSE,,Smart,RC,TRUE,TRUE,FALSE,,,TRUE,,FALSE,FALSE,FALSE,FALSE,FALSE,FALSE,FALSE,FALSE,FALSE,FALSE,0,Follow Yaw,1.9,0,60,60,FALSE,FALSE,FALSE,FALSE,FALSE,FALSE,,TRUE,Normal,,100,1024,1024,1024,1024,1,FALSE,FALSE,FALSE,FALSE,FALSE,0,FALSE,FALSE,FALSE,FALSE,74,7.765,1557,2113,7.765,FALSE,3.884,3.881,0.003,FALSE,FALSE,NA,105.6,105.4,105.6,0,0,0,0,5,2052,513.02,,Idle,0,20,FALSE,5,TRUE,9,Go Home,FALSE,FALSE,FALSE,FALSE,FALSE,FALSE,FALSE,FALSE,FALSE,FALSE,FALSE,FALSE,6.974496694,79.91427517,0.9,125.9,328,TRUE,1,1,FALSE,FALSE,FALSE,FALSE,,TRUE,FALSE,FALSE,Course Lock,65.6,41.9,16.4,Calm,27,,1.12.8,Mavic Mini,1SDCH7G0169R0K,1SFLH6Q0AB03DJ,1SRCH7F014TAHX,1U5X071EXP5ZJG,52,0.1,3.2,6.303249,2.013246,0,0,Mavic Mini,1SDCH7G0169R0K,1SFLH6Q0AB03DJ,1SRCH7F014TAHX,1U5X071EXP5ZJG,DJI Fly,,1.12.8,6B4AA69A-E28A-4728-3BB2-266FB97A0999,1SDCH7G0169R0K,,,,,,,,,
2/15/2024,32:22.5,6m 14.2s,374.2,6.974499295,79.91427536,0,0,1.6,49,0.3,0,0,0,0,0,0,0,0,4.4,0.3,33.6,33.6,,Manual Takeoff,Auto Fly,Takeoff (RC Assisted),14,5,TRUE,,Mavic Mini,FALSE,FALSE,,Smart,RC,TRUE,TRUE,FALSE,,,TRUE,,FALSE,FALSE,FALSE,FALSE,FALSE,FALSE,FALSE,FALSE,FALSE,FALSE,0,Follow Yaw,1.9,0,60,60,FALSE,FALSE,FALSE,FALSE,FALSE,FALSE,,TRUE,Normal,,100,1024,1024,1024,1024,1,FALSE,FALSE,FALSE,FALSE,FALSE,0,FALSE,FALSE,FALSE,FALSE,74,7.765,1557,2113,7.765,FALSE,3.884,3.881,0.003,FALSE,FALSE,NA,105.6,105.4,105.6,0,0,0,0,5,2052,513.02,,Idle,0,20,FALSE,5,TRUE,9,Go Home,FALSE,FALSE,FALSE,FALSE,FALSE,FALSE,FALSE,FALSE,FALSE,FALSE,FALSE,FALSE,6.974496694,79.91427517,0.9,125.9,328,TRUE,1,1,FALSE,FALSE,FALSE,FALSE,,TRUE,FALSE,FALSE,Course Lock,65.6,41.9,16.4,Calm,27,,1.12.8,Mavic Mini,1SDCH7G0169R0K,1SFLH6Q0AB03DJ,1SRCH7F014TAHX,1U5X071EXP5ZJG,52,0.1,3.2,6.303249,2.013246,0,0,Mavic Mini,1SDCH7G0169R0K,1SFLH6Q0AB03DJ,1SRCH7F014TAHX,1U5X071EXP5ZJG,DJI Fly,,1.12.8,6B4AA69A-E28A-4728-3BB2-266FB97A0999,1SDCH7G0169R0K,,,,,,,,,
2/15/2024,32:22.6,6m 14.3s,374.3,6.974499303,79.91427541,0,0,1.6,49,0.3,0,0,0,0,0,0,0,0,4.4,0.3,33.6,33.6,,Manual Takeoff,Auto Fly,Takeoff (RC Assisted),14,5,TRUE,,Mavic Mini,FALSE,FALSE,,Smart,RC,TRUE,TRUE,FALSE,,,TRUE,,FALSE,FALSE,FALSE,FALSE,FALSE,FALSE,FALSE,FALSE,FALSE,FALSE,0,Follow Yaw,1.9,0,60,60,FALSE,FALSE,FALSE,FALSE,FALSE,FALSE,,TRUE,Normal,,100,1024,1024,1024,1024,1,FALSE,FALSE,FALSE,FALSE,FALSE,0,FALSE,FALSE,FALSE,FALSE,74,7.766,1556,2113,7.772,FALSE,3.883,3.883,0.003,FALSE,FALSE,NA,105.6,105.4,105.6,0,0,0,0,5,2052,513.02,,Idle,0,20,FALSE,5,TRUE,9,Go Home,FALSE,FALSE,FALSE,FALSE,FALSE,FALSE,FALSE,FALSE,FALSE,FALSE,FALSE,FALSE,6.974496694,79.91427517,0.9,125.9,328,TRUE,1,1,FALSE,FALSE,FALSE,FALSE,,TRUE,FALSE,FALSE,Course Lock,65.6,41.9,16.4,Calm,27,,1.12.8,Mavic Mini,1SDCH7G0169R0K,1SFLH6Q0AB03DJ,1SRCH7F014TAHX,1U5X071EXP5ZJG,52,0.1,3.2,6.303249,2.013246,0,0,Mavic Mini,1SDCH7G0169R0K,1SFLH6Q0AB03DJ,1SRCH7F014TAHX,1U5X071EXP5ZJG,DJI Fly,,1.12.8,6B4AA69A-E28A-4728-3BB2-266FB97A0999,1SDCH7G0169R0K,,,,,,,,,
2/15/2024,32:22.7,6m 14.4s,374.4,6.974499309,79.91427545,0,0,1.6,49,0.3,0,0,0,0,0,0,0,0,4.4,0.3,33.5,33.5,,Manual Takeoff,Auto Fly,Takeoff (RC Assisted),14,5,TRUE,,Mavic Mini,FALSE,FALSE,,Smart,RC,TRUE,TRUE,FALSE,,,TRUE,,FALSE,FALSE,FALSE,FALSE,FALSE,FALSE,FALSE,FALSE,FALSE,FALSE,0,Follow Yaw,1.8,0,60,60,FALSE,FALSE,FALSE,FALSE,FALSE,FALSE,,TRUE,Normal,,100,1024,1024,1024,1024,1,FALSE,FALSE,FALSE,FALSE,FALSE,0,FALSE,FALSE,FALSE,FALSE,74,7.766,1556,2113,7.772,FALSE,3.883,3.883,0.003,FALSE,FALSE,NA,105.6,105.4,105.6,0,0,0,0,5,2052,513.02,,Idle,0,20,FALSE,5,TRUE,9,Go Home,FALSE,FALSE,FALSE,FALSE,FALSE,FALSE,FALSE,FALSE,FALSE,FALSE,FALSE,FALSE,6.974496694,79.91427517,0.9,125.9,328,TRUE,1,1,FALSE,FALSE,FALSE,FALSE,,TRUE,FALSE,FALSE,Course Lock,65.6,41.9,16.4,Calm,27,,1.12.8,Mavic Mini,1SDCH7G0169R0K,1SFLH6Q0AB03DJ,1SRCH7F014TAHX,1U5X071EXP5ZJG,52,0.1,3.2,6.303249,2.013246,0,0,Mavic Mini,1SDCH7G0169R0K,1SFLH6Q0AB03DJ,1SRCH7F014TAHX,1U5X071EXP5ZJG,DJI Fly,,1.12.8,6B4AA69A-E28A-4728-3BB2-266FB97A0999,1SDCH7G0169R0K,,,,,,,,,
2/15/2024,32:22.8,6m 14.5s,374.5,6.974499303,79.91427549,0,0,1.6,49,0.3,0,0,0,0,0,0,0,0,4.4,0.3,33.5,33.5,,Manual Takeoff,Auto Fly,Takeoff (RC Assisted),14,5,TRUE,,Mavic Mini,FALSE,FALSE,,Smart,RC,TRUE,TRUE,FALSE,,,TRUE,,FALSE,FALSE,FALSE,FALSE,FALSE,FALSE,FALSE,FALSE,FALSE,FALSE,0,Follow Yaw,1.8,0,60,60,FALSE,FALSE,FALSE,FALSE,FALSE,FALSE,,TRUE,Normal,,100,1024,1024,1068,1024,1,FALSE,FALSE,FALSE,FALSE,FALSE,0,FALSE,FALSE,FALSE,FALSE,74,7.766,1556,2113,7.772,FALSE,3.883,3.883,0.003,FALSE,FALSE,NA,105.6,105.4,105.6,0,0,0,0,5,2052,513.02,,Idle,0,20,FALSE,5,TRUE,9,Go Home,FALSE,FALSE,FALSE,FALSE,FALSE,FALSE,FALSE,FALSE,FALSE,FALSE,FALSE,FALSE,6.974496694,79.91427517,0.9,125.9,328,TRUE,1,1,FALSE,FALSE,FALSE,FALSE,,TRUE,FALSE,FALSE,Course Lock,65.6,41.9,16.4,Calm,27,,1.12.8,Mavic Mini,1SDCH7G0169R0K,1SFLH6Q0AB03DJ,1SRCH7F014TAHX,1U5X071EXP5ZJG,52,0.1,3.2,6.303249,2.013246,0,0,Mavic Mini,1SDCH7G0169R0K,1SFLH6Q0AB03DJ,1SRCH7F014TAHX,1U5X071EXP5ZJG,DJI Fly,,1.12.8,6B4AA69A-E28A-4728-3BB2-266FB97A0999,1SDCH7G0169R0K,,,,,,,,,
2/15/2024,32:22.9,6m 14.6s,374.6,6.974499226,79.91427555,0,0,1.6,49,0.3,0,0,0,0,0,0,0,0,4.4,0.3,33.5,33.5,,Manual Takeoff,Auto Fly,Takeoff (RC Assisted),14,5,TRUE,,Mavic Mini,FALSE,FALSE,,Smart,RC,TRUE,TRUE,FALSE,,,TRUE,,FALSE,FALSE,FALSE,FALSE,FALSE,FALSE,FALSE,FALSE,FALSE,FALSE,0,Follow Yaw,1.8,0,60,60,FALSE,FALSE,FALSE,FALSE,FALSE,FALSE,,TRUE,Normal,,100,1024,1024,1152,1024,1,FALSE,FALSE,FALSE,FALSE,FALSE,0,FALSE,FALSE,FALSE,FALSE,74,7.766,1556,2113,7.772,FALSE,3.883,3.883,0.003,FALSE,FALSE,NA,105.6,105.4,105.6,0,0,0,0,5,2052,513.02,,Idle,0,20,FALSE,5,TRUE,9,Go Home,FALSE,FALSE,FALSE,FALSE,FALSE,FALSE,FALSE,FALSE,FALSE,FALSE,FALSE,FALSE,6.974496694,79.91427517,0.9,125.9,328,TRUE,1,1,FALSE,FALSE,FALSE,FALSE,,TRUE,FALSE,FALSE,Course Lock,65.6,41.9,16.4,Calm,27,,1.12.8,Mavic Mini,1SDCH7G0169R0K,1SFLH6Q0AB03DJ,1SRCH7F014TAHX,1U5X071EXP5ZJG,52,0.1,3.2,6.303249,2.013246,0,0,Mavic Mini,1SDCH7G0169R0K,1SFLH6Q0AB03DJ,1SRCH7F014TAHX,1U5X071EXP5ZJG,DJI Fly,,1.12.8,6B4AA69A-E28A-4728-3BB2-266FB97A0999,1SDCH7G0169R0K,,,,,,,,,
2/15/2024,32:23.0,6m 14.7s,374.7,6.974499268,79.9142756,0,0,1.6,49,0.4,0,0,0,0,0,0,0,0,4.4,0.3,33.6,33.6,,Manual Takeoff,Auto Fly,Takeoff (RC Assisted),14,5,TRUE,,Mavic Mini,FALSE,FALSE,,Smart,RC,TRUE,TRUE,FALSE,,,TRUE,,FALSE,FALSE,FALSE,FALSE,FALSE,FALSE,FALSE,FALSE,FALSE,FALSE,0,Follow Yaw,1.9,0,60,60,FALSE,FALSE,FALSE,FALSE,FALSE,FALSE,,TRUE,Normal,,100,1024,1024,1257,1024,1,FALSE,FALSE,FALSE,FALSE,FALSE,0,FALSE,FALSE,FALSE,FALSE,74,7.766,1556,2113,7.772,FALSE,3.883,3.883,0.003,FALSE,FALSE,NA,105.6,105.4,105.6,0,0,0,0,5,2052,513.02,,Idle,0,20,FALSE,5,TRUE,9,Go Home,FALSE,FALSE,FALSE,FALSE,FALSE,FALSE,FALSE,FALSE,FALSE,FALSE,FALSE,FALSE,6.974496694,79.91427517,0.9,125.9,328,TRUE,1,1,FALSE,FALSE,FALSE,FALSE,,TRUE,FALSE,FALSE,Course Lock,65.6,41.9,16.4,Calm,27,,1.12.8,Mavic Mini,1SDCH7G0169R0K,1SFLH6Q0AB03DJ,1SRCH7F014TAHX,1U5X071EXP5ZJG,52,0.1,3.2,6.303249,2.013246,0,0,Mavic Mini,1SDCH7G0169R0K,1SFLH6Q0AB03DJ,1SRCH7F014TAHX,1U5X071EXP5ZJG,DJI Fly,,1.12.8,6B4AA69A-E28A-4728-3BB2-266FB97A0999,1SDCH7G0169R0K,,,,,6.974496888,79.91421659,5,,
2/15/2024,32:23.1,6m 14.8s,374.8,6.974499311,79.91427564,0,0,1.6,49,0.4,0,0,0,0,0,0,0,0,4.4,0.3,33.5,33.5,,Manual Takeoff,Auto Fly,Takeoff (RC Assisted),14,5,TRUE,,Mavic Mini,FALSE,FALSE,,Smart,RC,TRUE,TRUE,FALSE,,,TRUE,,FALSE,FALSE,FALSE,FALSE,FALSE,FALSE,FALSE,FALSE,FALSE,FALSE,0,Follow Yaw,1.9,0,60,60,FALSE,FALSE,FALSE,FALSE,FALSE,FALSE,,TRUE,Normal,,100,1024,1024,1257,1024,1,FALSE,FALSE,FALSE,FALSE,FALSE,0,FALSE,FALSE,FALSE,FALSE,74,7.766,1556,2113,7.772,FALSE,3.883,3.883,0.003,FALSE,FALSE,NA,105.6,105.4,105.6,0,0,0,0,5,2052,513.02,,Idle,0,20,FALSE,5,TRUE,9,Go Home,FALSE,FALSE,FALSE,FALSE,FALSE,FALSE,FALSE,FALSE,FALSE,FALSE,FALSE,FALSE,6.974496694,79.91427517,0.9,125.9,328,TRUE,1,1,FALSE,FALSE,FALSE,FALSE,,TRUE,FALSE,FALSE,Course Lock,65.6,41.9,16.4,Calm,27,,1.12.8,Mavic Mini,1SDCH7G0169R0K,1SFLH6Q0AB03DJ,1SRCH7F014TAHX,1U5X071EXP5ZJG,52,0.1,3.2,6.303249,2.013246,0,0,Mavic Mini,1SDCH7G0169R0K,1SFLH6Q0AB03DJ,1SRCH7F014TAHX,1U5X071EXP5ZJG,DJI Fly,,1.12.8,6B4AA69A-E28A-4728-3BB2-266FB97A0999,1SDCH7G0169R0K,,,,,6.974496888,79.91421659,5,,
2/15/2024,32:23.1,6m 14.9s,374.9,6.974499323,79.91427568,0,0,1.6,49,0.4,0,0,0,0,0,0,0,0,4.3,0.3,33.5,33.5,,Manual Takeoff,Auto Fly,Takeoff (RC Assisted),14,5,TRUE,,Mavic Mini,FALSE,FALSE,,Smart,RC,TRUE,TRUE,FALSE,,,TRUE,,FALSE,FALSE,FALSE,FALSE,FALSE,FALSE,FALSE,FALSE,FALSE,FALSE,0,Follow Yaw,1.9,0,60,60,FALSE,FALSE,FALSE,FALSE,FALSE,FALSE,,TRUE,Normal,,100,1024,1024,1329,1024,1,FALSE,FALSE,FALSE,FALSE,FALSE,0,FALSE,FALSE,FALSE,FALSE,74,7.766,1556,2113,7.772,FALSE,3.883,3.883,0.003,FALSE,FALSE,NA,105.6,105.4,105.6,0,0,0,0,5,2052,513.02,,Idle,0,20,FALSE,5,TRUE,9,Go Home,FALSE,FALSE,FALSE,FALSE,FALSE,FALSE,FALSE,FALSE,FALSE,FALSE,FALSE,FALSE,6.974496694,79.91427517,0.9,125.9,328,TRUE,1,1,FALSE,FALSE,FALSE,FALSE,,TRUE,FALSE,FALSE,Course Lock,65.6,41.9,16.4,Calm,27,,1.12.8,Mavic Mini,1SDCH7G0169R0K,1SFLH6Q0AB03DJ,1SRCH7F014TAHX,1U5X071EXP5ZJG,52,0.1,3.2,6.303249,2.013246,0,0,Mavic Mini,1SDCH7G0169R0K,1SFLH6Q0AB03DJ,1SRCH7F014TAHX,1U5X071EXP5ZJG,DJI Fly,,1.12.8,6B4AA69A-E28A-4728-3BB2-266FB97A0999,1SDCH7G0169R0K,,,,,6.974496888,79.91421659,5,,
2/15/2024,32:23.2,6m 15.0s,375,6.974499364,79.91427575,0,0,1.6,49,0.4,0,0,0,0,0,0,0,0,4.4,0.3,33.6,33.6,,Manual Takeoff,Auto Fly,Takeoff (RC Assisted),14,5,TRUE,,Mavic Mini,FALSE,FALSE,,Smart,RC,TRUE,TRUE,FALSE,,,TRUE,,FALSE,FALSE,FALSE,FALSE,FALSE,FALSE,FALSE,FALSE,FALSE,FALSE,0,Follow Yaw,1.9,0,60,60,FALSE,FALSE,FALSE,FALSE,FALSE,FALSE,,TRUE,Normal,,100,1024,1024,1331,1024,1,FALSE,FALSE,FALSE,FALSE,FALSE,0,FALSE,FALSE,FALSE,FALSE,74,7.766,1556,2113,7.772,FALSE,3.883,3.883,0.003,FALSE,FALSE,NA,105.6,105.4,105.6,0,0,0,0,5,2052,513.02,,Idle,0,20,FALSE,5,TRUE,9,Go Home,FALSE,FALSE,FALSE,FALSE,FALSE,FALSE,FALSE,FALSE,FALSE,FALSE,FALSE,FALSE,6.974496694,79.91427517,0.9,125.9,328,TRUE,1,1,FALSE,FALSE,FALSE,FALSE,,TRUE,FALSE,FALSE,Course Lock,65.6,41.9,16.4,Calm,27,,1.12.8,Mavic Mini,1SDCH7G0169R0K,1SFLH6Q0AB03DJ,1SRCH7F014TAHX,1U5X071EXP5ZJG,52,0.1,3.2,6.303249,2.013246,0,0,Mavic Mini,1SDCH7G0169R0K,1SFLH6Q0AB03DJ,1SRCH7F014TAHX,1U5X071EXP5ZJG,DJI Fly,,1.12.8,6B4AA69A-E28A-4728-3BB2-266FB97A0999,1SDCH7G0169R0K,,,,,6.974496888,79.91421659,5,,
2/15/2024,32:23.4,6m 15.1s,375.1,6.974499364,79.9142758,0,0,1.6,49,0.5,0,0,0,0,0,0,0,0,4.4,0.2,33.5,33.5,,Manual Takeoff,Auto Fly,Takeoff (RC Assisted),14,5,TRUE,,Mavic Mini,FALSE,FALSE,,Smart,RC,TRUE,TRUE,FALSE,,,TRUE,,FALSE,FALSE,FALSE,FALSE,FALSE,FALSE,FALSE,FALSE,FALSE,FALSE,0,Follow Yaw,1.8,0,60,60,FALSE,FALSE,FALSE,FALSE,FALSE,FALSE,,TRUE,Normal,,100,1024,1024,1328,1024,1,FALSE,FALSE,FALSE,FALSE,FALSE,0,FALSE,FALSE,FALSE,FALSE,74,7.766,1556,2113,7.772,FALSE,3.883,3.883,0.003,FALSE,FALSE,NA,105.6,105.4,105.6,0,0,0,0,5,2052,513.02,,Idle,0,20,FALSE,5,TRUE,9,Go Home,FALSE,FALSE,FALSE,FALSE,FALSE,FALSE,FALSE,FALSE,FALSE,FALSE,FALSE,FALSE,6.974496694,79.91427517,1,125.9,328,TRUE,1,1,FALSE,FALSE,FALSE,FALSE,,TRUE,FALSE,FALSE,Course Lock,65.6,41.9,16.4,Calm,27,,1.12.8,Mavic Mini,1SDCH7G0169R0K,1SFLH6Q0AB03DJ,1SRCH7F014TAHX,1U5X071EXP5ZJG,52,0.1,3.2,6.303249,2.013246,0,0,Mavic Mini,1SDCH7G0169R0K,1SFLH6Q0AB03DJ,1SRCH7F014TAHX,1U5X071EXP5ZJG,DJI Fly,,1.12.8,6B4AA69A-E28A-4728-3BB2-266FB97A0999,1SDCH7G0169R0K,,,,,6.974496888,79.91421659,5,,
2/15/2024,32:23.4,6m 15.2s,375.2,6.974499365,79.91427585,0,0,1.6,49,0.5,0,0,0,0,0,0,0,0,4.3,0.2,33,33,,Manual Takeoff,Auto Fly,Takeoff (RC Assisted),14,5,TRUE,,Mavic Mini,FALSE,FALSE,,Smart,RC,TRUE,TRUE,FALSE,,,TRUE,,FALSE,FALSE,FALSE,FALSE,FALSE,FALSE,FALSE,FALSE,FALSE,FALSE,0,Follow Yaw,1.9,0,59.9,59.9,FALSE,FALSE,FALSE,FALSE,FALSE,FALSE,,TRUE,Normal,,100,1024,1024,1322,1024,1,FALSE,FALSE,FALSE,FALSE,FALSE,0,FALSE,FALSE,FALSE,FALSE,74,7.766,1556,2113,7.772,FALSE,3.883,3.883,0.003,FALSE,FALSE,NA,105.6,105.4,105.6,0,0,0,0,5,2052,513.02,,Idle,0,20,FALSE,5,TRUE,9,Go Home,FALSE,FALSE,FALSE,FALSE,FALSE,FALSE,FALSE,FALSE,FALSE,FALSE,FALSE,FALSE,6.974496694,79.91427517,1,125.9,328,TRUE,1,1,FALSE,FALSE,FALSE,FALSE,,TRUE,FALSE,FALSE,Course Lock,65.6,41.9,16.4,Calm,27,,1.12.8,Mavic Mini,1SDCH7G0169R0K,1SFLH6Q0AB03DJ,1SRCH7F014TAHX,1U5X071EXP5ZJG,52,0.1,3.2,6.303249,2.013246,0,0,Mavic Mini,1SDCH7G0169R0K,1SFLH6Q0AB03DJ,1SRCH7F014TAHX,1U5X071EXP5ZJG,DJI Fly,,1.12.8,6B4AA69A-E28A-4728-3BB2-266FB97A0999,1SDCH7G0169R0K,,,,,6.974496888,79.91421659,5,,
2/15/2024,32:23.6,6m 15.3s,375.3,6.974499361,79.91427589,0,0,1.6,49,0.5,0,0,0,0,0,0,0,0,3.6,0.3,32.3,32.3,,Manual Takeoff,Auto Fly,Takeoff (RC Assisted),14,5,TRUE,,Mavic Mini,FALSE,FALSE,,Smart,RC,TRUE,TRUE,FALSE,,,TRUE,,FALSE,FALSE,FALSE,FALSE,FALSE,FALSE,FALSE,FALSE,FALSE,FALSE,0,Follow Yaw,1.9,0,59.5,59.5,FALSE,FALSE,FALSE,FALSE,FALSE,FALSE,,TRUE,Normal,,100,1024,1024,1319,1024,1,FALSE,FALSE,FALSE,FALSE,FALSE,0,FALSE,FALSE,FALSE,FALSE,74,7.766,1556,2113,7.737,FALSE,3.883,3.883,0.003,FALSE,FALSE,NA,105.6,105.4,105.6,0,0,0,0,5,2215.7,553.94,,Idle,0,20,FALSE,5,TRUE,9,Go Home,FALSE,FALSE,FALSE,FALSE,FALSE,FALSE,FALSE,FALSE,FALSE,FALSE,FALSE,FALSE,6.974496694,79.91427517,1,125.9,328,TRUE,1,1,FALSE,FALSE,FALSE,FALSE,,TRUE,FALSE,FALSE,Course Lock,65.6,41.9,16.4,Calm,27,,1.12.8,Mavic Mini,1SDCH7G0169R0K,1SFLH6Q0AB03DJ,1SRCH7F014TAHX,1U5X071EXP5ZJG,52,0.1,3.2,6.303249,2.013246,0,0,Mavic Mini,1SDCH7G0169R0K,1SFLH6Q0AB03DJ,1SRCH7F014TAHX,1U5X071EXP5ZJG,DJI Fly,,1.12.8,6B4AA69A-E28A-4728-3BB2-266FB97A0999,1SDCH7G0169R0K,,,,,6.974496888,79.91421659,5,,
2/15/2024,32:23.7,6m 15.4s,375.4,6.974499355,79.91427595,0,0,1.6,49,0.5,0,0,0,0,0,0,0,0,2.1,0.7,31.5,31.5,,Manual Takeoff,Auto Fly,Takeoff (RC Assisted),14,5,TRUE,,Mavic Mini,FALSE,FALSE,,Smart,RC,TRUE,TRUE,FALSE,,,TRUE,,FALSE,FALSE,FALSE,FALSE,FALSE,FALSE,FALSE,FALSE,FALSE,FALSE,0,Follow Yaw,1.9,0,58.8,58.8,FALSE,FALSE,FALSE,FALSE,FALSE,FALSE,,TRUE,Normal,,100,1024,1024,1309,1024,1,FALSE,FALSE,FALSE,FALSE,FALSE,0,FALSE,FALSE,FALSE,FALSE,74,7.766,1556,2113,7.737,FALSE,3.883,3.883,0.003,FALSE,FALSE,NA,105.6,105.4,105.6,0,0,0,0,5,2215.7,553.94,,Idle,0,20,FALSE,5,TRUE,9,Go Home,FALSE,FALSE,FALSE,FALSE,FALSE,FALSE,FALSE,FALSE,FALSE,FALSE,FALSE,FALSE,6.974496694,79.91427517,1,125.9,328,TRUE,1,1,FALSE,FALSE,FALSE,FALSE,,TRUE,FALSE,FALSE,Course Lock,65.6,41.9,16.4,Calm,27,,1.12.8,Mavic Mini,1SDCH7G0169R0K,1SFLH6Q0AB03DJ,1SRCH7F014TAHX,1U5X071EXP5ZJG,52,0.1,3.2,6.303249,2.013246,0,0,Mavic Mini,1SDCH7G0169R0K,1SFLH6Q0AB03DJ,1SRCH7F014TAHX,1U5X071EXP5ZJG,DJI Fly,,1.12.8,6B4AA69A-E28A-4728-3BB2-266FB97A0999,1SDCH7G0169R0K,,,,,6.974496888,79.91421659,5,,
2/15/2024,32:23.8,6m 15.5s,375.5,6.974499298,79.91427603,0,0,1.6,49,0.5,0,0,0,0,0,0,0,0,0.4,0,30.9,30.9,,Manual Takeoff,Auto Fly,Takeoff (RC Assisted),14,5,TRUE,,Mavic Mini,FALSE,FALSE,,Smart,RC,TRUE,TRUE,FALSE,,,TRUE,,FALSE,FALSE,FALSE,FALSE,FALSE,FALSE,FALSE,FALSE,FALSE,FALSE,0,Follow Yaw,1.9,0,58.1,58.1,FALSE,FALSE,FALSE,FALSE,FALSE,FALSE,,TRUE,Normal,,100,1024,1024,1300,1024,1,FALSE,FALSE,FALSE,FALSE,FALSE,0,FALSE,FALSE,FALSE,FALSE,74,7.685,1556,2113,7.737,FALSE,3.843,3.842,0.003,FALSE,FALSE,NA,105.6,105.4,105.6,0,0,0,0,5,2215.7,553.94,,Idle,0,20,FALSE,5,TRUE,9,Go Home,FALSE,FALSE,FALSE,FALSE,FALSE,FALSE,FALSE,FALSE,FALSE,FALSE,FALSE,FALSE,6.974496694,79.91427517,0.9,125.9,328,TRUE,1,1,FALSE,FALSE,FALSE,FALSE,,TRUE,FALSE,FALSE,Course Lock,65.6,41.9,16.4,Calm,27,,1.12.8,Mavic Mini,1SDCH7G0169R0K,1SFLH6Q0AB03DJ,1SRCH7F014TAHX,1U5X071EXP5ZJG,52,0.1,3.2,6.303249,2.013246,0,0,Mavic Mini,1SDCH7G0169R0K,1SFLH6Q0AB03DJ,1SRCH7F014TAHX,1U5X071EXP5ZJG,DJI Fly,,1.12.8,6B4AA69A-E28A-4728-3BB2-266FB97A0999,1SDCH7G0169R0K,,,,,6.974496888,79.91421659,5,,
2/15/2024,32:23.9,6m 15.6s,375.6,6.974499243,79.91427613,0,0,1.6,49,0.6,0,0,0,0,0,0,-0.223694,0,-1.1,-0.6,30.7,30.7,,Manual Takeoff,Auto Fly,Takeoff (RC Assisted),14,5,TRUE,,Mavic Mini,FALSE,FALSE,,Smart,RC,TRUE,TRUE,FALSE,,,TRUE,,FALSE,FALSE,FALSE,FALSE,FALSE,FALSE,FALSE,FALSE,FALSE,FALSE,0,Follow Yaw,1.9,0,57.7,57.7,FALSE,FALSE,FALSE,FALSE,FALSE,FALSE,,TRUE,Normal,,100,1024,1024,1280,1024,1,FALSE,FALSE,FALSE,FALSE,FALSE,0,FALSE,FALSE,FALSE,FALSE,74,7.685,1556,2113,7.737,FALSE,3.843,3.842,0.003,FALSE,FALSE,NA,105.6,105.4,105.6,0,0,0,0,5,2215.7,553.94,,Idle,0,20,FALSE,5,TRUE,9,Go Home,FALSE,FALSE,FALSE,FALSE,FALSE,FALSE,FALSE,FALSE,FALSE,FALSE,FALSE,FALSE,6.974496694,79.91427517,0.9,125.9,328,TRUE,1,1,FALSE,FALSE,FALSE,FALSE,,TRUE,FALSE,FALSE,Course Lock,65.6,41.9,16.4,Calm,27,,1.12.8,Mavic Mini,1SDCH7G0169R0K,1SFLH6Q0AB03DJ,1SRCH7F014TAHX,1U5X071EXP5ZJG,52,0.1,3.2,6.303249,2.013246,0,0,Mavic Mini,1SDCH7G0169R0K,1SFLH6Q0AB03DJ,1SRCH7F014TAHX,1U5X071EXP5ZJG,DJI Fly,,1.12.8,6B4AA69A-E28A-4728-3BB2-266FB97A0999,1SDCH7G0169R0K,,,,,6.974496888,79.91421659,5,,
2/15/2024,32:24.1,6m 15.7s,375.7,6.974499316,79.91427626,0,0,1.6,49,0.6,0.223694,0.223694,0,0,0.223694,0.223694,-0.447388,0,-1.1,-0.6,30.3,30.3,53.9,P-GPS,Auto Fly,,14,5,TRUE,,Mavic Mini,FALSE,FALSE,,Smart,RC,FALSE,TRUE,FALSE,,,TRUE,,FALSE,FALSE,FALSE,FALSE,FALSE,FALSE,FALSE,FALSE,FALSE,FALSE,0,Follow Yaw,1.9,0,57.5,57.5,FALSE,FALSE,FALSE,FALSE,FALSE,FALSE,,TRUE,Normal,,100,1024,1024,1257,1024,1,FALSE,FALSE,FALSE,FALSE,FALSE,0,FALSE,FALSE,FALSE,FALSE,74,7.685,1556,2113,7.737,FALSE,3.843,3.842,0.003,FALSE,FALSE,NA,105.6,105.4,105.6,0,0,0,0,5,2215.7,553.94,,Idle,0,20,FALSE,5,TRUE,9,Go Home,FALSE,FALSE,FALSE,FALSE,FALSE,FALSE,FALSE,FALSE,FALSE,FALSE,FALSE,FALSE,6.974496694,79.91427517,1,125.9,328,TRUE,1,1,FALSE,FALSE,FALSE,FALSE,,TRUE,FALSE,FALSE,Course Lock,65.6,41.9,16.4,Calm,27,,1.12.8,Mavic Mini,1SDCH7G0169R0K,1SFLH6Q0AB03DJ,1SRCH7F014TAHX,1U5X071EXP5ZJG,52,0.1,3.2,6.303249,2.013246,0,0,Mavic Mini,1SDCH7G0169R0K,1SFLH6Q0AB03DJ,1SRCH7F014TAHX,1U5X071EXP5ZJG,DJI Fly,,1.12.8,6B4AA69A-E28A-4728-3BB2-266FB97A0999,1SDCH7G0169R0K,,,,,6.974496888,79.91421659,5,Flight mode changed to P-GPS.,
2/15/2024,32:24.1,6m 15.8s,375.8,6.974499428,79.91427641,0,0,0.3,49,0.7,0.223694,0.223694,0,0,0.223694,0.223694,-0.671082,0,1.2,-1.6,30.4,30.4,46.6,P-GPS,Auto Fly,,14,5,TRUE,,Mavic Mini,TRUE,FALSE,,Smart,RC,FALSE,TRUE,FALSE,,,TRUE,,FALSE,FALSE,FALSE,FALSE,FALSE,FALSE,FALSE,FALSE,FALSE,FALSE,0,Follow Yaw,1.9,0,57.5,57.5,FALSE,FALSE,FALSE,FALSE,FALSE,FALSE,,TRUE,Normal,,100,1024,1024,1257,1024,1,FALSE,FALSE,FALSE,FALSE,FALSE,0,FALSE,FALSE,FALSE,FALSE,74,7.685,1556,2113,7.737,FALSE,3.843,3.842,0.003,FALSE,FALSE,NA,105.6,105.4,105.6,0,0,0,0,5,2215.7,553.94,,Idle,0,20,FALSE,5,TRUE,9,Go Home,FALSE,FALSE,FALSE,FALSE,FALSE,FALSE,FALSE,FALSE,FALSE,FALSE,FALSE,FALSE,6.974496694,79.91427517,1,125.9,328,TRUE,1,1,FALSE,FALSE,FALSE,FALSE,,TRUE,FALSE,FALSE,Course Lock,65.6,41.9,16.4,Calm,27,,1.12.8,Mavic Mini,1SDCH7G0169R0K,1SFLH6Q0AB03DJ,1SRCH7F014TAHX,1U5X071EXP5ZJG,52,0.1,3.2,6.303249,2.013246,0,0,Mavic Mini,1SDCH7G0169R0K,1SFLH6Q0AB03DJ,1SRCH7F014TAHX,1U5X071EXP5ZJG,DJI Fly,,1.12.8,6B4AA69A-E28A-4728-3BB2-266FB97A0999,1SDCH7G0169R0K,,,,,6.974496888,79.91421659,5,,
2/15/2024,32:24.2,6m 15.9s,375.9,6.974499609,79.9142766,0,0,0.3,49,0.8,0.316351,0.316351,0.223694,0.223694,0.223694,0.223694,-0.894776,0,1.8,-1,30.7,30.7,38.3,P-GPS,Auto Fly,,14,5,TRUE,,Mavic Mini,TRUE,FALSE,,Smart,RC,FALSE,TRUE,FALSE,,,TRUE,,FALSE,FALSE,FALSE,FALSE,FALSE,FALSE,FALSE,FALSE,FALSE,FALSE,0,Follow Yaw,1.8,0,57.5,57.5,FALSE,FALSE,FALSE,FALSE,FALSE,FALSE,,TRUE,Normal,,100,1024,1024,1225,1024,1,FALSE,FALSE,FALSE,FALSE,FALSE,0,FALSE,FALSE,FALSE,FALSE,74,7.685,1556,2113,7.737,FALSE,3.843,3.842,0.003,FALSE,FALSE,NA,105.6,105.4,105.6,0,0,0,0,5,2215.7,553.94,,Idle,0,20,FALSE,5,TRUE,9,Go Home,FALSE,FALSE,FALSE,FALSE,FALSE,FALSE,FALSE,FALSE,FALSE,FALSE,FALSE,FALSE,6.974496694,79.91427517,1.1,125.9,328,TRUE,1,1,FALSE,FALSE,FALSE,FALSE,,TRUE,FALSE,FALSE,Course Lock,65.6,41.9,16.4,Calm,27,,1.12.8,Mavic Mini,1SDCH7G0169R0K,1SFLH6Q0AB03DJ,1SRCH7F014TAHX,1U5X071EXP5ZJG,52,0.1,3.2,6.303249,2.013246,0,0,Mavic Mini,1SDCH7G0169R0K,1SFLH6Q0AB03DJ,1SRCH7F014TAHX,1U5X071EXP5ZJG,DJI Fly,,1.12.8,6B4AA69A-E28A-4728-3BB2-266FB97A0999,1SDCH7G0169R0K,,,,,6.974496888,79.91421659,5,,
2/15/2024,32:24.3,6m 16.0s,376,6.97449974,79.91427676,0.3,0.3,0.6,49,0.9,0.316351,0.316351,0.223694,0.223694,0.223694,0.223694,-1.11847,0,2.5,-1,30.6,30.6,43.9,P-GPS,Auto Fly,,14,5,TRUE,,Mavic Mini,TRUE,FALSE,,Smart,RC,FALSE,TRUE,FALSE,,,TRUE,,FALSE,FALSE,FALSE,FALSE,FALSE,FALSE,FALSE,FALSE,FALSE,FALSE,0,Follow Yaw,1.9,0,57.5,57.5,FALSE,FALSE,FALSE,FALSE,FALSE,FALSE,,TRUE,Normal,,100,1024,1024,1193,1024,1,FALSE,FALSE,FALSE,FALSE,FALSE,0,FALSE,FALSE,FALSE,FALSE,74,7.685,1556,2113,7.737,FALSE,3.843,3.842,0.003,FALSE,FALSE,NA,105.6,105.4,105.6,0,0,0,0,5,2215.7,553.94,,Idle,0,20,FALSE,5,TRUE,9,Go Home,FALSE,FALSE,FALSE,FALSE,FALSE,FALSE,FALSE,FALSE,FALSE,FALSE,FALSE,FALSE,6.974496694,79.91427517,1.2,125.9,328,TRUE,1,1,FALSE,FALSE,FALSE,FALSE,,TRUE,FALSE,FALSE,Course Lock,65.6,41.9,16.4,Calm,27,,1.12.8,Mavic Mini,1SDCH7G0169R0K,1SFLH6Q0AB03DJ,1SRCH7F014TAHX,1U5X071EXP5ZJG,52,0.1,3.2,6.303249,2.013246,0,0,Mavic Mini,1SDCH7G0169R0K,1SFLH6Q0AB03DJ,1SRCH7F014TAHX,1U5X071EXP5ZJG,DJI Fly,,1.12.8,6B4AA69A-E28A-4728-3BB2-266FB97A0999,1SDCH7G0169R0K,,,,,6.974496888,79.91421659,5,,
2/15/2024,32:24.4,6m 16.1s,376.1,6.974499851,79.91427694,0.3,0.3,0.6,49,0.9,0.316351,0.316351,0.223694,0.223694,0.223694,0.223694,-1.342164,0,2.8,-1.2,30.6,30.6,50.2,P-GPS,Auto Fly,,14,5,TRUE,,Mavic Mini,TRUE,FALSE,,Smart,RC,FALSE,TRUE,FALSE,,,TRUE,,FALSE,FALSE,FALSE,FALSE,FALSE,FALSE,FALSE,FALSE,FALSE,FALSE,0,Follow Yaw,1.9,0,57.5,57.5,FALSE,FALSE,FALSE,FALSE,FALSE,FALSE,,TRUE,Normal,,100,1024,1024,1164,1024,1,FALSE,FALSE,FALSE,FALSE,FALSE,0,FALSE,FALSE,FALSE,FALSE,74,7.685,1556,2113,7.737,FALSE,3.843,3.842,0.003,FALSE,FALSE,NA,105.6,105.4,105.6,0,0,0,0,5,2215.7,553.94,,Idle,0,20,FALSE,5,TRUE,9,Go Home,FALSE,FALSE,FALSE,FALSE,FALSE,FALSE,FALSE,FALSE,FALSE,FALSE,FALSE,FALSE,6.974496694,79.91427517,1.3,125.9,328,TRUE,1,1,FALSE,FALSE,FALSE,FALSE,,TRUE,FALSE,FALSE,Course Lock,65.6,41.9,16.4,Calm,27,,1.12.8,Mavic Mini,1SDCH7G0169R0K,1SFLH6Q0AB03DJ,1SRCH7F014TAHX,1U5X071EXP5ZJG,52,0.1,3.2,6.303249,2.013246,0,0,Mavic Mini,1SDCH7G0169R0K,1SFLH6Q0AB03DJ,1SRCH7F014TAHX,1U5X071EXP5ZJG,DJI Fly,,1.12.8,6B4AA69A-E28A-4728-3BB2-266FB97A0999,1SDCH7G0169R0K,,,,,6.974496888,79.91421659,5,,
2/15/2024,32:24.5,6m 16.2s,376.2,6.974499967,79.91427711,0.6,0.6,0.9,49,1,0.223694,0.316351,0.223694,0.223694,0,0.223694,-1.342164,0,2.9,-1.1,30.7,30.7,48.6,P-GPS,Auto Fly,,14,5,TRUE,,Mavic Mini,TRUE,FALSE,,Smart,RC,FALSE,TRUE,FALSE,,,TRUE,,FALSE,FALSE,FALSE,FALSE,FALSE,FALSE,FALSE,FALSE,FALSE,FALSE,0,Follow Yaw,1.9,0,57.5,57.5,FALSE,FALSE,FALSE,FALSE,FALSE,FALSE,,TRUE,Normal,,100,1024,1024,1149,1024,1,FALSE,FALSE,FALSE,FALSE,FALSE,0,FALSE,FALSE,FALSE,FALSE,74,7.685,1556,2113,7.737,FALSE,3.843,3.842,0.003,FALSE,FALSE,NA,105.6,105.4,105.6,0,0,0,0,5,2215.7,553.94,,Idle,0,20,FALSE,5,TRUE,9,Go Home,FALSE,FALSE,FALSE,FALSE,FALSE,FALSE,FALSE,FALSE,FALSE,FALSE,FALSE,FALSE,6.974496694,79.91427517,1.3,125.9,328,TRUE,1,1,FALSE,FALSE,FALSE,FALSE,,TRUE,FALSE,FALSE,Course Lock,65.6,41.9,16.4,Calm,27,,1.12.8,Mavic Mini,1SDCH7G0169R0K,1SFLH6Q0AB03DJ,1SRCH7F014TAHX,1U5X071EXP5ZJG,52,0.1,3.2,6.303249,2.013246,0,0,Mavic Mini,1SDCH7G0169R0K,1SFLH6Q0AB03DJ,1SRCH7F014TAHX,1U5X071EXP5ZJG,DJI Fly,,1.12.8,6B4AA69A-E28A-4728-3BB2-266FB97A0999,1SDCH7G0169R0K,,,,,6.974496888,79.91421659,5,,
2/15/2024,32:24.6,6m 16.3s,376.3,6.974500052,79.91427733,0.9,0.9,1.3,50,1.1,0.223694,0.316351,0.223694,0.223694,0,0.223694,-1.342164,0,3.7,-1.1,30.8,30.8,63.2,P-GPS,Auto Fly,,14,5,TRUE,,Mavic Mini,TRUE,FALSE,,Smart,RC,FALSE,TRUE,FALSE,,,TRUE,,FALSE,FALSE,FALSE,FALSE,FALSE,FALSE,FALSE,FALSE,FALSE,FALSE,0,Follow Yaw,1.9,0,57.5,57.5,FALSE,FALSE,FALSE,FALSE,FALSE,FALSE,,TRUE,Normal,,100,1024,1024,1147,1024,1,FALSE,FALSE,FALSE,FALSE,FALSE,0,FALSE,FALSE,FALSE,FALSE,74,7.685,1556,2113,7.734,FALSE,3.843,3.842,0.003,FALSE,FALSE,NA,105.6,105.4,105.6,0,0,1,0,5,2505.7,626.42,,Idle,0,20,FALSE,5,TRUE,9,Go Home,FALSE,FALSE,FALSE,FALSE,FALSE,FALSE,FALSE,FALSE,FALSE,FALSE,FALSE,FALSE,6.974499282,79.9142762,0.4,125.9,328,TRUE,1,1,FALSE,FALSE,FALSE,FALSE,,TRUE,FALSE,FALSE,Course Lock,65.6,41.9,16.4,Calm,27,,1.12.8,Mavic Mini,1SDCH7G0169R0K,1SFLH6Q0AB03DJ,1SRCH7F014TAHX,1U5X071EXP5ZJG,52,0.1,3.2,6.303249,2.013246,0,0,Mavic Mini,1SDCH7G0169R0K,1SFLH6Q0AB03DJ,1SRCH7F014TAHX,1U5X071EXP5ZJG,DJI Fly,,1.12.8,6B4AA69A-E28A-4728-3BB2-266FB97A0999,1SDCH7G0169R0K,,,,,6.974496888,79.91421659,5,Home Point Updated.,
2/15/2024,32:24.7,6m 16.4s,376.4,6.974500171,79.91427747,0.9,0.9,1.3,50,1.2,0.223694,0.316351,0.223694,0.223694,0,0.223694,-1.11847,0,4,-0.8,30.8,30.8,42.4,P-GPS,Auto Fly,,14,5,TRUE,,Mavic Mini,TRUE,FALSE,,Smart,RC,FALSE,TRUE,FALSE,,,TRUE,,FALSE,FALSE,FALSE,FALSE,FALSE,FALSE,FALSE,FALSE,FALSE,FALSE,0,Follow Yaw,1.9,0,57.5,57.5,FALSE,FALSE,FALSE,FALSE,FALSE,FALSE,,TRUE,Normal,,100,1024,1024,1147,1024,1,FALSE,FALSE,FALSE,FALSE,FALSE,0,FALSE,FALSE,FALSE,FALSE,74,7.685,1556,2113,7.734,FALSE,3.843,3.842,0.003,FALSE,FALSE,NA,105.6,105.4,105.6,0,0,1,0,5,2505.7,626.42,,Idle,0,20,FALSE,5,TRUE,9,Go Home,FALSE,FALSE,FALSE,FALSE,FALSE,FALSE,FALSE,FALSE,FALSE,FALSE,FALSE,FALSE,6.974499282,79.9142762,0.5,125.9,328,TRUE,1,1,FALSE,FALSE,FALSE,FALSE,,TRUE,FALSE,FALSE,Course Lock,65.6,41.9,16.4,Calm,27,,1.12.8,Mavic Mini,1SDCH7G0169R0K,1SFLH6Q0AB03DJ,1SRCH7F014TAHX,1U5X071EXP5ZJG,52,0.1,3.2,6.303249,2.013246,0,0,Mavic Mini,1SDCH7G0169R0K,1SFLH6Q0AB03DJ,1SRCH7F014TAHX,1U5X071EXP5ZJG,DJI Fly,,1.12.8,6B4AA69A-E28A-4728-3BB2-266FB97A0999,1SDCH7G0169R0K,,,,,6.974496888,79.91421659,5,,
2/15/2024,32:24.8,6m 16.5s,376.5,6.974500262,79.9142775,0.9,0.9,1.6,50,1.2,0,0.316351,0,0.223694,0,0.223694,-0.894776,0,4.1,-0.6,30.9,30.9,,P-GPS,Auto Fly,,14,5,TRUE,,Mavic Mini,TRUE,FALSE,,Smart,RC,FALSE,TRUE,FALSE,,,TRUE,,FALSE,FALSE,FALSE,FALSE,FALSE,FALSE,FALSE,FALSE,FALSE,FALSE,0,Follow Yaw,1.9,0,57.5,57.5,FALSE,FALSE,FALSE,FALSE,FALSE,FALSE,,TRUE,Normal,,100,1024,1024,1147,1024,1,FALSE,FALSE,FALSE,FALSE,FALSE,0,FALSE,FALSE,FALSE,FALSE,74,7.685,1556,2113,7.734,FALSE,3.843,3.842,0.003,FALSE,FALSE,NA,105.6,105.4,105.6,0,0,1,0,5,2505.7,626.42,,Idle,0,20,FALSE,5,TRUE,9,Go Home,FALSE,FALSE,FALSE,FALSE,FALSE,FALSE,FALSE,FALSE,FALSE,FALSE,FALSE,FALSE,6.974499282,79.9142762,0.5,125.9,328,TRUE,1,1,FALSE,FALSE,FALSE,FALSE,,TRUE,FALSE,FALSE,Course Lock,65.6,41.9,16.4,Calm,27,,1.12.8,Mavic Mini,1SDCH7G0169R0K,1SFLH6Q0AB03DJ,1SRCH7F014TAHX,1U5X071EXP5ZJG,52,0.1,3.2,6.303249,2.013246,0,0,Mavic Mini,1SDCH7G0169R0K,1SFLH6Q0AB03DJ,1SRCH7F014TAHX,1U5X071EXP5ZJG,DJI Fly,,1.12.8,6B4AA69A-E28A-4728-3BB2-266FB97A0999,1SDCH7G0169R0K,,,,,6.974496888,79.91421659,5,,
2/15/2024,32:24.8,6m 16.6s,376.6,6.974500339,79.91427752,1.3,1.3,1.6,50,1.2,0,0.316351,0,0.223694,0,0.223694,-0.671082,0,3.5,-0.1,31,31,,P-GPS,Auto Fly,,14,5,TRUE,,Mavic Mini,TRUE,FALSE,,Smart,RC,FALSE,TRUE,FALSE,,,TRUE,,FALSE,FALSE,FALSE,FALSE,FALSE,FALSE,FALSE,FALSE,FALSE,FALSE,0,Follow Yaw,1.9,0,57.5,57.5,FALSE,FALSE,FALSE,FALSE,FALSE,FALSE,,TRUE,Normal,,100,1024,1024,1306,1024,1,FALSE,FALSE,FALSE,FALSE,FALSE,0,FALSE,FALSE,FALSE,FALSE,74,7.606,1554,2113,7.734,FALSE,3.804,3.803,0.003,FALSE,FALSE,NA,105.6,105.4,105.6,0,0,1,0,5,2505.7,626.42,,Idle,0,20,FALSE,5,TRUE,9,Go Home,FALSE,FALSE,FALSE,FALSE,FALSE,FALSE,FALSE,FALSE,FALSE,FALSE,FALSE,FALSE,6.974499282,79.9142762,0.6,125.9,328,TRUE,1,1,FALSE,FALSE,FALSE,FALSE,,TRUE,FALSE,FALSE,Course Lock,65.6,41.9,16.4,Calm,27,,1.12.8,Mavic Mini,1SDCH7G0169R0K,1SFLH6Q0AB03DJ,1SRCH7F014TAHX,1U5X071EXP5ZJG,52,0.1,3.2,6.303249,2.013246,0,0,Mavic Mini,1SDCH7G0169R0K,1SFLH6Q0AB03DJ,1SRCH7F014TAHX,1U5X071EXP5ZJG,DJI Fly,,1.12.8,6B4AA69A-E28A-4728-3BB2-266FB97A0999,1SDCH7G0169R0K,,,,,6.974496888,79.91421659,5,,
2/15/2024,32:25.1,6m 16.7s,376.7,6.974500447,79.91427743,1.3,1.3,1.6,50,1.3,0,0.316351,0,0.223694,0,0.223694,-0.447388,0,2.9,0,30.9,30.9,,P-GPS,Auto Fly,,14,5,TRUE,,Mavic Mini,TRUE,FALSE,,Smart,RC,FALSE,TRUE,FALSE,,,TRUE,,FALSE,FALSE,FALSE,FALSE,FALSE,FALSE,FALSE,FALSE,FALSE,FALSE,0,Follow Yaw,1.9,0,57.5,57.5,FALSE,FALSE,FALSE,FALSE,FALSE,FALSE,,TRUE,Normal,,100,1024,1024,1306,1024,1,FALSE,FALSE,FALSE,FALSE,FALSE,0,FALSE,FALSE,FALSE,FALSE,74,7.606,1554,2113,7.734,FALSE,3.804,3.803,0.003,FALSE,FALSE,NA,105.6,105.4,105.6,0,0,1,0,5,2505.7,626.42,,Idle,0,20,FALSE,5,TRUE,9,Go Home,FALSE,FALSE,FALSE,FALSE,FALSE,FALSE,FALSE,FALSE,FALSE,FALSE,FALSE,FALSE,6.974499282,79.9142762,0.6,125.9,328,TRUE,1,1,FALSE,FALSE,FALSE,FALSE,,TRUE,FALSE,FALSE,Course Lock,65.6,41.9,16.4,Calm,27,,1.12.8,Mavic Mini,1SDCH7G0169R0K,1SFLH6Q0AB03DJ,1SRCH7F014TAHX,1U5X071EXP5ZJG,52,0.1,3.2,6.303249,2.013246,0,0,Mavic Mini,1SDCH7G0169R0K,1SFLH6Q0AB03DJ,1SRCH7F014TAHX,1U5X071EXP5ZJG,DJI Fly,,1.12.8,6B4AA69A-E28A-4728-3BB2-266FB97A0999,1SDCH7G0169R0K,,,,,6.974496888,79.91421659,5,,
2/15/2024,32:25.2,6m 16.8s,376.8,6.974500527,79.91427746,1.3,1.3,1.9,50,1.3,0,0.316351,0,0.223694,0,0.223694,-0.447388,0,2.4,0.1,30.8,30.8,,P-GPS,Auto Fly,,14,5,TRUE,,Mavic Mini,TRUE,FALSE,,Smart,RC,FALSE,TRUE,FALSE,,,TRUE,,FALSE,FALSE,FALSE,FALSE,FALSE,FALSE,FALSE,FALSE,FALSE,FALSE,0,Follow Yaw,1.9,0,57.5,57.5,FALSE,FALSE,FALSE,FALSE,FALSE,FALSE,,TRUE,Normal,,100,1024,1024,1334,1024,1,FALSE,FALSE,FALSE,FALSE,FALSE,0,FALSE,FALSE,FALSE,FALSE,74,7.606,1554,2113,7.734,FALSE,3.804,3.803,0.003,FALSE,FALSE,NA,105.6,105.4,105.6,0,0,1,0,5,2505.7,626.42,,Idle,0,20,FALSE,5,TRUE,9,Go Home,FALSE,FALSE,FALSE,FALSE,FALSE,FALSE,FALSE,FALSE,FALSE,FALSE,FALSE,FALSE,6.974499282,79.9142762,0.6,125.9,328,TRUE,1,1,FALSE,FALSE,FALSE,FALSE,,TRUE,FALSE,FALSE,Course Lock,65.6,41.9,16.4,Calm,27,,1.12.8,Mavic Mini,1SDCH7G0169R0K,1SFLH6Q0AB03DJ,1SRCH7F014TAHX,1U5X071EXP5ZJG,52,0.1,3.2,6.303249,2.013246,0,0,Mavic Mini,1SDCH7G0169R0K,1SFLH6Q0AB03DJ,1SRCH7F014TAHX,1U5X071EXP5ZJG,DJI Fly,,1.12.8,6B4AA69A-E28A-4728-3BB2-266FB97A0999,1SDCH7G0169R0K,,,,,6.974496888,79.91421659,5,,
2/15/2024,32:25.2,6m 16.9s,376.9,6.974500609,79.91427748,1.3,1.3,1.9,50,1.4,0,0.316351,0,0.223694,0,0.223694,-0.447388,0,2.1,0.1,30.8,30.8,,P-GPS,Auto Fly,,14,5,TRUE,,Mavic Mini,TRUE,FALSE,,Smart,RC,FALSE,TRUE,FALSE,,,TRUE,,FALSE,FALSE,FALSE,FALSE,FALSE,FALSE,FALSE,FALSE,FALSE,FALSE,0,Follow Yaw,1.9,0,57.5,57.5,FALSE,FALSE,FALSE,FALSE,FALSE,FALSE,,TRUE,Normal,,100,1024,1024,1364,1024,1,FALSE,FALSE,FALSE,FALSE,FALSE,0,FALSE,FALSE,FALSE,FALSE,74,7.606,1554,2113,7.734,FALSE,3.804,3.803,0.003,FALSE,FALSE,NA,105.6,105.4,105.6,0,0,1,0,5,2505.7,626.42,,Idle,0,20,FALSE,5,TRUE,9,Go Home,FALSE,FALSE,FALSE,FALSE,FALSE,FALSE,FALSE,FALSE,FALSE,FALSE,FALSE,FALSE,6.974499282,79.9142762,0.6,125.9,328,TRUE,1,1,FALSE,FALSE,FALSE,FALSE,,TRUE,FALSE,FALSE,Course Lock,65.6,41.9,16.4,Calm,27,,1.12.8,Mavic Mini,1SDCH7G0169R0K,1SFLH6Q0AB03DJ,1SRCH7F014TAHX,1U5X071EXP5ZJG,52,0.1,3.2,6.303249,2.013246,0,0,Mavic Mini,1SDCH7G0169R0K,1SFLH6Q0AB03DJ,1SRCH7F014TAHX,1U5X071EXP5ZJG,DJI Fly,,1.12.8,6B4AA69A-E28A-4728-3BB2-266FB97A0999,1SDCH7G0169R0K,,,,,6.974496888,79.91421659,5,,
2/15/2024,32:25.3,6m 17.0s,377,6.974500693,79.91427751,1.6,1.6,1.9,50,1.4,0,0.316351,0,0.223694,0,0.223694,-0.671082,0,1.8,0.2,30.8,30.8,,P-GPS,Auto Fly,,14,5,TRUE,,Mavic Mini,TRUE,FALSE,,Smart,RC,FALSE,TRUE,FALSE,,,TRUE,,FALSE,FALSE,FALSE,FALSE,FALSE,FALSE,FALSE,FALSE,FALSE,FALSE,0,Follow Yaw,1.9,0,57.5,57.5,FALSE,FALSE,FALSE,FALSE,FALSE,FALSE,,TRUE,Normal,,100,1024,1024,1387,1024,1,FALSE,FALSE,FALSE,FALSE,FALSE,0,FALSE,FALSE,FALSE,FALSE,74,7.606,1554,2113,7.734,FALSE,3.804,3.803,0.003,FALSE,FALSE,NA,105.6,105.4,105.6,0,0,1,0,5,2505.7,626.42,,Idle,0,20,FALSE,5,TRUE,9,Go Home,FALSE,FALSE,FALSE,FALSE,FALSE,FALSE,FALSE,FALSE,FALSE,FALSE,FALSE,FALSE,6.974499282,79.9142762,0.6,125.9,328,TRUE,1,1,FALSE,FALSE,FALSE,FALSE,,TRUE,FALSE,FALSE,Course Lock,65.6,41.9,16.4,Calm,27,,1.12.8,Mavic Mini,1SDCH7G0169R0K,1SFLH6Q0AB03DJ,1SRCH7F014TAHX,1U5X071EXP5ZJG,52,0.1,3.2,6.303249,2.013246,0,0,Mavic Mini,1SDCH7G0169R0K,1SFLH6Q0AB03DJ,1SRCH7F014TAHX,1U5X071EXP5ZJG,DJI Fly,,1.12.8,6B4AA69A-E28A-4728-3BB2-266FB97A0999,1SDCH7G0169R0K,,,,,6.974496888,79.91421659,5,,
2/15/2024,32:25.4,6m 17.1s,377.1,6.974500661,79.9142776,1.6,1.6,2.2,50,1.4,0,0.316351,0,0.223694,0,0.223694,-0.894776,0,2,0,30.9,30.9,,P-GPS,Auto Fly,,14,5,TRUE,,Mavic Mini,TRUE,FALSE,,Smart,RC,FALSE,TRUE,FALSE,,,TRUE,,FALSE,FALSE,FALSE,FALSE,FALSE,FALSE,FALSE,FALSE,FALSE,FALSE,0,Follow Yaw,1.9,0,57.5,57.5,FALSE,FALSE,FALSE,FALSE,FALSE,FALSE,,TRUE,Normal,,100,1024,1024,1397,1024,1,FALSE,FALSE,FALSE,FALSE,FALSE,0,FALSE,FALSE,FALSE,FALSE,74,7.606,1554,2113,7.734,FALSE,3.804,3.803,0.003,FALSE,FALSE,NA,105.6,105.4,105.6,0,0,1,0,5,2505.7,626.42,,Idle,0,20,FALSE,5,TRUE,9,Go Home,FALSE,FALSE,FALSE,FALSE,FALSE,FALSE,FALSE,FALSE,FALSE,FALSE,FALSE,FALSE,6.974499282,79.9142762,0.7,125.9,328,TRUE,1,1,FALSE,FALSE,FALSE,FALSE,,TRUE,FALSE,FALSE,Course Lock,65.6,41.9,16.4,Calm,27,,1.12.8,Mavic Mini,1SDCH7G0169R0K,1SFLH6Q0AB03DJ,1SRCH7F014TAHX,1U5X071EXP5ZJG,52,0.1,3.2,6.303249,2.013246,0,0,Mavic Mini,1SDCH7G0169R0K,1SFLH6Q0AB03DJ,1SRCH7F014TAHX,1U5X071EXP5ZJG,DJI Fly,,1.12.8,6B4AA69A-E28A-4728-3BB2-266FB97A0999,1SDCH7G0169R0K,,,,,6.974496888,79.91421659,5,,
2/15/2024,32:25.5,6m 17.2s,377.2,6.974500676,79.91427767,1.9,1.9,2.2,51,1.4,0,0.316351,0,0.223694,0,0.223694,-1.342164,0,2.1,0.1,30.9,30.9,,P-GPS,Auto Fly,,14,5,TRUE,,Mavic Mini,TRUE,FALSE,,Smart,RC,FALSE,TRUE,FALSE,,,TRUE,,FALSE,FALSE,FALSE,FALSE,FALSE,FALSE,FALSE,FALSE,FALSE,FALSE,0,Follow Yaw,1.9,0,57.5,57.5,FALSE,FALSE,FALSE,FALSE,FALSE,FALSE,,TRUE,Normal,,100,1024,1024,1406,1024,1,FALSE,FALSE,FALSE,FALSE,FALSE,0,FALSE,FALSE,FALSE,FALSE,74,7.606,1554,2113,7.734,FALSE,3.804,3.803,0.003,FALSE,FALSE,NA,105.6,105.4,105.6,0,0,1,0,5,2505.7,626.42,,Idle,0,20,FALSE,5,TRUE,9,Go Home,FALSE,FALSE,FALSE,FALSE,FALSE,FALSE,FALSE,FALSE,FALSE,FALSE,FALSE,FALSE,6.974499282,79.9142762,0.7,125.9,328,TRUE,1,1,FALSE,FALSE,FALSE,FALSE,,TRUE,FALSE,FALSE,Course Lock,65.6,41.9,16.4,Calm,27,,1.12.8,Mavic Mini,1SDCH7G0169R0K,1SFLH6Q0AB03DJ,1SRCH7F014TAHX,1U5X071EXP5ZJG,52,0.1,3.2,6.303249,2.013246,0,0,Mavic Mini,1SDCH7G0169R0K,1SFLH6Q0AB03DJ,1SRCH7F014TAHX,1U5X071EXP5ZJG,DJI Fly,,1.12.8,6B4AA69A-E28A-4728-3BB2-266FB97A0999,1SDCH7G0169R0K,,,,,6.974496888,79.91421659,5,,
2/15/2024,32:25.6,6m 17.3s,377.3,6.974500696,79.91427773,1.9,1.9,2.6,51,1.5,0,0.316351,0,0.223694,0,0.223694,-1.565858,0,2.3,0,30.9,30.9,,P-GPS,Auto Fly,,14,5,TRUE,,Mavic Mini,TRUE,FALSE,,Smart,RC,FALSE,TRUE,FALSE,,,TRUE,,FALSE,FALSE,FALSE,FALSE,FALSE,FALSE,FALSE,FALSE,FALSE,FALSE,0,Follow Yaw,1.9,0,57.5,57.5,FALSE,FALSE,FALSE,FALSE,FALSE,FALSE,,TRUE,Normal,,100,1024,1024,1412,1024,1,FALSE,FALSE,FALSE,FALSE,FALSE,0,FALSE,FALSE,FALSE,FALSE,74,7.606,1554,2113,7.603,FALSE,3.804,3.803,0.003,FALSE,FALSE,NA,105.6,105.4,105.6,0,0,2,0,5,3220.6,805.15,,Idle,0,20,FALSE,5,TRUE,9,Go Home,FALSE,FALSE,FALSE,FALSE,FALSE,FALSE,FALSE,FALSE,FALSE,FALSE,FALSE,FALSE,6.974499282,79.9142762,0.7,125.9,328,TRUE,1,1,FALSE,FALSE,FALSE,FALSE,,TRUE,FALSE,FALSE,Course Lock,65.6,41.9,16.4,Calm,27,,1.12.8,Mavic Mini,1SDCH7G0169R0K,1SFLH6Q0AB03DJ,1SRCH7F014TAHX,1U5X071EXP5ZJG,52,0.1,3.2,6.303249,2.013246,0,0,Mavic Mini,1SDCH7G0169R0K,1SFLH6Q0AB03DJ,1SRCH7F014TAHX,1U5X071EXP5ZJG,DJI Fly,,1.12.8,6B4AA69A-E28A-4728-3BB2-266FB97A0999,1SDCH7G0169R0K,,,,,6.974496888,79.91421659,5,,
2/15/2024,32:25.7,6m 17.4s,377.4,6.974500714,79.9142778,2.2,2.2,2.9,51,1.5,0,0.316351,0,0.223694,0,0.223694,-1.789552,0,2.3,-0.1,30.9,30.9,,P-GPS,Auto Fly,,14,5,TRUE,,Mavic Mini,TRUE,FALSE,,Smart,RC,FALSE,TRUE,FALSE,,,TRUE,,FALSE,FALSE,FALSE,FALSE,FALSE,FALSE,FALSE,FALSE,FALSE,FALSE,0,Follow Yaw,1.9,0,57.5,57.5,FALSE,FALSE,FALSE,FALSE,FALSE,FALSE,,TRUE,Normal,,100,1024,1024,1412,1024,1,FALSE,FALSE,FALSE,FALSE,FALSE,0,FALSE,FALSE,FALSE,FALSE,74,7.606,1554,2113,7.603,FALSE,3.804,3.803,0.003,FALSE,FALSE,NA,105.6,105.4,105.6,0,0,2,0,5,3220.6,805.15,,Idle,0,20,FALSE,5,TRUE,9,Go Home,FALSE,FALSE,FALSE,FALSE,FALSE,FALSE,FALSE,FALSE,FALSE,FALSE,FALSE,FALSE,6.974499282,79.9142762,0.7,125.9,328,TRUE,1,1,FALSE,FALSE,FALSE,FALSE,,TRUE,FALSE,FALSE,Course Lock,65.6,41.9,16.4,Calm,27,,1.12.8,Mavic Mini,1SDCH7G0169R0K,1SFLH6Q0AB03DJ,1SRCH7F014TAHX,1U5X071EXP5ZJG,52,0.1,3.2,6.303249,2.013246,0,0,Mavic Mini,1SDCH7G0169R0K,1SFLH6Q0AB03DJ,1SRCH7F014TAHX,1U5X071EXP5ZJG,DJI Fly,,1.12.8,6B4AA69A-E28A-4728-3BB2-266FB97A0999,1SDCH7G0169R0K,,,,,6.974496888,79.91421659,5,,
2/15/2024,32:25.8,6m 17.5s,377.5,6.974500761,79.91427792,2.6,2.6,3.2,51,1.5,0,0.316351,0,0.223694,0,0.223694,-1.789552,0,2.5,-0.5,31,31,,P-GPS,Auto Fly,,14,5,TRUE,,Mavic Mini,TRUE,FALSE,,Smart,RC,FALSE,TRUE,FALSE,,,TRUE,,FALSE,FALSE,FALSE,FALSE,FALSE,FALSE,FALSE,FALSE,FALSE,FALSE,0,Follow Yaw,1.9,0,57.5,57.5,FALSE,FALSE,FALSE,FALSE,FALSE,FALSE,,TRUE,Normal,,100,1024,1024,1417,1024,1,FALSE,FALSE,FALSE,FALSE,FALSE,0,FALSE,FALSE,FALSE,FALSE,74,7.606,1554,2113,7.603,FALSE,3.804,3.803,0.003,FALSE,FALSE,NA,105.6,105.4,105.6,0,0,2,0,5,3220.6,805.15,,Idle,0,20,FALSE,5,TRUE,9,Go Home,FALSE,FALSE,FALSE,FALSE,FALSE,FALSE,FALSE,FALSE,FALSE,FALSE,FALSE,FALSE,6.974499282,79.9142762,0.8,125.9,328,TRUE,1,1,FALSE,FALSE,FALSE,FALSE,,TRUE,FALSE,FALSE,Course Lock,65.6,41.9,16.4,Calm,27,,1.12.8,Mavic Mini,1SDCH7G0169R0K,1SFLH6Q0AB03DJ,1SRCH7F014TAHX,1U5X071EXP5ZJG,52,0.1,3.2,6.303249,2.013246,0,0,Mavic Mini,1SDCH7G0169R0K,1SFLH6Q0AB03DJ,1SRCH7F014TAHX,1U5X071EXP5ZJG,DJI Fly,,1.12.8,6B4AA69A-E28A-4728-3BB2-266FB97A0999,1SDCH7G0169R0K,,,,,6.974496888,79.91421659,5,Home Point updated. RTH altitude adjusted to 20 m! (Code: 120852).,
2/15/2024,32:25.9,6m 17.6s,377.6,6.974500778,79.91427814,2.9,2.9,3.6,52,1.6,0,0.316351,0,0.223694,0,0.223694,-2.013246,0,3.2,-0.6,31,31,,P-GPS,Auto Fly,,14,5,TRUE,,Mavic Mini,TRUE,FALSE,,Smart,RC,FALSE,TRUE,FALSE,,,TRUE,,FALSE,FALSE,FALSE,FALSE,FALSE,FALSE,FALSE,FALSE,FALSE,FALSE,0,Follow Yaw,1.9,0,57.5,57.5,FALSE,FALSE,FALSE,FALSE,FALSE,FALSE,,TRUE,Normal,,100,1024,1024,1417,1024,1,FALSE,FALSE,FALSE,FALSE,FALSE,0,FALSE,FALSE,FALSE,FALSE,74,7.606,1554,2113,7.603,FALSE,3.804,3.803,0.003,FALSE,FALSE,NA,105.6,105.4,105.6,0,0,2,0,5,3220.6,805.15,,Idle,0,20,FALSE,5,TRUE,9,Go Home,FALSE,FALSE,FALSE,FALSE,FALSE,FALSE,FALSE,FALSE,FALSE,FALSE,FALSE,FALSE,6.974499282,79.9142762,0.8,125.9,328,TRUE,1,1,FALSE,FALSE,FALSE,FALSE,,TRUE,FALSE,FALSE,Course Lock,65.6,41.9,16.4,Calm,27,,1.12.8,Mavic Mini,1SDCH7G0169R0K,1SFLH6Q0AB03DJ,1SRCH7F014TAHX,1U5X071EXP5ZJG,52,0.1,3.2,6.303249,2.013246,0,0,Mavic Mini,1SDCH7G0169R0K,1SFLH6Q0AB03DJ,1SRCH7F014TAHX,1U5X071EXP5ZJG,DJI Fly,,1.12.8,6B4AA69A-E28A-4728-3BB2-266FB97A0999,1SDCH7G0169R0K,,,,,6.974496888,79.91421659,5,,
2/15/2024,32:26.0,6m 17.7s,377.7,6.974500822,79.91427819,2.9,2.9,3.9,52,1.6,0,0.316351,0,0.223694,0,0.223694,-2.013246,0,3.2,-0.6,30.9,30.9,,P-GPS,Auto Fly,,14,5,TRUE,,Mavic Mini,TRUE,FALSE,,Smart,RC,FALSE,TRUE,FALSE,,,TRUE,,FALSE,FALSE,FALSE,FALSE,FALSE,FALSE,FALSE,FALSE,FALSE,FALSE,0,Follow Yaw,1.9,0,57.5,57.5,FALSE,FALSE,FALSE,FALSE,FALSE,FALSE,,TRUE,Normal,,100,1024,1024,1400,1024,1,FALSE,FALSE,FALSE,FALSE,FALSE,0,FALSE,FALSE,FALSE,FALSE,74,7.606,1554,2113,7.603,FALSE,3.804,3.803,0.003,FALSE,FALSE,NA,105.6,105.4,105.6,0,0,2,0,5,3220.6,805.15,,Idle,0,20,FALSE,5,TRUE,9,Go Home,FALSE,FALSE,FALSE,FALSE,FALSE,FALSE,FALSE,FALSE,FALSE,FALSE,FALSE,FALSE,6.974499282,79.9142762,0.9,125.9,328,TRUE,1,1,FALSE,FALSE,FALSE,FALSE,,TRUE,FALSE,FALSE,Course Lock,65.6,41.9,16.4,Calm,27,,1.12.8,Mavic Mini,1SDCH7G0169R0K,1SFLH6Q0AB03DJ,1SRCH7F014TAHX,1U5X071EXP5ZJG,52,0.1,3.2,6.303249,2.013246,0,0,Mavic Mini,1SDCH7G0169R0K,1SFLH6Q0AB03DJ,1SRCH7F014TAHX,1U5X071EXP5ZJG,DJI Fly,,1.12.8,6B4AA69A-E28A-4728-3BB2-266FB97A0999,1SDCH7G0169R0K,,,,,6.974496888,79.91421659,5,,
2/15/2024,32:26.1,6m 17.8s,377.8,6.97450086,79.91427823,3.2,3.2,4.2,52,1.7,0,0.316351,0,0.223694,0,0.223694,-2.013246,0,3,-0.5,31,31,,P-GPS,Auto Fly,,14,5,TRUE,,Mavic Mini,TRUE,FALSE,,Smart,RC,FALSE,TRUE,FALSE,,,TRUE,,FALSE,FALSE,FALSE,FALSE,FALSE,FALSE,FALSE,FALSE,FALSE,FALSE,0,Follow Yaw,1.9,0,57.5,57.5,FALSE,FALSE,FALSE,FALSE,FALSE,FALSE,,TRUE,Normal,,100,1024,1024,1320,1024,1,FALSE,FALSE,FALSE,FALSE,FALSE,0,FALSE,FALSE,FALSE,FALSE,74,7.57,1553,2113,7.603,FALSE,3.786,3.784,0.003,FALSE,FALSE,NA,105.6,105.4,105.6,0,0,2,0,5,3220.6,805.15,,Idle,0,20,FALSE,5,TRUE,9,Go Home,FALSE,FALSE,FALSE,FALSE,FALSE,FALSE,FALSE,FALSE,FALSE,FALSE,FALSE,FALSE,6.974499282,79.9142762,0.9,125.9,328,TRUE,1,1,FALSE,FALSE,FALSE,FALSE,,TRUE,FALSE,FALSE,Course Lock,65.6,41.9,16.4,Calm,27,,1.12.8,Mavic Mini,1SDCH7G0169R0K,1SFLH6Q0AB03DJ,1SRCH7F014TAHX,1U5X071EXP5ZJG,52,0.1,3.2,6.303249,2.013246,0,0,Mavic Mini,1SDCH7G0169R0K,1SFLH6Q0AB03DJ,1SRCH7F014TAHX,1U5X071EXP5ZJG,DJI Fly,,1.12.8,6B4AA69A-E28A-4728-3BB2-266FB97A0999,1SDCH7G0169R0K,,,,,6.974496888,79.91421659,5,,
2/15/2024,32:26.1,6m 17.9s,377.9,6.974500887,79.91427823,3.6,3.6,4.5,52,1.7,0,0.316351,0,0.223694,0,0.223694,-2.013246,0,2.6,-0.3,31,31,,P-GPS,Auto Fly,,14,5,TRUE,,Mavic Mini,TRUE,FALSE,,Smart,RC,FALSE,TRUE,FALSE,,,TRUE,,FALSE,FALSE,FALSE,FALSE,FALSE,FALSE,FALSE,FALSE,FALSE,FALSE,0,Follow Yaw,1.9,0,57.5,57.5,FALSE,FALSE,FALSE,FALSE,FALSE,FALSE,,TRUE,Normal,,100,1024,1024,1024,1024,1,FALSE,FALSE,FALSE,FALSE,FALSE,0,FALSE,FALSE,FALSE,FALSE,74,7.57,1553,2113,7.603,FALSE,3.786,3.784,0.003,FALSE,FALSE,NA,105.6,105.4,105.6,0,0,2,0,5,3220.6,805.15,,Idle,0,20,FALSE,5,TRUE,9,Go Home,FALSE,FALSE,FALSE,FALSE,FALSE,FALSE,FALSE,FALSE,FALSE,FALSE,FALSE,FALSE,6.974499282,79.9142762,0.9,125.9,328,TRUE,1,1,FALSE,FALSE,FALSE,FALSE,,TRUE,FALSE,FALSE,Course Lock,65.6,41.9,16.4,Calm,27,,1.12.8,Mavic Mini,1SDCH7G0169R0K,1SFLH6Q0AB03DJ,1SRCH7F014TAHX,1U5X071EXP5ZJG,52,0.1,3.2,6.303249,2.013246,0,0,Mavic Mini,1SDCH7G0169R0K,1SFLH6Q0AB03DJ,1SRCH7F014TAHX,1U5X071EXP5ZJG,DJI Fly,,1.12.8,6B4AA69A-E28A-4728-3BB2-266FB97A0999,1SDCH7G0169R0K,,,,,6.974496888,79.91421659,5,,
