CUSTOM.date [local],CUSTOM.updateTime [local],OSD.flyTime,OSD.flyTime [s],OSD.latitude,OSD.longitude,OSD.height [ft],OSD.heightMax [ft],OSD.vpsHeight [ft],OSD.altitude [ft],OSD.mileage [ft],OSD.hSpeed [MPH],OSD.hSpeedMax [MPH],OSD.xSpeed [MPH],OSD.xSpeedMax [MPH],OSD.ySpeed [MPH],OSD.ySpeedMax [MPH],OSD.zSpeed [MPH],OSD.zSpeedMax [MPH],OSD.pitch,OSD.roll,OSD.yaw,OSD.yaw [360],OSD.directionOfTravel,OSD.flycState,OSD.flycCommand,OSD.flightAction,OSD.gpsNum,OSD.gpsLevel,OSD.isGPSUsed,OSD.nonGPSCause,OSD.droneType,OSD.isSwaveWork,OSD.waveError,OSD.goHomeStatus,OSD.batteryType,OSD.ctrlDevice,OSD.isOnGround,OSD.isMotorOn,OSD.isMotorBlocked,OSD.motorStartFailedCause,OSD.motorFailReason,OSD.isImuPreheated,OSD.imuInitFailReason,OSD.isAcceletorOverRange,OSD.isBarometerDeadInAir,OSD.isCompassError,OSD.isGoHomeHeightModified,OSD.canIOCWork,OSD.isNotEnoughForce,OSD.isOutOfLimit,OSD.isPropellerCatapult,OSD.isVibrating,OSD.isVisionUsed,OSD.voltageWarning,GIMBAL.mode,GIMBAL.pitch,GIMBAL.roll,GIMBAL.yaw,GIMBAL.yaw [360],GIMBAL.isPitchAtLimit,GIMBAL.isRollAtLimit,GIMBAL.isYawAtLimit,GIMBAL.isStuck,CAMERA.isPhoto,CAMERA.isVideo,CAMERA.filename,CAMERA.sdCardIsInserted,CAMERA.sdCardState,RC.downlinkSignal,RC.uplinkSignal,RC.aileron,RC.elevator,RC.throttle,RC.rudder,RC.mode,RC.goHomeDepressed,RC.recordDepressed,RC.shutterDepressed,RC.playbackDepressed,RC.wheelDepressed,RC.wheelOffset,RC.custom1Depressed,RC.custom2Depressed,RC.custom3Depressed,RC.custom4Depressed,BATTERY.chargeLevel,BATTERY.currentPV [V],BATTERY.currentCapacity [mAh],BATTERY.fullCapacity [mAh],BATTERY.voltage [V],BATTERY.isCellVoltageEstimated,BATTERY.cellVoltage1 [V],BATTERY.cellVoltage2 [V],BATTERY.maxCellVoltageDeviation,BATTERY.isCellVoltageDeviationHigh,BATTERY.isVoltageLow,BATTERY.current [A],BATTERY.temperature [F],BATTERY.minTemperature [F],BATTERY.maxTemperature [F],BATTERY.usefulTime [s],BATTERY.goHomeTime [s],BATTERY.landTime [s],BATTERY.goHomeBattery,BATTERY.landBattery,BATTERY.safeFlyRadius,BATTERY.volumeConsume,BATTERY.status,BATTERY.goHomeStatus,BATTERY.goHomeCountdown,BATTERY.lowWarning,BATTERY.lowWarningGoHome,BATTERY.seriousLowWarning,BATTERY.seriousLowWarningLanding,BATTERY.timesCharged,MC.failSafeAction,MC.isObstacleAvoidanceEnabled,MC.isCollisionAvoidanceEnabled,MC.isRthObstacleAvoidanceEnabled,MC.isBraking,MC.isAvoidingObstacle,MC.isAvoidingActiveObstacle,MC.isAscentLimitedByObstacle,MC.isLandingConfirmationNeeded,MC.atLowAltitudeLimit,MC.atDistanceLimit,MC.atAirportAltitudeLimit,MC.atAirportBoundary,HOME.latitude,HOME.longitude,HOME.distance [ft],HOME.height [ft],HOME.heightLimit [ft],HOME.isHomeRecord,HOME.goHomeMode,HOME.aircraftHeadDirection,HOME.isDynamicHomePointEnabled,HOME.isReachedLimitDistance,HOME.isReachedLimitHeight,HOME.isCompassCalibrating,HOME.compassCalibrationState,HOME.isMultipleFlightModeEnabled,HOME.isBeginnerMode,HOME.isIOCEnabled,HOME.iocMode,HOME.goHomeHeight [ft],HOME.courseLockAngle,HOME.forceLandingHeight [ft],HOME.wind,HOME.dataRecorderFileIndex,RECOVER.appType,RECOVER.appVersion,RECOVER.aircraftName,RECOVER.aircraftSerial,RECOVER.cameraSerial,RECOVER.rcSerial,RECOVER.batterySerial,DETAILS.totalTime [s],DETAILS.totalDistance [ft],DETAILS.maxHeight [ft],DETAILS.maxHorizontalSpeed [MPH],DETAILS.maxVerticalSpeed [MPH],DETAILS.photoNum,DETAILS.videoTime [s],DETAILS.aircraftName,DETAILS.aircraftSerial,DETAILS.cameraSerial,DETAILS.rcSerial,DETAILS.batterySerial,DETAILS.appName,DETAILS.appType,DETAILS.appVersion,DETAILS.guid,SERIAL.flightController,SERIAL.camera,SERIAL.gimbal,SERIAL.rc,SERIAL.battery,APPGPS.latitude,APPGPS.longitude,APPGPS.accuracy,APP.tip,APP.warning
3/2/2024,10:17.0,8m 22.4s,502.4,6.972888816,79.91595146,0,0,,56,0,0,0,0,0,0,0,0,0,3,-3.1,83.8,83.8,,Starting Motors,Other,Takeoff (RC Assisted),17,5,TRUE,,Mavic Mini,FALSE,FALSE,,Smart,RC,TRUE,TRUE,FALSE,,,TRUE,,FALSE,FALSE,FALSE,FALSE,FALSE,FALSE,FALSE,FALSE,FALSE,FALSE,0,Follow Yaw,0,0,101.6,101.6,FALSE,FALSE,FALSE,FALSE,FALSE,FALSE,,TRUE,Normal,,,1024,1024,1024,1024,1,FALSE,FALSE,FALSE,FALSE,FALSE,0,FALSE,FALSE,FALSE,FALSE,63,7.647,1311,2065,7.647,TRUE,3.824,3.824,,FALSE,FALSE,NA,112.1,112.1,112.1,,,,,,,,,Idle,,,TRUE,,FALSE,11,Go Home,FALSE,FALSE,FALSE,FALSE,FALSE,FALSE,FALSE,FALSE,FALSE,FALSE,FALSE,FALSE,,,,,,FALSE,,,FALSE,FALSE,FALSE,FALSE,,FALSE,FALSE,FALSE,,,,,Calm,,,1.12.8,Mavic Mini,1SDCH7G0169R0K,1SFLH6Q0AB03DJ,1SRCH7F014TAHX,1U5X071EXP5ZJG,112.7,0.4,75.4,14.785726,8.94776,0,8802,Mavic Mini,1SDCH7G0169R0K,1SFLH6Q0AB03DJ,1SRCH7F014TAHX,1U5X071EXP5ZJG,DJI Fly,,1.12.8,6608D402-936C-F691-AD06-B2FDC9C4EB85,1SDCH7G0169R0K,,,,,,,,Flight mode changed to Starting Motors.,
3/2/2024,10:17.0,8m 22.5s,502.5,6.972888825,79.91595153,0,0,,56,0,0,0,0,0,0,0,0,0,3,-3.1,83.8,83.8,,Starting Motors,Other,Takeoff (RC Assisted),17,5,TRUE,,Mavic Mini,FALSE,FALSE,,Smart,RC,TRUE,TRUE,FALSE,,,TRUE,,FALSE,FALSE,FALSE,FALSE,FALSE,FALSE,FALSE,FALSE,FALSE,FALSE,0,Follow Yaw,0,0,101.6,101.6,FALSE,FALSE,FALSE,FALSE,FALSE,FALSE,,TRUE,Normal,,,1024,1024,1024,1024,1,FALSE,FALSE,FALSE,FALSE,FALSE,0,FALSE,FALSE,FALSE,FALSE,63,7.647,1311,2065,7.647,TRUE,3.824,3.824,,FALSE,FALSE,NA,112.1,112.1,112.1,,,,,,,,,Idle,,,TRUE,,FALSE,11,Go Home,FALSE,FALSE,FALSE,FALSE,FALSE,FALSE,FALSE,FALSE,FALSE,FALSE,FALSE,FALSE,,,,,,FALSE,,,FALSE,FALSE,FALSE,FALSE,,FALSE,FALSE,FALSE,,,,,Calm,,,1.12.8,Mavic Mini,1SDCH7G0169R0K,1SFLH6Q0AB03DJ,1SRCH7F014TAHX,1U5X071EXP5ZJG,112.7,0.4,75.4,14.785726,8.94776,0,8802,Mavic Mini,1SDCH7G0169R0K,1SFLH6Q0AB03DJ,1SRCH7F014TAHX,1U5X071EXP5ZJG,DJI Fly,,1.12.8,6608D402-936C-F691-AD06-B2FDC9C4EB85,1SDCH7G0169R0K,,,,,,,,,
3/2/2024,10:17.1,8m 22.6s,502.6,6.972888832,79.91595161,0,0,0.3,56,0,0,0,0,0,0,0,0,0,3,-3.1,83.8,83.8,,Starting Motors,Other,Takeoff (RC Assisted),17,5,TRUE,,Mavic Mini,TRUE,FALSE,,Smart,RC,TRUE,TRUE,FALSE,,,TRUE,,FALSE,FALSE,FALSE,FALSE,FALSE,FALSE,FALSE,FALSE,FALSE,FALSE,0,Follow Yaw,0,0,101.6,101.6,FALSE,FALSE,FALSE,FALSE,FALSE,FALSE,,TRUE,Normal,,100,1024,1024,1024,1024,1,FALSE,FALSE,FALSE,FALSE,FALSE,0,FALSE,FALSE,FALSE,FALSE,63,7.647,1311,2065,7.647,TRUE,3.824,3.824,,FALSE,FALSE,NA,112.1,112.1,112.1,,,,,,,,,Idle,,,TRUE,,FALSE,11,Go Home,FALSE,FALSE,FALSE,FALSE,FALSE,FALSE,FALSE,FALSE,FALSE,FALSE,FALSE,FALSE,,,,,,FALSE,,,FALSE,FALSE,FALSE,FALSE,,FALSE,FALSE,FALSE,,,,,Calm,,,1.12.8,Mavic Mini,1SDCH7G0169R0K,1SFLH6Q0AB03DJ,1SRCH7F014TAHX,1U5X071EXP5ZJG,112.7,0.4,75.4,14.785726,8.94776,0,8802,Mavic Mini,1SDCH7G0169R0K,1SFLH6Q0AB03DJ,1SRCH7F014TAHX,1U5X071EXP5ZJG,DJI Fly,,1.12.8,6608D402-936C-F691-AD06-B2FDC9C4EB85,1SDCH7G0169R0K,,,,,,,,,
3/2/2024,10:17.2,8m 22.7s,502.7,6.972888836,79.91595167,0,0,0.3,56,0,0,0,0,0,0,0,0,0,3,-3.1,83.8,83.8,,Starting Motors,Other,Takeoff (RC Assisted),17,5,TRUE,,Mavic Mini,TRUE,FALSE,,Smart,RC,TRUE,TRUE,FALSE,,,TRUE,,FALSE,FALSE,FALSE,FALSE,FALSE,FALSE,FALSE,FALSE,FALSE,FALSE,0,Follow Yaw,0,0,101.6,101.6,FALSE,FALSE,FALSE,FALSE,FALSE,FALSE,,TRUE,Normal,,100,1024,1024,1024,1024,1,FALSE,FALSE,FALSE,FALSE,FALSE,0,FALSE,FALSE,FALSE,FALSE,63,7.647,1311,2065,7.636,TRUE,3.818,3.818,,FALSE,FALSE,NA,112.1,112.1,112.1,0,0,0,0,5,2146.1,536.53,,Idle,0,20,FALSE,5,TRUE,11,Go Home,FALSE,FALSE,FALSE,FALSE,FALSE,FALSE,FALSE,FALSE,FALSE,FALSE,FALSE,FALSE,6.972890045,79.9159581,2.3,119,328,TRUE,1,1,FALSE,FALSE,FALSE,FALSE,,TRUE,FALSE,FALSE,Course Lock,49.2,,16.4,Calm,41,,1.12.8,Mavic Mini,1SDCH7G0169R0K,1SFLH6Q0AB03DJ,1SRCH7F014TAHX,1U5X071EXP5ZJG,112.7,0.4,75.4,14.785726,8.94776,0,8802,Mavic Mini,1SDCH7G0169R0K,1SFLH6Q0AB03DJ,1SRCH7F014TAHX,1U5X071EXP5ZJG,DJI Fly,,1.12.8,6608D402-936C-F691-AD06-B2FDC9C4EB85,1SDCH7G0169R0K,,,,,,,,Data Recorder File Index is 41.; Set Return to Home (RTH) altitude to 15 m (49 ft).; Set maximum flight altitude to 100 m (328 ft).,
3/2/2024,10:17.3,8m 22.8s,502.8,6.972888856,79.91595162,0,0,0.3,56,0,0,0,0,0,0,0,0,0,3,-2.9,83.8,83.8,,Starting Motors,Other,Takeoff (RC Assisted),17,5,TRUE,,Mavic Mini,TRUE,FALSE,,Smart,RC,TRUE,TRUE,FALSE,,,TRUE,,FALSE,FALSE,FALSE,FALSE,FALSE,FALSE,FALSE,FALSE,FALSE,FALSE,0,Follow Yaw,0,0,101.5,101.5,FALSE,FALSE,FALSE,FALSE,FALSE,FALSE,,TRUE,Normal,,100,1024,1024,1024,1024,1,FALSE,FALSE,FALSE,FALSE,FALSE,0,FALSE,FALSE,FALSE,FALSE,63,7.647,1311,2065,7.636,TRUE,3.818,3.818,,FALSE,FALSE,NA,112.1,112.1,112.1,0,0,0,0,5,2146.1,536.53,,Idle,0,20,FALSE,5,TRUE,11,Go Home,FALSE,FALSE,FALSE,FALSE,FALSE,FALSE,FALSE,FALSE,FALSE,FALSE,FALSE,FALSE,6.972890045,79.9159581,2.3,119,328,TRUE,1,1,FALSE,FALSE,FALSE,FALSE,,TRUE,FALSE,FALSE,Course Lock,49.2,,16.4,Calm,41,,1.12.8,Mavic Mini,1SDCH7G0169R0K,1SFLH6Q0AB03DJ,1SRCH7F014TAHX,1U5X071EXP5ZJG,112.7,0.4,75.4,14.785726,8.94776,0,8802,Mavic Mini,1SDCH7G0169R0K,1SFLH6Q0AB03DJ,1SRCH7F014TAHX,1U5X071EXP5ZJG,DJI Fly,,1.12.8,6608D402-936C-F691-AD06-B2FDC9C4EB85,1SDCH7G0169R0K,,,,,,,,,
3/2/2024,10:17.4,8m 22.9s,502.9,6.972888854,79.91595173,0,0,0.3,56,0.1,0,0,0,0,0,0,0,0,3,-3,83.9,83.9,,Starting Motors,Other,Takeoff (RC Assisted),17,5,TRUE,,Mavic Mini,TRUE,FALSE,,Smart,RC,TRUE,TRUE,FALSE,,,TRUE,,FALSE,FALSE,FALSE,FALSE,FALSE,FALSE,FALSE,FALSE,FALSE,FALSE,0,Follow Yaw,0,0,101.6,101.6,FALSE,FALSE,FALSE,FALSE,FALSE,FALSE,,TRUE,Normal,,100,1024,1024,1024,1024,1,FALSE,FALSE,FALSE,FALSE,FALSE,0,FALSE,FALSE,FALSE,FALSE,63,7.647,1311,2065,7.636,TRUE,3.818,3.818,,FALSE,FALSE,NA,112.1,112.1,112.1,0,0,0,0,5,2146.1,536.53,,Idle,0,20,FALSE,5,TRUE,11,Go Home,FALSE,FALSE,FALSE,FALSE,FALSE,FALSE,FALSE,FALSE,FALSE,FALSE,FALSE,FALSE,6.972890045,79.9159581,2.3,119,328,TRUE,1,1,FALSE,FALSE,FALSE,FALSE,,TRUE,FALSE,FALSE,Course Lock,49.2,,16.4,Calm,41,,1.12.8,Mavic Mini,1SDCH7G0169R0K,1SFLH6Q0AB03DJ,1SRCH7F014TAHX,1U5X071EXP5ZJG,112.7,0.4,75.4,14.785726,8.94776,0,8802,Mavic Mini,1SDCH7G0169R0K,1SFLH6Q0AB03DJ,1SRCH7F014TAHX,1U5X071EXP5ZJG,DJI Fly,,1.12.8,6608D402-936C-F691-AD06-B2FDC9C4EB85,1SDCH7G0169R0K,,,,,,,,,
3/2/2024,10:17.5,8m 23.0s,503,6.972888849,79.91595185,0,0,0.3,56,0.1,0,0,0,0,0,0,0,0,3,-3,83.6,83.6,,Starting Motors,Other,Takeoff (RC Assisted),17,5,TRUE,,Mavic Mini,TRUE,FALSE,,Smart,RC,TRUE,TRUE,FALSE,,,TRUE,,FALSE,FALSE,FALSE,FALSE,FALSE,FALSE,FALSE,FALSE,FALSE,FALSE,0,Follow Yaw,0,0,101.5,101.5,FALSE,FALSE,FALSE,FALSE,FALSE,FALSE,,TRUE,Normal,,100,1024,1024,1024,1024,1,FALSE,FALSE,FALSE,FALSE,FALSE,0,FALSE,FALSE,FALSE,FALSE,63,7.633,1310,2065,7.636,FALSE,3.818,3.815,0.003,FALSE,FALSE,NA,112.1,112.1,112.1,0,0,0,0,5,2146.1,536.53,,Idle,0,20,FALSE,5,TRUE,11,Go Home,FALSE,FALSE,FALSE,FALSE,FALSE,FALSE,FALSE,FALSE,FALSE,FALSE,FALSE,FALSE,6.972890045,79.9159581,2.3,119,328,TRUE,1,1,FALSE,FALSE,FALSE,FALSE,,TRUE,FALSE,FALSE,Course Lock,49.2,,16.4,Calm,41,,1.12.8,Mavic Mini,1SDCH7G0169R0K,1SFLH6Q0AB03DJ,1SRCH7F014TAHX,1U5X071EXP5ZJG,112.7,0.4,75.4,14.785726,8.94776,0,8802,Mavic Mini,1SDCH7G0169R0K,1SFLH6Q0AB03DJ,1SRCH7F014TAHX,1U5X071EXP5ZJG,DJI Fly,,1.12.8,6608D402-936C-F691-AD06-B2FDC9C4EB85,1SDCH7G0169R0K,,,,,,,,,
3/2/2024,10:17.6,8m 23.1s,503.1,6.972888845,79.91595193,0,0,0.3,56,0.1,0,0,0,0,0,0,0,0,3,-3.1,83.6,83.6,,Starting Motors,Other,Takeoff (RC Assisted),17,5,TRUE,,Mavic Mini,TRUE,FALSE,,Smart,RC,TRUE,TRUE,FALSE,,,TRUE,,FALSE,FALSE,FALSE,FALSE,FALSE,FALSE,FALSE,FALSE,FALSE,FALSE,0,Follow Yaw,0,0,101.5,101.5,FALSE,FALSE,FALSE,FALSE,FALSE,FALSE,,TRUE,Normal,,100,1024,1024,1024,1024,1,FALSE,FALSE,FALSE,FALSE,FALSE,0,FALSE,FALSE,FALSE,FALSE,63,7.633,1310,2065,7.636,FALSE,3.818,3.815,0.003,FALSE,FALSE,NA,112.1,112.1,112.1,0,0,0,0,5,2146.1,536.53,,Idle,0,20,FALSE,5,TRUE,11,Go Home,FALSE,FALSE,FALSE,FALSE,FALSE,FALSE,FALSE,FALSE,FALSE,FALSE,FALSE,FALSE,6.972890045,79.9159581,2.2,119,328,TRUE,1,1,FALSE,FALSE,FALSE,FALSE,,TRUE,FALSE,FALSE,Course Lock,49.2,,16.4,Calm,41,,1.12.8,Mavic Mini,1SDCH7G0169R0K,1SFLH6Q0AB03DJ,1SRCH7F014TAHX,1U5X071EXP5ZJG,112.7,0.4,75.4,14.785726,8.94776,0,8802,Mavic Mini,1SDCH7G0169R0K,1SFLH6Q0AB03DJ,1SRCH7F014TAHX,1U5X071EXP5ZJG,DJI Fly,,1.12.8,6608D402-936C-F691-AD06-B2FDC9C4EB85,1SDCH7G0169R0K,,,,,,,,,
3/2/2024,10:17.7,8m 23.2s,503.2,6.972888854,79.91595198,0,0,0.3,56,0.1,0,0,0,0,0,0,0,0,3,-3.1,83.6,83.6,,Starting Motors,Other,Takeoff (RC Assisted),17,5,TRUE,,Mavic Mini,TRUE,FALSE,,Smart,RC,TRUE,TRUE,FALSE,,,TRUE,,FALSE,FALSE,FALSE,FALSE,FALSE,FALSE,FALSE,FALSE,FALSE,FALSE,0,Follow Yaw,0,0,101.4,101.4,FALSE,FALSE,FALSE,FALSE,FALSE,FALSE,,TRUE,Normal,,100,1024,1024,1024,1024,1,FALSE,FALSE,FALSE,FALSE,FALSE,0,FALSE,FALSE,FALSE,FALSE,63,7.633,1310,2065,7.636,FALSE,3.818,3.815,0.003,FALSE,FALSE,NA,112.1,112.1,112.1,0,0,0,0,5,2146.1,536.53,,Idle,0,20,FALSE,5,TRUE,11,Go Home,FALSE,FALSE,FALSE,FALSE,FALSE,FALSE,FALSE,FALSE,FALSE,FALSE,FALSE,FALSE,6.972890045,79.9159581,2.2,119,328,TRUE,1,1,FALSE,FALSE,FALSE,FALSE,,TRUE,FALSE,FALSE,Course Lock,49.2,,16.4,Calm,41,,1.12.8,Mavic Mini,1SDCH7G0169R0K,1SFLH6Q0AB03DJ,1SRCH7F014TAHX,1U5X071EXP5ZJG,112.7,0.4,75.4,14.785726,8.94776,0,8802,Mavic Mini,1SDCH7G0169R0K,1SFLH6Q0AB03DJ,1SRCH7F014TAHX,1U5X071EXP5ZJG,DJI Fly,,1.12.8,6608D402-936C-F691-AD06-B2FDC9C4EB85,1SDCH7G0169R0K,,,,,,,,,
3/2/2024,10:17.7,8m 23.3s,503.3,6.972888852,79.91595204,0,0,0.3,56,0.2,0,0,0,0,0,0,0,0,3,-3.1,83.5,83.5,,Starting Motors,Other,Takeoff (RC Assisted),17,5,TRUE,,Mavic Mini,TRUE,FALSE,,Smart,RC,TRUE,TRUE,FALSE,,,TRUE,,FALSE,FALSE,FALSE,FALSE,FALSE,FALSE,FALSE,FALSE,FALSE,FALSE,0,Follow Yaw,0,0,101.4,101.4,FALSE,FALSE,FALSE,FALSE,FALSE,FALSE,,TRUE,Normal,,100,1024,1024,1024,1024,1,FALSE,FALSE,FALSE,FALSE,FALSE,0,FALSE,FALSE,FALSE,FALSE,63,7.633,1310,2065,7.636,FALSE,3.818,3.815,0.003,FALSE,FALSE,NA,112.1,112.1,112.1,0,0,0,0,5,2146.1,536.53,,Idle,0,20,FALSE,5,TRUE,11,Go Home,FALSE,FALSE,FALSE,FALSE,FALSE,FALSE,FALSE,FALSE,FALSE,FALSE,FALSE,FALSE,6.972890045,79.9159581,2.2,119,328,TRUE,1,1,FALSE,FALSE,FALSE,FALSE,,TRUE,FALSE,FALSE,Course Lock,49.2,,16.4,Calm,41,,1.12.8,Mavic Mini,1SDCH7G0169R0K,1SFLH6Q0AB03DJ,1SRCH7F014TAHX,1U5X071EXP5ZJG,112.7,0.4,75.4,14.785726,8.94776,0,8802,Mavic Mini,1SDCH7G0169R0K,1SFLH6Q0AB03DJ,1SRCH7F014TAHX,1U5X071EXP5ZJG,DJI Fly,,1.12.8,6608D402-936C-F691-AD06-B2FDC9C4EB85,1SDCH7G0169R0K,,,,,,,,,
3/2/2024,10:18.0,8m 23.4s,503.4,6.972888849,79.91595211,0,0,0.3,56,0.2,0,0,0,0,0,0,0,0,3,-3.1,83.5,83.5,,Starting Motors,Other,Takeoff (RC Assisted),17,5,TRUE,,Mavic Mini,TRUE,FALSE,,Smart,RC,TRUE,TRUE,FALSE,,,TRUE,,FALSE,FALSE,FALSE,FALSE,FALSE,FALSE,FALSE,FALSE,FALSE,FALSE,0,Follow Yaw,0,0,101.4,101.4,FALSE,FALSE,FALSE,FALSE,FALSE,FALSE,,TRUE,Normal,,100,1024,1024,1024,1024,1,FALSE,FALSE,FALSE,FALSE,FALSE,0,FALSE,FALSE,FALSE,FALSE,63,7.633,1310,2065,7.636,FALSE,3.818,3.815,0.003,FALSE,FALSE,NA,112.1,112.1,112.1,0,0,0,0,5,2146.1,536.53,,Idle,0,20,FALSE,5,TRUE,11,Go Home,FALSE,FALSE,FALSE,FALSE,FALSE,FALSE,FALSE,FALSE,FALSE,FALSE,FALSE,FALSE,6.972890045,79.9159581,2.2,119,328,TRUE,1,1,FALSE,FALSE,FALSE,FALSE,,TRUE,FALSE,FALSE,Course Lock,49.2,,16.4,Calm,41,,1.12.8,Mavic Mini,1SDCH7G0169R0K,1SFLH6Q0AB03DJ,1SRCH7F014TAHX,1U5X071EXP5ZJG,112.7,0.4,75.4,14.785726,8.94776,0,8802,Mavic Mini,1SDCH7G0169R0K,1SFLH6Q0AB03DJ,1SRCH7F014TAHX,1U5X071EXP5ZJG,DJI Fly,,1.12.8,6608D402-936C-F691-AD06-B2FDC9C4EB85,1SDCH7G0169R0K,,,,,,,,,
3/2/2024,10:18.0,8m 23.5s,503.5,6.972888846,79.91595216,0,0,0.3,56,0.2,0,0,0,0,0,0,0,0,3,-3.1,83.5,83.5,,Manual Takeoff,Other,Takeoff (RC Assisted),17,5,TRUE,,Mavic Mini,TRUE,FALSE,,Smart,RC,TRUE,TRUE,FALSE,,,TRUE,,FALSE,FALSE,FALSE,FALSE,FALSE,FALSE,FALSE,FALSE,FALSE,FALSE,0,Follow Yaw,0,0,101.3,101.3,FALSE,FALSE,FALSE,FALSE,FALSE,FALSE,,TRUE,Normal,,100,1024,1024,1024,1024,1,FALSE,FALSE,FALSE,FALSE,FALSE,0,FALSE,FALSE,FALSE,FALSE,63,7.633,1310,2065,7.636,FALSE,3.818,3.815,0.003,FALSE,FALSE,NA,112.1,112.1,112.1,0,0,0,0,5,2146.1,536.53,,Idle,0,20,FALSE,5,TRUE,11,Go Home,FALSE,FALSE,FALSE,FALSE,FALSE,FALSE,FALSE,FALSE,FALSE,FALSE,FALSE,FALSE,6.972890045,79.9159581,2.1,119,328,TRUE,1,1,FALSE,FALSE,FALSE,FALSE,,TRUE,FALSE,FALSE,Course Lock,49.2,,16.4,Calm,41,,1.12.8,Mavic Mini,1SDCH7G0169R0K,1SFLH6Q0AB03DJ,1SRCH7F014TAHX,1U5X071EXP5ZJG,112.7,0.4,75.4,14.785726,8.94776,0,8802,Mavic Mini,1SDCH7G0169R0K,1SFLH6Q0AB03DJ,1SRCH7F014TAHX,1U5X071EXP5ZJG,DJI Fly,,1.12.8,6608D402-936C-F691-AD06-B2FDC9C4EB85,1SDCH7G0169R0K,,,,,,,,Flight mode changed to Manual Takeoff.,
3/2/2024,10:18.0,8m 23.6s,503.6,6.972888837,79.91595209,0,0,0.3,56,0.2,0,0,0,0,0,0,0,0,3,-3.1,83.5,83.5,,Manual Takeoff,Other,Takeoff (RC Assisted),17,5,TRUE,,Mavic Mini,TRUE,FALSE,,Smart,RC,TRUE,TRUE,FALSE,,,TRUE,,FALSE,FALSE,FALSE,FALSE,FALSE,FALSE,FALSE,FALSE,FALSE,FALSE,0,Follow Yaw,0,0,101.3,101.3,FALSE,FALSE,FALSE,FALSE,FALSE,FALSE,,TRUE,Normal,,100,1024,1024,1024,1024,1,FALSE,FALSE,FALSE,FALSE,FALSE,0,FALSE,FALSE,FALSE,FALSE,63,7.633,1310,2065,7.636,FALSE,3.818,3.815,0.003,FALSE,FALSE,NA,112.1,112.1,112.1,0,0,0,0,5,2146.1,536.53,,Idle,0,20,FALSE,5,TRUE,11,Go Home,FALSE,FALSE,FALSE,FALSE,FALSE,FALSE,FALSE,FALSE,FALSE,FALSE,FALSE,FALSE,6.972890045,79.9159581,2.2,119,328,TRUE,1,1,FALSE,FALSE,FALSE,FALSE,,TRUE,FALSE,FALSE,Course Lock,49.2,,16.4,Calm,41,,1.12.8,Mavic Mini,1SDCH7G0169R0K,1SFLH6Q0AB03DJ,1SRCH7F014TAHX,1U5X071EXP5ZJG,112.7,0.4,75.4,14.785726,8.94776,0,8802,Mavic Mini,1SDCH7G0169R0K,1SFLH6Q0AB03DJ,1SRCH7F014TAHX,1U5X071EXP5ZJG,DJI Fly,,1.12.8,6608D402-936C-F691-AD06-B2FDC9C4EB85,1SDCH7G0169R0K,,,,,,,,,
3/2/2024,10:18.2,8m 23.7s,503.7,6.972888832,79.91595219,0,0,0.3,56,0.3,0,0,0,0,0,0,0,0,3.1,-3.1,83.5,83.5,,Manual Takeoff,Other,Takeoff (RC Assisted),17,5,TRUE,,Mavic Mini,TRUE,FALSE,,Smart,RC,TRUE,TRUE,FALSE,,,TRUE,,FALSE,FALSE,FALSE,FALSE,FALSE,FALSE,FALSE,FALSE,FALSE,FALSE,0,Follow Yaw,0,0,101.3,101.3,FALSE,FALSE,FALSE,FALSE,FALSE,FALSE,,TRUE,Normal,,100,1024,1024,1024,1024,1,FALSE,FALSE,FALSE,FALSE,FALSE,0,FALSE,FALSE,FALSE,FALSE,63,7.633,1310,2065,7.64,FALSE,3.818,3.815,0.003,FALSE,FALSE,NA,112.1,112.1,112.1,0,0,0,0,5,1986,496.5,,Idle,0,20,FALSE,5,TRUE,11,Go Home,FALSE,FALSE,FALSE,FALSE,FALSE,FALSE,FALSE,FALSE,FALSE,FALSE,FALSE,FALSE,6.972890045,79.9159581,2.1,119,328,TRUE,1,1,FALSE,FALSE,FALSE,FALSE,,TRUE,FALSE,FALSE,Course Lock,49.2,,16.4,Calm,41,,1.12.8,Mavic Mini,1SDCH7G0169R0K,1SFLH6Q0AB03DJ,1SRCH7F014TAHX,1U5X071EXP5ZJG,112.7,0.4,75.4,14.785726,8.94776,0,8802,Mavic Mini,1SDCH7G0169R0K,1SFLH6Q0AB03DJ,1SRCH7F014TAHX,1U5X071EXP5ZJG,DJI Fly,,1.12.8,6608D402-936C-F691-AD06-B2FDC9C4EB85,1SDCH7G0169R0K,,,,,,,,,
3/2/2024,10:18.3,8m 23.8s,503.8,6.972888827,79.9159523,0,0,0.3,56,0.3,0,0,0,0,0,0,0,0,3.1,-3.1,83.5,83.5,,Manual Takeoff,Other,Takeoff (RC Assisted),17,5,TRUE,,Mavic Mini,TRUE,FALSE,,Smart,RC,TRUE,TRUE,FALSE,,,TRUE,,FALSE,FALSE,FALSE,FALSE,FALSE,FALSE,FALSE,FALSE,FALSE,FALSE,0,Follow Yaw,0,0,101.3,101.3,FALSE,FALSE,FALSE,FALSE,FALSE,FALSE,,TRUE,Normal,,100,1024,1024,1024,1024,1,FALSE,FALSE,FALSE,FALSE,FALSE,0,FALSE,FALSE,FALSE,FALSE,63,7.633,1310,2065,7.64,FALSE,3.818,3.815,0.003,FALSE,FALSE,NA,112.1,112.1,112.1,0,0,0,0,5,1986,496.5,,Idle,0,20,FALSE,5,TRUE,11,Go Home,FALSE,FALSE,FALSE,FALSE,FALSE,FALSE,FALSE,FALSE,FALSE,FALSE,FALSE,FALSE,6.972890045,79.9159581,2.1,119,328,TRUE,1,1,FALSE,FALSE,FALSE,FALSE,,TRUE,FALSE,FALSE,Course Lock,49.2,,16.4,Calm,41,,1.12.8,Mavic Mini,1SDCH7G0169R0K,1SFLH6Q0AB03DJ,1SRCH7F014TAHX,1U5X071EXP5ZJG,112.7,0.4,75.4,14.785726,8.94776,0,8802,Mavic Mini,1SDCH7G0169R0K,1SFLH6Q0AB03DJ,1SRCH7F014TAHX,1U5X071EXP5ZJG,DJI Fly,,1.12.8,6608D402-936C-F691-AD06-B2FDC9C4EB85,1SDCH7G0169R0K,,,,,,,,,
3/2/2024,10:18.4,8m 23.9s,503.9,6.97288887,79.91595232,0,0,0.3,56,0.3,0,0,0,0,0,0,0,0,3.1,-3.1,83.5,83.5,,Manual Takeoff,Other,Takeoff (RC Assisted),17,5,TRUE,,Mavic Mini,TRUE,FALSE,,Smart,RC,TRUE,TRUE,FALSE,,,TRUE,,FALSE,FALSE,FALSE,FALSE,FALSE,FALSE,FALSE,FALSE,FALSE,FALSE,0,Follow Yaw,0,0,101.3,101.3,FALSE,FALSE,FALSE,FALSE,FALSE,FALSE,,TRUE,Normal,,100,1024,1024,1024,1024,1,FALSE,FALSE,FALSE,FALSE,FALSE,0,FALSE,FALSE,FALSE,FALSE,63,7.633,1310,2065,7.64,FALSE,3.818,3.815,0.003,FALSE,FALSE,NA,112.1,112.1,112.1,0,0,0,0,5,1986,496.5,,Idle,0,20,FALSE,5,TRUE,11,Go Home,FALSE,FALSE,FALSE,FALSE,FALSE,FALSE,FALSE,FALSE,FALSE,FALSE,FALSE,FALSE,6.972890045,79.9159581,2.1,119,328,TRUE,1,1,FALSE,FALSE,FALSE,FALSE,,TRUE,FALSE,FALSE,Course Lock,49.2,,16.4,Calm,41,,1.12.8,Mavic Mini,1SDCH7G0169R0K,1SFLH6Q0AB03DJ,1SRCH7F014TAHX,1U5X071EXP5ZJG,112.7,0.4,75.4,14.785726,8.94776,0,8802,Mavic Mini,1SDCH7G0169R0K,1SFLH6Q0AB03DJ,1SRCH7F014TAHX,1U5X071EXP5ZJG,DJI Fly,,1.12.8,6608D402-936C-F691-AD06-B2FDC9C4EB85,1SDCH7G0169R0K,,,,,,,,,
3/2/2024,10:18.5,8m 24.0s,504,6.972889017,79.91595224,0,0,0.3,56,0.4,0,0,0,0,0,0,0,0,3.1,-3.1,83.5,83.5,,Manual Takeoff,Other,Takeoff (RC Assisted),17,5,TRUE,,Mavic Mini,TRUE,FALSE,,Smart,RC,TRUE,TRUE,FALSE,,,TRUE,,FALSE,FALSE,FALSE,FALSE,FALSE,FALSE,FALSE,FALSE,FALSE,FALSE,0,Follow Yaw,0,0,101.3,101.3,FALSE,FALSE,FALSE,FALSE,FALSE,FALSE,,TRUE,Normal,,100,1024,1024,1047,1024,1,FALSE,FALSE,FALSE,FALSE,FALSE,0,FALSE,FALSE,FALSE,FALSE,63,7.633,1310,2065,7.64,FALSE,3.818,3.815,0.003,FALSE,FALSE,NA,112.1,112.1,112.1,0,0,0,0,5,1986,496.5,,Idle,0,20,FALSE,5,TRUE,11,Go Home,FALSE,FALSE,FALSE,FALSE,FALSE,FALSE,FALSE,FALSE,FALSE,FALSE,FALSE,FALSE,6.972890045,79.9159581,2.1,119,328,TRUE,1,1,FALSE,FALSE,FALSE,FALSE,,TRUE,FALSE,FALSE,Course Lock,49.2,,16.4,Calm,41,,1.12.8,Mavic Mini,1SDCH7G0169R0K,1SFLH6Q0AB03DJ,1SRCH7F014TAHX,1U5X071EXP5ZJG,112.7,0.4,75.4,14.785726,8.94776,0,8802,Mavic Mini,1SDCH7G0169R0K,1SFLH6Q0AB03DJ,1SRCH7F014TAHX,1U5X071EXP5ZJG,DJI Fly,,1.12.8,6608D402-936C-F691-AD06-B2FDC9C4EB85,1SDCH7G0169R0K,,,,,,,,,
3/2/2024,10:18.6,8m 24.1s,504.1,6.972889036,79.91595228,0,0,0.3,56,0.4,0,0,0,0,0,0,0,0,3,-3.1,83.5,83.5,,Manual Takeoff,Other,Takeoff (RC Assisted),17,5,TRUE,,Mavic Mini,TRUE,FALSE,,Smart,RC,TRUE,TRUE,FALSE,,,TRUE,,FALSE,FALSE,FALSE,FALSE,FALSE,FALSE,FALSE,FALSE,FALSE,FALSE,0,Follow Yaw,0,0,101.3,101.3,FALSE,FALSE,FALSE,FALSE,FALSE,FALSE,,TRUE,Normal,,100,1024,1024,1095,1024,1,FALSE,FALSE,FALSE,FALSE,FALSE,0,FALSE,FALSE,FALSE,FALSE,63,7.645,1310,2065,7.64,FALSE,3.823,3.822,0.003,FALSE,FALSE,NA,112.1,112.1,112.1,0,0,0,0,5,1986,496.5,,Idle,0,20,FALSE,5,TRUE,11,Go Home,FALSE,FALSE,FALSE,FALSE,FALSE,FALSE,FALSE,FALSE,FALSE,FALSE,FALSE,FALSE,6.972890045,79.9159581,2.1,119,328,TRUE,1,1,FALSE,FALSE,FALSE,FALSE,,TRUE,FALSE,FALSE,Course Lock,49.2,,16.4,Calm,41,,1.12.8,Mavic Mini,1SDCH7G0169R0K,1SFLH6Q0AB03DJ,1SRCH7F014TAHX,1U5X071EXP5ZJG,112.7,0.4,75.4,14.785726,8.94776,0,8802,Mavic Mini,1SDCH7G0169R0K,1SFLH6Q0AB03DJ,1SRCH7F014TAHX,1U5X071EXP5ZJG,DJI Fly,,1.12.8,6608D402-936C-F691-AD06-B2FDC9C4EB85,1SDCH7G0169R0K,,,,,,,,,
3/2/2024,10:18.7,8m 24.2s,504.2,6.972889052,79.91595232,0,0,0.3,56,0.4,0,0,0,0,0,0,0,0,3,-3.1,83.5,83.5,,Manual Takeoff,Other,Takeoff (RC Assisted),17,5,TRUE,,Mavic Mini,TRUE,FALSE,,Smart,RC,TRUE,TRUE,FALSE,,,TRUE,,FALSE,FALSE,FALSE,FALSE,FALSE,FALSE,FALSE,FALSE,FALSE,FALSE,0,Follow Yaw,0,0,101.3,101.3,FALSE,FALSE,FALSE,FALSE,FALSE,FALSE,,TRUE,Normal,,100,1024,1024,1182,1024,1,FALSE,FALSE,FALSE,FALSE,FALSE,0,FALSE,FALSE,FALSE,FALSE,63,7.645,1310,2065,7.64,FALSE,3.823,3.822,0.003,FALSE,FALSE,NA,112.1,112.1,112.1,0,0,0,0,5,1986,496.5,,Idle,0,20,FALSE,5,TRUE,11,Go Home,FALSE,FALSE,FALSE,FALSE,FALSE,FALSE,FALSE,FALSE,FALSE,FALSE,FALSE,FALSE,6.972890045,79.9159581,2.1,119,328,TRUE,1,1,FALSE,FALSE,FALSE,FALSE,,TRUE,FALSE,FALSE,Course Lock,49.2,,16.4,Calm,41,,1.12.8,Mavic Mini,1SDCH7G0169R0K,1SFLH6Q0AB03DJ,1SRCH7F014TAHX,1U5X071EXP5ZJG,112.7,0.4,75.4,14.785726,8.94776,0,8802,Mavic Mini,1SDCH7G0169R0K,1SFLH6Q0AB03DJ,1SRCH7F014TAHX,1U5X071EXP5ZJG,DJI Fly,,1.12.8,6608D402-936C-F691-AD06-B2FDC9C4EB85,1SDCH7G0169R0K,,,,,,,,,
3/2/2024,10:18.8,8m 24.3s,504.3,6.972889051,79.91595241,0,0,0.3,56,0.5,0,0,0,0,0,0,0,0,3.1,-3.1,83.5,83.5,,Manual Takeoff,Other,Takeoff (RC Assisted),17,5,TRUE,,Mavic Mini,TRUE,FALSE,,Smart,RC,TRUE,TRUE,FALSE,,,TRUE,,FALSE,FALSE,FALSE,FALSE,FALSE,FALSE,FALSE,FALSE,FALSE,FALSE,0,Follow Yaw,0,0,101.3,101.3,FALSE,FALSE,FALSE,FALSE,FALSE,FALSE,,TRUE,Normal,,100,1024,1024,1182,1024,1,FALSE,FALSE,FALSE,FALSE,FALSE,0,FALSE,FALSE,FALSE,FALSE,63,7.645,1310,2065,7.64,FALSE,3.823,3.822,0.003,FALSE,FALSE,NA,112.1,112.1,112.1,0,0,0,0,5,1986,496.5,,Idle,0,20,FALSE,5,TRUE,11,Go Home,FALSE,FALSE,FALSE,FALSE,FALSE,FALSE,FALSE,FALSE,FALSE,FALSE,FALSE,FALSE,6.972890045,79.9159581,2,119,328,TRUE,1,1,FALSE,FALSE,FALSE,FALSE,,TRUE,FALSE,FALSE,Course Lock,49.2,,16.4,Calm,41,,1.12.8,Mavic Mini,1SDCH7G0169R0K,1SFLH6Q0AB03DJ,1SRCH7F014TAHX,1U5X071EXP5ZJG,112.7,0.4,75.4,14.785726,8.94776,0,8802,Mavic Mini,1SDCH7G0169R0K,1SFLH6Q0AB03DJ,1SRCH7F014TAHX,1U5X071EXP5ZJG,DJI Fly,,1.12.8,6608D402-936C-F691-AD06-B2FDC9C4EB85,1SDCH7G0169R0K,,,,,,,,,
3/2/2024,10:18.9,8m 24.4s,504.4,6.972889049,79.91595252,0,0,0.3,56,0.5,0,0,0,0,0,0,0,0,3,-3.1,83.5,83.5,,Manual Takeoff,Other,Takeoff (RC Assisted),17,5,TRUE,,Mavic Mini,TRUE,FALSE,,Smart,RC,TRUE,TRUE,FALSE,,,TRUE,,FALSE,FALSE,FALSE,FALSE,FALSE,FALSE,FALSE,FALSE,FALSE,FALSE,0,Follow Yaw,0,0,101.3,101.3,FALSE,FALSE,FALSE,FALSE,FALSE,FALSE,,TRUE,Normal,,100,1024,1024,1272,1024,1,FALSE,FALSE,FALSE,FALSE,FALSE,0,FALSE,FALSE,FALSE,FALSE,63,7.645,1310,2065,7.64,FALSE,3.823,3.822,0.003,FALSE,FALSE,NA,112.1,112.1,112.1,0,0,0,0,5,1986,496.5,,Idle,0,20,FALSE,5,TRUE,11,Go Home,FALSE,FALSE,FALSE,FALSE,FALSE,FALSE,FALSE,FALSE,FALSE,FALSE,FALSE,FALSE,6.972890045,79.9159581,2,119,328,TRUE,1,1,FALSE,FALSE,FALSE,FALSE,,TRUE,FALSE,FALSE,Course Lock,49.2,,16.4,Calm,41,,1.12.8,Mavic Mini,1SDCH7G0169R0K,1SFLH6Q0AB03DJ,1SRCH7F014TAHX,1U5X071EXP5ZJG,112.7,0.4,75.4,14.785726,8.94776,0,8802,Mavic Mini,1SDCH7G0169R0K,1SFLH6Q0AB03DJ,1SRCH7F014TAHX,1U5X071EXP5ZJG,DJI Fly,,1.12.8,6608D402-936C-F691-AD06-B2FDC9C4EB85,1SDCH7G0169R0K,,,,,6.972871511,79.91594561,5,,
3/2/2024,10:19.0,8m 24.5s,504.5,6.972889002,79.91595259,0,0,0.3,56,0.5,0,0,0,0,0,0,0,0,3,-3,83.5,83.5,,Manual Takeoff,Other,Takeoff (RC Assisted),17,5,TRUE,,Mavic Mini,TRUE,FALSE,,Smart,RC,TRUE,TRUE,FALSE,,,TRUE,,FALSE,FALSE,FALSE,FALSE,FALSE,FALSE,FALSE,FALSE,FALSE,FALSE,0,Follow Yaw,0,0,101.3,101.3,FALSE,FALSE,FALSE,FALSE,FALSE,FALSE,,TRUE,Normal,,100,1024,1024,1371,1024,1,FALSE,FALSE,FALSE,FALSE,FALSE,0,FALSE,FALSE,FALSE,FALSE,63,7.645,1310,2065,7.64,FALSE,3.823,3.822,0.003,FALSE,FALSE,NA,112.1,112.1,112.1,0,0,0,0,5,1986,496.5,,Idle,0,20,FALSE,5,TRUE,11,Go Home,FALSE,FALSE,FALSE,FALSE,FALSE,FALSE,FALSE,FALSE,FALSE,FALSE,FALSE,FALSE,6.972890045,79.9159581,2,119,328,TRUE,1,1,FALSE,FALSE,FALSE,FALSE,,TRUE,FALSE,FALSE,Course Lock,49.2,,16.4,Calm,41,,1.12.8,Mavic Mini,1SDCH7G0169R0K,1SFLH6Q0AB03DJ,1SRCH7F014TAHX,1U5X071EXP5ZJG,112.7,0.4,75.4,14.785726,8.94776,0,8802,Mavic Mini,1SDCH7G0169R0K,1SFLH6Q0AB03DJ,1SRCH7F014TAHX,1U5X071EXP5ZJG,DJI Fly,,1.12.8,6608D402-936C-F691-AD06-B2FDC9C4EB85,1SDCH7G0169R0K,,,,,6.972871511,79.91594561,5,,
3/2/2024,10:19.1,8m 24.6s,504.6,6.972888994,79.91595267,0,0,0.3,56,0.6,0,0,0,0,0,0,0,0,3,-3,83.5,83.5,,Manual Takeoff,Other,Takeoff (RC Assisted),17,5,TRUE,,Mavic Mini,TRUE,FALSE,,Smart,RC,TRUE,TRUE,FALSE,,,TRUE,,FALSE,FALSE,FALSE,FALSE,FALSE,FALSE,FALSE,FALSE,FALSE,FALSE,0,Follow Yaw,0,0,101.2,101.2,FALSE,FALSE,FALSE,FALSE,FALSE,FALSE,,TRUE,Normal,,100,1024,1024,1505,1024,1,FALSE,FALSE,FALSE,FALSE,FALSE,0,FALSE,FALSE,FALSE,FALSE,63,7.645,1310,2065,7.64,FALSE,3.823,3.822,0.003,FALSE,FALSE,NA,112.1,112.1,112.1,0,0,0,0,5,1986,496.5,,Idle,0,20,FALSE,5,TRUE,11,Go Home,FALSE,FALSE,FALSE,FALSE,FALSE,FALSE,FALSE,FALSE,FALSE,FALSE,FALSE,FALSE,6.972890045,79.9159581,2,119,328,TRUE,1,1,FALSE,FALSE,FALSE,FALSE,,TRUE,FALSE,FALSE,Course Lock,49.2,,16.4,Calm,41,,1.12.8,Mavic Mini,1SDCH7G0169R0K,1SFLH6Q0AB03DJ,1SRCH7F014TAHX,1U5X071EXP5ZJG,112.7,0.4,75.4,14.785726,8.94776,0,8802,Mavic Mini,1SDCH7G0169R0K,1SFLH6Q0AB03DJ,1SRCH7F014TAHX,1U5X071EXP5ZJG,DJI Fly,,1.12.8,6608D402-936C-F691-AD06-B2FDC9C4EB85,1SDCH7G0169R0K,,,,,6.972871511,79.91594561,5,,
3/2/2024,10:19.1,8m 24.7s,504.7,6.972889035,79.91595273,0,0,0.3,56,0.6,0,0,0,0,0,0,0,0,3.1,-3,83.4,83.4,,Manual Takeoff,Other,Takeoff (RC Assisted),17,5,TRUE,,Mavic Mini,TRUE,FALSE,,Smart,RC,TRUE,TRUE,FALSE,,,TRUE,,FALSE,FALSE,FALSE,FALSE,FALSE,FALSE,FALSE,FALSE,FALSE,FALSE,0,Follow Yaw,0,0,101.2,101.2,FALSE,FALSE,FALSE,FALSE,FALSE,FALSE,,TRUE,Normal,,100,1024,1024,1628,1024,1,FALSE,FALSE,FALSE,FALSE,FALSE,0,FALSE,FALSE,FALSE,FALSE,63,7.645,1310,2065,7.616,FALSE,3.823,3.822,0.003,FALSE,FALSE,NA,112.1,112.1,112.1,0,0,0,0,5,2009.9,502.47,,Idle,0,20,FALSE,5,TRUE,11,Go Home,FALSE,FALSE,FALSE,FALSE,FALSE,FALSE,FALSE,FALSE,FALSE,FALSE,FALSE,FALSE,6.972890045,79.9159581,1.9,119,328,TRUE,1,1,FALSE,FALSE,FALSE,FALSE,,TRUE,FALSE,FALSE,Course Lock,49.2,,16.4,Calm,41,,1.12.8,Mavic Mini,1SDCH7G0169R0K,1SFLH6Q0AB03DJ,1SRCH7F014TAHX,1U5X071EXP5ZJG,112.7,0.4,75.4,14.785726,8.94776,0,8802,Mavic Mini,1SDCH7G0169R0K,1SFLH6Q0AB03DJ,1SRCH7F014TAHX,1U5X071EXP5ZJG,DJI Fly,,1.12.8,6608D402-936C-F691-AD06-B2FDC9C4EB85,1SDCH7G0169R0K,,,,,6.972871511,79.91594561,5,,
3/2/2024,10:19.2,8m 24.8s,504.8,6.97288908,79.91595279,0,0,0.3,56,0.6,0,0,0,0,0,0,0,0,3,-3.1,83.2,83.2,,Manual Takeoff,Other,Takeoff (RC Assisted),17,5,TRUE,,Mavic Mini,TRUE,FALSE,,Smart,RC,TRUE,TRUE,FALSE,,,TRUE,,FALSE,FALSE,FALSE,FALSE,FALSE,FALSE,FALSE,FALSE,FALSE,FALSE,0,Follow Yaw,0,0,101.2,101.2,FALSE,FALSE,FALSE,FALSE,FALSE,FALSE,,TRUE,Normal,,100,1024,1024,1684,1024,1,FALSE,FALSE,FALSE,FALSE,FALSE,0,FALSE,FALSE,FALSE,FALSE,63,7.645,1310,2065,7.616,FALSE,3.823,3.822,0.003,FALSE,FALSE,NA,112.1,112.1,112.1,0,0,0,0,5,2009.9,502.47,,Idle,0,20,FALSE,5,TRUE,11,Go Home,FALSE,FALSE,FALSE,FALSE,FALSE,FALSE,FALSE,FALSE,FALSE,FALSE,FALSE,FALSE,6.972890045,79.9159581,1.9,119,328,TRUE,1,1,FALSE,FALSE,FALSE,FALSE,,TRUE,FALSE,FALSE,Course Lock,49.2,,16.4,Calm,41,,1.12.8,Mavic Mini,1SDCH7G0169R0K,1SFLH6Q0AB03DJ,1SRCH7F014TAHX,1U5X071EXP5ZJG,112.7,0.4,75.4,14.785726,8.94776,0,8802,Mavic Mini,1SDCH7G0169R0K,1SFLH6Q0AB03DJ,1SRCH7F014TAHX,1U5X071EXP5ZJG,DJI Fly,,1.12.8,6608D402-936C-F691-AD06-B2FDC9C4EB85,1SDCH7G0169R0K,,,,,6.972871511,79.91594561,5,,
3/2/2024,10:19.4,8m 24.9s,504.9,6.972889156,79.91595277,0,0,0.3,56,0.6,0,0,0,0,0,0,0,0,2.9,-2.9,81.9,81.9,,Manual Takeoff,Other,Takeoff (RC Assisted),17,5,TRUE,,Mavic Mini,TRUE,FALSE,,Smart,RC,TRUE,TRUE,FALSE,,,TRUE,,FALSE,FALSE,FALSE,FALSE,FALSE,FALSE,FALSE,FALSE,FALSE,FALSE,0,Follow Yaw,0,0,100.7,100.7,FALSE,FALSE,FALSE,FALSE,FALSE,FALSE,,TRUE,Normal,,100,1024,1024,1684,1024,1,FALSE,FALSE,FALSE,FALSE,FALSE,0,FALSE,FALSE,FALSE,FALSE,63,7.645,1310,2065,7.616,FALSE,3.823,3.822,0.003,FALSE,FALSE,NA,112.1,112.1,112.1,0,0,0,0,5,2009.9,502.47,,Idle,0,20,FALSE,5,TRUE,11,Go Home,FALSE,FALSE,FALSE,FALSE,FALSE,FALSE,FALSE,FALSE,FALSE,FALSE,FALSE,FALSE,6.972890045,79.9159581,1.9,119,328,TRUE,1,1,FALSE,FALSE,FALSE,FALSE,,TRUE,FALSE,FALSE,Course Lock,49.2,,16.4,Calm,41,,1.12.8,Mavic Mini,1SDCH7G0169R0K,1SFLH6Q0AB03DJ,1SRCH7F014TAHX,1U5X071EXP5ZJG,112.7,0.4,75.4,14.785726,8.94776,0,8802,Mavic Mini,1SDCH7G0169R0K,1SFLH6Q0AB03DJ,1SRCH7F014TAHX,1U5X071EXP5ZJG,DJI Fly,,1.12.8,6608D402-936C-F691-AD06-B2FDC9C4EB85,1SDCH7G0169R0K,,,,,6.972871511,79.91594561,5,,
3/2/2024,10:19.4,8m 25.0s,505,6.972889175,79.91595283,0,0,0.3,56,0.7,0,0,0,0,0,0,0,0,1,-3.2,79.9,79.9,,Manual Takeoff,Other,Takeoff (RC Assisted),17,5,TRUE,,Mavic Mini,TRUE,FALSE,,Smart,RC,TRUE,TRUE,FALSE,,,TRUE,,FALSE,FALSE,FALSE,FALSE,FALSE,FALSE,FALSE,FALSE,FALSE,FALSE,0,Follow Yaw,0,0,98.8,98.8,FALSE,FALSE,FALSE,FALSE,FALSE,FALSE,,TRUE,Normal,,100,1024,1024,1684,1024,1,FALSE,FALSE,FALSE,FALSE,FALSE,0,FALSE,FALSE,FALSE,FALSE,63,7.645,1310,2065,7.616,FALSE,3.823,3.822,0.003,FALSE,FALSE,NA,112.1,112.1,112.1,0,0,0,0,5,2009.9,502.47,,Idle,0,20,FALSE,5,TRUE,11,Go Home,FALSE,FALSE,FALSE,FALSE,FALSE,FALSE,FALSE,FALSE,FALSE,FALSE,FALSE,FALSE,6.972890045,79.9159581,1.9,119,328,TRUE,1,1,FALSE,FALSE,FALSE,FALSE,,TRUE,FALSE,FALSE,Course Lock,49.2,,16.4,Calm,41,,1.12.8,Mavic Mini,1SDCH7G0169R0K,1SFLH6Q0AB03DJ,1SRCH7F014TAHX,1U5X071EXP5ZJG,112.7,0.4,75.4,14.785726,8.94776,0,8802,Mavic Mini,1SDCH7G0169R0K,1SFLH6Q0AB03DJ,1SRCH7F014TAHX,1U5X071EXP5ZJG,DJI Fly,,1.12.8,6608D402-936C-F691-AD06-B2FDC9C4EB85,1SDCH7G0169R0K,,,,,6.972871511,79.91594561,5,,
3/2/2024,10:19.5,8m 25.1s,505.1,6.972889208,79.91595291,0,0,0.3,56,0.7,0,0,0,0,0,0,-0.223694,0,-1.8,-2.2,78.8,78.8,,Manual Takeoff,Other,Takeoff (RC Assisted),17,5,TRUE,,Mavic Mini,TRUE,FALSE,,Smart,RC,TRUE,TRUE,FALSE,,,TRUE,,FALSE,FALSE,FALSE,FALSE,FALSE,FALSE,FALSE,FALSE,FALSE,FALSE,0,Follow Yaw,0,0,97.4,97.4,FALSE,FALSE,FALSE,FALSE,FALSE,FALSE,,TRUE,Normal,,100,1024,1024,1684,1024,1,FALSE,FALSE,FALSE,FALSE,FALSE,0,FALSE,FALSE,FALSE,FALSE,63,7.645,1310,2065,7.616,FALSE,3.823,3.822,0.003,FALSE,FALSE,NA,112.1,112.1,112.1,0,0,0,0,5,2009.9,502.47,,Idle,0,20,FALSE,5,TRUE,11,Go Home,FALSE,FALSE,FALSE,FALSE,FALSE,FALSE,FALSE,FALSE,FALSE,FALSE,FALSE,FALSE,6.972890045,79.9159581,1.9,119,328,TRUE,1,1,FALSE,FALSE,FALSE,FALSE,,TRUE,FALSE,FALSE,Course Lock,49.2,,16.4,Calm,41,,1.12.8,Mavic Mini,1SDCH7G0169R0K,1SFLH6Q0AB03DJ,1SRCH7F014TAHX,1U5X071EXP5ZJG,112.7,0.4,75.4,14.785726,8.94776,0,8802,Mavic Mini,1SDCH7G0169R0K,1SFLH6Q0AB03DJ,1SRCH7F014TAHX,1U5X071EXP5ZJG,DJI Fly,,1.12.8,6608D402-936C-F691-AD06-B2FDC9C4EB85,1SDCH7G0169R0K,,,,,6.972871511,79.91594561,5,,
3/2/2024,10:19.7,8m 25.2s,505.2,6.972889277,79.91595304,0,0,0.3,56,0.8,0.316351,0.316351,0.223694,0.223694,0.223694,0.223694,-0.447388,0,-2.6,-2.2,78.2,78.2,54.7,P-GPS,Other,,17,5,TRUE,,Mavic Mini,TRUE,FALSE,,Smart,RC,FALSE,TRUE,FALSE,,,TRUE,,FALSE,FALSE,FALSE,FALSE,FALSE,FALSE,FALSE,FALSE,FALSE,FALSE,0,Follow Yaw,0,0,96.4,96.4,FALSE,FALSE,FALSE,FALSE,FALSE,FALSE,,TRUE,Normal,,100,1024,1024,1684,1024,1,FALSE,FALSE,FALSE,FALSE,FALSE,0,FALSE,FALSE,FALSE,FALSE,63,7.645,1310,2065,7.616,FALSE,3.823,3.822,0.003,FALSE,FALSE,NA,112.1,112.1,112.1,0,0,0,0,5,2009.9,502.47,,Idle,0,20,FALSE,5,TRUE,11,Go Home,FALSE,FALSE,FALSE,FALSE,FALSE,FALSE,FALSE,FALSE,FALSE,FALSE,FALSE,FALSE,6.972890045,79.9159581,1.8,119,328,TRUE,1,1,FALSE,FALSE,FALSE,FALSE,,TRUE,FALSE,FALSE,Course Lock,49.2,,16.4,Calm,41,,1.12.8,Mavic Mini,1SDCH7G0169R0K,1SFLH6Q0AB03DJ,1SRCH7F014TAHX,1U5X071EXP5ZJG,112.7,0.4,75.4,14.785726,8.94776,0,8802,Mavic Mini,1SDCH7G0169R0K,1SFLH6Q0AB03DJ,1SRCH7F014TAHX,1U5X071EXP5ZJG,DJI Fly,,1.12.8,6608D402-936C-F691-AD06-B2FDC9C4EB85,1SDCH7G0169R0K,,,,,6.972871511,79.91594561,5,Flight mode changed to P-GPS.,
3/2/2024,10:19.8,8m 25.3s,505.3,6.972889445,79.91595318,0,0,0.6,56,0.8,0.500194,0.500194,0.223694,0.223694,0.447388,0.447388,-0.894776,0,-1.7,-0.2,78.1,78.1,32.6,P-GPS,Other,,17,5,TRUE,,Mavic Mini,TRUE,FALSE,,Smart,RC,FALSE,TRUE,FALSE,,,TRUE,,FALSE,FALSE,FALSE,FALSE,FALSE,FALSE,FALSE,FALSE,FALSE,FALSE,0,Follow Yaw,0,0,96.4,96.4,FALSE,FALSE,FALSE,FALSE,FALSE,FALSE,,TRUE,Normal,,100,1024,1024,1684,1024,1,FALSE,FALSE,FALSE,FALSE,FALSE,0,FALSE,FALSE,FALSE,FALSE,63,7.518,1309,2065,7.616,FALSE,3.762,3.756,0.006,FALSE,FALSE,NA,112.1,112.1,112.1,0,0,0,0,5,2009.9,502.47,,Idle,0,20,FALSE,5,TRUE,11,Go Home,FALSE,FALSE,FALSE,FALSE,FALSE,FALSE,FALSE,FALSE,FALSE,FALSE,FALSE,FALSE,6.972890045,79.9159581,1.7,119,328,TRUE,1,1,FALSE,FALSE,FALSE,FALSE,,TRUE,FALSE,FALSE,Course Lock,49.2,,16.4,Calm,41,,1.12.8,Mavic Mini,1SDCH7G0169R0K,1SFLH6Q0AB03DJ,1SRCH7F014TAHX,1U5X071EXP5ZJG,112.7,0.4,75.4,14.785726,8.94776,0,8802,Mavic Mini,1SDCH7G0169R0K,1SFLH6Q0AB03DJ,1SRCH7F014TAHX,1U5X071EXP5ZJG,DJI Fly,,1.12.8,6608D402-936C-F691-AD06-B2FDC9C4EB85,1SDCH7G0169R0K,,,,,6.972871511,79.91594561,5,,
3/2/2024,10:19.9,8m 25.4s,505.4,6.972889598,79.91595346,0.3,0.3,0.6,57,0.9,0.707382,0.707382,0.223694,0.223694,0.671082,0.671082,-1.565858,0,2.2,0.2,78.4,78.4,54.7,P-GPS,Other,,17,5,TRUE,,Mavic Mini,TRUE,FALSE,,Smart,RC,FALSE,TRUE,FALSE,,,TRUE,,FALSE,FALSE,FALSE,FALSE,FALSE,FALSE,FALSE,FALSE,FALSE,FALSE,0,Follow Yaw,0,0,96.4,96.4,FALSE,FALSE,FALSE,FALSE,FALSE,FALSE,,TRUE,Normal,,100,1024,1024,1684,1024,1,FALSE,FALSE,FALSE,FALSE,FALSE,0,FALSE,FALSE,FALSE,FALSE,63,7.518,1309,2065,7.616,FALSE,3.762,3.756,0.006,FALSE,FALSE,NA,112.1,112.1,112.1,0,0,0,0,5,2009.9,502.47,,Idle,0,20,FALSE,5,TRUE,11,Go Home,FALSE,FALSE,FALSE,FALSE,FALSE,FALSE,FALSE,FALSE,FALSE,FALSE,FALSE,FALSE,6.972890045,79.9159581,1.6,119,328,TRUE,1,1,FALSE,FALSE,FALSE,FALSE,,TRUE,FALSE,FALSE,Course Lock,49.2,,16.4,Calm,41,,1.12.8,Mavic Mini,1SDCH7G0169R0K,1SFLH6Q0AB03DJ,1SRCH7F014TAHX,1U5X071EXP5ZJG,112.7,0.4,75.4,14.785726,8.94776,0,8802,Mavic Mini,1SDCH7G0169R0K,1SFLH6Q0AB03DJ,1SRCH7F014TAHX,1U5X071EXP5ZJG,DJI Fly,,1.12.8,6608D402-936C-F691-AD06-B2FDC9C4EB85,1SDCH7G0169R0K,,,,,6.972871511,79.91594561,5,,
3/2/2024,10:20.0,8m 25.5s,505.5,6.972889679,79.91595376,0.6,0.6,0.9,57,1.1,0.671082,0.707382,0,0.223694,0.671082,0.671082,-2.013246,0,4,-0.3,78.5,78.5,70.7,P-GPS,Other,,17,5,TRUE,,Mavic Mini,TRUE,FALSE,,Smart,RC,FALSE,TRUE,FALSE,,,TRUE,,FALSE,FALSE,FALSE,FALSE,FALSE,FALSE,FALSE,FALSE,FALSE,FALSE,0,Follow Yaw,0,0,96.4,96.4,FALSE,FALSE,FALSE,FALSE,FALSE,FALSE,,TRUE,Normal,,100,1024,1024,1684,1024,1,FALSE,FALSE,FALSE,FALSE,FALSE,0,FALSE,FALSE,FALSE,FALSE,63,7.518,1309,2065,7.616,FALSE,3.762,3.756,0.006,FALSE,FALSE,NA,112.1,112.1,112.1,0,0,0,0,5,2009.9,502.47,,Idle,0,20,FALSE,5,TRUE,11,Go Home,FALSE,FALSE,FALSE,FALSE,FALSE,FALSE,FALSE,FALSE,FALSE,FALSE,FALSE,FALSE,6.972890045,79.9159581,1.5,119,328,TRUE,1,1,FALSE,FALSE,FALSE,FALSE,,TRUE,FALSE,FALSE,Course Lock,49.2,,16.4,Calm,41,,1.12.8,Mavic Mini,1SDCH7G0169R0K,1SFLH6Q0AB03DJ,1SRCH7F014TAHX,1U5X071EXP5ZJG,112.7,0.4,75.4,14.785726,8.94776,0,8802,Mavic Mini,1SDCH7G0169R0K,1SFLH6Q0AB03DJ,1SRCH7F014TAHX,1U5X071EXP5ZJG,DJI Fly,,1.12.8,6608D402-936C-F691-AD06-B2FDC9C4EB85,1SDCH7G0169R0K,,,,,6.972871511,79.91594561,5,,
3/2/2024,10:20.1,8m 25.6s,505.6,6.972889744,79.91595409,0.9,0.9,1.3,57,1.2,0.671082,0.707382,0,0.223694,0.671082,0.671082,-2.684328,0,5,0,78.8,78.8,75.7,P-GPS,Other,,17,5,TRUE,,Mavic Mini,TRUE,FALSE,,Smart,RC,FALSE,TRUE,FALSE,,,TRUE,,FALSE,FALSE,FALSE,FALSE,FALSE,FALSE,FALSE,FALSE,FALSE,FALSE,0,Follow Yaw,0,0,96.4,96.4,FALSE,FALSE,FALSE,FALSE,FALSE,FALSE,,TRUE,Normal,,100,1024,1024,1684,1024,1,FALSE,FALSE,FALSE,FALSE,FALSE,0,FALSE,FALSE,FALSE,FALSE,63,7.518,1309,2065,7.616,FALSE,3.762,3.756,0.006,FALSE,FALSE,NA,112.1,112.1,112.1,0,0,0,0,5,2009.9,502.47,,Idle,0,20,FALSE,5,TRUE,11,Go Home,FALSE,FALSE,FALSE,FALSE,FALSE,FALSE,FALSE,FALSE,FALSE,FALSE,FALSE,FALSE,6.972890045,79.9159581,1.4,119,328,TRUE,1,1,FALSE,FALSE,FALSE,FALSE,,TRUE,FALSE,FALSE,Course Lock,49.2,,16.4,Calm,41,,1.12.8,Mavic Mini,1SDCH7G0169R0K,1SFLH6Q0AB03DJ,1SRCH7F014TAHX,1U5X071EXP5ZJG,112.7,0.4,75.4,14.785726,8.94776,0,8802,Mavic Mini,1SDCH7G0169R0K,1SFLH6Q0AB03DJ,1SRCH7F014TAHX,1U5X071EXP5ZJG,DJI Fly,,1.12.8,6608D402-936C-F691-AD06-B2FDC9C4EB85,1SDCH7G0169R0K,,,,,6.972871511,79.91594561,5,,
3/2/2024,10:20.2,8m 25.7s,505.7,6.972889965,79.91595439,1.3,1.3,1.6,58,1.3,0.671082,0.707382,0,0.223694,0.671082,0.671082,-3.35541,0,5.9,-0.7,78.7,78.7,46.2,P-GPS,Other,,17,5,TRUE,,Mavic Mini,TRUE,FALSE,,Smart,RC,FALSE,TRUE,FALSE,,,TRUE,,FALSE,FALSE,FALSE,FALSE,FALSE,FALSE,FALSE,FALSE,FALSE,FALSE,0,Follow Yaw,0,0,96.4,96.4,FALSE,FALSE,FALSE,FALSE,FALSE,FALSE,,TRUE,Normal,,100,1024,1024,1684,1024,1,FALSE,FALSE,FALSE,FALSE,FALSE,0,FALSE,FALSE,FALSE,FALSE,63,7.518,1309,2065,7.526,FALSE,3.762,3.756,0.006,FALSE,FALSE,NA,112.1,112.1,112.1,0,0,2,0,5,2363.5,590.88,,Idle,0,20,FALSE,5,TRUE,11,Go Home,FALSE,FALSE,FALSE,FALSE,FALSE,FALSE,FALSE,FALSE,FALSE,FALSE,FALSE,FALSE,6.972889256,79.915953,0.5,119,328,TRUE,1,1,FALSE,FALSE,FALSE,FALSE,,TRUE,FALSE,FALSE,Course Lock,49.2,,16.4,Calm,41,,1.12.8,Mavic Mini,1SDCH7G0169R0K,1SFLH6Q0AB03DJ,1SRCH7F014TAHX,1U5X071EXP5ZJG,112.7,0.4,75.4,14.785726,8.94776,0,8802,Mavic Mini,1SDCH7G0169R0K,1SFLH6Q0AB03DJ,1SRCH7F014TAHX,1U5X071EXP5ZJG,DJI Fly,,1.12.8,6608D402-936C-F691-AD06-B2FDC9C4EB85,1SDCH7G0169R0K,,,,,6.972871511,79.91594561,5,Home Point Updated.,
3/2/2024,10:20.3,8m 25.8s,505.8,6.972890064,79.91595473,1.6,1.6,2.2,58,1.4,0.671082,0.707382,0,0.223694,0.671082,0.671082,-3.802798,0,6.5,-1.6,78.8,78.8,69.3,P-GPS,Other,,17,5,TRUE,,Mavic Mini,TRUE,FALSE,,Smart,RC,FALSE,TRUE,FALSE,,,TRUE,,FALSE,FALSE,FALSE,FALSE,FALSE,FALSE,FALSE,FALSE,FALSE,FALSE,0,Follow Yaw,0,0,96.4,96.4,FALSE,FALSE,FALSE,FALSE,FALSE,FALSE,,TRUE,Normal,,100,1024,1024,1684,1024,1,FALSE,FALSE,FALSE,FALSE,FALSE,0,FALSE,FALSE,FALSE,FALSE,63,7.518,1309,2065,7.526,FALSE,3.762,3.756,0.006,FALSE,FALSE,NA,112.1,112.1,112.1,0,0,2,0,5,2363.5,590.88,,Idle,0,20,FALSE,5,TRUE,11,Go Home,FALSE,FALSE,FALSE,FALSE,FALSE,FALSE,FALSE,FALSE,FALSE,FALSE,FALSE,FALSE,6.972889256,79.915953,0.6,119,328,TRUE,1,1,FALSE,FALSE,FALSE,FALSE,,TRUE,FALSE,FALSE,Course Lock,49.2,,16.4,Calm,41,,1.12.8,Mavic Mini,1SDCH7G0169R0K,1SFLH6Q0AB03DJ,1SRCH7F014TAHX,1U5X071EXP5ZJG,112.7,0.4,75.4,14.785726,8.94776,0,8802,Mavic Mini,1SDCH7G0169R0K,1SFLH6Q0AB03DJ,1SRCH7F014TAHX,1U5X071EXP5ZJG,DJI Fly,,1.12.8,6608D402-936C-F691-AD06-B2FDC9C4EB85,1SDCH7G0169R0K,,,,,6.972871511,79.91594561,5,,
3/2/2024,10:20.4,8m 25.9s,505.9,6.972890075,79.91595511,2.2,2.2,2.9,59,1.6,0.447388,0.707382,0,0.223694,0.447388,0.671082,-4.026492,0,6.3,-1.9,78.8,78.8,87.8,P-GPS,Other,,17,5,TRUE,,Mavic Mini,TRUE,FALSE,,Smart,RC,FALSE,TRUE,FALSE,,,TRUE,,FALSE,FALSE,FALSE,FALSE,FALSE,FALSE,FALSE,FALSE,FALSE,FALSE,0,Follow Yaw,0,0,96.4,96.4,FALSE,FALSE,FALSE,FALSE,FALSE,FALSE,,TRUE,Normal,,100,1024,1024,1684,1024,1,FALSE,TRUE,FALSE,FALSE,FALSE,0,FALSE,FALSE,FALSE,FALSE,63,7.518,1309,2065,7.526,FALSE,3.762,3.756,0.006,FALSE,FALSE,NA,112.1,112.1,112.1,0,0,2,0,5,2363.5,590.88,,Idle,0,20,FALSE,5,TRUE,11,Go Home,FALSE,FALSE,FALSE,FALSE,FALSE,FALSE,FALSE,FALSE,FALSE,FALSE,FALSE,FALSE,6.972889256,79.915953,0.8,119,328,TRUE,1,1,FALSE,FALSE,FALSE,FALSE,,TRUE,FALSE,FALSE,Course Lock,49.2,,16.4,Calm,41,,1.12.8,Mavic Mini,1SDCH7G0169R0K,1SFLH6Q0AB03DJ,1SRCH7F014TAHX,1U5X071EXP5ZJG,112.7,0.4,75.4,14.785726,8.94776,0,8802,Mavic Mini,1SDCH7G0169R0K,1SFLH6Q0AB03DJ,1SRCH7F014TAHX,1U5X071EXP5ZJG,DJI Fly,,1.12.8,6608D402-936C-F691-AD06-B2FDC9C4EB85,1SDCH7G0169R0K,,,,,6.972871511,79.91594561,5,,
3/2/2024,10:20.4,8m 26.0s,506,6.97289008,79.91595549,2.9,2.9,3.6,59,1.7,0.447388,0.707382,0,0.223694,0.447388,0.671082,-4.250186,0,6.2,-2.3,78.7,78.7,89,P-GPS,Other,,17,5,TRUE,,Mavic Mini,TRUE,FALSE,,Smart,RC,FALSE,TRUE,FALSE,,,TRUE,,FALSE,FALSE,FALSE,FALSE,FALSE,FALSE,FALSE,FALSE,FALSE,FALSE,0,Follow Yaw,0,0,96.4,96.4,FALSE,FALSE,FALSE,FALSE,FALSE,FALSE,,TRUE,Normal,,100,1024,1024,1684,1024,1,FALSE,TRUE,FALSE,FALSE,FALSE,0,FALSE,FALSE,FALSE,FALSE,63,7.518,1309,2065,7.526,FALSE,3.762,3.756,0.006,FALSE,FALSE,NA,112.1,112.1,112.1,0,0,2,0,5,2363.5,590.88,,Idle,0,20,FALSE,5,TRUE,11,Go Home,FALSE,FALSE,FALSE,FALSE,FALSE,FALSE,FALSE,FALSE,FALSE,FALSE,FALSE,FALSE,6.972889256,79.915953,0.9,119,328,TRUE,1,1,FALSE,FALSE,FALSE,FALSE,,TRUE,FALSE,FALSE,Course Lock,49.2,,16.4,Calm,41,,1.12.8,Mavic Mini,1SDCH7G0169R0K,1SFLH6Q0AB03DJ,1SRCH7F014TAHX,1U5X071EXP5ZJG,112.7,0.4,75.4,14.785726,8.94776,0,8802,Mavic Mini,1SDCH7G0169R0K,1SFLH6Q0AB03DJ,1SRCH7F014TAHX,1U5X071EXP5ZJG,DJI Fly,,1.12.8,6608D402-936C-F691-AD06-B2FDC9C4EB85,1SDCH7G0169R0K,,,,,6.972871511,79.91594561,5,,
3/2/2024,10:20.5,8m 26.1s,506.1,6.972890088,79.91595575,3.6,3.6,4.2,60,1.8,0.447388,0.707382,0,0.223694,0.447388,0.671082,-4.250186,0,5.4,-1.8,78.7,78.7,87.4,P-GPS,Other,,17,5,TRUE,,Mavic Mini,TRUE,FALSE,,Smart,RC,FALSE,TRUE,FALSE,,,TRUE,,FALSE,FALSE,FALSE,FALSE,FALSE,FALSE,FALSE,FALSE,FALSE,FALSE,0,Follow Yaw,0,0,96.4,96.4,FALSE,FALSE,FALSE,FALSE,FALSE,FALSE,,TRUE,Normal,,100,1024,1024,1684,1024,1,FALSE,FALSE,FALSE,FALSE,FALSE,0,FALSE,FALSE,FALSE,FALSE,63,7.518,1309,2065,7.526,FALSE,3.762,3.756,0.006,FALSE,FALSE,NA,112.1,112.1,112.1,0,0,2,0,5,2363.5,590.88,,Idle,0,20,FALSE,5,TRUE,11,Go Home,FALSE,FALSE,FALSE,FALSE,FALSE,FALSE,FALSE,FALSE,FALSE,FALSE,FALSE,FALSE,6.972889256,79.915953,1,119,328,TRUE,1,1,FALSE,FALSE,FALSE,FALSE,,TRUE,FALSE,FALSE,Course Lock,49.2,,16.4,Calm,41,,1.12.8,Mavic Mini,1SDCH7G0169R0K,1SFLH6Q0AB03DJ,1SRCH7F014TAHX,1U5X071EXP5ZJG,112.7,0.4,75.4,14.785726,8.94776,0,8802,Mavic Mini,1SDCH7G0169R0K,1SFLH6Q0AB03DJ,1SRCH7F014TAHX,1U5X071EXP5ZJG,DJI Fly,,1.12.8,6608D402-936C-F691-AD06-B2FDC9C4EB85,1SDCH7G0169R0K,,,,,6.972871511,79.91594561,5,,
3/2/2024,10:20.7,8m 26.2s,506.2,6.972890053,79.91595608,4.2,4.2,4.9,61,1.9,0.223694,0.707382,0,0.223694,0.223694,0.671082,-4.47388,0,4.9,-1.3,78.6,78.6,97.8,P-GPS,Other,,17,5,TRUE,,Mavic Mini,TRUE,FALSE,,Smart,RC,FALSE,TRUE,FALSE,,,TRUE,,FALSE,FALSE,FALSE,FALSE,FALSE,FALSE,FALSE,FALSE,FALSE,FALSE,0,Follow Yaw,0,0,96.4,96.4,FALSE,FALSE,FALSE,FALSE,FALSE,TRUE,,TRUE,Normal,,100,1024,1024,1684,1024,1,FALSE,FALSE,FALSE,FALSE,FALSE,0,FALSE,FALSE,FALSE,FALSE,63,7.518,1309,2065,7.526,FALSE,3.762,3.756,0.006,FALSE,FALSE,NA,112.1,112.1,112.1,0,0,2,0,5,2363.5,590.88,,Idle,0,20,FALSE,5,TRUE,11,Go Home,FALSE,FALSE,FALSE,FALSE,FALSE,FALSE,FALSE,FALSE,FALSE,FALSE,FALSE,FALSE,6.972889256,79.915953,1.1,119,328,TRUE,1,1,FALSE,FALSE,FALSE,FALSE,,TRUE,FALSE,FALSE,Course Lock,49.2,,16.4,Calm,41,,1.12.8,Mavic Mini,1SDCH7G0169R0K,1SFLH6Q0AB03DJ,1SRCH7F014TAHX,1U5X071EXP5ZJG,112.7,0.4,75.4,14.785726,8.94776,0,8802,Mavic Mini,1SDCH7G0169R0K,1SFLH6Q0AB03DJ,1SRCH7F014TAHX,1U5X071EXP5ZJG,DJI Fly,,1.12.8,6608D402-936C-F691-AD06-B2FDC9C4EB85,1SDCH7G0169R0K,,,,,6.972871511,79.91594561,5,Home Point updated. RTH altitude adjusted to 15 m! (Code: 120852).,
3/2/2024,10:20.7,8m 26.3s,506.3,6.972890126,79.91595616,4.9,4.9,5.5,61,2,0.223694,0.707382,0,0.223694,0.223694,0.671082,-4.47388,0,4.5,-1,78.6,78.6,40.5,P-GPS,Other,,17,5,TRUE,,Mavic Mini,TRUE,FALSE,,Smart,RC,FALSE,TRUE,FALSE,,,TRUE,,FALSE,FALSE,FALSE,FALSE,FALSE,FALSE,FALSE,FALSE,FALSE,FALSE,0,Follow Yaw,0,0,96.4,96.4,FALSE,FALSE,FALSE,FALSE,FALSE,TRUE,,TRUE,Normal,,100,1024,1024,1684,1024,1,FALSE,FALSE,FALSE,FALSE,FALSE,0,FALSE,FALSE,FALSE,FALSE,63,7.518,1309,2065,7.526,FALSE,3.762,3.756,0.006,FALSE,FALSE,NA,112.1,112.1,112.1,0,0,2,0,5,2363.5,590.88,,Idle,0,20,FALSE,5,TRUE,11,Go Home,FALSE,FALSE,FALSE,FALSE,FALSE,FALSE,FALSE,FALSE,FALSE,FALSE,FALSE,FALSE,6.972889256,79.915953,1.1,119,328,TRUE,1,1,FALSE,FALSE,FALSE,FALSE,,TRUE,FALSE,FALSE,Course Lock,49.2,,16.4,Calm,41,,1.12.8,Mavic Mini,1SDCH7G0169R0K,1SFLH6Q0AB03DJ,1SRCH7F014TAHX,1U5X071EXP5ZJG,112.7,0.4,75.4,14.785726,8.94776,0,8802,Mavic Mini,1SDCH7G0169R0K,1SFLH6Q0AB03DJ,1SRCH7F014TAHX,1U5X071EXP5ZJG,DJI Fly,,1.12.8,6608D402-936C-F691-AD06-B2FDC9C4EB85,1SDCH7G0169R0K,,,,,6.972871511,79.91594561,5,,
3/2/2024,10:20.9,8m 26.4s,506.4,6.972890207,79.91595626,5.5,5.5,6.2,62,2,0.223694,0.707382,0,0.223694,0.223694,0.671082,-4.47388,0,4.5,-0.9,78.7,78.7,43.2,P-GPS,Other,,17,5,TRUE,,Mavic Mini,TRUE,FALSE,,Smart,RC,FALSE,TRUE,FALSE,,,TRUE,,FALSE,FALSE,FALSE,FALSE,FALSE,FALSE,FALSE,FALSE,FALSE,FALSE,0,Follow Yaw,0,0,96.4,96.4,FALSE,FALSE,FALSE,FALSE,FALSE,TRUE,,TRUE,Normal,,100,1024,1024,1684,1024,1,FALSE,FALSE,FALSE,FALSE,FALSE,0,FALSE,FALSE,FALSE,FALSE,63,7.423,1307,2065,7.526,FALSE,3.713,3.711,0.006,FALSE,FALSE,NA,112.1,112.1,112.1,0,0,2,0,5,2363.5,590.88,,Idle,0,20,FALSE,5,TRUE,11,Go Home,FALSE,FALSE,FALSE,FALSE,FALSE,FALSE,FALSE,FALSE,FALSE,FALSE,FALSE,FALSE,6.972889256,79.915953,1.2,119,328,TRUE,1,1,FALSE,FALSE,FALSE,FALSE,,TRUE,FALSE,FALSE,Course Lock,49.2,,16.4,Calm,41,,1.12.8,Mavic Mini,1SDCH7G0169R0K,1SFLH6Q0AB03DJ,1SRCH7F014TAHX,1U5X071EXP5ZJG,112.7,0.4,75.4,14.785726,8.94776,0,8802,Mavic Mini,1SDCH7G0169R0K,1SFLH6Q0AB03DJ,1SRCH7F014TAHX,1U5X071EXP5ZJG,DJI Fly,,1.12.8,6608D402-936C-F691-AD06-B2FDC9C4EB85,1SDCH7G0169R0K,,,,,6.972870925,79.9159374,5,,
3/2/2024,10:21.1,8m 26.5s,506.5,6.97289024,79.91595645,6.2,6.2,6.8,63,2.1,0.223694,0.707382,0,0.223694,0.223694,0.671082,-4.47388,0,5.5,-0.9,78.7,78.7,77.3,P-GPS,Other,,17,5,TRUE,,Mavic Mini,TRUE,FALSE,,Smart,RC,FALSE,TRUE,FALSE,,,TRUE,,FALSE,FALSE,FALSE,FALSE,FALSE,FALSE,FALSE,FALSE,FALSE,FALSE,0,Follow Yaw,0,0,96.4,96.4,FALSE,FALSE,FALSE,FALSE,FALSE,TRUE,,TRUE,Normal,,100,1024,1024,1684,1024,1,FALSE,FALSE,FALSE,FALSE,FALSE,0,FALSE,FALSE,FALSE,FALSE,63,7.423,1307,2065,7.526,FALSE,3.713,3.711,0.006,FALSE,FALSE,NA,112.1,112.1,112.1,0,0,2,0,5,2363.5,590.88,,Idle,0,20,FALSE,5,TRUE,11,Go Home,FALSE,FALSE,FALSE,FALSE,FALSE,FALSE,FALSE,FALSE,FALSE,FALSE,FALSE,FALSE,6.972889256,79.915953,1.2,119,328,TRUE,1,1,FALSE,FALSE,FALSE,FALSE,,TRUE,FALSE,FALSE,Course Lock,49.2,,16.4,Calm,41,,1.12.8,Mavic Mini,1SDCH7G0169R0K,1SFLH6Q0AB03DJ,1SRCH7F014TAHX,1U5X071EXP5ZJG,112.7,0.4,75.4,14.785726,8.94776,0,8802,Mavic Mini,1SDCH7G0169R0K,1SFLH6Q0AB03DJ,1SRCH7F014TAHX,1U5X071EXP5ZJG,DJI Fly,,1.12.8,6608D402-936C-F691-AD06-B2FDC9C4EB85,1SDCH7G0169R0K,,,,,6.972870925,79.9159374,5,,
3/2/2024,10:21.1,8m 26.6s,506.6,6.972890307,79.91595637,6.8,6.8,7.5,63,2.1,0.223694,0.707382,0,0.223694,0.223694,0.671082,-4.697574,0,5.5,-1.2,78.8,78.8,319.6,P-GPS,Other,,17,5,TRUE,,Mavic Mini,TRUE,FALSE,,Smart,RC,FALSE,TRUE,FALSE,,,TRUE,,FALSE,FALSE,FALSE,FALSE,FALSE,FALSE,FALSE,FALSE,FALSE,FALSE,0,Follow Yaw,0,0,96.4,96.4,FALSE,FALSE,FALSE,FALSE,FALSE,TRUE,,TRUE,Normal,,100,1024,1024,1684,1024,1,FALSE,FALSE,FALSE,FALSE,FALSE,0,FALSE,FALSE,FALSE,FALSE,63,7.423,1307,2065,7.526,FALSE,3.713,3.711,0.006,FALSE,FALSE,NA,112.1,112.1,112.1,0,0,2,0,5,2363.5,590.88,,Idle,0,20,FALSE,5,TRUE,11,Go Home,FALSE,FALSE,FALSE,FALSE,FALSE,FALSE,FALSE,FALSE,FALSE,FALSE,FALSE,FALSE,6.972889256,79.915953,1.2,119,328,TRUE,1,1,FALSE,FALSE,FALSE,FALSE,,TRUE,FALSE,FALSE,Course Lock,49.2,,16.4,Calm,41,,1.12.8,Mavic Mini,1SDCH7G0169R0K,1SFLH6Q0AB03DJ,1SRCH7F014TAHX,1U5X071EXP5ZJG,112.7,0.4,75.4,14.785726,8.94776,0,8802,Mavic Mini,1SDCH7G0169R0K,1SFLH6Q0AB03DJ,1SRCH7F014TAHX,1U5X071EXP5ZJG,DJI Fly,,1.12.8,6608D402-936C-F691-AD06-B2FDC9C4EB85,1SDCH7G0169R0K,,,,,6.972870925,79.9159374,5,,
3/2/2024,10:21.2,8m 26.7s,506.7,6.972890352,79.91595654,7.2,7.2,8.2,64,2.2,0.447388,0.707382,0,0.223694,0.447388,0.671082,-4.697574,0,6.1,-1,78.8,78.8,70.1,P-GPS,Other,,17,5,TRUE,,Mavic Mini,TRUE,FALSE,,Smart,RC,FALSE,TRUE,FALSE,,,TRUE,,FALSE,FALSE,FALSE,FALSE,FALSE,FALSE,FALSE,FALSE,FALSE,FALSE,0,Follow Yaw,0,0,96.4,96.4,FALSE,FALSE,FALSE,FALSE,FALSE,TRUE,,TRUE,Normal,,100,1024,1024,1684,1024,1,FALSE,FALSE,FALSE,FALSE,FALSE,0,FALSE,FALSE,FALSE,FALSE,63,7.423,1307,2065,7.477,FALSE,3.713,3.711,0.006,FALSE,FALSE,NA,112.1,112.1,112.1,0,0,2,0,5,3531,882.76,,Idle,0,20,FALSE,5,TRUE,11,Go Home,FALSE,FALSE,FALSE,FALSE,FALSE,FALSE,FALSE,FALSE,FALSE,FALSE,FALSE,FALSE,6.972889256,79.915953,1.3,119,328,TRUE,1,1,FALSE,FALSE,FALSE,FALSE,,TRUE,FALSE,FALSE,Course Lock,49.2,,16.4,Calm,41,,1.12.8,Mavic Mini,1SDCH7G0169R0K,1SFLH6Q0AB03DJ,1SRCH7F014TAHX,1U5X071EXP5ZJG,112.7,0.4,75.4,14.785726,8.94776,0,8802,Mavic Mini,1SDCH7G0169R0K,1SFLH6Q0AB03DJ,1SRCH7F014TAHX,1U5X071EXP5ZJG,DJI Fly,,1.12.8,6608D402-936C-F691-AD06-B2FDC9C4EB85,1SDCH7G0169R0K,,,,,6.972870925,79.9159374,5,,
3/2/2024,10:21.3,8m 26.8s,506.8,6.972890385,79.91595672,7.8,7.8,8.8,64,2.3,0.223694,0.707382,0,0.223694,0.223694,0.671082,-4.697574,0,6.3,-1.3,78.8,78.8,76.6,P-GPS,Other,,17,5,TRUE,,Mavic Mini,TRUE,FALSE,,Smart,RC,FALSE,TRUE,FALSE,,,TRUE,,FALSE,FALSE,FALSE,FALSE,FALSE,FALSE,FALSE,FALSE,FALSE,FALSE,0,Follow Yaw,0,0,96.4,96.4,FALSE,FALSE,FALSE,FALSE,FALSE,TRUE,,TRUE,Normal,,100,1024,1024,1684,1024,1,FALSE,FALSE,FALSE,FALSE,FALSE,0,FALSE,FALSE,FALSE,FALSE,63,7.423,1307,2065,7.477,FALSE,3.713,3.711,0.006,FALSE,FALSE,NA,112.1,112.1,112.1,0,0,2,0,5,3531,882.76,,Idle,0,20,FALSE,5,TRUE,11,Go Home,FALSE,FALSE,FALSE,FALSE,FALSE,FALSE,FALSE,FALSE,FALSE,FALSE,FALSE,FALSE,6.972889256,79.915953,1.4,119,328,TRUE,1,1,FALSE,FALSE,FALSE,FALSE,,TRUE,FALSE,FALSE,Course Lock,49.2,,16.4,Calm,41,,1.12.8,Mavic Mini,1SDCH7G0169R0K,1SFLH6Q0AB03DJ,1SRCH7F014TAHX,1U5X071EXP5ZJG,112.7,0.4,75.4,14.785726,8.94776,0,8802,Mavic Mini,1SDCH7G0169R0K,1SFLH6Q0AB03DJ,1SRCH7F014TAHX,1U5X071EXP5ZJG,DJI Fly,,1.12.8,6608D402-936C-F691-AD06-B2FDC9C4EB85,1SDCH7G0169R0K,,,,,6.972870925,79.9159374,5,,
3/2/2024,10:21.4,8m 26.9s,506.9,6.972890396,79.91595688,8.5,8.5,9.5,65,2.3,0.223694,0.707382,0,0.223694,0.223694,0.671082,-4.47388,0,7,-1.9,78.7,78.7,84.7,P-GPS,Other,,17,5,TRUE,,Mavic Mini,TRUE,FALSE,,Smart,RC,FALSE,TRUE,FALSE,,,TRUE,,FALSE,FALSE,FALSE,FALSE,FALSE,FALSE,FALSE,FALSE,FALSE,FALSE,0,Follow Yaw,0,0,96.4,96.4,FALSE,FALSE,FALSE,FALSE,FALSE,TRUE,,TRUE,Normal,,100,1024,1024,1684,1024,1,FALSE,FALSE,FALSE,FALSE,FALSE,0,FALSE,FALSE,FALSE,FALSE,63,7.423,1307,2065,7.477,FALSE,3.713,3.711,0.006,FALSE,FALSE,NA,112.1,112.1,112.1,0,0,2,0,5,3531,882.76,,Idle,0,20,FALSE,5,TRUE,11,Go Home,FALSE,FALSE,FALSE,FALSE,FALSE,FALSE,FALSE,FALSE,FALSE,FALSE,FALSE,FALSE,6.972889256,79.915953,1.4,119,328,TRUE,1,1,FALSE,FALSE,FALSE,FALSE,,TRUE,FALSE,FALSE,Course Lock,49.2,,16.4,Calm,41,,1.12.8,Mavic Mini,1SDCH7G0169R0K,1SFLH6Q0AB03DJ,1SRCH7F014TAHX,1U5X071EXP5ZJG,112.7,0.4,75.4,14.785726,8.94776,0,8802,Mavic Mini,1SDCH7G0169R0K,1SFLH6Q0AB03DJ,1SRCH7F014TAHX,1U5X071EXP5ZJG,DJI Fly,,1.12.8,6608D402-936C-F691-AD06-B2FDC9C4EB85,1SDCH7G0169R0K,,,,,6.972870925,79.9159374,5,,
3/2/2024,10:21.5,8m 27.0s,507,6.972890431,79.9159569,9.1,9.1,10.1,66,2.3,0.223694,0.707382,0,0.223694,0.223694,0.671082,-4.47388,0,6.7,-2.7,78.5,78.5,15.2,P-GPS,Other,,17,5,TRUE,,Mavic Mini,TRUE,FALSE,,Smart,RC,FALSE,TRUE,FALSE,,,TRUE,,FALSE,FALSE,FALSE,FALSE,FALSE,FALSE,FALSE,FALSE,FALSE,FALSE,0,Follow Yaw,0,0,96.4,96.4,FALSE,FALSE,FALSE,FALSE,FALSE,TRUE,,TRUE,Normal,,100,1024,1024,1684,1024,1,FALSE,FALSE,FALSE,FALSE,FALSE,0,FALSE,FALSE,FALSE,FALSE,63,7.423,1307,2065,7.477,FALSE,3.713,3.711,0.006,FALSE,FALSE,NA,112.1,112.1,112.1,0,0,2,0,5,3531,882.76,,Idle,0,20,FALSE,5,TRUE,11,Go Home,FALSE,FALSE,FALSE,FALSE,FALSE,FALSE,FALSE,FALSE,FALSE,FALSE,FALSE,FALSE,6.972889256,79.915953,1.4,119,328,TRUE,1,1,FALSE,FALSE,FALSE,FALSE,,TRUE,FALSE,FALSE,Course Lock,49.2,,16.4,Calm,41,,1.12.8,Mavic Mini,1SDCH7G0169R0K,1SFLH6Q0AB03DJ,1SRCH7F014TAHX,1U5X071EXP5ZJG,112.7,0.4,75.4,14.785726,8.94776,0,8802,Mavic Mini,1SDCH7G0169R0K,1SFLH6Q0AB03DJ,1SRCH7F014TAHX,1U5X071EXP5ZJG,DJI Fly,,1.12.8,6608D402-936C-F691-AD06-B2FDC9C4EB85,1SDCH7G0169R0K,,,,,6.972870925,79.9159374,5,,
3/2/2024,10:21.6,8m 27.1s,507.1,6.972890389,79.91595711,9.8,9.8,10.8,66,2.4,0.223694,0.707382,0,0.223694,0.223694,0.671082,-4.250186,0,7.1,-2.5,78.5,78.5,104.4,P-GPS,Other,,17,5,TRUE,,Mavic Mini,TRUE,FALSE,,Smart,RC,FALSE,TRUE,FALSE,,,TRUE,,FALSE,FALSE,FALSE,FALSE,FALSE,FALSE,FALSE,FALSE,FALSE,FALSE,0,Follow Yaw,0,0,96.4,96.4,FALSE,FALSE,FALSE,FALSE,FALSE,TRUE,,TRUE,Normal,,100,1024,1024,1684,1024,1,FALSE,FALSE,FALSE,FALSE,FALSE,0,FALSE,FALSE,FALSE,FALSE,63,7.423,1307,2065,7.477,FALSE,3.713,3.711,0.006,FALSE,FALSE,NA,112.1,112.1,112.1,0,0,2,0,5,3531,882.76,,Idle,0,20,FALSE,5,TRUE,11,Go Home,FALSE,FALSE,FALSE,FALSE,FALSE,FALSE,FALSE,FALSE,FALSE,FALSE,FALSE,FALSE,6.972889256,79.915953,1.5,119,328,TRUE,1,1,FALSE,FALSE,FALSE,FALSE,,TRUE,FALSE,FALSE,Course Lock,49.2,,16.4,Calm,41,,1.12.8,Mavic Mini,1SDCH7G0169R0K,1SFLH6Q0AB03DJ,1SRCH7F014TAHX,1U5X071EXP5ZJG,112.7,0.4,75.4,14.785726,8.94776,0,8802,Mavic Mini,1SDCH7G0169R0K,1SFLH6Q0AB03DJ,1SRCH7F014TAHX,1U5X071EXP5ZJG,DJI Fly,,1.12.8,6608D402-936C-F691-AD06-B2FDC9C4EB85,1SDCH7G0169R0K,,,,,6.972870925,79.9159374,5,,
3/2/2024,10:21.7,8m 27.2s,507.2,6.972890349,79.91595731,10.4,10.4,11.4,67,2.5,0.223694,0.707382,0,0.223694,0.223694,0.671082,-4.250186,0,6.9,-3,78.7,78.7,104.2,P-GPS,Other,,17,5,TRUE,,Mavic Mini,TRUE,FALSE,,Smart,RC,FALSE,TRUE,FALSE,,,TRUE,,FALSE,FALSE,FALSE,FALSE,FALSE,FALSE,FALSE,FALSE,FALSE,FALSE,0,Follow Yaw,0,0,96.4,96.4,FALSE,FALSE,FALSE,FALSE,FALSE,TRUE,,TRUE,Normal,,100,1024,1024,1684,1024,1,FALSE,FALSE,FALSE,FALSE,FALSE,0,FALSE,FALSE,FALSE,FALSE,63,7.423,1307,2065,7.477,FALSE,3.713,3.711,0.006,FALSE,FALSE,NA,112.1,112.1,112.1,0,0,2,0,5,3531,882.76,,Idle,0,20,FALSE,5,TRUE,11,Go Home,FALSE,FALSE,FALSE,FALSE,FALSE,FALSE,FALSE,FALSE,FALSE,FALSE,FALSE,FALSE,6.972889256,79.915953,1.6,119,328,TRUE,1,1,FALSE,FALSE,FALSE,FALSE,,TRUE,FALSE,FALSE,Course Lock,49.2,,16.4,Calm,41,,1.12.8,Mavic Mini,1SDCH7G0169R0K,1SFLH6Q0AB03DJ,1SRCH7F014TAHX,1U5X071EXP5ZJG,112.7,0.4,75.4,14.785726,8.94776,0,8802,Mavic Mini,1SDCH7G0169R0K,1SFLH6Q0AB03DJ,1SRCH7F014TAHX,1U5X071EXP5ZJG,DJI Fly,,1.12.8,6608D402-936C-F691-AD06-B2FDC9C4EB85,1SDCH7G0169R0K,,,,,6.972870925,79.9159374,5,,
3/2/2024,10:21.8,8m 27.3s,507.3,6.972890314,79.91595753,10.8,10.8,12.1,67,2.6,0,0.707382,0,0.223694,0,0.671082,-4.250186,0,7.2,-3.2,78.5,78.5,,P-GPS,Other,,17,5,TRUE,,Mavic Mini,TRUE,FALSE,,Smart,RC,FALSE,TRUE,FALSE,,,TRUE,,FALSE,FALSE,FALSE,FALSE,FALSE,FALSE,FALSE,FALSE,FALSE,FALSE,0,Follow Yaw,0,0,96.4,96.4,FALSE,FALSE,FALSE,FALSE,FALSE,TRUE,,TRUE,Normal,,100,1024,1024,1684,1024,1,FALSE,FALSE,FALSE,FALSE,FALSE,0,FALSE,FALSE,FALSE,FALSE,63,7.423,1307,2065,7.477,FALSE,3.713,3.711,0.006,FALSE,FALSE,NA,112.1,112.1,112.1,0,0,2,0,5,3531,882.76,,Idle,0,20,FALSE,5,TRUE,11,Go Home,FALSE,FALSE,FALSE,FALSE,FALSE,FALSE,FALSE,FALSE,FALSE,FALSE,FALSE,FALSE,6.972889256,79.915953,1.6,119,328,TRUE,1,1,FALSE,FALSE,FALSE,FALSE,,TRUE,FALSE,FALSE,Course Lock,49.2,,16.4,Calm,41,,1.12.8,Mavic Mini,1SDCH7G0169R0K,1SFLH6Q0AB03DJ,1SRCH7F014TAHX,1U5X071EXP5ZJG,112.7,0.4,75.4,14.785726,8.94776,0,8802,Mavic Mini,1SDCH7G0169R0K,1SFLH6Q0AB03DJ,1SRCH7F014TAHX,1U5X071EXP5ZJG,DJI Fly,,1.12.8,6608D402-936C-F691-AD06-B2FDC9C4EB85,1SDCH7G0169R0K,,,,,6.972870925,79.9159374,5,,
3/2/2024,10:21.9,8m 27.4s,507.4,6.972890173,79.91595796,11.4,11.4,12.7,68,2.7,0,0.707382,0,0.223694,0,0.671082,-4.026492,0,6.8,-2,78.7,78.7,,P-GPS,Other,,17,5,TRUE,,Mavic Mini,TRUE,FALSE,,Smart,RC,FALSE,TRUE,FALSE,,,TRUE,,FALSE,FALSE,FALSE,FALSE,FALSE,FALSE,FALSE,FALSE,FALSE,FALSE,0,Follow Yaw,0,0,96.4,96.4,FALSE,FALSE,FALSE,FALSE,FALSE,TRUE,,TRUE,Normal,,100,1024,1024,1684,1024,1,FALSE,FALSE,FALSE,FALSE,FALSE,0,FALSE,FALSE,FALSE,FALSE,63,7.423,1307,2065,7.477,FALSE,3.713,3.711,0.006,FALSE,FALSE,NA,112.1,112.1,112.1,0,0,2,0,5,3531,882.76,,Idle,0,20,FALSE,5,TRUE,11,Go Home,FALSE,FALSE,FALSE,FALSE,FALSE,FALSE,FALSE,FALSE,FALSE,FALSE,FALSE,FALSE,6.972889256,79.915953,1.8,119,328,TRUE,1,1,FALSE,FALSE,FALSE,FALSE,,TRUE,FALSE,FALSE,Course Lock,49.2,,16.4,Calm,41,,1.12.8,Mavic Mini,1SDCH7G0169R0K,1SFLH6Q0AB03DJ,1SRCH7F014TAHX,1U5X071EXP5ZJG,112.7,0.4,75.4,14.785726,8.94776,0,8802,Mavic Mini,1SDCH7G0169R0K,1SFLH6Q0AB03DJ,1SRCH7F014TAHX,1U5X071EXP5ZJG,DJI Fly,,1.12.8,6608D402-936C-F691-AD06-B2FDC9C4EB85,1SDCH7G0169R0K,,,,,6.972870925,79.9159374,5,,
3/2/2024,10:21.9,8m 27.5s,507.5,6.972890192,79.91595807,12.1,12.1,13.4,68,2.8,0,0.707382,0,0.223694,0,0.671082,-4.250186,0,6.4,-2,78.7,78.7,,P-GPS,Other,,17,5,TRUE,,Mavic Mini,TRUE,FALSE,,Smart,RC,FALSE,TRUE,FALSE,,,TRUE,,FALSE,FALSE,FALSE,FALSE,FALSE,FALSE,FALSE,FALSE,FALSE,FALSE,0,Follow Yaw,0,0,96.4,96.4,FALSE,FALSE,FALSE,FALSE,FALSE,TRUE,,TRUE,Normal,,100,1024,1024,1684,1024,1,FALSE,FALSE,FALSE,FALSE,FALSE,0,FALSE,FALSE,FALSE,FALSE,63,7.429,1306,2065,7.477,FALSE,3.718,3.711,0.007,FALSE,FALSE,NA,112.1,112.1,112.1,0,0,2,0,5,3531,882.76,,Idle,0,20,FALSE,5,TRUE,11,Go Home,FALSE,FALSE,FALSE,FALSE,FALSE,FALSE,FALSE,FALSE,FALSE,FALSE,FALSE,FALSE,6.972889256,79.915953,1.8,119,328,TRUE,1,1,FALSE,FALSE,FALSE,FALSE,,TRUE,FALSE,FALSE,Course Lock,49.2,,16.4,Calm,41,,1.12.8,Mavic Mini,1SDCH7G0169R0K,1SFLH6Q0AB03DJ,1SRCH7F014TAHX,1U5X071EXP5ZJG,112.7,0.4,75.4,14.785726,8.94776,0,8802,Mavic Mini,1SDCH7G0169R0K,1SFLH6Q0AB03DJ,1SRCH7F014TAHX,1U5X071EXP5ZJG,DJI Fly,,1.12.8,6608D402-936C-F691-AD06-B2FDC9C4EB85,1SDCH7G0169R0K,,,,,6.972870925,79.9159374,5,,
3/2/2024,10:22.0,8m 27.6s,507.6,6.972890221,79.91595817,12.4,12.4,13.7,69,2.8,0,0.707382,0,0.223694,0,0.671082,-4.250186,0,5.9,-1.3,78.7,78.7,,P-GPS,Other,,17,5,TRUE,,Mavic Mini,TRUE,FALSE,,Smart,RC,FALSE,TRUE,FALSE,,,TRUE,,FALSE,FALSE,FALSE,FALSE,FALSE,FALSE,FALSE,FALSE,FALSE,FALSE,0,Follow Yaw,0,0,96.4,96.4,FALSE,FALSE,FALSE,FALSE,FALSE,TRUE,,TRUE,Normal,,100,1024,1024,1684,1024,1,FALSE,FALSE,FALSE,FALSE,FALSE,0,FALSE,FALSE,FALSE,FALSE,63,7.429,1306,2065,7.477,FALSE,3.718,3.711,0.007,FALSE,FALSE,NA,112.1,112.1,112.1,0,0,2,0,5,3531,882.76,,Idle,0,20,FALSE,5,TRUE,11,Go Home,FALSE,FALSE,FALSE,FALSE,FALSE,FALSE,FALSE,FALSE,FALSE,FALSE,FALSE,FALSE,6.972889256,79.915953,1.9,119,328,TRUE,1,1,FALSE,FALSE,FALSE,FALSE,,TRUE,FALSE,FALSE,Course Lock,49.2,,16.4,Calm,41,,1.12.8,Mavic Mini,1SDCH7G0169R0K,1SFLH6Q0AB03DJ,1SRCH7F014TAHX,1U5X071EXP5ZJG,112.7,0.4,75.4,14.785726,8.94776,0,8802,Mavic Mini,1SDCH7G0169R0K,1SFLH6Q0AB03DJ,1SRCH7F014TAHX,1U5X071EXP5ZJG,DJI Fly,,1.12.8,6608D402-936C-F691-AD06-B2FDC9C4EB85,1SDCH7G0169R0K,,,,,6.972870925,79.9159374,5,,
