CUSTOM.date [local],CUSTOM.updateTime [local],OSD.flyTime,OSD.flyTime [s],OSD.latitude,OSD.longitude,OSD.height [ft],OSD.heightMax [ft],OSD.vpsHeight [ft],OSD.altitude [ft],OSD.mileage [ft],OSD.hSpeed [MPH],OSD.hSpeedMax [MPH],OSD.xSpeed [MPH],OSD.xSpeedMax [MPH],OSD.ySpeed [MPH],OSD.ySpeedMax [MPH],OSD.zSpeed [MPH],OSD.zSpeedMax [MPH],OSD.pitch,OSD.roll,OSD.yaw,OSD.yaw [360],OSD.directionOfTravel,OSD.flycState,OSD.flycCommand,OSD.flightAction,OSD.gpsNum,OSD.gpsLevel,OSD.isGPSUsed,OSD.nonGPSCause,OSD.droneType,OSD.isSwaveWork,OSD.waveError,OSD.goHomeStatus,OSD.batteryType,OSD.ctrlDevice,OSD.isOnGround,OSD.isMotorOn,OSD.isMotorBlocked,OSD.motorStartFailedCause,OSD.motorFailReason,OSD.isImuPreheated,OSD.imuInitFailReason,OSD.isAcceletorOverRange,OSD.isBarometerDeadInAir,OSD.isCompassError,OSD.isGoHomeHeightModified,OSD.canIOCWork,OSD.isNotEnoughForce,OSD.isOutOfLimit,OSD.isPropellerCatapult,OSD.isVibrating,OSD.isVisionUsed,OSD.voltageWarning,GIMBAL.mode,GIMBAL.pitch,GIMBAL.roll,GIMBAL.yaw,GIMBAL.yaw [360],GIMBAL.isPitchAtLimit,GIMBAL.isRollAtLimit,GIMBAL.isYawAtLimit,GIMBAL.isStuck,CAMERA.isPhoto,CAMERA.isVideo,CAMERA.filename,CAMERA.sdCardIsInserted,CAMERA.sdCardState,RC.downlinkSignal,RC.uplinkSignal,RC.aileron,RC.elevator,RC.throttle,RC.rudder,RC.mode,RC.goHomeDepressed,RC.recordDepressed,RC.shutterDepressed,RC.playbackDepressed,RC.wheelDepressed,RC.wheelOffset,RC.custom1Depressed,RC.custom2Depressed,RC.custom3Depressed,RC.custom4Depressed,BATTERY.chargeLevel,BATTERY.currentPV [V],BATTERY.currentCapacity [mAh],BATTERY.fullCapacity [mAh],BATTERY.voltage [V],BATTERY.isCellVoltageEstimated,BATTERY.cellVoltage1 [V],BATTERY.cellVoltage2 [V],BATTERY.maxCellVoltageDeviation,BATTERY.isCellVoltageDeviationHigh,BATTERY.isVoltageLow,BATTERY.current [A],BATTERY.temperature [F],BATTERY.minTemperature [F],BATTERY.maxTemperature [F],BATTERY.usefulTime [s],BATTERY.goHomeTime [s],BATTERY.landTime [s],BATTERY.goHomeBattery,BATTERY.landBattery,BATTERY.safeFlyRadius,BATTERY.volumeConsume,BATTERY.status,BATTERY.goHomeStatus,BATTERY.goHomeCountdown,BATTERY.lowWarning,BATTERY.lowWarningGoHome,BATTERY.seriousLowWarning,BATTERY.seriousLowWarningLanding,BATTERY.timesCharged,MC.failSafeAction,MC.isObstacleAvoidanceEnabled,MC.isCollisionAvoidanceEnabled,MC.isRthObstacleAvoidanceEnabled,MC.isBraking,MC.isAvoidingObstacle,MC.isAvoidingActiveObstacle,MC.isAscentLimitedByObstacle,MC.isLandingConfirmationNeeded,MC.atLowAltitudeLimit,MC.atDistanceLimit,MC.atAirportAltitudeLimit,MC.atAirportBoundary,HOME.latitude,HOME.longitude,HOME.distance [ft],HOME.height [ft],HOME.heightLimit [ft],HOME.isHomeRecord,HOME.goHomeMode,HOME.aircraftHeadDirection,HOME.isDynamicHomePointEnabled,HOME.isReachedLimitDistance,HOME.isReachedLimitHeight,HOME.isCompassCalibrating,HOME.compassCalibrationState,HOME.isMultipleFlightModeEnabled,HOME.isBeginnerMode,HOME.isIOCEnabled,HOME.iocMode,HOME.goHomeHeight [ft],HOME.courseLockAngle,HOME.forceLandingHeight [ft],HOME.wind,HOME.dataRecorderFileIndex,RECOVER.appType,RECOVER.appVersion,RECOVER.aircraftName,RECOVER.aircraftSerial,RECOVER.cameraSerial,RECOVER.rcSerial,RECOVER.batterySerial,DETAILS.totalTime [s],DETAILS.totalDistance [ft],DETAILS.maxHeight [ft],DETAILS.maxHorizontalSpeed [MPH],DETAILS.maxVerticalSpeed [MPH],DETAILS.photoNum,DETAILS.videoTime [s],DETAILS.aircraftName,DETAILS.aircraftSerial,DETAILS.cameraSerial,DETAILS.rcSerial,DETAILS.batterySerial,DETAILS.appName,DETAILS.appType,DETAILS.appVersion,DETAILS.guid,SERIAL.flightController,SERIAL.camera,SERIAL.gimbal,SERIAL.rc,SERIAL.battery,APPGPS.latitude,APPGPS.longitude,APPGPS.accuracy,APP.tip,APP.warning
2/22/2024,16:24.4,2m 51.9s,171.9,6.974219931,79.91415662,0,0,,50,0,0,0,0,0,0,0,0,0,5.2,2.3,-52.7,307.3,,Starting Motors,Drop Calibration,Takeoff (RC Assisted),13,5,TRUE,,Mavic Mini,FALSE,FALSE,,Smart,RC,TRUE,TRUE,FALSE,,,TRUE,,FALSE,FALSE,FALSE,FALSE,FALSE,FALSE,FALSE,FALSE,FALSE,FALSE,0,Follow Yaw,0,0,-36.1,323.9,FALSE,FALSE,FALSE,FALSE,FALSE,FALSE,,TRUE,Normal,,,364,364,364,1684,2,FALSE,FALSE,FALSE,FALSE,FALSE,0,FALSE,FALSE,FALSE,FALSE,87,7.951,1790,2056,7.95,TRUE,3.975,3.975,,FALSE,FALSE,NA,94.3,94.2,94.2,0,0,0,0,5,2603.1,650.78,,Idle,0,20,FALSE,5,TRUE,6,Go Home,FALSE,FALSE,FALSE,FALSE,FALSE,FALSE,FALSE,FALSE,FALSE,FALSE,FALSE,FALSE,6.974223209,79.91415571,1.2,98.8,328,TRUE,1,1,FALSE,FALSE,FALSE,FALSE,,TRUE,FALSE,FALSE,Course Lock,49.2,,16.4,Calm,33,,1.12.8,Mavic Mini,1SDCH7G0169R0K,1SFLH6Q0AB03DJ,1SRCH7F014TAHX,1U5X071EXP6C9Y,78.8,0.4,9.8,8.772607,2.23694,0,0,Mavic Mini,1SDCH7G0169R0K,1SFLH6Q0AB03DJ,1SRCH7F014TAHX,1U5X071EXP6C9Y,DJI Fly,,1.12.8,CFF8582E-1E8B-BC20-99E7-D8E15FE198F7,1SDCH7G0169R0K,,,,,,,,Data Recorder File Index is 33.; Set Return to Home (RTH) altitude to 15 m (49 ft).; Set maximum flight altitude to 100 m (328 ft).; Flight mode changed to Starting Motors.,
2/22/2024,16:24.5,2m 52.0s,172,6.974219914,79.91415663,0,0,,50,0,0,0,0,0,0,0,0,0,5.2,2.3,-52.7,307.3,,Starting Motors,Drop Calibration,Takeoff (RC Assisted),13,5,TRUE,,Mavic Mini,FALSE,FALSE,,Smart,RC,TRUE,TRUE,FALSE,,,TRUE,,FALSE,FALSE,FALSE,FALSE,FALSE,FALSE,FALSE,FALSE,FALSE,FALSE,0,Follow Yaw,0,0,-36.1,323.9,FALSE,FALSE,FALSE,FALSE,FALSE,FALSE,,TRUE,Normal,,100,1024,1024,523,1428,2,FALSE,FALSE,FALSE,FALSE,FALSE,0,FALSE,FALSE,FALSE,FALSE,87,7.951,1790,2056,7.95,TRUE,3.975,3.975,,FALSE,FALSE,NA,94.3,94.2,94.2,0,0,0,0,5,2603.1,650.78,,Idle,0,20,FALSE,5,TRUE,6,Go Home,FALSE,FALSE,FALSE,FALSE,FALSE,FALSE,FALSE,FALSE,FALSE,FALSE,FALSE,FALSE,6.974223209,79.91415571,1.2,98.8,328,TRUE,1,1,FALSE,FALSE,FALSE,FALSE,,TRUE,FALSE,FALSE,Course Lock,49.2,,16.4,Calm,33,,1.12.8,Mavic Mini,1SDCH7G0169R0K,1SFLH6Q0AB03DJ,1SRCH7F014TAHX,1U5X071EXP6C9Y,78.8,0.4,9.8,8.772607,2.23694,0,0,Mavic Mini,1SDCH7G0169R0K,1SFLH6Q0AB03DJ,1SRCH7F014TAHX,1U5X071EXP6C9Y,DJI Fly,,1.12.8,CFF8582E-1E8B-BC20-99E7-D8E15FE198F7,1SDCH7G0169R0K,,,,,,,,,
2/22/2024,16:24.5,2m 52.1s,172.1,6.974219863,79.91415662,0,0,0.3,50,0,0,0,0,0,0,0,0,0,5.2,2.3,-52.7,307.3,,Starting Motors,Drop Calibration,Takeoff (RC Assisted),13,5,TRUE,,Mavic Mini,TRUE,FALSE,,Smart,RC,TRUE,TRUE,FALSE,,,TRUE,,FALSE,FALSE,FALSE,FALSE,FALSE,FALSE,FALSE,FALSE,FALSE,FALSE,0,Follow Yaw,0,0,-36.1,323.9,FALSE,FALSE,FALSE,FALSE,FALSE,FALSE,,TRUE,Normal,,100,1024,1024,1024,1024,2,FALSE,FALSE,FALSE,FALSE,FALSE,0,FALSE,FALSE,FALSE,FALSE,87,7.951,1790,2056,7.95,TRUE,3.975,3.975,,FALSE,FALSE,NA,94.3,94.2,94.2,0,0,0,0,5,2603.1,650.78,,Idle,0,20,FALSE,5,TRUE,6,Go Home,FALSE,FALSE,FALSE,FALSE,FALSE,FALSE,FALSE,FALSE,FALSE,FALSE,FALSE,FALSE,6.974223209,79.91415571,1.2,98.8,328,TRUE,1,1,FALSE,FALSE,FALSE,FALSE,,TRUE,FALSE,FALSE,Course Lock,49.2,,16.4,Calm,33,,1.12.8,Mavic Mini,1SDCH7G0169R0K,1SFLH6Q0AB03DJ,1SRCH7F014TAHX,1U5X071EXP6C9Y,78.8,0.4,9.8,8.772607,2.23694,0,0,Mavic Mini,1SDCH7G0169R0K,1SFLH6Q0AB03DJ,1SRCH7F014TAHX,1U5X071EXP6C9Y,DJI Fly,,1.12.8,CFF8582E-1E8B-BC20-99E7-D8E15FE198F7,1SDCH7G0169R0K,,,,,,,,,
2/22/2024,16:24.6,2m 52.2s,172.2,6.974219791,79.91415661,0,0,0.3,50,0,0,0,0,0,0,0,0,0,5.2,2.3,-52.7,307.3,,Starting Motors,Drop Calibration,Takeoff (RC Assisted),13,5,TRUE,,Mavic Mini,TRUE,FALSE,,Smart,RC,TRUE,TRUE,FALSE,,,TRUE,,FALSE,FALSE,FALSE,FALSE,FALSE,FALSE,FALSE,FALSE,FALSE,FALSE,0,Follow Yaw,0,0,-36.2,323.8,FALSE,FALSE,FALSE,FALSE,FALSE,FALSE,,TRUE,Normal,,100,1024,1024,1024,1024,2,FALSE,FALSE,FALSE,FALSE,FALSE,0,FALSE,FALSE,FALSE,FALSE,87,7.952,1789,2056,7.95,FALSE,3.981,3.972,0.009,FALSE,FALSE,NA,94.3,94.2,94.2,0,0,0,0,5,2603.1,650.78,,Idle,0,20,FALSE,5,TRUE,6,Go Home,FALSE,FALSE,FALSE,FALSE,FALSE,FALSE,FALSE,FALSE,FALSE,FALSE,FALSE,FALSE,6.974223209,79.91415571,1.2,98.8,328,TRUE,1,1,FALSE,FALSE,FALSE,FALSE,,TRUE,FALSE,FALSE,Course Lock,49.2,,16.4,Calm,33,,1.12.8,Mavic Mini,1SDCH7G0169R0K,1SFLH6Q0AB03DJ,1SRCH7F014TAHX,1U5X071EXP6C9Y,78.8,0.4,9.8,8.772607,2.23694,0,0,Mavic Mini,1SDCH7G0169R0K,1SFLH6Q0AB03DJ,1SRCH7F014TAHX,1U5X071EXP6C9Y,DJI Fly,,1.12.8,CFF8582E-1E8B-BC20-99E7-D8E15FE198F7,1SDCH7G0169R0K,,,,,,,,,
2/22/2024,16:24.7,2m 52.3s,172.3,6.974219758,79.91415657,0,0,0.3,50,0,0,0,0,0,0,0,0,0,5.2,2.4,-52.7,307.3,,Starting Motors,Drop Calibration,Takeoff (RC Assisted),13,5,TRUE,,Mavic Mini,TRUE,FALSE,,Smart,RC,TRUE,TRUE,FALSE,,,TRUE,,FALSE,FALSE,FALSE,FALSE,FALSE,FALSE,FALSE,FALSE,FALSE,FALSE,0,Follow Yaw,0,0,-36.2,323.8,FALSE,FALSE,FALSE,FALSE,FALSE,FALSE,,TRUE,Normal,,100,1024,1024,1024,1024,2,FALSE,FALSE,FALSE,FALSE,FALSE,0,FALSE,FALSE,FALSE,FALSE,87,7.952,1789,2056,7.95,FALSE,3.981,3.972,0.009,FALSE,FALSE,NA,94.3,94.2,94.2,0,0,0,0,5,2603.1,650.78,,Idle,0,20,FALSE,5,TRUE,6,Go Home,FALSE,FALSE,FALSE,FALSE,FALSE,FALSE,FALSE,FALSE,FALSE,FALSE,FALSE,FALSE,6.974223209,79.91415571,1.2,98.8,328,TRUE,1,1,FALSE,FALSE,FALSE,FALSE,,TRUE,FALSE,FALSE,Course Lock,49.2,,16.4,Calm,33,,1.12.8,Mavic Mini,1SDCH7G0169R0K,1SFLH6Q0AB03DJ,1SRCH7F014TAHX,1U5X071EXP6C9Y,78.8,0.4,9.8,8.772607,2.23694,0,0,Mavic Mini,1SDCH7G0169R0K,1SFLH6Q0AB03DJ,1SRCH7F014TAHX,1U5X071EXP6C9Y,DJI Fly,,1.12.8,CFF8582E-1E8B-BC20-99E7-D8E15FE198F7,1SDCH7G0169R0K,,,,,,,,,
2/22/2024,16:24.8,2m 52.4s,172.4,6.974219743,79.91415653,0,0,0.3,50,0,0,0,0,0,0,0,0,0,5.2,2.4,-52.8,307.2,,Starting Motors,Drop Calibration,Takeoff (RC Assisted),13,5,TRUE,,Mavic Mini,TRUE,FALSE,,Smart,RC,TRUE,TRUE,FALSE,,,TRUE,,FALSE,FALSE,FALSE,FALSE,FALSE,FALSE,FALSE,FALSE,FALSE,FALSE,0,Follow Yaw,0,0,-36.2,323.8,FALSE,FALSE,FALSE,FALSE,FALSE,FALSE,,TRUE,Normal,,100,1024,1024,1024,1024,2,FALSE,FALSE,FALSE,FALSE,FALSE,0,FALSE,FALSE,FALSE,FALSE,87,7.952,1789,2056,7.95,FALSE,3.981,3.972,0.009,FALSE,FALSE,NA,94.3,94.2,94.2,0,0,0,0,5,2603.1,650.78,,Idle,0,20,FALSE,5,TRUE,6,Go Home,FALSE,FALSE,FALSE,FALSE,FALSE,FALSE,FALSE,FALSE,FALSE,FALSE,FALSE,FALSE,6.974223209,79.91415571,1.2,98.8,328,TRUE,1,1,FALSE,FALSE,FALSE,FALSE,,TRUE,FALSE,FALSE,Course Lock,49.2,,16.4,Calm,33,,1.12.8,Mavic Mini,1SDCH7G0169R0K,1SFLH6Q0AB03DJ,1SRCH7F014TAHX,1U5X071EXP6C9Y,78.8,0.4,9.8,8.772607,2.23694,0,0,Mavic Mini,1SDCH7G0169R0K,1SFLH6Q0AB03DJ,1SRCH7F014TAHX,1U5X071EXP6C9Y,DJI Fly,,1.12.8,CFF8582E-1E8B-BC20-99E7-D8E15FE198F7,1SDCH7G0169R0K,,,,,,,,,
2/22/2024,16:24.9,2m 52.5s,172.5,6.974219838,79.91415652,0,0,0.3,50,0.1,0,0,0,0,0,0,0,0,5.2,2.3,-52.7,307.3,,Starting Motors,Drop Calibration,Takeoff (RC Assisted),13,5,TRUE,,Mavic Mini,TRUE,FALSE,,Smart,RC,TRUE,TRUE,FALSE,,,TRUE,,FALSE,FALSE,FALSE,FALSE,FALSE,FALSE,FALSE,FALSE,FALSE,FALSE,0,Follow Yaw,0,0,-36.2,323.8,FALSE,FALSE,FALSE,FALSE,FALSE,FALSE,,TRUE,Normal,,100,1024,1024,1024,1024,2,FALSE,FALSE,FALSE,FALSE,FALSE,0,FALSE,FALSE,FALSE,FALSE,87,7.952,1789,2056,7.95,FALSE,3.981,3.972,0.009,FALSE,FALSE,NA,94.3,94.2,94.2,0,0,0,0,5,2603.1,650.78,,Idle,0,20,FALSE,5,TRUE,6,Go Home,FALSE,FALSE,FALSE,FALSE,FALSE,FALSE,FALSE,FALSE,FALSE,FALSE,FALSE,FALSE,6.974223209,79.91415571,1.2,98.8,328,TRUE,1,1,FALSE,FALSE,FALSE,FALSE,,TRUE,FALSE,FALSE,Course Lock,49.2,,16.4,Calm,33,,1.12.8,Mavic Mini,1SDCH7G0169R0K,1SFLH6Q0AB03DJ,1SRCH7F014TAHX,1U5X071EXP6C9Y,78.8,0.4,9.8,8.772607,2.23694,0,0,Mavic Mini,1SDCH7G0169R0K,1SFLH6Q0AB03DJ,1SRCH7F014TAHX,1U5X071EXP6C9Y,DJI Fly,,1.12.8,CFF8582E-1E8B-BC20-99E7-D8E15FE198F7,1SDCH7G0169R0K,,,,,,,,,
2/22/2024,16:25.2,2m 52.6s,172.6,6.97421984,79.91415656,0,0,0.3,50,0.1,0,0,0,0,0,0,0,0,5.3,2.2,-52.8,307.2,,Starting Motors,Drop Calibration,Takeoff (RC Assisted),13,5,TRUE,,Mavic Mini,TRUE,FALSE,,Smart,RC,TRUE,TRUE,FALSE,,,TRUE,,FALSE,FALSE,FALSE,FALSE,FALSE,FALSE,FALSE,FALSE,FALSE,FALSE,0,Follow Yaw,0,0,-36.2,323.8,FALSE,FALSE,FALSE,FALSE,FALSE,FALSE,,TRUE,Normal,,100,1024,1024,1024,1024,2,FALSE,FALSE,FALSE,FALSE,FALSE,0,FALSE,FALSE,FALSE,FALSE,87,7.952,1789,2056,7.95,FALSE,3.981,3.972,0.009,FALSE,FALSE,NA,94.3,94.2,94.2,0,0,0,0,5,2603.1,650.78,,Idle,0,20,FALSE,5,TRUE,6,Go Home,FALSE,FALSE,FALSE,FALSE,FALSE,FALSE,FALSE,FALSE,FALSE,FALSE,FALSE,FALSE,6.974223209,79.91415571,1.2,98.8,328,TRUE,1,1,FALSE,FALSE,FALSE,FALSE,,TRUE,FALSE,FALSE,Course Lock,49.2,,16.4,Calm,33,,1.12.8,Mavic Mini,1SDCH7G0169R0K,1SFLH6Q0AB03DJ,1SRCH7F014TAHX,1U5X071EXP6C9Y,78.8,0.4,9.8,8.772607,2.23694,0,0,Mavic Mini,1SDCH7G0169R0K,1SFLH6Q0AB03DJ,1SRCH7F014TAHX,1U5X071EXP6C9Y,DJI Fly,,1.12.8,CFF8582E-1E8B-BC20-99E7-D8E15FE198F7,1SDCH7G0169R0K,,,,,,,,,
2/22/2024,16:25.2,2m 52.7s,172.7,6.974219846,79.91415656,0,0,0.3,50,0.1,0,0,0,0,0,0,0,0,5.2,2.2,-52.6,307.4,,Starting Motors,Drop Calibration,Takeoff (RC Assisted),13,5,TRUE,,Mavic Mini,TRUE,FALSE,,Smart,RC,TRUE,TRUE,FALSE,,,TRUE,,FALSE,FALSE,FALSE,FALSE,FALSE,FALSE,FALSE,FALSE,FALSE,FALSE,0,Follow Yaw,0,0,-36.2,323.8,FALSE,FALSE,FALSE,FALSE,FALSE,FALSE,,TRUE,Normal,,100,1024,1024,1024,1024,2,FALSE,FALSE,FALSE,FALSE,FALSE,0,FALSE,FALSE,FALSE,FALSE,87,7.952,1789,2056,7.95,FALSE,3.981,3.972,0.009,FALSE,FALSE,NA,94.3,94.2,94.2,0,0,0,0,5,2603.1,650.78,,Idle,0,20,FALSE,5,TRUE,6,Go Home,FALSE,FALSE,FALSE,FALSE,FALSE,FALSE,FALSE,FALSE,FALSE,FALSE,FALSE,FALSE,6.974223209,79.91415571,1.2,98.8,328,TRUE,1,1,FALSE,FALSE,FALSE,FALSE,,TRUE,FALSE,FALSE,Course Lock,49.2,,16.4,Calm,33,,1.12.8,Mavic Mini,1SDCH7G0169R0K,1SFLH6Q0AB03DJ,1SRCH7F014TAHX,1U5X071EXP6C9Y,78.8,0.4,9.8,8.772607,2.23694,0,0,Mavic Mini,1SDCH7G0169R0K,1SFLH6Q0AB03DJ,1SRCH7F014TAHX,1U5X071EXP6C9Y,DJI Fly,,1.12.8,CFF8582E-1E8B-BC20-99E7-D8E15FE198F7,1SDCH7G0169R0K,,,,,,,,,
2/22/2024,16:25.3,2m 52.8s,172.8,6.974219849,79.91415653,0,0,0.3,50,0.1,0,0,0,0,0,0,0,0,5.3,2.2,-52.6,307.4,,Starting Motors,Drop Calibration,Takeoff (RC Assisted),13,5,TRUE,,Mavic Mini,TRUE,FALSE,,Smart,RC,TRUE,TRUE,FALSE,,,TRUE,,FALSE,FALSE,FALSE,FALSE,FALSE,FALSE,FALSE,FALSE,FALSE,FALSE,0,Follow Yaw,0,0,-36.2,323.8,FALSE,FALSE,FALSE,FALSE,FALSE,FALSE,,TRUE,Normal,,100,1024,1024,1024,1024,2,FALSE,FALSE,FALSE,FALSE,FALSE,0,FALSE,FALSE,FALSE,FALSE,87,7.952,1789,2056,7.95,FALSE,3.981,3.972,0.009,FALSE,FALSE,NA,94.3,94.2,94.2,0,0,0,0,5,2603.1,650.78,,Idle,0,20,FALSE,5,TRUE,6,Go Home,FALSE,FALSE,FALSE,FALSE,FALSE,FALSE,FALSE,FALSE,FALSE,FALSE,FALSE,FALSE,6.974223209,79.91415571,1.2,98.8,328,TRUE,1,1,FALSE,FALSE,FALSE,FALSE,,TRUE,FALSE,FALSE,Course Lock,49.2,,16.4,Calm,33,,1.12.8,Mavic Mini,1SDCH7G0169R0K,1SFLH6Q0AB03DJ,1SRCH7F014TAHX,1U5X071EXP6C9Y,78.8,0.4,9.8,8.772607,2.23694,0,0,Mavic Mini,1SDCH7G0169R0K,1SFLH6Q0AB03DJ,1SRCH7F014TAHX,1U5X071EXP6C9Y,DJI Fly,,1.12.8,CFF8582E-1E8B-BC20-99E7-D8E15FE198F7,1SDCH7G0169R0K,,,,,,,,,
2/22/2024,16:25.4,2m 52.9s,172.9,6.9742198,79.91415644,0,0,0.3,50,0.1,0,0,0,0,0,0,0,0,5.3,2.2,-52.6,307.4,,Starting Motors,Drop Calibration,Takeoff (RC Assisted),13,5,TRUE,,Mavic Mini,TRUE,FALSE,,Smart,RC,TRUE,TRUE,FALSE,,,TRUE,,FALSE,FALSE,FALSE,FALSE,FALSE,FALSE,FALSE,FALSE,FALSE,FALSE,0,Follow Yaw,0,0,-36.1,323.9,FALSE,FALSE,FALSE,FALSE,FALSE,FALSE,,TRUE,Normal,,100,1024,1024,1024,1024,2,FALSE,FALSE,FALSE,FALSE,FALSE,0,FALSE,FALSE,FALSE,FALSE,87,7.952,1789,2056,7.949,FALSE,3.981,3.972,0.009,FALSE,FALSE,NA,94.3,94.2,94.2,0,0,0,0,5,2608.2,652.07,,Idle,0,20,FALSE,5,TRUE,6,Go Home,FALSE,FALSE,FALSE,FALSE,FALSE,FALSE,FALSE,FALSE,FALSE,FALSE,FALSE,FALSE,6.974223209,79.91415571,1.2,98.8,328,TRUE,1,1,FALSE,FALSE,FALSE,FALSE,,TRUE,FALSE,FALSE,Course Lock,49.2,,16.4,Calm,33,,1.12.8,Mavic Mini,1SDCH7G0169R0K,1SFLH6Q0AB03DJ,1SRCH7F014TAHX,1U5X071EXP6C9Y,78.8,0.4,9.8,8.772607,2.23694,0,0,Mavic Mini,1SDCH7G0169R0K,1SFLH6Q0AB03DJ,1SRCH7F014TAHX,1U5X071EXP6C9Y,DJI Fly,,1.12.8,CFF8582E-1E8B-BC20-99E7-D8E15FE198F7,1SDCH7G0169R0K,,,,,,,,,
2/22/2024,16:25.5,2m 53.0s,173,6.974219747,79.91415643,0,0,0.3,50,0.1,0,0,0,0,0,0,0,0,5.2,2.3,-52.5,307.5,,Manual Takeoff,Drop Calibration,Takeoff (RC Assisted),13,5,TRUE,,Mavic Mini,TRUE,FALSE,,Smart,RC,TRUE,TRUE,FALSE,,,TRUE,,FALSE,FALSE,FALSE,FALSE,FALSE,FALSE,FALSE,FALSE,FALSE,FALSE,0,Follow Yaw,0,0,-36.1,323.9,FALSE,FALSE,FALSE,FALSE,FALSE,FALSE,,TRUE,Normal,,100,1024,1024,1024,1024,2,FALSE,FALSE,FALSE,FALSE,FALSE,0,FALSE,FALSE,FALSE,FALSE,87,7.952,1789,2056,7.949,FALSE,3.981,3.972,0.009,FALSE,FALSE,NA,94.3,94.2,94.2,0,0,0,0,5,2608.2,652.07,,Idle,0,20,FALSE,5,TRUE,6,Go Home,FALSE,FALSE,FALSE,FALSE,FALSE,FALSE,FALSE,FALSE,FALSE,FALSE,FALSE,FALSE,6.974223209,79.91415571,1.2,98.8,328,TRUE,1,1,FALSE,FALSE,FALSE,FALSE,,TRUE,FALSE,FALSE,Course Lock,49.2,,16.4,Calm,33,,1.12.8,Mavic Mini,1SDCH7G0169R0K,1SFLH6Q0AB03DJ,1SRCH7F014TAHX,1U5X071EXP6C9Y,78.8,0.4,9.8,8.772607,2.23694,0,0,Mavic Mini,1SDCH7G0169R0K,1SFLH6Q0AB03DJ,1SRCH7F014TAHX,1U5X071EXP6C9Y,DJI Fly,,1.12.8,CFF8582E-1E8B-BC20-99E7-D8E15FE198F7,1SDCH7G0169R0K,,,,,,,,Flight mode changed to Manual Takeoff.,
2/22/2024,16:25.6,2m 53.1s,173.1,6.974219716,79.91415643,0,0,0.3,50,0.2,0,0,0,0,0,0,0,0,5.3,2.3,-52.5,307.5,,Manual Takeoff,Drop Calibration,Takeoff (RC Assisted),13,5,TRUE,,Mavic Mini,TRUE,FALSE,,Smart,RC,TRUE,TRUE,FALSE,,,TRUE,,FALSE,FALSE,FALSE,FALSE,FALSE,FALSE,FALSE,FALSE,FALSE,FALSE,0,Follow Yaw,0,0,-36,324,FALSE,FALSE,FALSE,FALSE,FALSE,FALSE,,TRUE,Normal,,100,1024,1024,1024,1024,2,FALSE,FALSE,FALSE,FALSE,FALSE,0,FALSE,FALSE,FALSE,FALSE,87,7.952,1789,2056,7.949,FALSE,3.981,3.972,0.009,FALSE,FALSE,NA,94.3,94.2,94.2,0,0,0,0,5,2608.2,652.07,,Idle,0,20,FALSE,5,TRUE,6,Go Home,FALSE,FALSE,FALSE,FALSE,FALSE,FALSE,FALSE,FALSE,FALSE,FALSE,FALSE,FALSE,6.974223209,79.91415571,1.3,98.8,328,TRUE,1,1,FALSE,FALSE,FALSE,FALSE,,TRUE,FALSE,FALSE,Course Lock,49.2,,16.4,Calm,33,,1.12.8,Mavic Mini,1SDCH7G0169R0K,1SFLH6Q0AB03DJ,1SRCH7F014TAHX,1U5X071EXP6C9Y,78.8,0.4,9.8,8.772607,2.23694,0,0,Mavic Mini,1SDCH7G0169R0K,1SFLH6Q0AB03DJ,1SRCH7F014TAHX,1U5X071EXP6C9Y,DJI Fly,,1.12.8,CFF8582E-1E8B-BC20-99E7-D8E15FE198F7,1SDCH7G0169R0K,,,,,,,,,
2/22/2024,16:25.7,2m 53.2s,173.2,6.974219696,79.91415644,0,0,0.3,50,0.2,0,0,0,0,0,0,0,0,5.2,2.3,-52.5,307.5,,Manual Takeoff,Drop Calibration,Takeoff (RC Assisted),14,5,TRUE,,Mavic Mini,TRUE,FALSE,,Smart,RC,TRUE,TRUE,FALSE,,,TRUE,,FALSE,FALSE,FALSE,FALSE,FALSE,FALSE,FALSE,FALSE,FALSE,FALSE,0,Follow Yaw,0,0,-36,324,FALSE,FALSE,FALSE,FALSE,FALSE,FALSE,,TRUE,Normal,,100,1024,1024,1024,1024,2,FALSE,FALSE,FALSE,FALSE,FALSE,0,FALSE,FALSE,FALSE,FALSE,87,7.952,1789,2056,7.949,FALSE,3.981,3.972,0.009,FALSE,FALSE,NA,94.3,94.2,94.2,0,0,0,0,5,2608.2,652.07,,Idle,0,20,FALSE,5,TRUE,6,Go Home,FALSE,FALSE,FALSE,FALSE,FALSE,FALSE,FALSE,FALSE,FALSE,FALSE,FALSE,FALSE,6.974223209,79.91415571,1.3,98.8,328,TRUE,1,1,FALSE,FALSE,FALSE,FALSE,,TRUE,FALSE,FALSE,Course Lock,49.2,,16.4,Calm,33,,1.12.8,Mavic Mini,1SDCH7G0169R0K,1SFLH6Q0AB03DJ,1SRCH7F014TAHX,1U5X071EXP6C9Y,78.8,0.4,9.8,8.772607,2.23694,0,0,Mavic Mini,1SDCH7G0169R0K,1SFLH6Q0AB03DJ,1SRCH7F014TAHX,1U5X071EXP6C9Y,DJI Fly,,1.12.8,CFF8582E-1E8B-BC20-99E7-D8E15FE198F7,1SDCH7G0169R0K,,,,,,,,,
2/22/2024,16:25.8,2m 53.3s,173.3,6.974219686,79.91415644,0,0,0.3,50,0.2,0,0,0,0,0,0,0,0,5.2,2.3,-52.4,307.6,,Manual Takeoff,Drop Calibration,Takeoff (RC Assisted),14,5,TRUE,,Mavic Mini,TRUE,FALSE,,Smart,RC,TRUE,TRUE,FALSE,,,TRUE,,FALSE,FALSE,FALSE,FALSE,FALSE,FALSE,FALSE,FALSE,FALSE,FALSE,0,Follow Yaw,0,0,-36,324,FALSE,FALSE,FALSE,FALSE,FALSE,FALSE,,TRUE,Normal,,100,1024,1024,1024,1024,2,FALSE,FALSE,FALSE,FALSE,FALSE,0,FALSE,FALSE,FALSE,FALSE,87,7.952,1789,2056,7.949,FALSE,3.981,3.972,0.009,FALSE,FALSE,NA,94.3,94.2,94.2,0,0,0,0,5,2608.2,652.07,,Idle,0,20,FALSE,5,TRUE,6,Go Home,FALSE,FALSE,FALSE,FALSE,FALSE,FALSE,FALSE,FALSE,FALSE,FALSE,FALSE,FALSE,6.974223209,79.91415571,1.3,98.8,328,TRUE,1,1,FALSE,FALSE,FALSE,FALSE,,TRUE,FALSE,FALSE,Course Lock,49.2,,16.4,Calm,33,,1.12.8,Mavic Mini,1SDCH7G0169R0K,1SFLH6Q0AB03DJ,1SRCH7F014TAHX,1U5X071EXP6C9Y,78.8,0.4,9.8,8.772607,2.23694,0,0,Mavic Mini,1SDCH7G0169R0K,1SFLH6Q0AB03DJ,1SRCH7F014TAHX,1U5X071EXP6C9Y,DJI Fly,,1.12.8,CFF8582E-1E8B-BC20-99E7-D8E15FE198F7,1SDCH7G0169R0K,,,,,,,,,
2/22/2024,16:25.9,2m 53.4s,173.4,6.974219747,79.91415647,0,0,0.3,50,0.2,0,0,0,0,0,0,0,0,5.3,2.3,-52.4,307.6,,Manual Takeoff,Drop Calibration,Takeoff (RC Assisted),14,5,TRUE,,Mavic Mini,TRUE,FALSE,,Smart,RC,TRUE,TRUE,FALSE,,,TRUE,,FALSE,FALSE,FALSE,FALSE,FALSE,FALSE,FALSE,FALSE,FALSE,FALSE,0,Follow Yaw,0,0,-36,324,FALSE,FALSE,FALSE,FALSE,FALSE,FALSE,,TRUE,Normal,,100,1024,1024,1024,1024,2,FALSE,FALSE,FALSE,FALSE,FALSE,0,FALSE,FALSE,FALSE,FALSE,87,7.93,1789,2056,7.949,FALSE,3.97,3.96,0.01,FALSE,FALSE,NA,94.3,94.2,94.2,0,0,0,0,5,2608.2,652.07,,Idle,0,20,FALSE,5,TRUE,6,Go Home,FALSE,FALSE,FALSE,FALSE,FALSE,FALSE,FALSE,FALSE,FALSE,FALSE,FALSE,FALSE,6.974223209,79.91415571,1.2,98.8,328,TRUE,1,1,FALSE,FALSE,FALSE,FALSE,,TRUE,FALSE,FALSE,Course Lock,49.2,,16.4,Calm,33,,1.12.8,Mavic Mini,1SDCH7G0169R0K,1SFLH6Q0AB03DJ,1SRCH7F014TAHX,1U5X071EXP6C9Y,78.8,0.4,9.8,8.772607,2.23694,0,0,Mavic Mini,1SDCH7G0169R0K,1SFLH6Q0AB03DJ,1SRCH7F014TAHX,1U5X071EXP6C9Y,DJI Fly,,1.12.8,CFF8582E-1E8B-BC20-99E7-D8E15FE198F7,1SDCH7G0169R0K,,,,,,,,,
2/22/2024,16:26.0,2m 53.5s,173.5,6.974219714,79.91415647,0,0,0.3,50,0.2,0,0,0,0,0,0,0,0,5.2,2.3,-52.4,307.6,,Manual Takeoff,Drop Calibration,Takeoff (RC Assisted),14,5,TRUE,,Mavic Mini,TRUE,FALSE,,Smart,RC,TRUE,TRUE,FALSE,,,TRUE,,FALSE,FALSE,FALSE,FALSE,FALSE,FALSE,FALSE,FALSE,FALSE,FALSE,0,Follow Yaw,0,0,-35.9,324.1,FALSE,FALSE,FALSE,FALSE,FALSE,FALSE,,TRUE,Normal,,100,1024,1024,1024,1024,2,FALSE,FALSE,FALSE,FALSE,FALSE,0,FALSE,FALSE,FALSE,FALSE,87,7.93,1789,2056,7.949,FALSE,3.97,3.96,0.01,FALSE,FALSE,NA,94.3,94.2,94.2,0,0,0,0,5,2608.2,652.07,,Idle,0,20,FALSE,5,TRUE,6,Go Home,FALSE,FALSE,FALSE,FALSE,FALSE,FALSE,FALSE,FALSE,FALSE,FALSE,FALSE,FALSE,6.974223209,79.91415571,1.3,98.8,328,TRUE,1,1,FALSE,FALSE,FALSE,FALSE,,TRUE,FALSE,FALSE,Course Lock,49.2,,16.4,Calm,33,,1.12.8,Mavic Mini,1SDCH7G0169R0K,1SFLH6Q0AB03DJ,1SRCH7F014TAHX,1U5X071EXP6C9Y,78.8,0.4,9.8,8.772607,2.23694,0,0,Mavic Mini,1SDCH7G0169R0K,1SFLH6Q0AB03DJ,1SRCH7F014TAHX,1U5X071EXP6C9Y,DJI Fly,,1.12.8,CFF8582E-1E8B-BC20-99E7-D8E15FE198F7,1SDCH7G0169R0K,,,,,,,,,
2/22/2024,16:26.1,2m 53.6s,173.6,6.97421966,79.91415648,0,0,0.3,50,0.2,0,0,0,0,0,0,0,0,5.2,2.3,-52.5,307.5,,Manual Takeoff,Drop Calibration,Takeoff (RC Assisted),14,5,TRUE,,Mavic Mini,TRUE,FALSE,,Smart,RC,TRUE,TRUE,FALSE,,,TRUE,,FALSE,FALSE,FALSE,FALSE,FALSE,FALSE,FALSE,FALSE,FALSE,FALSE,0,Follow Yaw,0,0,-35.9,324.1,FALSE,FALSE,FALSE,FALSE,FALSE,FALSE,,TRUE,Normal,,100,1024,1024,1075,1024,2,FALSE,FALSE,FALSE,FALSE,FALSE,0,FALSE,FALSE,FALSE,FALSE,87,7.93,1789,2056,7.949,FALSE,3.97,3.96,0.01,FALSE,FALSE,NA,94.3,94.2,94.2,0,0,0,0,5,2608.2,652.07,,Idle,0,20,FALSE,5,TRUE,6,Go Home,FALSE,FALSE,FALSE,FALSE,FALSE,FALSE,FALSE,FALSE,FALSE,FALSE,FALSE,FALSE,6.974223209,79.91415571,1.3,98.8,328,TRUE,1,1,FALSE,FALSE,FALSE,FALSE,,TRUE,FALSE,FALSE,Course Lock,49.2,,16.4,Calm,33,,1.12.8,Mavic Mini,1SDCH7G0169R0K,1SFLH6Q0AB03DJ,1SRCH7F014TAHX,1U5X071EXP6C9Y,78.8,0.4,9.8,8.772607,2.23694,0,0,Mavic Mini,1SDCH7G0169R0K,1SFLH6Q0AB03DJ,1SRCH7F014TAHX,1U5X071EXP6C9Y,DJI Fly,,1.12.8,CFF8582E-1E8B-BC20-99E7-D8E15FE198F7,1SDCH7G0169R0K,,,,,,,,,
2/22/2024,16:26.1,2m 53.7s,173.7,6.974219629,79.91415649,0,0,0.3,50,0.2,0,0,0,0,0,0,0,0,5.2,2.3,-52.4,307.6,,Manual Takeoff,Drop Calibration,Takeoff (RC Assisted),14,5,TRUE,,Mavic Mini,TRUE,FALSE,,Smart,RC,TRUE,TRUE,FALSE,,,TRUE,,FALSE,FALSE,FALSE,FALSE,FALSE,FALSE,FALSE,FALSE,FALSE,FALSE,0,Follow Yaw,0,0,-35.9,324.1,FALSE,FALSE,FALSE,FALSE,FALSE,FALSE,,TRUE,Normal,,100,1024,1024,1204,1024,2,FALSE,FALSE,FALSE,FALSE,FALSE,0,FALSE,FALSE,FALSE,FALSE,87,7.93,1789,2056,7.949,FALSE,3.97,3.96,0.01,FALSE,FALSE,NA,94.3,94.2,94.2,0,0,0,0,5,2608.2,652.07,,Idle,0,20,FALSE,5,TRUE,6,Go Home,FALSE,FALSE,FALSE,FALSE,FALSE,FALSE,FALSE,FALSE,FALSE,FALSE,FALSE,FALSE,6.974223209,79.91415571,1.3,98.8,328,TRUE,1,1,FALSE,FALSE,FALSE,FALSE,,TRUE,FALSE,FALSE,Course Lock,49.2,,16.4,Calm,33,,1.12.8,Mavic Mini,1SDCH7G0169R0K,1SFLH6Q0AB03DJ,1SRCH7F014TAHX,1U5X071EXP6C9Y,78.8,0.4,9.8,8.772607,2.23694,0,0,Mavic Mini,1SDCH7G0169R0K,1SFLH6Q0AB03DJ,1SRCH7F014TAHX,1U5X071EXP6C9Y,DJI Fly,,1.12.8,CFF8582E-1E8B-BC20-99E7-D8E15FE198F7,1SDCH7G0169R0K,,,,,,,,,
2/22/2024,16:26.2,2m 53.8s,173.8,6.974219606,79.91415649,0,0,0.3,50,0.2,0,0,0,0,0,0,0,0,5.2,2.2,-52.4,307.6,,Manual Takeoff,Drop Calibration,Takeoff (RC Assisted),14,5,TRUE,,Mavic Mini,TRUE,FALSE,,Smart,RC,TRUE,TRUE,FALSE,,,TRUE,,FALSE,FALSE,FALSE,FALSE,FALSE,FALSE,FALSE,FALSE,FALSE,FALSE,0,Follow Yaw,0,0,-35.9,324.1,FALSE,FALSE,FALSE,FALSE,FALSE,FALSE,,TRUE,Normal,,100,1024,1024,1278,1024,2,FALSE,FALSE,FALSE,FALSE,FALSE,0,FALSE,FALSE,FALSE,FALSE,87,7.93,1789,2056,7.949,FALSE,3.97,3.96,0.01,FALSE,FALSE,NA,94.3,94.2,94.2,0,0,0,0,5,2608.2,652.07,,Idle,0,20,FALSE,5,TRUE,6,Go Home,FALSE,FALSE,FALSE,FALSE,FALSE,FALSE,FALSE,FALSE,FALSE,FALSE,FALSE,FALSE,6.974223209,79.91415571,1.3,98.8,328,TRUE,1,1,FALSE,FALSE,FALSE,FALSE,,TRUE,FALSE,FALSE,Course Lock,49.2,,16.4,Calm,33,,1.12.8,Mavic Mini,1SDCH7G0169R0K,1SFLH6Q0AB03DJ,1SRCH7F014TAHX,1U5X071EXP6C9Y,78.8,0.4,9.8,8.772607,2.23694,0,0,Mavic Mini,1SDCH7G0169R0K,1SFLH6Q0AB03DJ,1SRCH7F014TAHX,1U5X071EXP6C9Y,DJI Fly,,1.12.8,CFF8582E-1E8B-BC20-99E7-D8E15FE198F7,1SDCH7G0169R0K,,,,,6.974222842,79.91418994,5,,
2/22/2024,16:26.3,2m 53.9s,173.9,6.974219599,79.91415646,0,0,0.3,50,0.3,0,0,0,0,0,0,0,0,5.3,2.2,-52.4,307.6,,Manual Takeoff,Drop Calibration,Takeoff (RC Assisted),14,5,TRUE,,Mavic Mini,TRUE,FALSE,,Smart,RC,TRUE,TRUE,FALSE,,,TRUE,,FALSE,FALSE,FALSE,FALSE,FALSE,FALSE,FALSE,FALSE,FALSE,FALSE,0,Follow Yaw,0,0,-35.9,324.1,FALSE,FALSE,FALSE,FALSE,FALSE,FALSE,,TRUE,Normal,,100,1024,1024,1303,1024,2,FALSE,FALSE,FALSE,FALSE,FALSE,0,FALSE,FALSE,FALSE,FALSE,87,7.93,1789,2056,7.955,FALSE,3.97,3.96,0.01,FALSE,FALSE,NA,94.3,94.2,94.2,0,0,0,0,5,2654.2,663.56,,Idle,0,20,FALSE,5,TRUE,6,Go Home,FALSE,FALSE,FALSE,FALSE,FALSE,FALSE,FALSE,FALSE,FALSE,FALSE,FALSE,FALSE,6.974223209,79.91415571,1.3,98.8,328,TRUE,1,1,FALSE,FALSE,FALSE,FALSE,,TRUE,FALSE,FALSE,Course Lock,49.2,,16.4,Calm,33,,1.12.8,Mavic Mini,1SDCH7G0169R0K,1SFLH6Q0AB03DJ,1SRCH7F014TAHX,1U5X071EXP6C9Y,78.8,0.4,9.8,8.772607,2.23694,0,0,Mavic Mini,1SDCH7G0169R0K,1SFLH6Q0AB03DJ,1SRCH7F014TAHX,1U5X071EXP6C9Y,DJI Fly,,1.12.8,CFF8582E-1E8B-BC20-99E7-D8E15FE198F7,1SDCH7G0169R0K,,,,,6.974222842,79.91418994,5,,
2/22/2024,16:26.5,2m 54.0s,174,6.974219597,79.91415642,0,0,0.3,50,0.3,0,0,0,0,0,0,0,0,5.2,2.1,-52.4,307.6,,Manual Takeoff,Drop Calibration,Takeoff (RC Assisted),14,5,TRUE,,Mavic Mini,TRUE,FALSE,,Smart,RC,TRUE,TRUE,FALSE,,,TRUE,,FALSE,FALSE,FALSE,FALSE,FALSE,FALSE,FALSE,FALSE,FALSE,FALSE,0,Follow Yaw,0,0,-35.9,324.1,FALSE,FALSE,FALSE,FALSE,FALSE,FALSE,,TRUE,Normal,,100,1024,1024,1348,1024,2,FALSE,FALSE,FALSE,FALSE,FALSE,0,FALSE,FALSE,FALSE,FALSE,87,7.93,1789,2056,7.955,FALSE,3.97,3.96,0.01,FALSE,FALSE,NA,94.3,94.2,94.2,0,0,0,0,5,2654.2,663.56,,Idle,0,20,FALSE,5,TRUE,6,Go Home,FALSE,FALSE,FALSE,FALSE,FALSE,FALSE,FALSE,FALSE,FALSE,FALSE,FALSE,FALSE,6.974223209,79.91415571,1.3,98.8,328,TRUE,1,1,FALSE,FALSE,FALSE,FALSE,,TRUE,FALSE,FALSE,Course Lock,49.2,,16.4,Calm,33,,1.12.8,Mavic Mini,1SDCH7G0169R0K,1SFLH6Q0AB03DJ,1SRCH7F014TAHX,1U5X071EXP6C9Y,78.8,0.4,9.8,8.772607,2.23694,0,0,Mavic Mini,1SDCH7G0169R0K,1SFLH6Q0AB03DJ,1SRCH7F014TAHX,1U5X071EXP6C9Y,DJI Fly,,1.12.8,CFF8582E-1E8B-BC20-99E7-D8E15FE198F7,1SDCH7G0169R0K,,,,,6.974222842,79.91418994,5,,
2/22/2024,16:26.6,2m 54.1s,174.1,6.974219568,79.91415639,0,0,0.3,50,0.3,0,0,0,0,0,0,0,0,5.1,2.1,-52.4,307.6,,Manual Takeoff,Drop Calibration,Takeoff (RC Assisted),14,5,TRUE,,Mavic Mini,TRUE,FALSE,,Smart,RC,TRUE,TRUE,FALSE,,,TRUE,,FALSE,FALSE,FALSE,FALSE,FALSE,FALSE,FALSE,FALSE,FALSE,FALSE,0,Follow Yaw,0,0,-35.9,324.1,FALSE,FALSE,FALSE,FALSE,FALSE,FALSE,,TRUE,Normal,,100,1024,1024,1348,1024,2,FALSE,FALSE,FALSE,FALSE,FALSE,0,FALSE,FALSE,FALSE,FALSE,87,7.93,1789,2056,7.955,FALSE,3.97,3.96,0.01,FALSE,FALSE,NA,94.3,94.2,94.2,0,0,0,0,5,2654.2,663.56,,Idle,0,20,FALSE,5,TRUE,6,Go Home,FALSE,FALSE,FALSE,FALSE,FALSE,FALSE,FALSE,FALSE,FALSE,FALSE,FALSE,FALSE,6.974223209,79.91415571,1.3,98.8,328,TRUE,1,1,FALSE,FALSE,FALSE,FALSE,,TRUE,FALSE,FALSE,Course Lock,49.2,,16.4,Calm,33,,1.12.8,Mavic Mini,1SDCH7G0169R0K,1SFLH6Q0AB03DJ,1SRCH7F014TAHX,1U5X071EXP6C9Y,78.8,0.4,9.8,8.772607,2.23694,0,0,Mavic Mini,1SDCH7G0169R0K,1SFLH6Q0AB03DJ,1SRCH7F014TAHX,1U5X071EXP6C9Y,DJI Fly,,1.12.8,CFF8582E-1E8B-BC20-99E7-D8E15FE198F7,1SDCH7G0169R0K,,,,,6.974222842,79.91418994,5,,
2/22/2024,16:26.7,2m 54.2s,174.2,6.974219523,79.9141563,0,0,0.3,50,0.3,0,0,0,0,0,0,0,0,5.2,2,-53.3,306.7,,Manual Takeoff,Drop Calibration,Takeoff (RC Assisted),14,5,TRUE,,Mavic Mini,TRUE,FALSE,,Smart,RC,TRUE,TRUE,FALSE,,,TRUE,,FALSE,FALSE,FALSE,FALSE,FALSE,FALSE,FALSE,FALSE,FALSE,FALSE,0,Follow Yaw,0,0,-36.1,323.9,FALSE,FALSE,FALSE,FALSE,FALSE,FALSE,,TRUE,Normal,,100,1024,1024,1381,1024,2,FALSE,FALSE,FALSE,FALSE,FALSE,0,FALSE,FALSE,FALSE,FALSE,87,7.93,1789,2056,7.955,FALSE,3.97,3.96,0.01,FALSE,FALSE,NA,94.3,94.2,94.2,0,0,0,0,5,2654.2,663.56,,Idle,0,20,FALSE,5,TRUE,6,Go Home,FALSE,FALSE,FALSE,FALSE,FALSE,FALSE,FALSE,FALSE,FALSE,FALSE,FALSE,FALSE,6.974223209,79.91415571,1.3,98.8,328,TRUE,1,1,FALSE,FALSE,FALSE,FALSE,,TRUE,FALSE,FALSE,Course Lock,49.2,,16.4,Calm,33,,1.12.8,Mavic Mini,1SDCH7G0169R0K,1SFLH6Q0AB03DJ,1SRCH7F014TAHX,1U5X071EXP6C9Y,78.8,0.4,9.8,8.772607,2.23694,0,0,Mavic Mini,1SDCH7G0169R0K,1SFLH6Q0AB03DJ,1SRCH7F014TAHX,1U5X071EXP6C9Y,DJI Fly,,1.12.8,CFF8582E-1E8B-BC20-99E7-D8E15FE198F7,1SDCH7G0169R0K,,,,,6.974222842,79.91418994,5,,
2/22/2024,16:26.8,2m 54.3s,174.3,6.974219502,79.91415632,0,0,0.3,50,0.3,0,0,0,0,0,0,0,0,4.9,2.2,-54.5,305.5,,Manual Takeoff,Drop Calibration,Takeoff (RC Assisted),14,5,TRUE,,Mavic Mini,TRUE,FALSE,,Smart,RC,TRUE,TRUE,FALSE,,,TRUE,,FALSE,FALSE,FALSE,FALSE,FALSE,FALSE,FALSE,FALSE,FALSE,FALSE,0,Follow Yaw,0,0,-37,323,FALSE,FALSE,FALSE,FALSE,FALSE,FALSE,,TRUE,Normal,,100,1024,1024,1417,1024,2,FALSE,FALSE,FALSE,FALSE,FALSE,0,FALSE,FALSE,FALSE,FALSE,87,7.93,1789,2056,7.955,FALSE,3.97,3.96,0.01,FALSE,FALSE,NA,94.3,94.2,94.2,0,0,0,0,5,2654.2,663.56,,Idle,0,20,FALSE,5,TRUE,6,Go Home,FALSE,FALSE,FALSE,FALSE,FALSE,FALSE,FALSE,FALSE,FALSE,FALSE,FALSE,FALSE,6.974223209,79.91415571,1.3,98.8,328,TRUE,1,1,FALSE,FALSE,FALSE,FALSE,,TRUE,FALSE,FALSE,Course Lock,49.2,,16.4,Calm,33,,1.12.8,Mavic Mini,1SDCH7G0169R0K,1SFLH6Q0AB03DJ,1SRCH7F014TAHX,1U5X071EXP6C9Y,78.8,0.4,9.8,8.772607,2.23694,0,0,Mavic Mini,1SDCH7G0169R0K,1SFLH6Q0AB03DJ,1SRCH7F014TAHX,1U5X071EXP6C9Y,DJI Fly,,1.12.8,CFF8582E-1E8B-BC20-99E7-D8E15FE198F7,1SDCH7G0169R0K,,,,,6.974222842,79.91418994,5,,
2/22/2024,16:26.9,2m 54.4s,174.4,6.974219506,79.91415636,0,0,0.3,50,0.4,0,0,0,0,0,0,0,0,3.7,2.5,-55.2,304.8,,Manual Takeoff,Drop Calibration,Takeoff (RC Assisted),14,5,TRUE,,Mavic Mini,TRUE,FALSE,,Smart,RC,TRUE,TRUE,FALSE,,,TRUE,,FALSE,FALSE,FALSE,FALSE,FALSE,FALSE,FALSE,FALSE,FALSE,FALSE,0,Follow Yaw,0,0,-37.9,322.1,FALSE,FALSE,FALSE,FALSE,FALSE,FALSE,,TRUE,Normal,,100,1024,1024,1450,1024,2,FALSE,FALSE,FALSE,FALSE,FALSE,0,FALSE,FALSE,FALSE,FALSE,87,7.93,1789,2056,7.955,FALSE,3.97,3.96,0.01,FALSE,FALSE,NA,94.3,94.2,94.2,0,0,0,0,5,2654.2,663.56,,Idle,0,20,FALSE,5,TRUE,6,Go Home,FALSE,FALSE,FALSE,FALSE,FALSE,FALSE,FALSE,FALSE,FALSE,FALSE,FALSE,FALSE,6.974223209,79.91415571,1.3,98.8,328,TRUE,1,1,FALSE,FALSE,FALSE,FALSE,,TRUE,FALSE,FALSE,Course Lock,49.2,,16.4,Calm,33,,1.12.8,Mavic Mini,1SDCH7G0169R0K,1SFLH6Q0AB03DJ,1SRCH7F014TAHX,1U5X071EXP6C9Y,78.8,0.4,9.8,8.772607,2.23694,0,0,Mavic Mini,1SDCH7G0169R0K,1SFLH6Q0AB03DJ,1SRCH7F014TAHX,1U5X071EXP6C9Y,DJI Fly,,1.12.8,CFF8582E-1E8B-BC20-99E7-D8E15FE198F7,1SDCH7G0169R0K,,,,,6.974222842,79.91418994,5,,
2/22/2024,16:27.0,2m 54.5s,174.5,6.97421955,79.91415643,0,0,0.3,50,0.4,0.223694,0.223694,0,0,0.223694,0.223694,0,0,1.4,2,-56,304,51.4,Manual Takeoff,Drop Calibration,Takeoff (RC Assisted),14,5,TRUE,,Mavic Mini,TRUE,FALSE,,Smart,RC,TRUE,TRUE,FALSE,,,TRUE,,FALSE,FALSE,FALSE,FALSE,FALSE,FALSE,FALSE,FALSE,FALSE,FALSE,0,Follow Yaw,0,0,-38.5,321.5,FALSE,FALSE,FALSE,FALSE,FALSE,FALSE,,TRUE,Normal,,100,1024,1024,1481,1024,2,FALSE,FALSE,FALSE,FALSE,FALSE,0,FALSE,FALSE,FALSE,FALSE,87,7.88,1788,2056,7.955,FALSE,3.947,3.933,0.014,FALSE,FALSE,NA,94.5,94.2,94.4,0,0,0,0,5,2654.2,663.56,,Idle,0,20,FALSE,5,TRUE,6,Go Home,FALSE,FALSE,FALSE,FALSE,FALSE,FALSE,FALSE,FALSE,FALSE,FALSE,FALSE,FALSE,6.974223209,79.91415571,1.3,98.8,328,TRUE,1,1,FALSE,FALSE,FALSE,FALSE,,TRUE,FALSE,FALSE,Course Lock,49.2,,16.4,Calm,33,,1.12.8,Mavic Mini,1SDCH7G0169R0K,1SFLH6Q0AB03DJ,1SRCH7F014TAHX,1U5X071EXP6C9Y,78.8,0.4,9.8,8.772607,2.23694,0,0,Mavic Mini,1SDCH7G0169R0K,1SFLH6Q0AB03DJ,1SRCH7F014TAHX,1U5X071EXP6C9Y,DJI Fly,,1.12.8,CFF8582E-1E8B-BC20-99E7-D8E15FE198F7,1SDCH7G0169R0K,,,,,6.974222842,79.91418994,5,,
2/22/2024,16:27.2,2m 54.6s,174.6,6.97421973,79.91415658,0,0,0.3,50,0.5,0.316351,0.316351,0.223694,0.223694,0.223694,0.223694,-0.223694,0,-0.5,0.3,-57.4,302.6,33.3,Manual Takeoff,Drop Calibration,Takeoff (RC Assisted),14,5,TRUE,,Mavic Mini,TRUE,FALSE,,Smart,RC,TRUE,TRUE,FALSE,,,TRUE,,FALSE,FALSE,FALSE,FALSE,FALSE,FALSE,FALSE,FALSE,FALSE,FALSE,0,Follow Yaw,0,0,-39.5,320.5,FALSE,FALSE,FALSE,FALSE,FALSE,FALSE,,TRUE,Normal,,100,1024,1024,1499,1024,2,FALSE,FALSE,FALSE,FALSE,FALSE,0,FALSE,FALSE,FALSE,FALSE,87,7.88,1788,2056,7.955,FALSE,3.947,3.933,0.014,FALSE,FALSE,NA,94.5,94.2,94.4,0,0,0,0,5,2654.2,663.56,,Idle,0,20,FALSE,5,TRUE,6,Go Home,FALSE,FALSE,FALSE,FALSE,FALSE,FALSE,FALSE,FALSE,FALSE,FALSE,FALSE,FALSE,6.974223209,79.91415571,1.3,98.8,328,TRUE,1,1,FALSE,FALSE,FALSE,FALSE,,TRUE,FALSE,FALSE,Course Lock,49.2,,16.4,Calm,33,,1.12.8,Mavic Mini,1SDCH7G0169R0K,1SFLH6Q0AB03DJ,1SRCH7F014TAHX,1U5X071EXP6C9Y,78.8,0.4,9.8,8.772607,2.23694,0,0,Mavic Mini,1SDCH7G0169R0K,1SFLH6Q0AB03DJ,1SRCH7F014TAHX,1U5X071EXP6C9Y,DJI Fly,,1.12.8,CFF8582E-1E8B-BC20-99E7-D8E15FE198F7,1SDCH7G0169R0K,,,,,6.974222842,79.91418994,5,,
2/22/2024,16:27.2,2m 54.7s,174.7,6.974219873,79.91415669,0,0,0.3,50,0.5,0.316351,0.316351,0.223694,0.223694,0.223694,0.223694,-0.447388,0,-0.9,-0.5,-58.1,301.9,30.9,Tripod,Drop Calibration,,14,5,TRUE,,Mavic Mini,TRUE,FALSE,,Smart,RC,FALSE,TRUE,FALSE,,,TRUE,,FALSE,FALSE,FALSE,FALSE,FALSE,FALSE,FALSE,FALSE,FALSE,FALSE,0,Follow Yaw,0,0,-40.5,319.5,FALSE,FALSE,FALSE,FALSE,FALSE,FALSE,,TRUE,Normal,,100,1024,1024,1506,1024,2,FALSE,FALSE,FALSE,FALSE,FALSE,0,FALSE,FALSE,FALSE,FALSE,87,7.88,1788,2056,7.955,FALSE,3.947,3.933,0.014,FALSE,FALSE,NA,94.5,94.2,94.4,0,0,0,0,5,2654.2,663.56,,Idle,0,20,FALSE,5,TRUE,6,Go Home,FALSE,FALSE,FALSE,FALSE,FALSE,FALSE,FALSE,FALSE,FALSE,FALSE,FALSE,FALSE,6.974223209,79.91415571,1.2,98.8,328,TRUE,1,1,FALSE,FALSE,FALSE,FALSE,,TRUE,FALSE,FALSE,Course Lock,49.2,,16.4,Calm,33,,1.12.8,Mavic Mini,1SDCH7G0169R0K,1SFLH6Q0AB03DJ,1SRCH7F014TAHX,1U5X071EXP6C9Y,78.8,0.4,9.8,8.772607,2.23694,0,0,Mavic Mini,1SDCH7G0169R0K,1SFLH6Q0AB03DJ,1SRCH7F014TAHX,1U5X071EXP6C9Y,DJI Fly,,1.12.8,CFF8582E-1E8B-BC20-99E7-D8E15FE198F7,1SDCH7G0169R0K,,,,,6.974222842,79.91418994,5,Flight mode changed to Tripod.,
2/22/2024,16:27.3,2m 54.8s,174.8,6.974220053,79.91415679,0,0,0.3,50,0.6,0.223694,0.316351,0.223694,0.223694,0,0.223694,-0.671082,0,0.3,-2.1,-58,302,22.5,Tripod,Drop Calibration,,14,5,TRUE,,Mavic Mini,TRUE,FALSE,,Smart,RC,FALSE,TRUE,FALSE,,,TRUE,,FALSE,FALSE,FALSE,FALSE,FALSE,FALSE,FALSE,FALSE,FALSE,FALSE,0,Follow Yaw,0,0,-40.5,319.5,FALSE,FALSE,FALSE,FALSE,FALSE,FALSE,,TRUE,Normal,,100,1024,1024,1512,1024,2,FALSE,FALSE,FALSE,FALSE,FALSE,0,FALSE,FALSE,FALSE,FALSE,87,7.88,1788,2056,7.955,FALSE,3.947,3.933,0.014,FALSE,FALSE,NA,94.5,94.2,94.4,0,0,0,0,5,2654.2,663.56,,Idle,0,20,FALSE,5,TRUE,6,Go Home,FALSE,FALSE,FALSE,FALSE,FALSE,FALSE,FALSE,FALSE,FALSE,FALSE,FALSE,FALSE,6.974223209,79.91415571,1.2,98.8,328,TRUE,1,1,FALSE,FALSE,FALSE,FALSE,,TRUE,FALSE,FALSE,Course Lock,49.2,,16.4,Calm,33,,1.12.8,Mavic Mini,1SDCH7G0169R0K,1SFLH6Q0AB03DJ,1SRCH7F014TAHX,1U5X071EXP6C9Y,78.8,0.4,9.8,8.772607,2.23694,0,0,Mavic Mini,1SDCH7G0169R0K,1SFLH6Q0AB03DJ,1SRCH7F014TAHX,1U5X071EXP6C9Y,DJI Fly,,1.12.8,CFF8582E-1E8B-BC20-99E7-D8E15FE198F7,1SDCH7G0169R0K,,,,,6.974222842,79.91418994,5,,
2/22/2024,16:27.4,2m 54.9s,174.9,6.974220214,79.91415686,0,0,0.6,50,0.7,0.223694,0.316351,0.223694,0.223694,0,0.223694,-1.11847,0,0.9,-2.7,-58,302,18,Tripod,Drop Calibration,,14,5,TRUE,,Mavic Mini,TRUE,FALSE,,Smart,RC,FALSE,TRUE,FALSE,,,TRUE,,FALSE,FALSE,FALSE,FALSE,FALSE,FALSE,FALSE,FALSE,FALSE,FALSE,0,Follow Yaw,0,0,-40.5,319.5,FALSE,FALSE,FALSE,FALSE,FALSE,FALSE,,TRUE,Normal,,100,1024,1024,1514,1024,2,FALSE,FALSE,FALSE,FALSE,FALSE,0,FALSE,FALSE,FALSE,FALSE,87,7.88,1788,2056,7.851,FALSE,3.947,3.933,0.014,FALSE,FALSE,NA,94.5,94.2,94.4,0,0,2,0,5,2849.7,712.43,,Idle,0,20,FALSE,5,TRUE,6,Go Home,FALSE,FALSE,FALSE,FALSE,FALSE,FALSE,FALSE,FALSE,FALSE,FALSE,FALSE,FALSE,6.974219778,79.91415662,0.1,98.8,328,TRUE,1,1,FALSE,FALSE,FALSE,FALSE,,TRUE,FALSE,FALSE,Course Lock,49.2,,16.4,Calm,33,,1.12.8,Mavic Mini,1SDCH7G0169R0K,1SFLH6Q0AB03DJ,1SRCH7F014TAHX,1U5X071EXP6C9Y,78.8,0.4,9.8,8.772607,2.23694,0,0,Mavic Mini,1SDCH7G0169R0K,1SFLH6Q0AB03DJ,1SRCH7F014TAHX,1U5X071EXP6C9Y,DJI Fly,,1.12.8,CFF8582E-1E8B-BC20-99E7-D8E15FE198F7,1SDCH7G0169R0K,,,,,6.974222842,79.91418994,5,Home Point Updated.,
2/22/2024,16:27.5,2m 55.0s,175,6.974220361,79.91415691,0.3,0.3,0.6,50,0.7,0.223694,0.316351,0.223694,0.223694,0,0.223694,-1.342164,0,1.1,-2.3,-57.7,302.3,14.2,Tripod,Drop Calibration,,14,5,TRUE,,Mavic Mini,TRUE,FALSE,,Smart,RC,FALSE,TRUE,FALSE,,,TRUE,,FALSE,FALSE,FALSE,FALSE,FALSE,FALSE,FALSE,FALSE,FALSE,FALSE,0,Follow Yaw,0,0,-40.5,319.5,FALSE,FALSE,FALSE,FALSE,FALSE,FALSE,,TRUE,Normal,,100,1024,1024,1515,1024,2,FALSE,FALSE,FALSE,FALSE,FALSE,0,FALSE,FALSE,FALSE,FALSE,87,7.88,1788,2056,7.851,FALSE,3.947,3.933,0.014,FALSE,FALSE,NA,94.5,94.2,94.4,0,0,2,0,5,2849.7,712.43,,Idle,0,20,FALSE,5,TRUE,6,Go Home,FALSE,FALSE,FALSE,FALSE,FALSE,FALSE,FALSE,FALSE,FALSE,FALSE,FALSE,FALSE,6.974219778,79.91415662,0.2,98.8,328,TRUE,1,1,FALSE,FALSE,FALSE,FALSE,,TRUE,FALSE,FALSE,Course Lock,49.2,,16.4,Calm,33,,1.12.8,Mavic Mini,1SDCH7G0169R0K,1SFLH6Q0AB03DJ,1SRCH7F014TAHX,1U5X071EXP6C9Y,78.8,0.4,9.8,8.772607,2.23694,0,0,Mavic Mini,1SDCH7G0169R0K,1SFLH6Q0AB03DJ,1SRCH7F014TAHX,1U5X071EXP6C9Y,DJI Fly,,1.12.8,CFF8582E-1E8B-BC20-99E7-D8E15FE198F7,1SDCH7G0169R0K,,,,,6.974222842,79.91418994,5,Home Point updated. RTH altitude adjusted to 15 m! (Code: 120852).,
2/22/2024,16:27.5,2m 55.1s,175.1,6.97422058,79.91415697,0.6,0.6,0.9,50,0.8,0.223694,0.316351,0.223694,0.223694,0,0.223694,-1.789552,0,1.5,-2.1,-57.5,302.5,11.8,Tripod,Drop Calibration,,14,5,TRUE,,Mavic Mini,TRUE,FALSE,,Smart,RC,FALSE,TRUE,FALSE,,,TRUE,,FALSE,FALSE,FALSE,FALSE,FALSE,FALSE,FALSE,FALSE,FALSE,FALSE,0,Follow Yaw,0,0,-40.5,319.5,FALSE,FALSE,FALSE,FALSE,FALSE,FALSE,,TRUE,Normal,,100,1024,1024,1516,1024,2,FALSE,FALSE,FALSE,FALSE,FALSE,0,FALSE,FALSE,FALSE,FALSE,87,7.88,1788,2056,7.851,FALSE,3.947,3.933,0.014,FALSE,FALSE,NA,94.5,94.2,94.4,0,0,2,0,5,2849.7,712.43,,Idle,0,20,FALSE,5,TRUE,6,Go Home,FALSE,FALSE,FALSE,FALSE,FALSE,FALSE,FALSE,FALSE,FALSE,FALSE,FALSE,FALSE,6.974219778,79.91415662,0.3,98.8,328,TRUE,1,1,FALSE,FALSE,FALSE,FALSE,,TRUE,FALSE,FALSE,Course Lock,49.2,,16.4,Calm,33,,1.12.8,Mavic Mini,1SDCH7G0169R0K,1SFLH6Q0AB03DJ,1SRCH7F014TAHX,1U5X071EXP6C9Y,78.8,0.4,9.8,8.772607,2.23694,0,0,Mavic Mini,1SDCH7G0169R0K,1SFLH6Q0AB03DJ,1SRCH7F014TAHX,1U5X071EXP6C9Y,DJI Fly,,1.12.8,CFF8582E-1E8B-BC20-99E7-D8E15FE198F7,1SDCH7G0169R0K,,,,,6.974222842,79.91418994,5,,
2/22/2024,16:27.6,2m 55.2s,175.2,6.97422079,79.914157,0.9,0.9,1.3,51,0.9,0.223694,0.316351,0.223694,0.223694,0,0.223694,-2.013246,0,1.3,-2.5,-57.4,302.6,6.9,Tripod,Drop Calibration,,14,5,TRUE,,Mavic Mini,TRUE,FALSE,,Smart,RC,FALSE,TRUE,FALSE,,,TRUE,,FALSE,FALSE,FALSE,FALSE,FALSE,FALSE,FALSE,FALSE,FALSE,FALSE,0,Follow Yaw,0,0,-40.5,319.5,FALSE,FALSE,FALSE,FALSE,FALSE,FALSE,,TRUE,Normal,,100,1024,1024,1516,1024,2,FALSE,FALSE,FALSE,FALSE,FALSE,0,FALSE,FALSE,FALSE,FALSE,87,7.88,1788,2056,7.851,FALSE,3.947,3.933,0.014,FALSE,FALSE,NA,94.5,94.2,94.4,0,0,2,0,5,2849.7,712.43,,Idle,0,20,FALSE,5,TRUE,6,Go Home,FALSE,FALSE,FALSE,FALSE,FALSE,FALSE,FALSE,FALSE,FALSE,FALSE,FALSE,FALSE,6.974219778,79.91415662,0.3,98.8,328,TRUE,1,1,FALSE,FALSE,FALSE,FALSE,,TRUE,FALSE,FALSE,Course Lock,49.2,,16.4,Calm,33,,1.12.8,Mavic Mini,1SDCH7G0169R0K,1SFLH6Q0AB03DJ,1SRCH7F014TAHX,1U5X071EXP6C9Y,78.8,0.4,9.8,8.772607,2.23694,0,0,Mavic Mini,1SDCH7G0169R0K,1SFLH6Q0AB03DJ,1SRCH7F014TAHX,1U5X071EXP6C9Y,DJI Fly,,1.12.8,CFF8582E-1E8B-BC20-99E7-D8E15FE198F7,1SDCH7G0169R0K,,,,,6.974222842,79.91418994,5,,
2/22/2024,16:27.7,2m 55.3s,175.3,6.97422095,79.91415699,1.3,1.3,1.6,51,0.9,0.223694,0.316351,0.223694,0.223694,0,0.223694,-2.23694,0,1,-2.2,-57.5,302.5,356.9,Tripod,Drop Calibration,,14,5,TRUE,,Mavic Mini,TRUE,FALSE,,Smart,RC,FALSE,TRUE,FALSE,,,TRUE,,FALSE,FALSE,FALSE,FALSE,FALSE,FALSE,FALSE,FALSE,FALSE,FALSE,0,Follow Yaw,0,0,-40.5,319.5,FALSE,FALSE,FALSE,FALSE,FALSE,FALSE,,TRUE,Normal,,100,1024,1024,1517,1024,2,FALSE,FALSE,FALSE,FALSE,FALSE,0,FALSE,FALSE,FALSE,FALSE,87,7.88,1788,2056,7.851,FALSE,3.947,3.933,0.014,FALSE,FALSE,NA,94.5,94.2,94.4,0,0,2,0,5,2849.7,712.43,,Idle,0,20,FALSE,5,TRUE,6,Go Home,FALSE,FALSE,FALSE,FALSE,FALSE,FALSE,FALSE,FALSE,FALSE,FALSE,FALSE,FALSE,6.974219778,79.91415662,0.4,98.8,328,TRUE,1,1,FALSE,FALSE,FALSE,FALSE,,TRUE,FALSE,FALSE,Course Lock,49.2,,16.4,Calm,33,,1.12.8,Mavic Mini,1SDCH7G0169R0K,1SFLH6Q0AB03DJ,1SRCH7F014TAHX,1U5X071EXP6C9Y,78.8,0.4,9.8,8.772607,2.23694,0,0,Mavic Mini,1SDCH7G0169R0K,1SFLH6Q0AB03DJ,1SRCH7F014TAHX,1U5X071EXP6C9Y,DJI Fly,,1.12.8,CFF8582E-1E8B-BC20-99E7-D8E15FE198F7,1SDCH7G0169R0K,,,,,6.974222842,79.91418994,5,,
2/22/2024,16:27.8,2m 55.4s,175.4,6.97422109,79.91415694,1.3,1.3,1.9,51,1,0.223694,0.316351,0.223694,0.223694,0,0.223694,-2.23694,0,1.5,-2.3,-57.6,302.4,346.2,Tripod,Drop Calibration,,14,5,TRUE,,Mavic Mini,TRUE,FALSE,,Smart,RC,FALSE,TRUE,FALSE,,,TRUE,,FALSE,FALSE,FALSE,FALSE,FALSE,FALSE,FALSE,FALSE,FALSE,FALSE,0,Follow Yaw,0,0,-40.5,319.5,FALSE,FALSE,FALSE,FALSE,FALSE,FALSE,,TRUE,Normal,,100,1024,1024,1517,1024,2,FALSE,FALSE,FALSE,FALSE,FALSE,0,FALSE,FALSE,FALSE,FALSE,87,7.88,1788,2056,7.851,FALSE,3.947,3.933,0.014,FALSE,FALSE,NA,94.5,94.2,94.4,0,0,2,0,5,2849.7,712.43,,Idle,0,20,FALSE,5,TRUE,6,Go Home,FALSE,FALSE,FALSE,FALSE,FALSE,FALSE,FALSE,FALSE,FALSE,FALSE,FALSE,FALSE,6.974219778,79.91415662,0.4,98.8,328,TRUE,1,1,FALSE,FALSE,FALSE,FALSE,,TRUE,FALSE,FALSE,Course Lock,49.2,,16.4,Calm,33,,1.12.8,Mavic Mini,1SDCH7G0169R0K,1SFLH6Q0AB03DJ,1SRCH7F014TAHX,1U5X071EXP6C9Y,78.8,0.4,9.8,8.772607,2.23694,0,0,Mavic Mini,1SDCH7G0169R0K,1SFLH6Q0AB03DJ,1SRCH7F014TAHX,1U5X071EXP6C9Y,DJI Fly,,1.12.8,CFF8582E-1E8B-BC20-99E7-D8E15FE198F7,1SDCH7G0169R0K,,,,,6.974222842,79.91418994,5,,
2/22/2024,16:27.9,2m 55.5s,175.5,6.974221321,79.91415685,1.6,1.6,2.2,51,1.1,0.223694,0.316351,0.223694,0.223694,0,0.223694,-2.23694,0,1.6,-1.9,-57.6,302.4,342.7,Tripod,Drop Calibration,,14,5,TRUE,,Mavic Mini,TRUE,FALSE,,Smart,RC,FALSE,TRUE,FALSE,,,TRUE,,FALSE,FALSE,FALSE,FALSE,FALSE,FALSE,FALSE,FALSE,FALSE,FALSE,0,Follow Yaw,0,0,-40.5,319.5,FALSE,FALSE,FALSE,FALSE,FALSE,FALSE,,TRUE,Normal,,100,1024,1024,1516,1024,2,FALSE,FALSE,FALSE,FALSE,FALSE,0,FALSE,FALSE,FALSE,FALSE,87,7.88,1788,2056,7.851,FALSE,3.947,3.933,0.014,FALSE,FALSE,NA,94.5,94.2,94.4,0,0,2,0,5,2849.7,712.43,,Idle,0,20,FALSE,5,TRUE,6,Go Home,FALSE,FALSE,FALSE,FALSE,FALSE,FALSE,FALSE,FALSE,FALSE,FALSE,FALSE,FALSE,6.974219778,79.91415662,0.5,98.8,328,TRUE,1,1,FALSE,FALSE,FALSE,FALSE,,TRUE,FALSE,FALSE,Course Lock,49.2,,16.4,Calm,33,,1.12.8,Mavic Mini,1SDCH7G0169R0K,1SFLH6Q0AB03DJ,1SRCH7F014TAHX,1U5X071EXP6C9Y,78.8,0.4,9.8,8.772607,2.23694,0,0,Mavic Mini,1SDCH7G0169R0K,1SFLH6Q0AB03DJ,1SRCH7F014TAHX,1U5X071EXP6C9Y,DJI Fly,,1.12.8,CFF8582E-1E8B-BC20-99E7-D8E15FE198F7,1SDCH7G0169R0K,,,,,6.974222842,79.91418994,5,,
2/22/2024,16:28.2,2m 55.6s,175.6,6.97422142,79.91415684,1.9,1.9,2.6,52,1.1,0.223694,0.316351,0.223694,0.223694,0,0.223694,-2.23694,0,1.6,-2.1,-57.6,302.4,354.9,Tripod,Drop Calibration,,14,5,TRUE,,Mavic Mini,TRUE,FALSE,,Smart,RC,FALSE,TRUE,FALSE,,,TRUE,,FALSE,FALSE,FALSE,FALSE,FALSE,FALSE,FALSE,FALSE,FALSE,FALSE,0,Follow Yaw,0,0,-40.5,319.5,FALSE,FALSE,FALSE,FALSE,FALSE,FALSE,,TRUE,Normal,,100,1024,1024,1516,1024,2,FALSE,FALSE,FALSE,FALSE,FALSE,0,FALSE,FALSE,FALSE,FALSE,87,7.731,1787,2056,7.851,FALSE,3.871,3.86,0.014,FALSE,FALSE,NA,94.5,94.2,94.4,0,0,2,0,5,2849.7,712.43,,Idle,0,20,FALSE,5,TRUE,6,Go Home,FALSE,FALSE,FALSE,FALSE,FALSE,FALSE,FALSE,FALSE,FALSE,FALSE,FALSE,FALSE,6.974219778,79.91415662,0.6,98.8,328,TRUE,1,1,FALSE,FALSE,FALSE,FALSE,,TRUE,FALSE,FALSE,Course Lock,49.2,,16.4,Calm,33,,1.12.8,Mavic Mini,1SDCH7G0169R0K,1SFLH6Q0AB03DJ,1SRCH7F014TAHX,1U5X071EXP6C9Y,78.8,0.4,9.8,8.772607,2.23694,0,0,Mavic Mini,1SDCH7G0169R0K,1SFLH6Q0AB03DJ,1SRCH7F014TAHX,1U5X071EXP6C9Y,DJI Fly,,1.12.8,CFF8582E-1E8B-BC20-99E7-D8E15FE198F7,1SDCH7G0169R0K,,,,,6.974222842,79.91418994,5,,
2/22/2024,16:28.2,2m 55.7s,175.7,6.974221523,79.9141568,2.2,2.2,2.9,52,1.2,0,0.316351,0,0.223694,0,0.223694,-2.23694,0,1.8,-2.2,-57.5,302.5,,Tripod,Drop Calibration,,14,5,TRUE,,Mavic Mini,TRUE,FALSE,,Smart,RC,FALSE,TRUE,FALSE,,,TRUE,,FALSE,FALSE,FALSE,FALSE,FALSE,FALSE,FALSE,FALSE,FALSE,FALSE,0,Follow Yaw,0,0,-40.5,319.5,FALSE,FALSE,FALSE,FALSE,FALSE,FALSE,,TRUE,Normal,,100,1024,1024,1486,1024,2,FALSE,FALSE,FALSE,FALSE,FALSE,0,FALSE,FALSE,FALSE,FALSE,87,7.731,1787,2056,7.851,FALSE,3.871,3.86,0.014,FALSE,FALSE,NA,94.5,94.2,94.4,0,0,2,0,5,2849.7,712.43,,Idle,0,20,FALSE,5,TRUE,6,Go Home,FALSE,FALSE,FALSE,FALSE,FALSE,FALSE,FALSE,FALSE,FALSE,FALSE,FALSE,FALSE,6.974219778,79.91415662,0.6,98.8,328,TRUE,1,1,FALSE,FALSE,FALSE,FALSE,,TRUE,FALSE,FALSE,Course Lock,49.2,,16.4,Calm,33,,1.12.8,Mavic Mini,1SDCH7G0169R0K,1SFLH6Q0AB03DJ,1SRCH7F014TAHX,1U5X071EXP6C9Y,78.8,0.4,9.8,8.772607,2.23694,0,0,Mavic Mini,1SDCH7G0169R0K,1SFLH6Q0AB03DJ,1SRCH7F014TAHX,1U5X071EXP6C9Y,DJI Fly,,1.12.8,CFF8582E-1E8B-BC20-99E7-D8E15FE198F7,1SDCH7G0169R0K,,,,,6.974222842,79.91418994,5,,
2/22/2024,16:28.3,2m 55.8s,175.8,6.974221635,79.91415674,2.6,2.6,3.2,52,1.2,0,0.316351,0,0.223694,0,0.223694,-2.23694,0,1.9,-2.5,-57.5,302.5,,Tripod,Drop Calibration,,14,5,TRUE,,Mavic Mini,TRUE,FALSE,,Smart,RC,FALSE,TRUE,FALSE,,,TRUE,,FALSE,FALSE,FALSE,FALSE,FALSE,FALSE,FALSE,FALSE,FALSE,FALSE,0,Follow Yaw,0,0,-40.5,319.5,FALSE,FALSE,FALSE,FALSE,FALSE,FALSE,,TRUE,Normal,,100,1024,1024,1406,1024,2,FALSE,FALSE,FALSE,FALSE,FALSE,0,FALSE,FALSE,FALSE,FALSE,87,7.731,1787,2056,7.851,FALSE,3.871,3.86,0.014,FALSE,FALSE,NA,94.5,94.2,94.4,0,0,2,0,5,2849.7,712.43,,Idle,0,20,FALSE,5,TRUE,6,Go Home,FALSE,FALSE,FALSE,FALSE,FALSE,FALSE,FALSE,FALSE,FALSE,FALSE,FALSE,FALSE,6.974219778,79.91415662,0.6,98.8,328,TRUE,1,1,FALSE,FALSE,FALSE,FALSE,,TRUE,FALSE,FALSE,Course Lock,49.2,,16.4,Calm,33,,1.12.8,Mavic Mini,1SDCH7G0169R0K,1SFLH6Q0AB03DJ,1SRCH7F014TAHX,1U5X071EXP6C9Y,78.8,0.4,9.8,8.772607,2.23694,0,0,Mavic Mini,1SDCH7G0169R0K,1SFLH6Q0AB03DJ,1SRCH7F014TAHX,1U5X071EXP6C9Y,DJI Fly,,1.12.8,CFF8582E-1E8B-BC20-99E7-D8E15FE198F7,1SDCH7G0169R0K,,,,,6.974222842,79.91418994,5,,
2/22/2024,16:28.4,2m 55.9s,175.9,6.974221739,79.91415654,2.9,2.9,3.9,53,1.3,0,0.316351,0,0.223694,0,0.223694,-2.23694,0,1.6,-2.3,-57.5,302.5,,Tripod,Drop Calibration,,14,5,TRUE,,Mavic Mini,TRUE,FALSE,,Smart,RC,FALSE,TRUE,FALSE,,,TRUE,,FALSE,FALSE,FALSE,FALSE,FALSE,FALSE,FALSE,FALSE,FALSE,FALSE,0,Follow Yaw,0,0,-40.5,319.5,FALSE,FALSE,FALSE,FALSE,FALSE,FALSE,,TRUE,Normal,,100,1024,1024,1408,770,2,FALSE,FALSE,FALSE,FALSE,FALSE,0,FALSE,FALSE,FALSE,FALSE,87,7.731,1787,2056,7.819,FALSE,3.871,3.86,0.014,FALSE,FALSE,NA,94.5,94.2,94.4,0,0,2,0,5,3566.9,891.74,,Idle,0,20,FALSE,5,TRUE,6,Go Home,FALSE,FALSE,FALSE,FALSE,FALSE,FALSE,FALSE,FALSE,FALSE,FALSE,FALSE,FALSE,6.974219778,79.91415662,0.7,98.8,328,TRUE,1,1,FALSE,FALSE,FALSE,FALSE,,TRUE,FALSE,FALSE,Course Lock,49.2,,16.4,Calm,33,,1.12.8,Mavic Mini,1SDCH7G0169R0K,1SFLH6Q0AB03DJ,1SRCH7F014TAHX,1U5X071EXP6C9Y,78.8,0.4,9.8,8.772607,2.23694,0,0,Mavic Mini,1SDCH7G0169R0K,1SFLH6Q0AB03DJ,1SRCH7F014TAHX,1U5X071EXP6C9Y,DJI Fly,,1.12.8,CFF8582E-1E8B-BC20-99E7-D8E15FE198F7,1SDCH7G0169R0K,,,,,6.974222842,79.91418994,5,,
2/22/2024,16:28.5,2m 56.0s,176,6.974221862,79.91415648,3.2,3.2,4.2,53,1.3,0,0.316351,0,0.223694,0,0.223694,-2.013246,0,1.4,-2.5,-57.4,302.6,,Tripod,Drop Calibration,,14,5,TRUE,,Mavic Mini,TRUE,FALSE,,Smart,RC,FALSE,TRUE,FALSE,,,TRUE,,FALSE,FALSE,FALSE,FALSE,FALSE,FALSE,FALSE,FALSE,FALSE,FALSE,0,Follow Yaw,0,0,-40.5,319.5,FALSE,FALSE,FALSE,FALSE,FALSE,FALSE,,TRUE,Normal,,100,1024,1024,1380,479,2,FALSE,FALSE,FALSE,FALSE,FALSE,0,FALSE,FALSE,FALSE,FALSE,87,7.731,1787,2056,7.819,FALSE,3.871,3.86,0.014,FALSE,FALSE,NA,94.5,94.2,94.4,0,0,2,0,5,3566.9,891.74,,Idle,0,20,FALSE,5,TRUE,6,Go Home,FALSE,FALSE,FALSE,FALSE,FALSE,FALSE,FALSE,FALSE,FALSE,FALSE,FALSE,FALSE,6.974219778,79.91415662,0.7,98.8,328,TRUE,1,1,FALSE,FALSE,FALSE,FALSE,,TRUE,FALSE,FALSE,Course Lock,49.2,,16.4,Calm,33,,1.12.8,Mavic Mini,1SDCH7G0169R0K,1SFLH6Q0AB03DJ,1SRCH7F014TAHX,1U5X071EXP6C9Y,78.8,0.4,9.8,8.772607,2.23694,0,0,Mavic Mini,1SDCH7G0169R0K,1SFLH6Q0AB03DJ,1SRCH7F014TAHX,1U5X071EXP6C9Y,DJI Fly,,1.12.8,CFF8582E-1E8B-BC20-99E7-D8E15FE198F7,1SDCH7G0169R0K,,,,,6.974222842,79.91418994,5,,
2/22/2024,16:28.6,2m 56.1s,176.1,6.974221922,79.91415649,3.6,3.6,4.5,53,1.4,0,0.316351,0,0.223694,0,0.223694,-2.013246,0,1.4,-2.8,-57.4,302.6,,Tripod,Drop Calibration,,14,5,TRUE,,Mavic Mini,TRUE,FALSE,,Smart,RC,FALSE,TRUE,FALSE,,,TRUE,,FALSE,FALSE,FALSE,FALSE,FALSE,FALSE,FALSE,FALSE,FALSE,FALSE,0,Follow Yaw,0,0,-40.5,319.5,FALSE,FALSE,FALSE,FALSE,FALSE,FALSE,,TRUE,Normal,,100,1024,1024,1380,479,2,FALSE,FALSE,FALSE,FALSE,FALSE,0,FALSE,FALSE,FALSE,FALSE,87,7.731,1787,2056,7.819,FALSE,3.871,3.86,0.014,FALSE,FALSE,NA,94.5,94.2,94.4,0,0,2,0,5,3566.9,891.74,,Idle,0,20,FALSE,5,TRUE,6,Go Home,FALSE,FALSE,FALSE,FALSE,FALSE,FALSE,FALSE,FALSE,FALSE,FALSE,FALSE,FALSE,6.974219778,79.91415662,0.7,98.8,328,TRUE,1,1,FALSE,FALSE,FALSE,FALSE,,TRUE,FALSE,FALSE,Course Lock,49.2,,16.4,Calm,33,,1.12.8,Mavic Mini,1SDCH7G0169R0K,1SFLH6Q0AB03DJ,1SRCH7F014TAHX,1U5X071EXP6C9Y,78.8,0.4,9.8,8.772607,2.23694,0,0,Mavic Mini,1SDCH7G0169R0K,1SFLH6Q0AB03DJ,1SRCH7F014TAHX,1U5X071EXP6C9Y,DJI Fly,,1.12.8,CFF8582E-1E8B-BC20-99E7-D8E15FE198F7,1SDCH7G0169R0K,,,,,6.974222842,79.91418994,5,,
2/22/2024,16:28.7,2m 56.2s,176.2,6.97422195,79.91415654,3.9,3.9,4.9,54,1.4,0,0.316351,0,0.223694,0,0.223694,-1.789552,0,1.9,-3,-57.4,302.6,,Tripod,Drop Calibration,,14,5,TRUE,,Mavic Mini,TRUE,FALSE,,Smart,RC,FALSE,TRUE,FALSE,,,TRUE,,FALSE,FALSE,FALSE,FALSE,FALSE,FALSE,FALSE,FALSE,FALSE,FALSE,0,Follow Yaw,0,0,-40.7,319.3,FALSE,FALSE,FALSE,FALSE,FALSE,FALSE,,TRUE,Normal,,100,1024,1024,1329,364,2,FALSE,FALSE,FALSE,FALSE,FALSE,0,FALSE,FALSE,FALSE,FALSE,87,7.731,1787,2056,7.819,FALSE,3.871,3.86,0.014,FALSE,FALSE,NA,94.5,94.2,94.4,0,0,2,0,5,3566.9,891.74,,Idle,0,20,FALSE,5,TRUE,6,Go Home,FALSE,FALSE,FALSE,FALSE,FALSE,FALSE,FALSE,FALSE,FALSE,FALSE,FALSE,FALSE,6.974219778,79.91415662,0.7,98.8,328,TRUE,1,1,FALSE,FALSE,FALSE,FALSE,,TRUE,FALSE,FALSE,Course Lock,49.2,,16.4,Calm,33,,1.12.8,Mavic Mini,1SDCH7G0169R0K,1SFLH6Q0AB03DJ,1SRCH7F014TAHX,1U5X071EXP6C9Y,78.8,0.4,9.8,8.772607,2.23694,0,0,Mavic Mini,1SDCH7G0169R0K,1SFLH6Q0AB03DJ,1SRCH7F014TAHX,1U5X071EXP6C9Y,DJI Fly,,1.12.8,CFF8582E-1E8B-BC20-99E7-D8E15FE198F7,1SDCH7G0169R0K,,,,,6.974222842,79.91418994,5,,
2/22/2024,16:28.8,2m 56.3s,176.3,6.974221967,79.91415666,3.9,3.9,4.9,54,1.4,0,0.316351,0,0.223694,0,0.223694,-1.565858,0,1.7,-3.3,-57.6,302.4,,Tripod,Drop Calibration,,14,5,TRUE,,Mavic Mini,TRUE,FALSE,,Smart,RC,FALSE,TRUE,FALSE,,,TRUE,,FALSE,FALSE,FALSE,FALSE,FALSE,FALSE,FALSE,FALSE,FALSE,FALSE,0,Follow Yaw,0,0,-41.5,318.5,FALSE,FALSE,FALSE,FALSE,FALSE,FALSE,,TRUE,Normal,,100,1024,1024,1259,364,2,FALSE,FALSE,FALSE,FALSE,FALSE,0,FALSE,FALSE,FALSE,FALSE,87,7.731,1787,2056,7.819,FALSE,3.871,3.86,0.014,FALSE,FALSE,NA,94.5,94.2,94.4,0,0,2,0,5,3566.9,891.74,,Idle,0,20,FALSE,5,TRUE,6,Go Home,FALSE,FALSE,FALSE,FALSE,FALSE,FALSE,FALSE,FALSE,FALSE,FALSE,FALSE,FALSE,6.974219778,79.91415662,0.7,98.8,328,TRUE,1,1,FALSE,FALSE,FALSE,FALSE,,TRUE,FALSE,FALSE,Course Lock,49.2,,16.4,Calm,33,,1.12.8,Mavic Mini,1SDCH7G0169R0K,1SFLH6Q0AB03DJ,1SRCH7F014TAHX,1U5X071EXP6C9Y,78.8,0.4,9.8,8.772607,2.23694,0,0,Mavic Mini,1SDCH7G0169R0K,1SFLH6Q0AB03DJ,1SRCH7F014TAHX,1U5X071EXP6C9Y,DJI Fly,,1.12.8,CFF8582E-1E8B-BC20-99E7-D8E15FE198F7,1SDCH7G0169R0K,,,,,6.974222842,79.91418994,5,,
2/22/2024,16:28.8,2m 56.4s,176.4,6.974222053,79.91415664,4.2,4.2,5.2,54,1.5,0,0.316351,0,0.223694,0,0.223694,-1.342164,0,1.6,-3.6,-58.1,301.9,,Tripod,Drop Calibration,,14,5,TRUE,,Mavic Mini,TRUE,FALSE,,Smart,RC,FALSE,TRUE,FALSE,,,TRUE,,FALSE,FALSE,FALSE,FALSE,FALSE,FALSE,FALSE,FALSE,FALSE,FALSE,0,Follow Yaw,0,0,-43,317,FALSE,FALSE,FALSE,FALSE,FALSE,FALSE,,TRUE,Normal,,100,1024,1024,1197,364,2,FALSE,FALSE,FALSE,FALSE,FALSE,0,FALSE,FALSE,FALSE,FALSE,87,7.731,1787,2056,7.819,FALSE,3.871,3.86,0.014,FALSE,FALSE,NA,94.5,94.2,94.4,0,0,2,0,5,3566.9,891.74,,Idle,0,20,FALSE,5,TRUE,6,Go Home,FALSE,FALSE,FALSE,FALSE,FALSE,FALSE,FALSE,FALSE,FALSE,FALSE,FALSE,FALSE,6.974219778,79.91415662,0.8,98.8,328,TRUE,1,1,FALSE,FALSE,FALSE,FALSE,,TRUE,FALSE,FALSE,Course Lock,49.2,,16.4,Calm,33,,1.12.8,Mavic Mini,1SDCH7G0169R0K,1SFLH6Q0AB03DJ,1SRCH7F014TAHX,1U5X071EXP6C9Y,78.8,0.4,9.8,8.772607,2.23694,0,0,Mavic Mini,1SDCH7G0169R0K,1SFLH6Q0AB03DJ,1SRCH7F014TAHX,1U5X071EXP6C9Y,DJI Fly,,1.12.8,CFF8582E-1E8B-BC20-99E7-D8E15FE198F7,1SDCH7G0169R0K,,,,,6.974222842,79.91418994,5,,
2/22/2024,16:28.9,2m 56.5s,176.5,6.974222141,79.91415663,4.2,4.2,5.5,54,1.5,0,0.316351,0,0.223694,0,0.223694,-1.11847,0,1.6,-3.2,-59.1,300.9,,Tripod,Drop Calibration,,14,5,TRUE,,Mavic Mini,TRUE,FALSE,,Smart,RC,FALSE,TRUE,FALSE,,,TRUE,,FALSE,FALSE,FALSE,FALSE,FALSE,FALSE,FALSE,FALSE,FALSE,FALSE,0,Follow Yaw,0,0,-45.1,314.9,FALSE,FALSE,FALSE,FALSE,FALSE,FALSE,,TRUE,Normal,,100,1024,1024,1173,364,2,FALSE,FALSE,FALSE,FALSE,FALSE,0,FALSE,FALSE,FALSE,FALSE,87,7.731,1787,2056,7.819,FALSE,3.871,3.86,0.014,FALSE,FALSE,NA,94.5,94.2,94.4,0,0,2,0,5,3566.9,891.74,,Idle,0,20,FALSE,5,TRUE,6,Go Home,FALSE,FALSE,FALSE,FALSE,FALSE,FALSE,FALSE,FALSE,FALSE,FALSE,FALSE,FALSE,6.974219778,79.91415662,0.8,98.8,328,TRUE,1,1,FALSE,FALSE,FALSE,FALSE,,TRUE,FALSE,FALSE,Course Lock,49.2,,16.4,Calm,33,,1.12.8,Mavic Mini,1SDCH7G0169R0K,1SFLH6Q0AB03DJ,1SRCH7F014TAHX,1U5X071EXP6C9Y,78.8,0.4,9.8,8.772607,2.23694,0,0,Mavic Mini,1SDCH7G0169R0K,1SFLH6Q0AB03DJ,1SRCH7F014TAHX,1U5X071EXP6C9Y,DJI Fly,,1.12.8,CFF8582E-1E8B-BC20-99E7-D8E15FE198F7,1SDCH7G0169R0K,,,,,6.974222842,79.91418994,5,,
2/22/2024,16:29.1,2m 56.6s,176.6,6.974222224,79.91415663,4.5,4.5,5.5,54,1.5,0,0.316351,0,0.223694,0,0.223694,-0.894776,0,1.2,-2.7,-60.8,299.2,,Tripod,Drop Calibration,,14,5,TRUE,,Mavic Mini,TRUE,FALSE,,Smart,RC,FALSE,TRUE,FALSE,,,TRUE,,FALSE,FALSE,FALSE,FALSE,FALSE,FALSE,FALSE,FALSE,FALSE,FALSE,0,Follow Yaw,0,0,-47.4,312.6,FALSE,FALSE,FALSE,FALSE,FALSE,FALSE,,TRUE,Normal,,100,1024,1024,1163,364,2,FALSE,FALSE,FALSE,FALSE,FALSE,0,FALSE,FALSE,FALSE,FALSE,87,7.731,1787,2056,7.819,FALSE,3.871,3.86,0.014,FALSE,FALSE,NA,94.5,94.2,94.4,0,0,2,0,5,3566.9,891.74,,Idle,0,20,FALSE,5,TRUE,6,Go Home,FALSE,FALSE,FALSE,FALSE,FALSE,FALSE,FALSE,FALSE,FALSE,FALSE,FALSE,FALSE,6.974219778,79.91415662,0.8,98.8,328,TRUE,1,1,FALSE,FALSE,FALSE,FALSE,,TRUE,FALSE,FALSE,Course Lock,49.2,,16.4,Calm,33,,1.12.8,Mavic Mini,1SDCH7G0169R0K,1SFLH6Q0AB03DJ,1SRCH7F014TAHX,1U5X071EXP6C9Y,78.8,0.4,9.8,8.772607,2.23694,0,0,Mavic Mini,1SDCH7G0169R0K,1SFLH6Q0AB03DJ,1SRCH7F014TAHX,1U5X071EXP6C9Y,DJI Fly,,1.12.8,CFF8582E-1E8B-BC20-99E7-D8E15FE198F7,1SDCH7G0169R0K,,,,,6.974222842,79.91418994,5,,
2/22/2024,16:29.1,2m 56.7s,176.7,6.974222234,79.9141566,4.5,4.5,5.9,54,1.5,0,0.316351,0,0.223694,0,0.223694,-0.671082,0,0.8,-2.6,-62.8,297.2,,Tripod,Drop Calibration,,14,5,TRUE,,Mavic Mini,TRUE,FALSE,,Smart,RC,FALSE,TRUE,FALSE,,,TRUE,,FALSE,FALSE,FALSE,FALSE,FALSE,FALSE,FALSE,FALSE,FALSE,FALSE,0,Follow Yaw,0,0,-49.7,310.3,FALSE,FALSE,FALSE,FALSE,FALSE,FALSE,,TRUE,Normal,,100,1024,1024,1024,787,2,FALSE,FALSE,FALSE,FALSE,FALSE,0,FALSE,FALSE,FALSE,FALSE,87,7.755,1786,2056,7.819,FALSE,3.883,3.872,0.014,FALSE,FALSE,NA,94.5,94.2,94.4,0,0,2,0,5,3566.9,891.74,,Idle,0,20,FALSE,5,TRUE,6,Go Home,FALSE,FALSE,FALSE,FALSE,FALSE,FALSE,FALSE,FALSE,FALSE,FALSE,FALSE,FALSE,6.974219778,79.91415662,0.8,98.8,328,TRUE,1,1,FALSE,FALSE,FALSE,FALSE,,TRUE,FALSE,FALSE,Course Lock,49.2,,16.4,Calm,33,,1.12.8,Mavic Mini,1SDCH7G0169R0K,1SFLH6Q0AB03DJ,1SRCH7F014TAHX,1U5X071EXP6C9Y,78.8,0.4,9.8,8.772607,2.23694,0,0,Mavic Mini,1SDCH7G0169R0K,1SFLH6Q0AB03DJ,1SRCH7F014TAHX,1U5X071EXP6C9Y,DJI Fly,,1.12.8,CFF8582E-1E8B-BC20-99E7-D8E15FE198F7,1SDCH7G0169R0K,,,,,6.974222842,79.91418994,5,,
2/22/2024,16:29.3,2m 56.8s,176.8,6.974222242,79.91415649,4.5,4.5,5.9,54,1.6,0,0.316351,0,0.223694,0,0.223694,-0.447388,0,0.5,-2.5,-64.9,295.1,,Tripod,Drop Calibration,,14,5,TRUE,,Mavic Mini,TRUE,FALSE,,Smart,RC,FALSE,TRUE,FALSE,,,TRUE,,FALSE,FALSE,FALSE,FALSE,FALSE,FALSE,FALSE,FALSE,FALSE,FALSE,0,Follow Yaw,0,0,-52.1,307.9,FALSE,FALSE,FALSE,FALSE,FALSE,FALSE,,TRUE,Normal,,100,1024,1024,1024,787,2,FALSE,FALSE,FALSE,FALSE,FALSE,0,FALSE,FALSE,FALSE,FALSE,87,7.755,1786,2056,7.819,FALSE,3.883,3.872,0.014,FALSE,FALSE,NA,94.5,94.2,94.4,0,0,2,0,5,3566.9,891.74,,Idle,0,20,FALSE,5,TRUE,6,Go Home,FALSE,FALSE,FALSE,FALSE,FALSE,FALSE,FALSE,FALSE,FALSE,FALSE,FALSE,FALSE,6.974219778,79.91415662,0.9,98.8,328,TRUE,1,1,FALSE,FALSE,FALSE,FALSE,,TRUE,FALSE,FALSE,Course Lock,49.2,,16.4,Calm,33,,1.12.8,Mavic Mini,1SDCH7G0169R0K,1SFLH6Q0AB03DJ,1SRCH7F014TAHX,1U5X071EXP6C9Y,78.8,0.4,9.8,8.772607,2.23694,0,0,Mavic Mini,1SDCH7G0169R0K,1SFLH6Q0AB03DJ,1SRCH7F014TAHX,1U5X071EXP6C9Y,DJI Fly,,1.12.8,CFF8582E-1E8B-BC20-99E7-D8E15FE198F7,1SDCH7G0169R0K,,,,,6.974222842,79.91418994,5,,
2/22/2024,16:29.4,2m 56.9s,176.9,6.974222193,79.91415644,4.5,4.5,5.9,54,1.6,0,0.316351,0,0.223694,0,0.223694,-0.223694,0,0.2,-2.2,-67.2,292.8,,Tripod,Drop Calibration,,14,5,TRUE,,Mavic Mini,TRUE,FALSE,,Smart,RC,FALSE,TRUE,FALSE,,,TRUE,,FALSE,FALSE,FALSE,FALSE,FALSE,FALSE,FALSE,FALSE,FALSE,FALSE,0,Follow Yaw,0,0,-54.4,305.6,FALSE,FALSE,FALSE,FALSE,FALSE,FALSE,,TRUE,Normal,,100,1024,1024,1024,1024,2,FALSE,FALSE,FALSE,FALSE,FALSE,0,FALSE,FALSE,FALSE,FALSE,87,7.755,1786,2056,7.737,FALSE,3.883,3.872,0.014,FALSE,FALSE,NA,94.5,94.2,94.4,0,0,2,0,5,5146.8,1286.7,,Idle,0,20,FALSE,5,TRUE,6,Go Home,FALSE,FALSE,FALSE,FALSE,FALSE,FALSE,FALSE,FALSE,FALSE,FALSE,FALSE,FALSE,6.974219778,79.91415662,0.8,98.8,328,TRUE,1,1,FALSE,FALSE,FALSE,FALSE,,TRUE,FALSE,FALSE,Course Lock,49.2,,16.4,Calm,33,,1.12.8,Mavic Mini,1SDCH7G0169R0K,1SFLH6Q0AB03DJ,1SRCH7F014TAHX,1U5X071EXP6C9Y,78.8,0.4,9.8,8.772607,2.23694,0,0,Mavic Mini,1SDCH7G0169R0K,1SFLH6Q0AB03DJ,1SRCH7F014TAHX,1U5X071EXP6C9Y,DJI Fly,,1.12.8,CFF8582E-1E8B-BC20-99E7-D8E15FE198F7,1SDCH7G0169R0K,,,,,6.974222842,79.91418994,5,,
2/22/2024,16:29.5,2m 57.0s,177,6.974222131,79.91415639,4.5,4.5,5.9,54,1.6,0,0.316351,0,0.223694,0,0.223694,0,0,0,-2,-69.5,290.5,,Tripod,Drop Calibration,,14,5,TRUE,,Mavic Mini,TRUE,FALSE,,Smart,RC,FALSE,TRUE,FALSE,,,TRUE,,FALSE,FALSE,FALSE,FALSE,FALSE,FALSE,FALSE,FALSE,FALSE,FALSE,0,Follow Yaw,0,0,-55.9,304.1,FALSE,FALSE,FALSE,FALSE,FALSE,FALSE,,TRUE,Normal,,100,1024,1024,1024,1024,2,FALSE,FALSE,FALSE,FALSE,FALSE,0,FALSE,FALSE,FALSE,FALSE,87,7.755,1786,2056,7.737,FALSE,3.883,3.872,0.014,FALSE,FALSE,NA,94.5,94.2,94.4,0,0,2,0,5,5146.8,1286.7,,Idle,0,20,FALSE,5,TRUE,6,Go Home,FALSE,FALSE,FALSE,FALSE,FALSE,FALSE,FALSE,FALSE,FALSE,FALSE,FALSE,FALSE,6.974219778,79.91415662,0.8,98.8,328,TRUE,1,1,FALSE,FALSE,FALSE,FALSE,,TRUE,FALSE,FALSE,Course Lock,49.2,,16.4,Calm,33,,1.12.8,Mavic Mini,1SDCH7G0169R0K,1SFLH6Q0AB03DJ,1SRCH7F014TAHX,1U5X071EXP6C9Y,78.8,0.4,9.8,8.772607,2.23694,0,0,Mavic Mini,1SDCH7G0169R0K,1SFLH6Q0AB03DJ,1SRCH7F014TAHX,1U5X071EXP6C9Y,DJI Fly,,1.12.8,CFF8582E-1E8B-BC20-99E7-D8E15FE198F7,1SDCH7G0169R0K,,,,,6.974222842,79.91418994,5,,
