CUSTOM.date [local],CUSTOM.updateTime [local],OSD.flyTime,OSD.flyTime [s],OSD.latitude,OSD.longitude,OSD.height [ft],OSD.heightMax [ft],OSD.vpsHeight [ft],OSD.altitude [ft],OSD.mileage [ft],OSD.hSpeed [MPH],OSD.hSpeedMax [MPH],OSD.xSpeed [MPH],OSD.xSpeedMax [MPH],OSD.ySpeed [MPH],OSD.ySpeedMax [MPH],OSD.zSpeed [MPH],OSD.zSpeedMax [MPH],OSD.pitch,OSD.roll,OSD.yaw,OSD.yaw [360],OSD.directionOfTravel,OSD.flycState,OSD.flycCommand,OSD.flightAction,OSD.gpsNum,OSD.gpsLevel,OSD.isGPSUsed,OSD.nonGPSCause,OSD.droneType,OSD.isSwaveWork,OSD.waveError,OSD.goHomeStatus,OSD.batteryType,OSD.ctrlDevice,OSD.isOnGround,OSD.isMotorOn,OSD.isMotorBlocked,OSD.motorStartFailedCause,OSD.motorFailReason,OSD.isImuPreheated,OSD.imuInitFailReason,OSD.isAcceletorOverRange,OSD.isBarometerDeadInAir,OSD.isCompassError,OSD.isGoHomeHeightModified,OSD.canIOCWork,OSD.isNotEnoughForce,OSD.isOutOfLimit,OSD.isPropellerCatapult,OSD.isVibrating,OSD.isVisionUsed,OSD.voltageWarning,GIMBAL.mode,GIMBAL.pitch,GIMBAL.roll,GIMBAL.yaw,GIMBAL.yaw [360],GIMBAL.isPitchAtLimit,GIMBAL.isRollAtLimit,GIMBAL.isYawAtLimit,GIMBAL.isStuck,CAMERA.isPhoto,CAMERA.isVideo,CAMERA.filename,CAMERA.sdCardIsInserted,CAMERA.sdCardState,RC.downlinkSignal,RC.uplinkSignal,RC.aileron,RC.elevator,RC.throttle,RC.rudder,RC.mode,RC.goHomeDepressed,RC.recordDepressed,RC.shutterDepressed,RC.playbackDepressed,RC.wheelDepressed,RC.wheelOffset,RC.custom1Depressed,RC.custom2Depressed,RC.custom3Depressed,RC.custom4Depressed,BATTERY.chargeLevel,BATTERY.currentPV [V],BATTERY.currentCapacity [mAh],BATTERY.fullCapacity [mAh],BATTERY.voltage [V],BATTERY.isCellVoltageEstimated,BATTERY.cellVoltage1 [V],BATTERY.cellVoltage2 [V],BATTERY.maxCellVoltageDeviation,BATTERY.isCellVoltageDeviationHigh,BATTERY.isVoltageLow,BATTERY.current [A],BATTERY.temperature [F],BATTERY.minTemperature [F],BATTERY.maxTemperature [F],BATTERY.usefulTime [s],BATTERY.goHomeTime [s],BATTERY.landTime [s],BATTERY.goHomeBattery,BATTERY.landBattery,BATTERY.safeFlyRadius,BATTERY.volumeConsume,BATTERY.status,BATTERY.goHomeStatus,BATTERY.goHomeCountdown,BATTERY.lowWarning,BATTERY.lowWarningGoHome,BATTERY.seriousLowWarning,BATTERY.seriousLowWarningLanding,BATTERY.timesCharged,MC.failSafeAction,MC.isObstacleAvoidanceEnabled,MC.isCollisionAvoidanceEnabled,MC.isRthObstacleAvoidanceEnabled,MC.isBraking,MC.isAvoidingObstacle,MC.isAvoidingActiveObstacle,MC.isAscentLimitedByObstacle,MC.isLandingConfirmationNeeded,MC.atLowAltitudeLimit,MC.atDistanceLimit,MC.atAirportAltitudeLimit,MC.atAirportBoundary,HOME.latitude,HOME.longitude,HOME.distance [ft],HOME.height [ft],HOME.heightLimit [ft],HOME.isHomeRecord,HOME.goHomeMode,HOME.aircraftHeadDirection,HOME.isDynamicHomePointEnabled,HOME.isReachedLimitDistance,HOME.isReachedLimitHeight,HOME.isCompassCalibrating,HOME.compassCalibrationState,HOME.isMultipleFlightModeEnabled,HOME.isBeginnerMode,HOME.isIOCEnabled,HOME.iocMode,HOME.goHomeHeight [ft],HOME.courseLockAngle,HOME.forceLandingHeight [ft],HOME.wind,HOME.dataRecorderFileIndex,RECOVER.appType,RECOVER.appVersion,RECOVER.aircraftName,RECOVER.aircraftSerial,RECOVER.cameraSerial,RECOVER.rcSerial,RECOVER.batterySerial,DETAILS.totalTime [s],DETAILS.totalDistance [ft],DETAILS.maxHeight [ft],DETAILS.maxHorizontalSpeed [MPH],DETAILS.maxVerticalSpeed [MPH],DETAILS.photoNum,DETAILS.videoTime [s],DETAILS.aircraftName,DETAILS.aircraftSerial,DETAILS.cameraSerial,DETAILS.rcSerial,DETAILS.batterySerial,DETAILS.appName,DETAILS.appType,DETAILS.appVersion,DETAILS.guid,SERIAL.flightController,SERIAL.camera,SERIAL.gimbal,SERIAL.rc,SERIAL.battery,APPGPS.latitude,APPGPS.longitude,APPGPS.accuracy,APP.tip,APP.warning
2/14/2024,00:20.0,0m 31.8s,31.8,6.974142919,79.91419822,0,0,,51,0,0,0,0,0,0,0,0,0,4.9,2.5,-50.2,309.8,,Tripod,Other,Takeoff (RC Assisted),12,5,TRUE,,Mavic Mini,FALSE,FALSE,,Smart,RC,TRUE,TRUE,FALSE,,,TRUE,,FALSE,FALSE,FALSE,FALSE,FALSE,FALSE,FALSE,FALSE,FALSE,FALSE,0,Follow Yaw,0,0,-40.8,319.2,FALSE,FALSE,FALSE,FALSE,FALSE,FALSE,,TRUE,Normal,,100,1024,1024,1024,1024,2,FALSE,FALSE,FALSE,FALSE,FALSE,0,FALSE,FALSE,FALSE,FALSE,35,7.22,724,2095,7.22,TRUE,3.61,3.61,,FALSE,FALSE,NA,84.2,84.2,84.2,,,,,,,,,Idle,,,TRUE,,FALSE,9,Go Home,FALSE,FALSE,FALSE,FALSE,FALSE,FALSE,FALSE,FALSE,FALSE,FALSE,FALSE,FALSE,,,,,,FALSE,,,FALSE,FALSE,FALSE,FALSE,,FALSE,FALSE,FALSE,,,,,Calm,,,1.12.8,Mavic Mini,1SDCH7G0169R0K,1SFLH6Q0AB03DJ,1SRCH7F014TAHX,1U5X071EXP5ZJG,71.9,0.1,3.2,2.916522,2.460634,0,0,Mavic Mini,1SDCH7G0169R0K,1SFLH6Q0AB03DJ,1SRCH7F014TAHX,1U5X071EXP5ZJG,DJI Fly,,1.12.8,3ABFAB4C-A371-3B9E-BA2F-48C456B31AE4,1SDCH7G0169R0K,,,,,,,,Flight mode changed to Tripod.,
2/14/2024,59:48.3,0m 31.9s,31.9,6.974142861,79.91419822,0,0,,51,0,0,0,0,0,0,0,0,0,4.9,2.5,-50.2,309.8,,Starting Motors,Other,Takeoff (RC Assisted),12,5,TRUE,,Mavic Mini,FALSE,FALSE,,Smart,RC,TRUE,TRUE,FALSE,,,TRUE,,FALSE,FALSE,FALSE,FALSE,FALSE,FALSE,FALSE,FALSE,FALSE,FALSE,0,Follow Yaw,0,0,-40.8,319.2,FALSE,FALSE,FALSE,FALSE,FALSE,FALSE,,TRUE,Normal,,100,1024,1024,1024,1024,2,FALSE,FALSE,FALSE,FALSE,FALSE,0,FALSE,FALSE,FALSE,FALSE,35,7.221,724,2095,7.221,FALSE,3.611,3.61,0.001,FALSE,FALSE,NA,84.2,84.2,84.2,,,,,,,,,Idle,,,TRUE,,FALSE,9,Go Home,FALSE,FALSE,FALSE,FALSE,FALSE,FALSE,FALSE,FALSE,FALSE,FALSE,FALSE,FALSE,,,,,,FALSE,,,FALSE,FALSE,FALSE,FALSE,,FALSE,FALSE,FALSE,,,,,Calm,,,1.12.8,Mavic Mini,1SDCH7G0169R0K,1SFLH6Q0AB03DJ,1SRCH7F014TAHX,1U5X071EXP5ZJG,71.9,0.1,3.2,2.916522,2.460634,0,0,Mavic Mini,1SDCH7G0169R0K,1SFLH6Q0AB03DJ,1SRCH7F014TAHX,1U5X071EXP5ZJG,DJI Fly,,1.12.8,3ABFAB4C-A371-3B9E-BA2F-48C456B31AE4,1SDCH7G0169R0K,,,,,,,,Flight mode changed to Starting Motors.,
2/14/2024,59:48.3,0m 32.0s,32,6.974142826,79.91419824,0,0,0.3,51,0,0,0,0,0,0,0,0,0,4.9,2.5,-50.2,309.8,,Starting Motors,Other,Takeoff (RC Assisted),12,5,TRUE,,Mavic Mini,TRUE,FALSE,,Smart,RC,TRUE,TRUE,FALSE,,,TRUE,,FALSE,FALSE,FALSE,FALSE,FALSE,FALSE,FALSE,FALSE,FALSE,FALSE,0,Follow Yaw,0,0,-40.8,319.2,FALSE,FALSE,FALSE,FALSE,FALSE,FALSE,,TRUE,Normal,,100,1024,1024,1024,1024,2,FALSE,FALSE,FALSE,FALSE,FALSE,0,FALSE,FALSE,FALSE,FALSE,35,7.221,724,2095,7.216,FALSE,3.611,3.61,0.001,FALSE,FALSE,NA,84.2,84.2,84.2,0,5,0,0,5,2782.1,695.53,,Idle,0,20,FALSE,5,TRUE,9,Go Home,FALSE,FALSE,FALSE,FALSE,FALSE,FALSE,FALSE,FALSE,FALSE,FALSE,FALSE,FALSE,6.974157555,79.91419755,5.3,144.1,328,TRUE,1,1,FALSE,FALSE,FALSE,FALSE,,TRUE,FALSE,FALSE,Course Lock,246,75.9,16.4,Calm,24,,1.12.8,Mavic Mini,1SDCH7G0169R0K,1SFLH6Q0AB03DJ,1SRCH7F014TAHX,1U5X071EXP5ZJG,71.9,0.1,3.2,2.916522,2.460634,0,0,Mavic Mini,1SDCH7G0169R0K,1SFLH6Q0AB03DJ,1SRCH7F014TAHX,1U5X071EXP5ZJG,DJI Fly,,1.12.8,3ABFAB4C-A371-3B9E-BA2F-48C456B31AE4,1SDCH7G0169R0K,,,,,,,,Data Recorder File Index is 24.; Set Return to Home (RTH) altitude to 75 m (246 ft).; Set maximum flight altitude to 100 m (328 ft).,
2/14/2024,59:48.4,0m 32.1s,32.1,6.974142853,79.91419828,0,0,0.3,51,0,0,0,0,0,0,0,0,0,4.9,2.5,-50.2,309.8,,Starting Motors,Other,Takeoff (RC Assisted),12,5,TRUE,,Mavic Mini,TRUE,FALSE,,Smart,RC,TRUE,TRUE,FALSE,,,TRUE,,FALSE,FALSE,FALSE,FALSE,FALSE,FALSE,FALSE,FALSE,FALSE,FALSE,0,Follow Yaw,0,0,-40.8,319.2,FALSE,FALSE,FALSE,FALSE,FALSE,FALSE,,TRUE,Normal,,100,1024,1024,1024,1024,2,FALSE,FALSE,FALSE,FALSE,FALSE,0,FALSE,FALSE,FALSE,FALSE,35,7.221,724,2095,7.216,FALSE,3.611,3.61,0.001,FALSE,FALSE,NA,84.2,84.2,84.2,0,5,0,0,5,2782.1,695.53,,Idle,0,20,FALSE,5,TRUE,9,Go Home,FALSE,FALSE,FALSE,FALSE,FALSE,FALSE,FALSE,FALSE,FALSE,FALSE,FALSE,FALSE,6.974157555,79.91419755,5.3,144.1,328,TRUE,1,1,FALSE,FALSE,FALSE,FALSE,,TRUE,FALSE,FALSE,Course Lock,246,75.9,16.4,Calm,24,,1.12.8,Mavic Mini,1SDCH7G0169R0K,1SFLH6Q0AB03DJ,1SRCH7F014TAHX,1U5X071EXP5ZJG,71.9,0.1,3.2,2.916522,2.460634,0,0,Mavic Mini,1SDCH7G0169R0K,1SFLH6Q0AB03DJ,1SRCH7F014TAHX,1U5X071EXP5ZJG,DJI Fly,,1.12.8,3ABFAB4C-A371-3B9E-BA2F-48C456B31AE4,1SDCH7G0169R0K,,,,,,,,,
2/14/2024,59:48.5,0m 32.2s,32.2,6.974142835,79.91419832,0,0,0.3,51,0,0,0,0,0,0,0,0,0,4.9,2.5,-50.2,309.8,,Starting Motors,Other,Takeoff (RC Assisted),12,5,TRUE,,Mavic Mini,TRUE,FALSE,,Smart,RC,TRUE,TRUE,FALSE,,,TRUE,,FALSE,FALSE,FALSE,FALSE,FALSE,FALSE,FALSE,FALSE,FALSE,FALSE,0,Follow Yaw,0,0,-40.8,319.2,FALSE,FALSE,FALSE,FALSE,FALSE,FALSE,,TRUE,Normal,,100,1024,1024,1024,1024,2,FALSE,FALSE,FALSE,FALSE,FALSE,0,FALSE,FALSE,FALSE,FALSE,35,7.221,724,2095,7.216,FALSE,3.611,3.61,0.001,FALSE,FALSE,NA,84.2,84.2,84.2,0,5,0,0,5,2782.1,695.53,,Idle,0,20,FALSE,5,TRUE,9,Go Home,FALSE,FALSE,FALSE,FALSE,FALSE,FALSE,FALSE,FALSE,FALSE,FALSE,FALSE,FALSE,6.974157555,79.91419755,5.3,144.1,328,TRUE,1,1,FALSE,FALSE,FALSE,FALSE,,TRUE,FALSE,FALSE,Course Lock,246,75.9,16.4,Calm,24,,1.12.8,Mavic Mini,1SDCH7G0169R0K,1SFLH6Q0AB03DJ,1SRCH7F014TAHX,1U5X071EXP5ZJG,71.9,0.1,3.2,2.916522,2.460634,0,0,Mavic Mini,1SDCH7G0169R0K,1SFLH6Q0AB03DJ,1SRCH7F014TAHX,1U5X071EXP5ZJG,DJI Fly,,1.12.8,3ABFAB4C-A371-3B9E-BA2F-48C456B31AE4,1SDCH7G0169R0K,,,,,,,,,
2/14/2024,59:48.7,0m 32.3s,32.3,6.974142796,79.91419838,0,0,0.3,51,0,0,0,0,0,0,0,0,0,4.9,2.6,-50.3,309.7,,Starting Motors,Other,Takeoff (RC Assisted),12,5,TRUE,,Mavic Mini,TRUE,FALSE,,Smart,RC,TRUE,TRUE,FALSE,,,TRUE,,FALSE,FALSE,FALSE,FALSE,FALSE,FALSE,FALSE,FALSE,FALSE,FALSE,0,Follow Yaw,0,0,-40.8,319.2,FALSE,FALSE,FALSE,FALSE,FALSE,FALSE,,TRUE,Normal,,100,1024,1024,1024,1024,2,FALSE,FALSE,FALSE,FALSE,FALSE,0,FALSE,FALSE,FALSE,FALSE,35,7.221,724,2095,7.216,FALSE,3.611,3.61,0.001,FALSE,FALSE,NA,84.2,84.2,84.2,0,5,0,0,5,2782.1,695.53,,Idle,0,20,FALSE,5,TRUE,9,Go Home,FALSE,FALSE,FALSE,FALSE,FALSE,FALSE,FALSE,FALSE,FALSE,FALSE,FALSE,FALSE,6.974157555,79.91419755,5.3,144.1,328,TRUE,1,1,FALSE,FALSE,FALSE,FALSE,,TRUE,FALSE,FALSE,Course Lock,246,75.9,16.4,Calm,24,,1.12.8,Mavic Mini,1SDCH7G0169R0K,1SFLH6Q0AB03DJ,1SRCH7F014TAHX,1U5X071EXP5ZJG,71.9,0.1,3.2,2.916522,2.460634,0,0,Mavic Mini,1SDCH7G0169R0K,1SFLH6Q0AB03DJ,1SRCH7F014TAHX,1U5X071EXP5ZJG,DJI Fly,,1.12.8,3ABFAB4C-A371-3B9E-BA2F-48C456B31AE4,1SDCH7G0169R0K,,,,,,,,,
2/14/2024,59:48.7,0m 32.4s,32.4,6.974142774,79.91419841,0,0,0.3,51,0,0,0,0,0,0,0,0,0,4.9,2.5,-50.5,309.5,,Starting Motors,Other,Takeoff (RC Assisted),11,4,TRUE,,Mavic Mini,TRUE,FALSE,,Smart,RC,TRUE,TRUE,FALSE,,,TRUE,,FALSE,FALSE,FALSE,FALSE,FALSE,FALSE,FALSE,FALSE,FALSE,FALSE,0,Follow Yaw,0,0,-40.9,319.1,FALSE,FALSE,FALSE,FALSE,FALSE,FALSE,,TRUE,Normal,,100,1024,1024,1024,1024,2,FALSE,FALSE,FALSE,FALSE,FALSE,0,FALSE,FALSE,FALSE,FALSE,35,7.221,724,2095,7.216,FALSE,3.611,3.61,0.001,FALSE,FALSE,NA,84.2,84.2,84.2,0,5,0,0,5,2782.1,695.53,,Idle,0,20,FALSE,5,TRUE,9,Go Home,FALSE,FALSE,FALSE,FALSE,FALSE,FALSE,FALSE,FALSE,FALSE,FALSE,FALSE,FALSE,6.974157555,79.91419755,5.4,144.1,328,TRUE,1,1,FALSE,FALSE,FALSE,FALSE,,TRUE,FALSE,FALSE,Course Lock,246,75.9,16.4,Calm,24,,1.12.8,Mavic Mini,1SDCH7G0169R0K,1SFLH6Q0AB03DJ,1SRCH7F014TAHX,1U5X071EXP5ZJG,71.9,0.1,3.2,2.916522,2.460634,0,0,Mavic Mini,1SDCH7G0169R0K,1SFLH6Q0AB03DJ,1SRCH7F014TAHX,1U5X071EXP5ZJG,DJI Fly,,1.12.8,3ABFAB4C-A371-3B9E-BA2F-48C456B31AE4,1SDCH7G0169R0K,,,,,,,,,
2/14/2024,59:48.9,0m 32.5s,32.5,6.974142817,79.91419842,0,0,0.3,51,0.1,0,0,0,0,0,0,0,0,4.9,2.5,-50.4,309.6,,Starting Motors,Other,Takeoff (RC Assisted),11,4,TRUE,,Mavic Mini,TRUE,FALSE,,Smart,RC,TRUE,TRUE,FALSE,,,TRUE,,FALSE,FALSE,FALSE,FALSE,FALSE,FALSE,FALSE,FALSE,FALSE,FALSE,0,Follow Yaw,0,0,-40.9,319.1,FALSE,FALSE,FALSE,FALSE,FALSE,FALSE,,TRUE,Normal,,100,1024,1024,1024,1024,2,FALSE,FALSE,FALSE,FALSE,FALSE,0,FALSE,FALSE,FALSE,FALSE,35,7.221,724,2095,7.216,FALSE,3.611,3.61,0.001,FALSE,FALSE,NA,84.2,84.2,84.2,0,5,0,0,5,2782.1,695.53,,Idle,0,20,FALSE,5,TRUE,9,Go Home,FALSE,FALSE,FALSE,FALSE,FALSE,FALSE,FALSE,FALSE,FALSE,FALSE,FALSE,FALSE,6.974157555,79.91419755,5.3,144.1,328,TRUE,1,1,FALSE,FALSE,FALSE,FALSE,,TRUE,FALSE,FALSE,Course Lock,246,75.9,16.4,Calm,24,,1.12.8,Mavic Mini,1SDCH7G0169R0K,1SFLH6Q0AB03DJ,1SRCH7F014TAHX,1U5X071EXP5ZJG,71.9,0.1,3.2,2.916522,2.460634,0,0,Mavic Mini,1SDCH7G0169R0K,1SFLH6Q0AB03DJ,1SRCH7F014TAHX,1U5X071EXP5ZJG,DJI Fly,,1.12.8,3ABFAB4C-A371-3B9E-BA2F-48C456B31AE4,1SDCH7G0169R0K,,,,,,,,,
2/14/2024,59:48.9,0m 32.6s,32.6,6.974142802,79.91419844,0,0,0.3,51,0.1,0,0,0,0,0,0,0,0,4.9,2.5,-50.4,309.6,,Starting Motors,Other,Takeoff (RC Assisted),11,4,TRUE,,Mavic Mini,TRUE,FALSE,,Smart,RC,TRUE,TRUE,FALSE,,,TRUE,,FALSE,FALSE,FALSE,FALSE,FALSE,FALSE,FALSE,FALSE,FALSE,FALSE,0,Follow Yaw,0,0,-41,319,FALSE,FALSE,FALSE,FALSE,FALSE,FALSE,,TRUE,Normal,,100,1024,1024,1024,1024,2,FALSE,FALSE,FALSE,FALSE,FALSE,0,FALSE,FALSE,FALSE,FALSE,35,7.198,723,2095,7.216,FALSE,3.598,3.6,0.002,FALSE,FALSE,NA,84.2,84.2,84.2,0,5,0,0,5,2782.1,695.53,,Idle,0,20,FALSE,5,TRUE,9,Go Home,FALSE,FALSE,FALSE,FALSE,FALSE,FALSE,FALSE,FALSE,FALSE,FALSE,FALSE,FALSE,6.974157555,79.91419755,5.3,144.1,328,TRUE,1,1,FALSE,FALSE,FALSE,FALSE,,TRUE,FALSE,FALSE,Course Lock,246,75.9,16.4,Calm,24,,1.12.8,Mavic Mini,1SDCH7G0169R0K,1SFLH6Q0AB03DJ,1SRCH7F014TAHX,1U5X071EXP5ZJG,71.9,0.1,3.2,2.916522,2.460634,0,0,Mavic Mini,1SDCH7G0169R0K,1SFLH6Q0AB03DJ,1SRCH7F014TAHX,1U5X071EXP5ZJG,DJI Fly,,1.12.8,3ABFAB4C-A371-3B9E-BA2F-48C456B31AE4,1SDCH7G0169R0K,,,,,,,,,
2/14/2024,59:49.2,0m 32.7s,32.7,6.974142761,79.91419848,0,0,0.3,51,0.1,0,0,0,0,0,0,0,0,4.9,2.5,-50.5,309.5,,Starting Motors,Other,Takeoff (RC Assisted),11,4,TRUE,,Mavic Mini,TRUE,FALSE,,Smart,RC,TRUE,TRUE,FALSE,,,TRUE,,FALSE,FALSE,FALSE,FALSE,FALSE,FALSE,FALSE,FALSE,FALSE,FALSE,0,Follow Yaw,0,0,-41,319,FALSE,FALSE,FALSE,FALSE,FALSE,FALSE,,TRUE,Normal,,100,1024,1024,1024,1024,2,FALSE,FALSE,FALSE,FALSE,FALSE,0,FALSE,FALSE,FALSE,FALSE,35,7.198,723,2095,7.216,FALSE,3.598,3.6,0.002,FALSE,FALSE,NA,84.2,84.2,84.2,0,5,0,0,5,2782.1,695.53,,Idle,0,20,FALSE,5,TRUE,9,Go Home,FALSE,FALSE,FALSE,FALSE,FALSE,FALSE,FALSE,FALSE,FALSE,FALSE,FALSE,FALSE,6.974157555,79.91419755,5.4,144.1,328,TRUE,1,1,FALSE,FALSE,FALSE,FALSE,,TRUE,FALSE,FALSE,Course Lock,246,75.9,16.4,Calm,24,,1.12.8,Mavic Mini,1SDCH7G0169R0K,1SFLH6Q0AB03DJ,1SRCH7F014TAHX,1U5X071EXP5ZJG,71.9,0.1,3.2,2.916522,2.460634,0,0,Mavic Mini,1SDCH7G0169R0K,1SFLH6Q0AB03DJ,1SRCH7F014TAHX,1U5X071EXP5ZJG,DJI Fly,,1.12.8,3ABFAB4C-A371-3B9E-BA2F-48C456B31AE4,1SDCH7G0169R0K,,,,,,,,,
2/14/2024,59:49.2,0m 32.8s,32.8,6.974142716,79.9141985,0,0,0.3,51,0.1,0,0,0,0,0,0,0,0,4.9,2.5,-50.4,309.6,,Starting Motors,Other,Takeoff (RC Assisted),11,4,TRUE,,Mavic Mini,TRUE,FALSE,,Smart,RC,TRUE,TRUE,FALSE,,,TRUE,,FALSE,FALSE,FALSE,FALSE,FALSE,FALSE,FALSE,FALSE,FALSE,FALSE,0,Follow Yaw,0,0,-41,319,FALSE,FALSE,FALSE,FALSE,FALSE,FALSE,,TRUE,Normal,,100,1024,1024,1024,1024,2,FALSE,FALSE,FALSE,FALSE,FALSE,0,FALSE,FALSE,FALSE,FALSE,35,7.198,723,2095,7.216,FALSE,3.598,3.6,0.002,FALSE,FALSE,NA,84.2,84.2,84.2,0,5,0,0,5,2782.1,695.53,,Idle,0,20,FALSE,5,TRUE,9,Go Home,FALSE,FALSE,FALSE,FALSE,FALSE,FALSE,FALSE,FALSE,FALSE,FALSE,FALSE,FALSE,6.974157555,79.91419755,5.4,144.1,328,TRUE,1,1,FALSE,FALSE,FALSE,FALSE,,TRUE,FALSE,FALSE,Course Lock,246,75.9,16.4,Calm,24,,1.12.8,Mavic Mini,1SDCH7G0169R0K,1SFLH6Q0AB03DJ,1SRCH7F014TAHX,1U5X071EXP5ZJG,71.9,0.1,3.2,2.916522,2.460634,0,0,Mavic Mini,1SDCH7G0169R0K,1SFLH6Q0AB03DJ,1SRCH7F014TAHX,1U5X071EXP5ZJG,DJI Fly,,1.12.8,3ABFAB4C-A371-3B9E-BA2F-48C456B31AE4,1SDCH7G0169R0K,,,,,,,,,
2/14/2024,59:49.3,0m 32.9s,32.9,6.974142659,79.9141985,0,0,0.3,51,0.1,0,0,0,0,0,0,0,0,4.9,2.5,-50.4,309.6,,Starting Motors,Other,Takeoff (RC Assisted),11,4,TRUE,,Mavic Mini,TRUE,FALSE,,Smart,RC,TRUE,TRUE,FALSE,,,TRUE,,FALSE,FALSE,FALSE,FALSE,FALSE,FALSE,FALSE,FALSE,FALSE,FALSE,0,Follow Yaw,0,0,-41,319,FALSE,FALSE,FALSE,FALSE,FALSE,FALSE,,TRUE,Normal,,100,1024,1024,1024,1024,2,FALSE,FALSE,FALSE,FALSE,FALSE,0,FALSE,FALSE,FALSE,FALSE,35,7.198,723,2095,7.216,FALSE,3.598,3.6,0.002,FALSE,FALSE,NA,84.2,84.2,84.2,0,5,0,0,5,2782.1,695.53,,Idle,0,20,FALSE,5,TRUE,9,Go Home,FALSE,FALSE,FALSE,FALSE,FALSE,FALSE,FALSE,FALSE,FALSE,FALSE,FALSE,FALSE,6.974157555,79.91419755,5.4,144.1,328,TRUE,1,1,FALSE,FALSE,FALSE,FALSE,,TRUE,FALSE,FALSE,Course Lock,246,75.9,16.4,Calm,24,,1.12.8,Mavic Mini,1SDCH7G0169R0K,1SFLH6Q0AB03DJ,1SRCH7F014TAHX,1U5X071EXP5ZJG,71.9,0.1,3.2,2.916522,2.460634,0,0,Mavic Mini,1SDCH7G0169R0K,1SFLH6Q0AB03DJ,1SRCH7F014TAHX,1U5X071EXP5ZJG,DJI Fly,,1.12.8,3ABFAB4C-A371-3B9E-BA2F-48C456B31AE4,1SDCH7G0169R0K,,,,,,,,,
2/14/2024,59:49.4,0m 33.0s,33,6.97414255,79.9141985,0,0,0.3,51,0.2,0,0,0,0,0,0,0,0,4.9,2.5,-50.4,309.6,,Manual Takeoff,Other,Takeoff (RC Assisted),11,4,TRUE,,Mavic Mini,TRUE,FALSE,,Smart,RC,TRUE,TRUE,FALSE,,,TRUE,,FALSE,FALSE,FALSE,FALSE,FALSE,FALSE,FALSE,FALSE,FALSE,FALSE,0,Follow Yaw,0,0,-41,319,FALSE,FALSE,FALSE,FALSE,FALSE,FALSE,,TRUE,Normal,,100,1024,1024,1024,1024,2,FALSE,FALSE,FALSE,FALSE,FALSE,0,FALSE,FALSE,FALSE,FALSE,35,7.198,723,2095,7.203,FALSE,3.598,3.6,0.002,FALSE,FALSE,NA,84.2,84.2,84.2,0,5,0,0,5,2810.4,702.6,,Idle,0,20,FALSE,5,TRUE,9,Go Home,FALSE,FALSE,FALSE,FALSE,FALSE,FALSE,FALSE,FALSE,FALSE,FALSE,FALSE,FALSE,6.974157555,79.91419755,5.4,144.1,328,TRUE,1,1,FALSE,FALSE,FALSE,FALSE,,TRUE,FALSE,FALSE,Course Lock,246,75.9,16.4,Calm,24,,1.12.8,Mavic Mini,1SDCH7G0169R0K,1SFLH6Q0AB03DJ,1SRCH7F014TAHX,1U5X071EXP5ZJG,71.9,0.1,3.2,2.916522,2.460634,0,0,Mavic Mini,1SDCH7G0169R0K,1SFLH6Q0AB03DJ,1SRCH7F014TAHX,1U5X071EXP5ZJG,DJI Fly,,1.12.8,3ABFAB4C-A371-3B9E-BA2F-48C456B31AE4,1SDCH7G0169R0K,,,,,,,,Flight mode changed to Manual Takeoff.,
2/14/2024,59:49.5,0m 33.1s,33.1,6.97414254,79.91419854,0,0,0.3,51,0.2,0,0,0,0,0,0,0,0,4.9,2.5,-50.4,309.6,,Manual Takeoff,Other,Takeoff (RC Assisted),11,4,TRUE,,Mavic Mini,TRUE,FALSE,,Smart,RC,TRUE,TRUE,FALSE,,,TRUE,,FALSE,FALSE,FALSE,FALSE,FALSE,FALSE,FALSE,FALSE,FALSE,FALSE,0,Follow Yaw,0,0,-41,319,FALSE,FALSE,FALSE,FALSE,FALSE,FALSE,,TRUE,Normal,,100,1024,1024,1024,1024,2,FALSE,FALSE,FALSE,FALSE,FALSE,0,FALSE,FALSE,FALSE,FALSE,35,7.198,723,2095,7.203,FALSE,3.598,3.6,0.002,FALSE,FALSE,NA,84.2,84.2,84.2,0,5,0,0,5,2810.4,702.6,,Idle,0,20,FALSE,5,TRUE,9,Go Home,FALSE,FALSE,FALSE,FALSE,FALSE,FALSE,FALSE,FALSE,FALSE,FALSE,FALSE,FALSE,6.974157555,79.91419755,5.4,144.1,328,TRUE,1,1,FALSE,FALSE,FALSE,FALSE,,TRUE,FALSE,FALSE,Course Lock,246,75.9,16.4,Calm,24,,1.12.8,Mavic Mini,1SDCH7G0169R0K,1SFLH6Q0AB03DJ,1SRCH7F014TAHX,1U5X071EXP5ZJG,71.9,0.1,3.2,2.916522,2.460634,0,0,Mavic Mini,1SDCH7G0169R0K,1SFLH6Q0AB03DJ,1SRCH7F014TAHX,1U5X071EXP5ZJG,DJI Fly,,1.12.8,3ABFAB4C-A371-3B9E-BA2F-48C456B31AE4,1SDCH7G0169R0K,,,,,,,,,
2/14/2024,59:49.6,0m 33.2s,33.2,6.974142539,79.91419856,0,0,0.3,51,0.2,0,0,0,0,0,0,0,0,4.9,2.5,-50.4,309.6,,Manual Takeoff,Other,Takeoff (RC Assisted),11,4,TRUE,,Mavic Mini,TRUE,FALSE,,Smart,RC,TRUE,TRUE,FALSE,,,TRUE,,FALSE,FALSE,FALSE,FALSE,FALSE,FALSE,FALSE,FALSE,FALSE,FALSE,0,Follow Yaw,0,0,-41,319,FALSE,FALSE,FALSE,FALSE,FALSE,FALSE,,TRUE,Normal,,100,1024,1024,1024,1024,2,FALSE,FALSE,FALSE,FALSE,FALSE,0,FALSE,FALSE,FALSE,FALSE,35,7.198,723,2095,7.203,FALSE,3.598,3.6,0.002,FALSE,FALSE,NA,84.2,84.2,84.2,0,5,0,0,5,2810.4,702.6,,Idle,0,20,FALSE,5,TRUE,9,Go Home,FALSE,FALSE,FALSE,FALSE,FALSE,FALSE,FALSE,FALSE,FALSE,FALSE,FALSE,FALSE,6.974157555,79.91419755,5.4,144.1,328,TRUE,1,1,FALSE,FALSE,FALSE,FALSE,,TRUE,FALSE,FALSE,Course Lock,246,75.9,16.4,Calm,24,,1.12.8,Mavic Mini,1SDCH7G0169R0K,1SFLH6Q0AB03DJ,1SRCH7F014TAHX,1U5X071EXP5ZJG,71.9,0.1,3.2,2.916522,2.460634,0,0,Mavic Mini,1SDCH7G0169R0K,1SFLH6Q0AB03DJ,1SRCH7F014TAHX,1U5X071EXP5ZJG,DJI Fly,,1.12.8,3ABFAB4C-A371-3B9E-BA2F-48C456B31AE4,1SDCH7G0169R0K,,,,,,,,,
2/14/2024,59:49.7,0m 33.3s,33.3,6.974142547,79.91419856,0,0,0.3,51,0.2,0,0,0,0,0,0,0,0,4.9,2.5,-50.4,309.6,,Manual Takeoff,Other,Takeoff (RC Assisted),11,4,TRUE,,Mavic Mini,TRUE,FALSE,,Smart,RC,TRUE,TRUE,FALSE,,,TRUE,,FALSE,FALSE,FALSE,FALSE,FALSE,FALSE,FALSE,FALSE,FALSE,FALSE,0,Follow Yaw,0,0,-41,319,FALSE,FALSE,FALSE,FALSE,FALSE,FALSE,,TRUE,Normal,,100,1024,1024,1024,1024,2,FALSE,FALSE,FALSE,FALSE,FALSE,0,FALSE,FALSE,FALSE,FALSE,35,7.198,723,2095,7.203,FALSE,3.598,3.6,0.002,FALSE,FALSE,NA,84.2,84.2,84.2,0,5,0,0,5,2810.4,702.6,,Idle,0,20,FALSE,5,TRUE,9,Go Home,FALSE,FALSE,FALSE,FALSE,FALSE,FALSE,FALSE,FALSE,FALSE,FALSE,FALSE,FALSE,6.974157555,79.91419755,5.4,144.1,328,TRUE,1,1,FALSE,FALSE,FALSE,FALSE,,TRUE,FALSE,FALSE,Course Lock,246,75.9,16.4,Calm,24,,1.12.8,Mavic Mini,1SDCH7G0169R0K,1SFLH6Q0AB03DJ,1SRCH7F014TAHX,1U5X071EXP5ZJG,71.9,0.1,3.2,2.916522,2.460634,0,0,Mavic Mini,1SDCH7G0169R0K,1SFLH6Q0AB03DJ,1SRCH7F014TAHX,1U5X071EXP5ZJG,DJI Fly,,1.12.8,3ABFAB4C-A371-3B9E-BA2F-48C456B31AE4,1SDCH7G0169R0K,,,,,,,,,
2/14/2024,59:49.8,0m 33.4s,33.4,6.974142628,79.91419858,0,0,0.3,51,0.2,0,0,0,0,0,0,0,0,4.9,2.5,-50.4,309.6,,Manual Takeoff,Other,Takeoff (RC Assisted),11,4,TRUE,,Mavic Mini,TRUE,FALSE,,Smart,RC,TRUE,TRUE,FALSE,,,TRUE,,FALSE,FALSE,FALSE,FALSE,FALSE,FALSE,FALSE,FALSE,FALSE,FALSE,0,Follow Yaw,0,0,-41,319,FALSE,FALSE,FALSE,FALSE,FALSE,FALSE,,TRUE,Normal,,100,1024,1024,1024,1024,2,FALSE,FALSE,FALSE,FALSE,FALSE,0,FALSE,FALSE,FALSE,FALSE,35,7.198,723,2095,7.203,FALSE,3.598,3.6,0.002,FALSE,FALSE,NA,84.2,84.2,84.2,0,5,0,0,5,2810.4,702.6,,Idle,0,20,FALSE,5,TRUE,9,Go Home,FALSE,FALSE,FALSE,FALSE,FALSE,FALSE,FALSE,FALSE,FALSE,FALSE,FALSE,FALSE,6.974157555,79.91419755,5.4,144.1,328,TRUE,1,1,FALSE,FALSE,FALSE,FALSE,,TRUE,FALSE,FALSE,Course Lock,246,75.9,16.4,Calm,24,,1.12.8,Mavic Mini,1SDCH7G0169R0K,1SFLH6Q0AB03DJ,1SRCH7F014TAHX,1U5X071EXP5ZJG,71.9,0.1,3.2,2.916522,2.460634,0,0,Mavic Mini,1SDCH7G0169R0K,1SFLH6Q0AB03DJ,1SRCH7F014TAHX,1U5X071EXP5ZJG,DJI Fly,,1.12.8,3ABFAB4C-A371-3B9E-BA2F-48C456B31AE4,1SDCH7G0169R0K,,,,,,,,,
2/14/2024,59:49.9,0m 33.5s,33.5,6.974142585,79.91419862,0,0,0.3,51,0.2,0,0,0,0,0,0,0,0,4.9,2.5,-50.4,309.6,,Manual Takeoff,Other,Takeoff (RC Assisted),11,4,TRUE,,Mavic Mini,TRUE,FALSE,,Smart,RC,TRUE,TRUE,FALSE,,,TRUE,,FALSE,FALSE,FALSE,FALSE,FALSE,FALSE,FALSE,FALSE,FALSE,FALSE,0,Follow Yaw,0,0,-41,319,FALSE,FALSE,FALSE,FALSE,FALSE,FALSE,,TRUE,Normal,,100,1024,1024,1024,1024,2,FALSE,FALSE,FALSE,FALSE,FALSE,0,FALSE,FALSE,FALSE,FALSE,35,7.198,723,2095,7.203,FALSE,3.598,3.6,0.002,FALSE,FALSE,NA,84.2,84.2,84.2,0,5,0,0,5,2810.4,702.6,,Idle,0,20,FALSE,5,TRUE,9,Go Home,FALSE,FALSE,FALSE,FALSE,FALSE,FALSE,FALSE,FALSE,FALSE,FALSE,FALSE,FALSE,6.974157555,79.91419755,5.4,144.1,328,TRUE,1,1,FALSE,FALSE,FALSE,FALSE,,TRUE,FALSE,FALSE,Course Lock,246,75.9,16.4,Calm,24,,1.12.8,Mavic Mini,1SDCH7G0169R0K,1SFLH6Q0AB03DJ,1SRCH7F014TAHX,1U5X071EXP5ZJG,71.9,0.1,3.2,2.916522,2.460634,0,0,Mavic Mini,1SDCH7G0169R0K,1SFLH6Q0AB03DJ,1SRCH7F014TAHX,1U5X071EXP5ZJG,DJI Fly,,1.12.8,3ABFAB4C-A371-3B9E-BA2F-48C456B31AE4,1SDCH7G0169R0K,,,,,,,,,
2/14/2024,59:49.9,0m 33.6s,33.6,6.974142554,79.91419865,0,0,0.3,51,0.3,0,0,0,0,0,0,0,0,4.9,2.5,-50.4,309.6,,Manual Takeoff,Other,Takeoff (RC Assisted),11,4,TRUE,,Mavic Mini,TRUE,FALSE,,Smart,RC,TRUE,TRUE,FALSE,,,TRUE,,FALSE,FALSE,FALSE,FALSE,FALSE,FALSE,FALSE,FALSE,FALSE,FALSE,0,Follow Yaw,0,0,-41,319,FALSE,FALSE,FALSE,FALSE,FALSE,FALSE,,TRUE,Normal,,100,1024,1024,1024,1024,2,FALSE,FALSE,FALSE,FALSE,FALSE,0,FALSE,FALSE,FALSE,FALSE,35,7.198,723,2095,7.203,FALSE,3.598,3.6,0.002,FALSE,FALSE,NA,84.2,84.2,84.2,0,5,0,0,5,2810.4,702.6,,Idle,0,20,FALSE,5,TRUE,9,Go Home,FALSE,FALSE,FALSE,FALSE,FALSE,FALSE,FALSE,FALSE,FALSE,FALSE,FALSE,FALSE,6.974157555,79.91419755,5.4,144.1,328,TRUE,1,1,FALSE,FALSE,FALSE,FALSE,,TRUE,FALSE,FALSE,Course Lock,246,75.9,16.4,Calm,24,,1.12.8,Mavic Mini,1SDCH7G0169R0K,1SFLH6Q0AB03DJ,1SRCH7F014TAHX,1U5X071EXP5ZJG,71.9,0.1,3.2,2.916522,2.460634,0,0,Mavic Mini,1SDCH7G0169R0K,1SFLH6Q0AB03DJ,1SRCH7F014TAHX,1U5X071EXP5ZJG,DJI Fly,,1.12.8,3ABFAB4C-A371-3B9E-BA2F-48C456B31AE4,1SDCH7G0169R0K,,,,,,,,,
2/14/2024,59:50.0,0m 33.7s,33.7,6.974142542,79.91419865,0,0,0.3,51,0.3,0,0,0,0,0,0,0,0,4.9,2.5,-50.4,309.6,,Manual Takeoff,Other,Takeoff (RC Assisted),11,4,TRUE,,Mavic Mini,TRUE,FALSE,,Smart,RC,TRUE,TRUE,FALSE,,,TRUE,,FALSE,FALSE,FALSE,FALSE,FALSE,FALSE,FALSE,FALSE,FALSE,FALSE,0,Follow Yaw,0,0,-41,319,FALSE,FALSE,FALSE,FALSE,FALSE,FALSE,,TRUE,Normal,,100,1024,1024,1062,1024,2,FALSE,FALSE,FALSE,FALSE,FALSE,0,FALSE,FALSE,FALSE,FALSE,35,7.204,723,2095,7.203,FALSE,3.603,3.601,0.002,FALSE,FALSE,NA,84.2,84.2,84.2,0,5,0,0,5,2810.4,702.6,,Idle,0,20,FALSE,5,TRUE,9,Go Home,FALSE,FALSE,FALSE,FALSE,FALSE,FALSE,FALSE,FALSE,FALSE,FALSE,FALSE,FALSE,6.974157555,79.91419755,5.4,144.1,328,TRUE,1,1,FALSE,FALSE,FALSE,FALSE,,TRUE,FALSE,FALSE,Course Lock,246,75.9,16.4,Calm,24,,1.12.8,Mavic Mini,1SDCH7G0169R0K,1SFLH6Q0AB03DJ,1SRCH7F014TAHX,1U5X071EXP5ZJG,71.9,0.1,3.2,2.916522,2.460634,0,0,Mavic Mini,1SDCH7G0169R0K,1SFLH6Q0AB03DJ,1SRCH7F014TAHX,1U5X071EXP5ZJG,DJI Fly,,1.12.8,3ABFAB4C-A371-3B9E-BA2F-48C456B31AE4,1SDCH7G0169R0K,,,,,,,,,
2/14/2024,59:50.1,0m 33.8s,33.8,6.974142475,79.91419873,0,0,0.3,51,0.3,0,0,0,0,0,0,0,0,4.9,2.5,-50.4,309.6,,Manual Takeoff,Other,Takeoff (RC Assisted),11,4,TRUE,,Mavic Mini,TRUE,FALSE,,Smart,RC,TRUE,TRUE,FALSE,,,TRUE,,FALSE,FALSE,FALSE,FALSE,FALSE,FALSE,FALSE,FALSE,FALSE,FALSE,0,Follow Yaw,0,0,-41,319,FALSE,FALSE,FALSE,FALSE,FALSE,FALSE,,TRUE,Normal,,100,1024,1024,1211,1024,2,FALSE,FALSE,FALSE,FALSE,FALSE,0,FALSE,FALSE,FALSE,FALSE,35,7.204,723,2095,7.203,FALSE,3.603,3.601,0.002,FALSE,FALSE,NA,84.2,84.2,84.2,0,5,0,0,5,2810.4,702.6,,Idle,0,20,FALSE,5,TRUE,9,Go Home,FALSE,FALSE,FALSE,FALSE,FALSE,FALSE,FALSE,FALSE,FALSE,FALSE,FALSE,FALSE,6.974157555,79.91419755,5.5,144.1,328,TRUE,1,1,FALSE,FALSE,FALSE,FALSE,,TRUE,FALSE,FALSE,Course Lock,246,75.9,16.4,Calm,24,,1.12.8,Mavic Mini,1SDCH7G0169R0K,1SFLH6Q0AB03DJ,1SRCH7F014TAHX,1U5X071EXP5ZJG,71.9,0.1,3.2,2.916522,2.460634,0,0,Mavic Mini,1SDCH7G0169R0K,1SFLH6Q0AB03DJ,1SRCH7F014TAHX,1U5X071EXP5ZJG,DJI Fly,,1.12.8,3ABFAB4C-A371-3B9E-BA2F-48C456B31AE4,1SDCH7G0169R0K,,,,,6.974111279,79.91422699,5,,
2/14/2024,59:50.2,0m 33.9s,33.9,6.974142425,79.91419877,0,0,0.3,51,0.3,0,0,0,0,0,0,0,0,4.9,2.5,-50.4,309.6,,Manual Takeoff,Other,Takeoff (RC Assisted),11,4,TRUE,,Mavic Mini,TRUE,FALSE,,Smart,RC,TRUE,TRUE,FALSE,,,TRUE,,FALSE,FALSE,FALSE,FALSE,FALSE,FALSE,FALSE,FALSE,FALSE,FALSE,0,Follow Yaw,0,0,-41,319,FALSE,FALSE,FALSE,FALSE,FALSE,FALSE,,TRUE,Normal,,100,1024,1024,1630,1024,2,FALSE,FALSE,FALSE,FALSE,FALSE,0,FALSE,FALSE,FALSE,FALSE,35,7.204,723,2095,7.203,FALSE,3.603,3.601,0.002,FALSE,FALSE,NA,84.2,84.2,84.2,0,5,0,0,5,2810.4,702.6,,Idle,0,20,FALSE,5,TRUE,9,Go Home,FALSE,FALSE,FALSE,FALSE,FALSE,FALSE,FALSE,FALSE,FALSE,FALSE,FALSE,FALSE,6.974157555,79.91419755,5.5,144.1,328,TRUE,1,1,FALSE,FALSE,FALSE,FALSE,,TRUE,FALSE,FALSE,Course Lock,246,75.9,16.4,Calm,24,,1.12.8,Mavic Mini,1SDCH7G0169R0K,1SFLH6Q0AB03DJ,1SRCH7F014TAHX,1U5X071EXP5ZJG,71.9,0.1,3.2,2.916522,2.460634,0,0,Mavic Mini,1SDCH7G0169R0K,1SFLH6Q0AB03DJ,1SRCH7F014TAHX,1U5X071EXP5ZJG,DJI Fly,,1.12.8,3ABFAB4C-A371-3B9E-BA2F-48C456B31AE4,1SDCH7G0169R0K,,,,,6.974111279,79.91422699,5,,
2/14/2024,59:50.4,0m 34.0s,34,6.974142371,79.91419882,0,0,0.3,51,0.3,0,0,0,0,0,0,0,0,4.9,2.5,-50.4,309.6,,Manual Takeoff,Other,Takeoff (RC Assisted),11,4,TRUE,,Mavic Mini,TRUE,FALSE,,Smart,RC,TRUE,TRUE,FALSE,,,TRUE,,FALSE,FALSE,FALSE,FALSE,FALSE,FALSE,FALSE,FALSE,FALSE,FALSE,0,Follow Yaw,0,0,-41,319,FALSE,FALSE,FALSE,FALSE,FALSE,FALSE,,TRUE,Normal,,100,1024,1024,1684,1024,2,FALSE,FALSE,FALSE,FALSE,FALSE,0,FALSE,FALSE,FALSE,FALSE,35,7.204,723,2095,7.205,FALSE,3.603,3.601,0.002,FALSE,FALSE,NA,84.2,84.2,84.2,0,5,0,0,5,2897.7,724.42,,Idle,0,20,FALSE,5,TRUE,9,Go Home,FALSE,FALSE,FALSE,FALSE,FALSE,FALSE,FALSE,FALSE,FALSE,FALSE,FALSE,FALSE,6.974157555,79.91419755,5.5,144.1,328,TRUE,1,1,FALSE,FALSE,FALSE,FALSE,,TRUE,FALSE,FALSE,Course Lock,246,75.9,16.4,Calm,24,,1.12.8,Mavic Mini,1SDCH7G0169R0K,1SFLH6Q0AB03DJ,1SRCH7F014TAHX,1U5X071EXP5ZJG,71.9,0.1,3.2,2.916522,2.460634,0,0,Mavic Mini,1SDCH7G0169R0K,1SFLH6Q0AB03DJ,1SRCH7F014TAHX,1U5X071EXP5ZJG,DJI Fly,,1.12.8,3ABFAB4C-A371-3B9E-BA2F-48C456B31AE4,1SDCH7G0169R0K,,,,,6.974111279,79.91422699,5,,
2/14/2024,59:50.5,0m 34.1s,34.1,6.974142307,79.91419887,0,0,0.3,51,0.4,0,0,0,0,0,0,0,0,4.8,2.4,-50.4,309.6,,Manual Takeoff,Other,Takeoff (RC Assisted),11,4,TRUE,,Mavic Mini,TRUE,FALSE,,Smart,RC,TRUE,TRUE,FALSE,,,TRUE,,FALSE,FALSE,FALSE,FALSE,FALSE,FALSE,FALSE,FALSE,FALSE,FALSE,0,Follow Yaw,0,0,-41,319,FALSE,FALSE,FALSE,FALSE,FALSE,FALSE,,TRUE,Normal,,100,1024,1024,1684,1024,2,FALSE,FALSE,FALSE,FALSE,FALSE,0,FALSE,FALSE,FALSE,FALSE,35,7.204,723,2095,7.205,FALSE,3.603,3.601,0.002,FALSE,FALSE,NA,84.2,84.2,84.2,0,5,0,0,5,2897.7,724.42,,Idle,0,20,FALSE,5,TRUE,9,Go Home,FALSE,FALSE,FALSE,FALSE,FALSE,FALSE,FALSE,FALSE,FALSE,FALSE,FALSE,FALSE,6.974157555,79.91419755,5.5,144.1,328,TRUE,1,1,FALSE,FALSE,FALSE,FALSE,,TRUE,FALSE,FALSE,Course Lock,246,75.9,16.4,Calm,24,,1.12.8,Mavic Mini,1SDCH7G0169R0K,1SFLH6Q0AB03DJ,1SRCH7F014TAHX,1U5X071EXP5ZJG,71.9,0.1,3.2,2.916522,2.460634,0,0,Mavic Mini,1SDCH7G0169R0K,1SFLH6Q0AB03DJ,1SRCH7F014TAHX,1U5X071EXP5ZJG,DJI Fly,,1.12.8,3ABFAB4C-A371-3B9E-BA2F-48C456B31AE4,1SDCH7G0169R0K,,,,,6.974111279,79.91422699,5,,
2/14/2024,59:50.6,0m 34.2s,34.2,6.974142277,79.91419891,0,0,0.3,51,0.4,0,0,0,0,0,0,0,0,4.7,1.8,-50.6,309.4,,Manual Takeoff,Other,Takeoff (RC Assisted),12,4,TRUE,,Mavic Mini,TRUE,FALSE,,Smart,RC,TRUE,TRUE,FALSE,,,TRUE,,FALSE,FALSE,FALSE,FALSE,FALSE,FALSE,FALSE,FALSE,FALSE,FALSE,0,Follow Yaw,0,0,-41,319,FALSE,FALSE,FALSE,FALSE,FALSE,FALSE,,TRUE,Normal,,100,1024,1024,1684,1024,2,FALSE,FALSE,FALSE,FALSE,FALSE,0,FALSE,FALSE,FALSE,FALSE,35,7.204,723,2095,7.205,FALSE,3.603,3.601,0.002,FALSE,FALSE,NA,84.2,84.2,84.2,0,5,0,0,5,2897.7,724.42,,Idle,0,20,FALSE,5,TRUE,9,Go Home,FALSE,FALSE,FALSE,FALSE,FALSE,FALSE,FALSE,FALSE,FALSE,FALSE,FALSE,FALSE,6.974157555,79.91419755,5.5,144.1,328,TRUE,1,1,FALSE,FALSE,FALSE,FALSE,,TRUE,FALSE,FALSE,Course Lock,246,75.9,16.4,Calm,24,,1.12.8,Mavic Mini,1SDCH7G0169R0K,1SFLH6Q0AB03DJ,1SRCH7F014TAHX,1U5X071EXP5ZJG,71.9,0.1,3.2,2.916522,2.460634,0,0,Mavic Mini,1SDCH7G0169R0K,1SFLH6Q0AB03DJ,1SRCH7F014TAHX,1U5X071EXP5ZJG,DJI Fly,,1.12.8,3ABFAB4C-A371-3B9E-BA2F-48C456B31AE4,1SDCH7G0169R0K,,,,,6.974111279,79.91422699,5,,
2/14/2024,59:50.7,0m 34.3s,34.3,6.974142264,79.91419892,0,0,0.3,51,0.4,0,0,0,0,0,0,0,0,4.6,1.6,-50.9,309.1,,Manual Takeoff,Other,Takeoff (RC Assisted),12,4,TRUE,,Mavic Mini,TRUE,FALSE,,Smart,RC,TRUE,TRUE,FALSE,,,TRUE,,FALSE,FALSE,FALSE,FALSE,FALSE,FALSE,FALSE,FALSE,FALSE,FALSE,0,Follow Yaw,0,0,-41.1,318.9,FALSE,FALSE,FALSE,FALSE,FALSE,FALSE,,TRUE,Normal,,100,1024,1024,1684,1024,2,FALSE,FALSE,FALSE,FALSE,FALSE,0,FALSE,FALSE,FALSE,FALSE,35,7.204,723,2095,7.205,FALSE,3.603,3.601,0.002,FALSE,FALSE,NA,84.2,84.2,84.2,0,5,0,0,5,2897.7,724.42,,Idle,0,20,FALSE,5,TRUE,9,Go Home,FALSE,FALSE,FALSE,FALSE,FALSE,FALSE,FALSE,FALSE,FALSE,FALSE,FALSE,FALSE,6.974157555,79.91419755,5.6,144.1,328,TRUE,1,1,FALSE,FALSE,FALSE,FALSE,,TRUE,FALSE,FALSE,Course Lock,246,75.9,16.4,Calm,24,,1.12.8,Mavic Mini,1SDCH7G0169R0K,1SFLH6Q0AB03DJ,1SRCH7F014TAHX,1U5X071EXP5ZJG,71.9,0.1,3.2,2.916522,2.460634,0,0,Mavic Mini,1SDCH7G0169R0K,1SFLH6Q0AB03DJ,1SRCH7F014TAHX,1U5X071EXP5ZJG,DJI Fly,,1.12.8,3ABFAB4C-A371-3B9E-BA2F-48C456B31AE4,1SDCH7G0169R0K,,,,,6.974111279,79.91422699,5,,
2/14/2024,59:50.8,0m 34.4s,34.4,6.974142246,79.91419892,0,0,0.3,51,0.4,0,0,0,0,0,0,0,0,4.8,1.9,-52.1,307.9,,Manual Takeoff,Other,Takeoff (RC Assisted),12,4,TRUE,,Mavic Mini,TRUE,FALSE,,Smart,RC,TRUE,TRUE,FALSE,,,TRUE,,FALSE,FALSE,FALSE,FALSE,FALSE,FALSE,FALSE,FALSE,FALSE,FALSE,0,Follow Yaw,0,0,-41.7,318.3,FALSE,FALSE,FALSE,FALSE,FALSE,FALSE,,TRUE,Normal,,100,1024,1024,1684,1024,2,FALSE,FALSE,FALSE,FALSE,FALSE,0,FALSE,FALSE,FALSE,FALSE,35,7.204,723,2095,7.205,FALSE,3.603,3.601,0.002,FALSE,FALSE,NA,84.2,84.2,84.2,0,5,0,0,5,2897.7,724.42,,Idle,0,20,FALSE,5,TRUE,9,Go Home,FALSE,FALSE,FALSE,FALSE,FALSE,FALSE,FALSE,FALSE,FALSE,FALSE,FALSE,FALSE,6.974157555,79.91419755,5.6,144.1,328,TRUE,1,1,FALSE,FALSE,FALSE,FALSE,,TRUE,FALSE,FALSE,Course Lock,246,75.9,16.4,Calm,24,,1.12.8,Mavic Mini,1SDCH7G0169R0K,1SFLH6Q0AB03DJ,1SRCH7F014TAHX,1U5X071EXP5ZJG,71.9,0.1,3.2,2.916522,2.460634,0,0,Mavic Mini,1SDCH7G0169R0K,1SFLH6Q0AB03DJ,1SRCH7F014TAHX,1U5X071EXP5ZJG,DJI Fly,,1.12.8,3ABFAB4C-A371-3B9E-BA2F-48C456B31AE4,1SDCH7G0169R0K,,,,,6.974111279,79.91422699,5,,
2/14/2024,59:50.9,0m 34.5s,34.5,6.97414221,79.91419892,0,0,0.3,51,0.4,0,0,0,0,0,0,0,0,3.8,2,-54.2,305.8,,Manual Takeoff,Other,Takeoff (RC Assisted),12,4,TRUE,,Mavic Mini,TRUE,FALSE,,Smart,RC,TRUE,TRUE,FALSE,,,TRUE,,FALSE,FALSE,FALSE,FALSE,FALSE,FALSE,FALSE,FALSE,FALSE,FALSE,0,Follow Yaw,0,0,-43.3,316.7,FALSE,FALSE,FALSE,FALSE,FALSE,FALSE,,TRUE,Normal,,100,1024,1024,1684,1024,2,FALSE,FALSE,FALSE,FALSE,FALSE,0,FALSE,FALSE,FALSE,FALSE,35,7.204,723,2095,7.205,FALSE,3.603,3.601,0.002,FALSE,FALSE,NA,84.2,84.2,84.2,0,5,0,0,5,2897.7,724.42,,Idle,0,20,FALSE,5,TRUE,9,Go Home,FALSE,FALSE,FALSE,FALSE,FALSE,FALSE,FALSE,FALSE,FALSE,FALSE,FALSE,FALSE,6.974157555,79.91419755,5.6,144.1,328,TRUE,1,1,FALSE,FALSE,FALSE,FALSE,,TRUE,FALSE,FALSE,Course Lock,246,75.9,16.4,Calm,24,,1.12.8,Mavic Mini,1SDCH7G0169R0K,1SFLH6Q0AB03DJ,1SRCH7F014TAHX,1U5X071EXP5ZJG,71.9,0.1,3.2,2.916522,2.460634,0,0,Mavic Mini,1SDCH7G0169R0K,1SFLH6Q0AB03DJ,1SRCH7F014TAHX,1U5X071EXP5ZJG,DJI Fly,,1.12.8,3ABFAB4C-A371-3B9E-BA2F-48C456B31AE4,1SDCH7G0169R0K,,,,,6.974111279,79.91422699,5,,
2/14/2024,59:51.0,0m 34.6s,34.6,6.974142208,79.91419894,0,0,0.3,51,0.4,0,0,0,0,0,0,0,0,1.8,2.1,-56.5,303.5,,Manual Takeoff,Other,Takeoff (RC Assisted),12,4,TRUE,,Mavic Mini,TRUE,FALSE,,Smart,RC,TRUE,TRUE,FALSE,,,TRUE,,FALSE,FALSE,FALSE,FALSE,FALSE,FALSE,FALSE,FALSE,FALSE,FALSE,0,Follow Yaw,0,0,-45.4,314.6,FALSE,FALSE,FALSE,FALSE,FALSE,FALSE,,TRUE,Normal,,100,1024,1024,1684,1024,2,FALSE,FALSE,FALSE,FALSE,FALSE,0,FALSE,FALSE,FALSE,FALSE,35,7.204,723,2095,7.205,FALSE,3.603,3.601,0.002,FALSE,FALSE,NA,84.2,84.2,84.2,0,5,0,0,5,2897.7,724.42,,Idle,0,20,FALSE,5,TRUE,9,Go Home,FALSE,FALSE,FALSE,FALSE,FALSE,FALSE,FALSE,FALSE,FALSE,FALSE,FALSE,FALSE,6.974157555,79.91419755,5.6,144.1,328,TRUE,1,1,FALSE,FALSE,FALSE,FALSE,,TRUE,FALSE,FALSE,Course Lock,246,75.9,16.4,Calm,24,,1.12.8,Mavic Mini,1SDCH7G0169R0K,1SFLH6Q0AB03DJ,1SRCH7F014TAHX,1U5X071EXP5ZJG,71.9,0.1,3.2,2.916522,2.460634,0,0,Mavic Mini,1SDCH7G0169R0K,1SFLH6Q0AB03DJ,1SRCH7F014TAHX,1U5X071EXP5ZJG,DJI Fly,,1.12.8,3ABFAB4C-A371-3B9E-BA2F-48C456B31AE4,1SDCH7G0169R0K,,,,,6.974111279,79.91422699,5,,
2/14/2024,59:51.2,0m 34.7s,34.7,6.974142301,79.914199,0,0,0.3,51,0.5,0,0,0,0,0,0,0,0,0,2.7,-58.7,301.3,,Manual Takeoff,Other,Takeoff (RC Assisted),12,4,TRUE,,Mavic Mini,TRUE,FALSE,,Smart,RC,TRUE,TRUE,FALSE,,,TRUE,,FALSE,FALSE,FALSE,FALSE,FALSE,FALSE,FALSE,FALSE,FALSE,FALSE,0,Follow Yaw,0,0,-47.6,312.4,FALSE,FALSE,FALSE,FALSE,FALSE,FALSE,,TRUE,Normal,,100,1024,1024,1684,1024,2,FALSE,FALSE,FALSE,FALSE,FALSE,0,FALSE,FALSE,FALSE,FALSE,35,7.204,723,2095,7.205,FALSE,3.603,3.601,0.002,FALSE,FALSE,NA,84.2,84.2,84.2,0,5,0,0,5,2897.7,724.42,,Idle,0,20,FALSE,5,TRUE,9,Go Home,FALSE,FALSE,FALSE,FALSE,FALSE,FALSE,FALSE,FALSE,FALSE,FALSE,FALSE,FALSE,6.974157555,79.91419755,5.5,144.1,328,TRUE,1,1,FALSE,FALSE,FALSE,FALSE,,TRUE,FALSE,FALSE,Course Lock,246,75.9,16.4,Calm,24,,1.12.8,Mavic Mini,1SDCH7G0169R0K,1SFLH6Q0AB03DJ,1SRCH7F014TAHX,1U5X071EXP5ZJG,71.9,0.1,3.2,2.916522,2.460634,0,0,Mavic Mini,1SDCH7G0169R0K,1SFLH6Q0AB03DJ,1SRCH7F014TAHX,1U5X071EXP5ZJG,DJI Fly,,1.12.8,3ABFAB4C-A371-3B9E-BA2F-48C456B31AE4,1SDCH7G0169R0K,,,,,6.974111279,79.91422699,5,,
2/14/2024,59:51.2,0m 34.8s,34.8,6.974142415,79.91419907,0,0,0.3,51,0.5,0.447388,0.447388,0.447388,0.447388,0,0,0,0,-1.7,1.6,-60.7,299.3,25.3,Manual Takeoff,Other,Takeoff (RC Assisted),13,4,TRUE,,Mavic Mini,TRUE,FALSE,,Smart,RC,TRUE,TRUE,FALSE,,,TRUE,,FALSE,FALSE,FALSE,FALSE,FALSE,FALSE,FALSE,FALSE,FALSE,FALSE,0,Follow Yaw,0,0,-49.5,310.5,FALSE,FALSE,FALSE,FALSE,FALSE,FALSE,,TRUE,Normal,,100,1024,1024,1684,1024,2,FALSE,FALSE,FALSE,FALSE,FALSE,0,FALSE,FALSE,FALSE,FALSE,35,7.032,723,2095,7.205,FALSE,3.518,3.514,0.004,FALSE,FALSE,NA,84.2,84.2,84.2,0,5,0,0,5,2897.7,724.42,,Idle,0,20,FALSE,5,TRUE,9,Go Home,FALSE,FALSE,FALSE,FALSE,FALSE,FALSE,FALSE,FALSE,FALSE,FALSE,FALSE,FALSE,6.974157555,79.91419755,5.5,144.1,328,TRUE,1,1,FALSE,FALSE,FALSE,FALSE,,TRUE,FALSE,FALSE,Course Lock,246,75.9,16.4,Calm,24,,1.12.8,Mavic Mini,1SDCH7G0169R0K,1SFLH6Q0AB03DJ,1SRCH7F014TAHX,1U5X071EXP5ZJG,71.9,0.1,3.2,2.916522,2.460634,0,0,Mavic Mini,1SDCH7G0169R0K,1SFLH6Q0AB03DJ,1SRCH7F014TAHX,1U5X071EXP5ZJG,DJI Fly,,1.12.8,3ABFAB4C-A371-3B9E-BA2F-48C456B31AE4,1SDCH7G0169R0K,,,,,6.974111279,79.91422699,5,,
2/14/2024,59:51.3,0m 34.9s,34.9,6.974142603,79.91419912,0,0,0.3,51,0.6,0.447388,0.447388,0.447388,0.447388,0,0,-0.223694,0,-1.6,-0.1,-61.6,298.4,12.4,Manual Takeoff,Other,Takeoff (RC Assisted),13,4,TRUE,,Mavic Mini,TRUE,FALSE,,Smart,RC,FALSE,TRUE,FALSE,,,TRUE,,FALSE,FALSE,FALSE,FALSE,FALSE,FALSE,FALSE,FALSE,FALSE,FALSE,0,Follow Yaw,0,0,-50.9,309.1,FALSE,FALSE,FALSE,FALSE,FALSE,FALSE,,TRUE,Normal,,100,1024,1024,1674,1024,2,FALSE,FALSE,FALSE,FALSE,FALSE,0,FALSE,FALSE,FALSE,FALSE,35,7.032,723,2095,7.205,FALSE,3.518,3.514,0.004,FALSE,FALSE,NA,84.2,84.2,84.2,0,5,0,0,5,2897.7,724.42,,Idle,0,20,FALSE,5,TRUE,9,Go Home,FALSE,FALSE,FALSE,FALSE,FALSE,FALSE,FALSE,FALSE,FALSE,FALSE,FALSE,FALSE,6.974157555,79.91419755,5.4,144.1,328,TRUE,1,1,FALSE,FALSE,FALSE,FALSE,,TRUE,FALSE,FALSE,Course Lock,246,75.9,16.4,Calm,24,,1.12.8,Mavic Mini,1SDCH7G0169R0K,1SFLH6Q0AB03DJ,1SRCH7F014TAHX,1U5X071EXP5ZJG,71.9,0.1,3.2,2.916522,2.460634,0,0,Mavic Mini,1SDCH7G0169R0K,1SFLH6Q0AB03DJ,1SRCH7F014TAHX,1U5X071EXP5ZJG,DJI Fly,,1.12.8,3ABFAB4C-A371-3B9E-BA2F-48C456B31AE4,1SDCH7G0169R0K,,,,,6.974111279,79.91422699,5,,
2/14/2024,59:51.4,0m 35.0s,35,6.974142857,79.91419916,0,0,0.3,51,0.7,0.671082,0.671082,0.671082,0.671082,0,0,-0.447388,0,-0.6,-1.3,-61.8,298.2,5.6,Tripod,Other,,13,4,TRUE,,Mavic Mini,TRUE,FALSE,,Smart,RC,FALSE,TRUE,FALSE,,,TRUE,,FALSE,FALSE,FALSE,FALSE,FALSE,FALSE,FALSE,FALSE,FALSE,FALSE,0,Follow Yaw,0,0,-51.4,308.6,FALSE,FALSE,FALSE,FALSE,FALSE,FALSE,,TRUE,Normal,,100,1024,1024,1626,1024,2,FALSE,FALSE,FALSE,FALSE,FALSE,0,FALSE,FALSE,FALSE,FALSE,35,7.032,723,2095,7.114,FALSE,3.518,3.514,0.004,FALSE,FALSE,NA,84.2,84.2,84.2,0,0,0,0,5,3156,789.01,,Idle,0,20,FALSE,5,TRUE,9,Go Home,FALSE,FALSE,FALSE,FALSE,FALSE,FALSE,FALSE,FALSE,FALSE,FALSE,FALSE,FALSE,6.974142638,79.91419913,0,144.1,328,TRUE,1,1,FALSE,FALSE,FALSE,FALSE,,TRUE,FALSE,FALSE,Course Lock,246,75.9,16.4,Calm,24,,1.12.8,Mavic Mini,1SDCH7G0169R0K,1SFLH6Q0AB03DJ,1SRCH7F014TAHX,1U5X071EXP5ZJG,71.9,0.1,3.2,2.916522,2.460634,0,0,Mavic Mini,1SDCH7G0169R0K,1SFLH6Q0AB03DJ,1SRCH7F014TAHX,1U5X071EXP5ZJG,DJI Fly,,1.12.8,3ABFAB4C-A371-3B9E-BA2F-48C456B31AE4,1SDCH7G0169R0K,,,,,6.974111279,79.91422699,5,Home Point Updated.; Flight mode changed to Tripod.,
2/14/2024,59:51.5,0m 35.1s,35.1,6.974143172,79.91419918,0,0,0.6,51,0.8,0.671082,0.671082,0.671082,0.671082,0,0,-0.894776,0,1.6,-2.8,-61.6,298.4,3.5,Tripod,Other,,13,4,TRUE,,Mavic Mini,TRUE,FALSE,,Smart,RC,FALSE,TRUE,FALSE,,,TRUE,,FALSE,FALSE,FALSE,FALSE,FALSE,FALSE,FALSE,FALSE,FALSE,FALSE,0,Follow Yaw,0,0,-51.4,308.6,FALSE,FALSE,FALSE,FALSE,FALSE,FALSE,,TRUE,Normal,,100,1024,1024,1567,1024,2,FALSE,FALSE,FALSE,FALSE,FALSE,0,FALSE,FALSE,FALSE,FALSE,35,7.032,723,2095,7.114,FALSE,3.518,3.514,0.004,FALSE,FALSE,NA,84.2,84.2,84.2,0,0,0,0,5,3156,789.01,,Idle,0,20,FALSE,5,TRUE,9,Go Home,FALSE,FALSE,FALSE,FALSE,FALSE,FALSE,FALSE,FALSE,FALSE,FALSE,FALSE,FALSE,6.974142638,79.91419913,0.1,144.1,328,TRUE,1,1,FALSE,FALSE,FALSE,FALSE,,TRUE,FALSE,FALSE,Course Lock,246,75.9,16.4,Calm,24,,1.12.8,Mavic Mini,1SDCH7G0169R0K,1SFLH6Q0AB03DJ,1SRCH7F014TAHX,1U5X071EXP5ZJG,71.9,0.1,3.2,2.916522,2.460634,0,0,Mavic Mini,1SDCH7G0169R0K,1SFLH6Q0AB03DJ,1SRCH7F014TAHX,1U5X071EXP5ZJG,DJI Fly,,1.12.8,3ABFAB4C-A371-3B9E-BA2F-48C456B31AE4,1SDCH7G0169R0K,,,,,6.974111279,79.91422699,5,Home Point updated. RTH altitude adjusted to 75 m!3Ó (Code: 120852).,
2/14/2024,59:51.5,0m 35.2s,35.2,6.974143471,79.91419916,0.3,0.3,0.6,52,0.9,0.671082,0.671082,0.671082,0.671082,0,0,-1.565858,0,2.8,-2.8,-61.4,298.6,356.4,Tripod,Other,,12,4,TRUE,,Mavic Mini,TRUE,FALSE,,Smart,RC,FALSE,TRUE,FALSE,,,TRUE,,FALSE,FALSE,FALSE,FALSE,FALSE,FALSE,FALSE,FALSE,FALSE,FALSE,0,Follow Yaw,0,0,-51.4,308.6,FALSE,FALSE,FALSE,FALSE,FALSE,FALSE,,TRUE,Normal,,100,1024,1024,1443,1024,2,FALSE,FALSE,FALSE,FALSE,FALSE,0,FALSE,FALSE,FALSE,FALSE,35,7.032,723,2095,7.114,FALSE,3.518,3.514,0.004,FALSE,FALSE,NA,84.2,84.2,84.2,0,0,0,0,5,3156,789.01,,Idle,0,20,FALSE,5,TRUE,9,Go Home,FALSE,FALSE,FALSE,FALSE,FALSE,FALSE,FALSE,FALSE,FALSE,FALSE,FALSE,FALSE,6.974142638,79.91419913,0.3,144.1,328,TRUE,1,1,FALSE,FALSE,FALSE,FALSE,,TRUE,FALSE,FALSE,Course Lock,246,75.9,16.4,Calm,24,,1.12.8,Mavic Mini,1SDCH7G0169R0K,1SFLH6Q0AB03DJ,1SRCH7F014TAHX,1U5X071EXP5ZJG,71.9,0.1,3.2,2.916522,2.460634,0,0,Mavic Mini,1SDCH7G0169R0K,1SFLH6Q0AB03DJ,1SRCH7F014TAHX,1U5X071EXP5ZJG,DJI Fly,,1.12.8,3ABFAB4C-A371-3B9E-BA2F-48C456B31AE4,1SDCH7G0169R0K,,,,,6.974111279,79.91422699,5,,
2/14/2024,59:51.7,0m 35.3s,35.3,6.974143784,79.91419913,0.3,0.3,0.9,52,1,0.447388,0.671082,0.447388,0.671082,0,0,-2.013246,0,3.2,-3.2,-61.3,298.7,355.6,Tripod,Other,,12,4,TRUE,,Mavic Mini,TRUE,FALSE,,Smart,RC,FALSE,TRUE,FALSE,,,TRUE,,FALSE,FALSE,FALSE,FALSE,FALSE,FALSE,FALSE,FALSE,FALSE,FALSE,0,Follow Yaw,0,0,-51.4,308.6,FALSE,FALSE,FALSE,FALSE,FALSE,FALSE,,TRUE,Normal,,100,1024,1024,1443,1024,2,FALSE,FALSE,FALSE,FALSE,FALSE,0,FALSE,FALSE,FALSE,FALSE,35,7.032,723,2095,7.114,FALSE,3.518,3.514,0.004,FALSE,FALSE,NA,84.2,84.2,84.2,0,0,0,0,5,3156,789.01,,Idle,0,20,FALSE,5,TRUE,9,Go Home,FALSE,FALSE,FALSE,FALSE,FALSE,FALSE,FALSE,FALSE,FALSE,FALSE,FALSE,FALSE,6.974142638,79.91419913,0.4,144.1,328,TRUE,1,1,FALSE,FALSE,FALSE,FALSE,,TRUE,FALSE,FALSE,Course Lock,246,75.9,16.4,Calm,24,,1.12.8,Mavic Mini,1SDCH7G0169R0K,1SFLH6Q0AB03DJ,1SRCH7F014TAHX,1U5X071EXP5ZJG,71.9,0.1,3.2,2.916522,2.460634,0,0,Mavic Mini,1SDCH7G0169R0K,1SFLH6Q0AB03DJ,1SRCH7F014TAHX,1U5X071EXP5ZJG,DJI Fly,,1.12.8,3ABFAB4C-A371-3B9E-BA2F-48C456B31AE4,1SDCH7G0169R0K,,,,,6.974111279,79.91422699,5,,
2/14/2024,59:51.7,0m 35.4s,35.4,6.97414405,79.91419903,0.6,0.6,1.3,52,1.1,0.223694,0.671082,0.223694,0.671082,0,0,-2.460634,0,3.3,-3,-61.3,298.7,343.9,Tripod,Other,,12,4,TRUE,,Mavic Mini,TRUE,FALSE,,Smart,RC,FALSE,TRUE,FALSE,,,TRUE,,FALSE,FALSE,FALSE,FALSE,FALSE,FALSE,FALSE,FALSE,FALSE,FALSE,0,Follow Yaw,0,0,-51.4,308.6,FALSE,FALSE,FALSE,FALSE,FALSE,FALSE,,TRUE,Normal,,100,1024,1024,1425,1024,2,FALSE,FALSE,FALSE,FALSE,FALSE,0,FALSE,FALSE,FALSE,FALSE,35,7.032,723,2095,7.114,FALSE,3.518,3.514,0.004,FALSE,FALSE,NA,84.2,84.2,84.2,0,0,0,0,5,3156,789.01,,Idle,0,20,FALSE,5,TRUE,9,Go Home,FALSE,FALSE,FALSE,FALSE,FALSE,FALSE,FALSE,FALSE,FALSE,FALSE,FALSE,FALSE,6.974142638,79.91419913,0.5,144.1,328,TRUE,1,1,FALSE,FALSE,FALSE,FALSE,,TRUE,FALSE,FALSE,Course Lock,246,75.9,16.4,Calm,24,,1.12.8,Mavic Mini,1SDCH7G0169R0K,1SFLH6Q0AB03DJ,1SRCH7F014TAHX,1U5X071EXP5ZJG,71.9,0.1,3.2,2.916522,2.460634,0,0,Mavic Mini,1SDCH7G0169R0K,1SFLH6Q0AB03DJ,1SRCH7F014TAHX,1U5X071EXP5ZJG,DJI Fly,,1.12.8,3ABFAB4C-A371-3B9E-BA2F-48C456B31AE4,1SDCH7G0169R0K,,,,,6.974111279,79.91422699,5,,
2/14/2024,59:51.9,0m 35.5s,35.5,6.974144513,79.91419859,0.9,0.9,1.6,52,1.4,0.223694,0.671082,0.223694,0.671082,0,0,-2.460634,0,2.6,-2.5,-61.2,298.8,323.6,Tripod,Other,,12,4,TRUE,,Mavic Mini,TRUE,FALSE,,Smart,RC,FALSE,TRUE,FALSE,,,TRUE,,FALSE,FALSE,FALSE,FALSE,FALSE,FALSE,FALSE,FALSE,FALSE,FALSE,0,Follow Yaw,0,0,-51.4,308.6,FALSE,FALSE,FALSE,FALSE,FALSE,FALSE,,TRUE,Normal,,100,1024,1024,1366,1024,2,FALSE,FALSE,FALSE,FALSE,FALSE,0,FALSE,FALSE,FALSE,FALSE,35,7.032,723,2095,7.114,FALSE,3.518,3.514,0.004,FALSE,FALSE,NA,84.2,84.2,84.2,0,0,0,0,5,3156,789.01,,Idle,0,20,FALSE,5,TRUE,9,Go Home,FALSE,FALSE,FALSE,FALSE,FALSE,FALSE,FALSE,FALSE,FALSE,FALSE,FALSE,FALSE,6.974142638,79.91419913,0.7,144.1,328,TRUE,1,1,FALSE,FALSE,FALSE,FALSE,,TRUE,FALSE,FALSE,Course Lock,246,75.9,16.4,Calm,24,,1.12.8,Mavic Mini,1SDCH7G0169R0K,1SFLH6Q0AB03DJ,1SRCH7F014TAHX,1U5X071EXP5ZJG,71.9,0.1,3.2,2.916522,2.460634,0,0,Mavic Mini,1SDCH7G0169R0K,1SFLH6Q0AB03DJ,1SRCH7F014TAHX,1U5X071EXP5ZJG,DJI Fly,,1.12.8,3ABFAB4C-A371-3B9E-BA2F-48C456B31AE4,1SDCH7G0169R0K,,,,,6.974111279,79.91422699,5,,
2/14/2024,59:51.9,0m 35.6s,35.6,6.974144636,79.91419838,1.6,1.6,1.9,53,1.4,0.223694,0.671082,0.223694,0.671082,0,0,-2.460634,0,2.8,-1.8,-61.4,298.6,308,Tripod,Other,,12,4,TRUE,,Mavic Mini,TRUE,FALSE,,Smart,RC,FALSE,TRUE,FALSE,,,TRUE,,FALSE,FALSE,FALSE,FALSE,FALSE,FALSE,FALSE,FALSE,FALSE,FALSE,0,Follow Yaw,0,0,-51.4,308.6,FALSE,FALSE,FALSE,FALSE,FALSE,FALSE,,TRUE,Normal,,100,1024,1024,1308,1024,2,FALSE,FALSE,FALSE,FALSE,FALSE,0,FALSE,FALSE,FALSE,FALSE,35,7.032,723,2095,7.114,FALSE,3.518,3.514,0.004,FALSE,FALSE,NA,84.2,84.2,84.2,0,0,0,0,5,3156,789.01,,Idle,0,20,FALSE,5,TRUE,9,Go Home,FALSE,FALSE,FALSE,FALSE,FALSE,FALSE,FALSE,FALSE,FALSE,FALSE,FALSE,FALSE,6.974142638,79.91419913,0.7,144.1,328,TRUE,1,1,FALSE,FALSE,FALSE,FALSE,,TRUE,FALSE,FALSE,Course Lock,246,75.9,16.4,Calm,24,,1.12.8,Mavic Mini,1SDCH7G0169R0K,1SFLH6Q0AB03DJ,1SRCH7F014TAHX,1U5X071EXP5ZJG,71.9,0.1,3.2,2.916522,2.460634,0,0,Mavic Mini,1SDCH7G0169R0K,1SFLH6Q0AB03DJ,1SRCH7F014TAHX,1U5X071EXP5ZJG,DJI Fly,,1.12.8,3ABFAB4C-A371-3B9E-BA2F-48C456B31AE4,1SDCH7G0169R0K,,,,,6.974111279,79.91422699,5,,
2/14/2024,59:52.0,0m 35.7s,35.7,6.974144623,79.91419818,1.9,1.9,2.6,53,1.5,0,0.671082,0,0.671082,0,0,-2.460634,0,2.3,-1.4,-61.4,298.6,,Tripod,Other,,12,4,TRUE,,Mavic Mini,TRUE,FALSE,,Smart,RC,FALSE,TRUE,FALSE,,,TRUE,,FALSE,FALSE,FALSE,FALSE,FALSE,FALSE,FALSE,FALSE,FALSE,FALSE,0,Follow Yaw,0,0,-51.4,308.6,FALSE,FALSE,FALSE,FALSE,FALSE,FALSE,,TRUE,Normal,,100,1024,1024,1141,1024,2,FALSE,FALSE,FALSE,FALSE,FALSE,0,FALSE,FALSE,FALSE,FALSE,35,7.032,723,2095,7.114,FALSE,3.518,3.514,0.004,FALSE,FALSE,NA,84.2,84.2,84.2,0,0,0,0,5,3156,789.01,,Idle,0,20,FALSE,5,TRUE,9,Go Home,FALSE,FALSE,FALSE,FALSE,FALSE,FALSE,FALSE,FALSE,FALSE,FALSE,FALSE,FALSE,6.974142638,79.91419913,0.8,144.1,328,TRUE,1,1,FALSE,FALSE,FALSE,FALSE,,TRUE,FALSE,FALSE,Course Lock,246,75.9,16.4,Calm,24,,1.12.8,Mavic Mini,1SDCH7G0169R0K,1SFLH6Q0AB03DJ,1SRCH7F014TAHX,1U5X071EXP5ZJG,71.9,0.1,3.2,2.916522,2.460634,0,0,Mavic Mini,1SDCH7G0169R0K,1SFLH6Q0AB03DJ,1SRCH7F014TAHX,1U5X071EXP5ZJG,DJI Fly,,1.12.8,3ABFAB4C-A371-3B9E-BA2F-48C456B31AE4,1SDCH7G0169R0K,,,,,6.974111279,79.91422699,5,,
2/14/2024,59:52.2,0m 35.8s,35.8,6.974144609,79.91419802,2.2,2.2,2.9,54,1.6,0,0.671082,0,0.671082,0,0,-2.013246,0,1.8,-1.2,-61.3,298.7,,Tripod,Other,,10,4,TRUE,,Mavic Mini,TRUE,FALSE,,Smart,RC,FALSE,TRUE,FALSE,,,TRUE,,FALSE,FALSE,FALSE,FALSE,FALSE,FALSE,FALSE,FALSE,FALSE,FALSE,0,Follow Yaw,0,0,-51.4,308.6,FALSE,FALSE,FALSE,FALSE,FALSE,FALSE,,TRUE,Normal,,100,1024,1024,1024,1024,2,FALSE,FALSE,FALSE,FALSE,FALSE,0,FALSE,FALSE,FALSE,FALSE,35,7.032,723,2095,7.114,FALSE,3.518,3.514,0.004,FALSE,FALSE,NA,84.2,84.2,84.2,0,0,0,0,5,3156,789.01,,Idle,0,20,FALSE,5,TRUE,9,Go Home,FALSE,FALSE,FALSE,FALSE,FALSE,FALSE,FALSE,FALSE,FALSE,FALSE,FALSE,FALSE,6.974142638,79.91419913,0.8,144.1,328,TRUE,1,1,FALSE,FALSE,FALSE,FALSE,,TRUE,FALSE,FALSE,Course Lock,246,75.9,16.4,Calm,24,,1.12.8,Mavic Mini,1SDCH7G0169R0K,1SFLH6Q0AB03DJ,1SRCH7F014TAHX,1U5X071EXP5ZJG,71.9,0.1,3.2,2.916522,2.460634,0,0,Mavic Mini,1SDCH7G0169R0K,1SFLH6Q0AB03DJ,1SRCH7F014TAHX,1U5X071EXP5ZJG,DJI Fly,,1.12.8,3ABFAB4C-A371-3B9E-BA2F-48C456B31AE4,1SDCH7G0169R0K,,,,,6.974111279,79.91422699,5,,
2/14/2024,59:52.3,0m 35.9s,35.9,6.974144231,79.91419773,2.2,2.2,3.2,54,1.7,0,0.671082,0,0.671082,0,0,-1.565858,0,1.9,-1.4,-61.2,298.8,,Tripod,Other,,10,4,TRUE,,Mavic Mini,TRUE,FALSE,,Smart,RC,FALSE,TRUE,FALSE,,,TRUE,,FALSE,FALSE,FALSE,FALSE,FALSE,FALSE,FALSE,FALSE,FALSE,FALSE,0,Follow Yaw,0,0,-51.4,308.6,FALSE,FALSE,FALSE,FALSE,FALSE,FALSE,,TRUE,Normal,,100,1024,1024,1024,1024,2,FALSE,FALSE,FALSE,FALSE,FALSE,0,FALSE,FALSE,FALSE,FALSE,35,7.032,723,2095,7.114,FALSE,3.518,3.514,0.004,FALSE,FALSE,NA,84.2,84.2,84.2,0,0,0,0,5,3156,789.01,,Idle,0,20,FALSE,5,TRUE,9,Go Home,FALSE,FALSE,FALSE,FALSE,FALSE,FALSE,FALSE,FALSE,FALSE,FALSE,FALSE,FALSE,6.974142638,79.91419913,0.7,144.1,328,TRUE,1,1,FALSE,FALSE,FALSE,FALSE,,TRUE,FALSE,FALSE,Course Lock,246,75.9,16.4,Calm,24,,1.12.8,Mavic Mini,1SDCH7G0169R0K,1SFLH6Q0AB03DJ,1SRCH7F014TAHX,1U5X071EXP5ZJG,71.9,0.1,3.2,2.916522,2.460634,0,0,Mavic Mini,1SDCH7G0169R0K,1SFLH6Q0AB03DJ,1SRCH7F014TAHX,1U5X071EXP5ZJG,DJI Fly,,1.12.8,3ABFAB4C-A371-3B9E-BA2F-48C456B31AE4,1SDCH7G0169R0K,,,,,6.974111279,79.91422699,5,,
2/14/2024,59:52.4,0m 36.0s,36,6.974144213,79.91419763,2.6,2.6,3.2,54,1.8,0,0.671082,0,0.671082,0,0,-1.11847,0,2,-1.3,-61.2,298.8,,Tripod,Other,,12,4,TRUE,,Mavic Mini,TRUE,FALSE,,Smart,RC,FALSE,TRUE,FALSE,,,TRUE,,FALSE,FALSE,FALSE,FALSE,FALSE,FALSE,FALSE,FALSE,FALSE,FALSE,0,Follow Yaw,0,0,-51.4,308.6,FALSE,FALSE,FALSE,FALSE,FALSE,FALSE,,TRUE,Normal,,100,1024,1024,1024,1024,2,FALSE,FALSE,FALSE,FALSE,FALSE,0,FALSE,FALSE,FALSE,FALSE,35,6.984,721,2095,7.145,FALSE,3.491,3.493,0.004,FALSE,TRUE,NA,84.2,84.2,84.2,0,0,0,0,5,3156,789.01,,Idle,0,20,FALSE,5,TRUE,9,Go Home,FALSE,FALSE,FALSE,FALSE,FALSE,FALSE,FALSE,FALSE,FALSE,FALSE,FALSE,FALSE,6.974142638,79.91419913,0.7,144.1,328,TRUE,1,1,FALSE,FALSE,FALSE,FALSE,,TRUE,FALSE,FALSE,Course Lock,246,75.9,16.4,Calm,24,,1.12.8,Mavic Mini,1SDCH7G0169R0K,1SFLH6Q0AB03DJ,1SRCH7F014TAHX,1U5X071EXP5ZJG,71.9,0.1,3.2,2.916522,2.460634,0,0,Mavic Mini,1SDCH7G0169R0K,1SFLH6Q0AB03DJ,1SRCH7F014TAHX,1U5X071EXP5ZJG,DJI Fly,,1.12.8,3ABFAB4C-A371-3B9E-BA2F-48C456B31AE4,1SDCH7G0169R0K,,,,,6.974111279,79.91422699,5,,
2/14/2024,59:52.5,0m 36.1s,36.1,6.974144171,79.91419758,2.6,2.6,3.6,54,1.8,0,0.671082,0,0.671082,0,0,-0.671082,0,2.5,-1.5,-61.1,298.9,,Tripod,Other,,12,4,TRUE,,Mavic Mini,TRUE,FALSE,,Smart,RC,FALSE,TRUE,FALSE,,,TRUE,,FALSE,FALSE,FALSE,FALSE,FALSE,FALSE,FALSE,FALSE,FALSE,FALSE,0,Follow Yaw,0,0,-51.4,308.6,FALSE,FALSE,FALSE,FALSE,FALSE,FALSE,,TRUE,Normal,,100,1024,1024,1024,1024,2,FALSE,FALSE,FALSE,FALSE,FALSE,0,FALSE,FALSE,FALSE,FALSE,35,6.984,721,2095,7.145,FALSE,3.491,3.493,0.004,FALSE,TRUE,NA,84.2,84.2,84.2,0,0,0,0,5,3156,789.01,,Idle,0,20,FALSE,5,TRUE,9,Go Home,FALSE,FALSE,FALSE,FALSE,FALSE,FALSE,FALSE,FALSE,FALSE,FALSE,FALSE,FALSE,6.974142638,79.91419913,0.7,144.1,328,TRUE,1,1,FALSE,FALSE,FALSE,FALSE,,TRUE,FALSE,FALSE,Course Lock,246,75.9,16.4,Calm,24,,1.12.8,Mavic Mini,1SDCH7G0169R0K,1SFLH6Q0AB03DJ,1SRCH7F014TAHX,1U5X071EXP5ZJG,71.9,0.1,3.2,2.916522,2.460634,0,0,Mavic Mini,1SDCH7G0169R0K,1SFLH6Q0AB03DJ,1SRCH7F014TAHX,1U5X071EXP5ZJG,DJI Fly,,1.12.8,3ABFAB4C-A371-3B9E-BA2F-48C456B31AE4,1SDCH7G0169R0K,,,,,6.974111279,79.91422699,5,,
2/14/2024,59:52.6,0m 36.2s,36.2,6.974144165,79.91419749,2.6,2.6,3.6,54,1.8,0,0.671082,0,0.671082,0,0,-0.447388,0,2.7,-1.5,-61.2,298.8,,Tripod,Other,,12,4,TRUE,,Mavic Mini,TRUE,FALSE,,Smart,RC,FALSE,TRUE,FALSE,,,TRUE,,FALSE,FALSE,FALSE,FALSE,FALSE,FALSE,FALSE,FALSE,FALSE,FALSE,0,Follow Yaw,0,0,-51.4,308.6,FALSE,FALSE,FALSE,FALSE,FALSE,FALSE,,TRUE,Normal,,100,1024,1024,1024,1024,2,FALSE,FALSE,FALSE,FALSE,FALSE,0,FALSE,FALSE,FALSE,FALSE,35,6.984,721,2095,7.145,FALSE,3.491,3.493,0.004,FALSE,TRUE,NA,84.2,84.2,84.2,0,0,0,0,5,3156,789.01,,Idle,0,20,FALSE,5,TRUE,9,Go Home,FALSE,FALSE,FALSE,FALSE,FALSE,FALSE,FALSE,FALSE,FALSE,FALSE,FALSE,FALSE,6.974142638,79.91419913,0.8,144.1,328,TRUE,1,1,FALSE,FALSE,FALSE,FALSE,,TRUE,FALSE,FALSE,Course Lock,246,75.9,16.4,Calm,24,,1.12.8,Mavic Mini,1SDCH7G0169R0K,1SFLH6Q0AB03DJ,1SRCH7F014TAHX,1U5X071EXP5ZJG,71.9,0.1,3.2,2.916522,2.460634,0,0,Mavic Mini,1SDCH7G0169R0K,1SFLH6Q0AB03DJ,1SRCH7F014TAHX,1U5X071EXP5ZJG,DJI Fly,,1.12.8,3ABFAB4C-A371-3B9E-BA2F-48C456B31AE4,1SDCH7G0169R0K,,,,,6.974111279,79.91422699,5,,
2/14/2024,59:52.7,0m 36.3s,36.3,6.974144213,79.91419735,2.9,2.9,3.6,54,1.9,0,0.671082,0,0.671082,0,0,0,0,2.5,-1.5,-61.2,298.8,,Tripod,Other,,12,4,TRUE,,Mavic Mini,TRUE,FALSE,,Smart,RC,FALSE,TRUE,FALSE,,,TRUE,,FALSE,FALSE,FALSE,FALSE,FALSE,FALSE,FALSE,FALSE,FALSE,FALSE,0,Follow Yaw,0,0,-51.4,308.6,FALSE,FALSE,FALSE,FALSE,FALSE,FALSE,,TRUE,Normal,,100,1024,1024,1024,1024,2,FALSE,FALSE,FALSE,FALSE,FALSE,0,FALSE,FALSE,FALSE,FALSE,35,6.984,721,2095,7.145,FALSE,3.491,3.493,0.004,FALSE,TRUE,NA,84.2,84.2,84.2,0,0,0,0,5,3156,789.01,,Idle,0,20,FALSE,5,TRUE,9,Go Home,FALSE,FALSE,FALSE,FALSE,FALSE,FALSE,FALSE,FALSE,FALSE,FALSE,FALSE,FALSE,6.974142638,79.91419913,0.8,144.1,328,TRUE,1,1,FALSE,FALSE,FALSE,FALSE,,TRUE,FALSE,FALSE,Course Lock,246,75.9,16.4,Calm,24,,1.12.8,Mavic Mini,1SDCH7G0169R0K,1SFLH6Q0AB03DJ,1SRCH7F014TAHX,1U5X071EXP5ZJG,71.9,0.1,3.2,2.916522,2.460634,0,0,Mavic Mini,1SDCH7G0169R0K,1SFLH6Q0AB03DJ,1SRCH7F014TAHX,1U5X071EXP5ZJG,DJI Fly,,1.12.8,3ABFAB4C-A371-3B9E-BA2F-48C456B31AE4,1SDCH7G0169R0K,,,,,6.974111279,79.91422699,5,,
2/14/2024,59:52.8,0m 36.4s,36.4,6.974144258,79.91419736,2.6,2.9,3.6,54,1.9,0,0.671082,0,0.671082,0,0,0,0,2.2,-1.7,-61.3,298.7,,Tripod,Other,,12,4,TRUE,,Mavic Mini,TRUE,FALSE,,Smart,RC,FALSE,TRUE,FALSE,,,TRUE,,FALSE,FALSE,FALSE,FALSE,FALSE,FALSE,FALSE,FALSE,FALSE,FALSE,0,Follow Yaw,0,0,-51.4,308.6,FALSE,FALSE,FALSE,FALSE,FALSE,FALSE,,TRUE,Normal,,100,1024,1024,1024,1024,2,FALSE,FALSE,FALSE,FALSE,FALSE,0,FALSE,FALSE,FALSE,FALSE,35,6.984,721,2095,7.145,FALSE,3.491,3.493,0.004,FALSE,TRUE,NA,84.2,84.2,84.2,0,0,0,0,5,3156,789.01,,Idle,0,20,FALSE,5,TRUE,9,Go Home,FALSE,FALSE,FALSE,FALSE,FALSE,FALSE,FALSE,FALSE,FALSE,FALSE,FALSE,FALSE,6.974142638,79.91419913,0.8,144.1,328,TRUE,1,1,FALSE,FALSE,FALSE,FALSE,,TRUE,FALSE,FALSE,Course Lock,246,75.9,16.4,Calm,24,,1.12.8,Mavic Mini,1SDCH7G0169R0K,1SFLH6Q0AB03DJ,1SRCH7F014TAHX,1U5X071EXP5ZJG,71.9,0.1,3.2,2.916522,2.460634,0,0,Mavic Mini,1SDCH7G0169R0K,1SFLH6Q0AB03DJ,1SRCH7F014TAHX,1U5X071EXP5ZJG,DJI Fly,,1.12.8,3ABFAB4C-A371-3B9E-BA2F-48C456B31AE4,1SDCH7G0169R0K,,,,,6.974111279,79.91422699,5,,
2/14/2024,59:52.8,0m 36.5s,36.5,6.974144501,79.91419734,2.6,2.9,3.6,54,2,0,0.671082,0,0.671082,0,0,0,0,2.2,-1.7,-61.3,298.7,,Tripod,Other,,12,4,TRUE,,Mavic Mini,TRUE,FALSE,,Smart,RC,FALSE,TRUE,FALSE,,,TRUE,,FALSE,FALSE,FALSE,FALSE,FALSE,FALSE,FALSE,FALSE,FALSE,FALSE,0,Follow Yaw,0,0,-51.4,308.6,FALSE,FALSE,FALSE,FALSE,FALSE,FALSE,,TRUE,Normal,,100,1024,1024,1024,1024,2,FALSE,FALSE,FALSE,FALSE,FALSE,0,FALSE,FALSE,FALSE,FALSE,35,6.984,721,2095,7.145,FALSE,3.491,3.493,0.004,FALSE,TRUE,NA,84.2,84.2,84.2,0,0,0,0,5,3156,789.01,,Idle,0,20,FALSE,5,TRUE,9,Go Home,FALSE,FALSE,FALSE,FALSE,FALSE,FALSE,FALSE,FALSE,FALSE,FALSE,FALSE,FALSE,6.974142638,79.91419913,0.9,144.1,328,TRUE,1,1,FALSE,FALSE,FALSE,FALSE,,TRUE,FALSE,FALSE,Course Lock,246,75.9,16.4,Calm,24,,1.12.8,Mavic Mini,1SDCH7G0169R0K,1SFLH6Q0AB03DJ,1SRCH7F014TAHX,1U5X071EXP5ZJG,71.9,0.1,3.2,2.916522,2.460634,0,0,Mavic Mini,1SDCH7G0169R0K,1SFLH6Q0AB03DJ,1SRCH7F014TAHX,1U5X071EXP5ZJG,DJI Fly,,1.12.8,3ABFAB4C-A371-3B9E-BA2F-48C456B31AE4,1SDCH7G0169R0K,,,,,6.974111279,79.91422699,5,,
2/14/2024,59:52.9,0m 36.6s,36.6,6.974144718,79.91419725,2.6,2.9,3.6,54,2.1,0,0.671082,0,0.671082,0,0,0,0,2.3,-1.7,-61.3,298.7,,Tripod,Other,,12,4,TRUE,,Mavic Mini,TRUE,FALSE,,Smart,RC,FALSE,TRUE,FALSE,,,TRUE,,FALSE,FALSE,FALSE,FALSE,FALSE,FALSE,FALSE,FALSE,FALSE,FALSE,0,Follow Yaw,0,0,-51.4,308.6,FALSE,FALSE,FALSE,FALSE,FALSE,FALSE,,TRUE,Normal,,100,1024,1024,1024,1024,2,FALSE,FALSE,FALSE,FALSE,FALSE,0,FALSE,FALSE,FALSE,FALSE,35,6.984,721,2095,7.145,FALSE,3.491,3.493,0.004,FALSE,TRUE,NA,84.2,84.2,84.2,0,0,0,0,5,3156,789.01,,Idle,0,20,FALSE,5,TRUE,9,Go Home,FALSE,FALSE,FALSE,FALSE,FALSE,FALSE,FALSE,FALSE,FALSE,FALSE,FALSE,FALSE,6.974142638,79.91419913,1,144.1,328,TRUE,1,1,FALSE,FALSE,FALSE,FALSE,,TRUE,FALSE,FALSE,Course Lock,246,75.9,16.4,Calm,24,,1.12.8,Mavic Mini,1SDCH7G0169R0K,1SFLH6Q0AB03DJ,1SRCH7F014TAHX,1U5X071EXP5ZJG,71.9,0.1,3.2,2.916522,2.460634,0,0,Mavic Mini,1SDCH7G0169R0K,1SFLH6Q0AB03DJ,1SRCH7F014TAHX,1U5X071EXP5ZJG,DJI Fly,,1.12.8,3ABFAB4C-A371-3B9E-BA2F-48C456B31AE4,1SDCH7G0169R0K,,,,,6.974111279,79.91422699,5,,
2/14/2024,59:53.0,0m 36.7s,36.7,6.974144907,79.91419707,2.6,2.9,3.6,54,2.2,0,0.671082,0,0.671082,0,0,0,0,2.5,-1.8,-61.2,298.8,,Tripod,Other,,12,4,TRUE,,Mavic Mini,TRUE,FALSE,,Smart,RC,FALSE,TRUE,FALSE,,,TRUE,,FALSE,FALSE,FALSE,FALSE,FALSE,FALSE,FALSE,FALSE,FALSE,FALSE,0,Follow Yaw,0,0,-51.4,308.6,FALSE,FALSE,FALSE,FALSE,FALSE,FALSE,,TRUE,Normal,,100,1024,1024,1024,1024,2,FALSE,FALSE,FALSE,FALSE,FALSE,0,FALSE,FALSE,FALSE,FALSE,35,6.984,721,2095,7.145,FALSE,3.491,3.493,0.004,FALSE,TRUE,NA,84.2,84.2,84.2,0,0,0,0,5,3156,789.01,,Idle,0,20,FALSE,5,TRUE,9,Go Home,FALSE,FALSE,FALSE,FALSE,FALSE,FALSE,FALSE,FALSE,FALSE,FALSE,FALSE,FALSE,6.974142638,79.91419913,1.1,144.1,328,TRUE,1,1,FALSE,FALSE,FALSE,FALSE,,TRUE,FALSE,FALSE,Course Lock,246,75.9,16.4,Calm,24,,1.12.8,Mavic Mini,1SDCH7G0169R0K,1SFLH6Q0AB03DJ,1SRCH7F014TAHX,1U5X071EXP5ZJG,71.9,0.1,3.2,2.916522,2.460634,0,0,Mavic Mini,1SDCH7G0169R0K,1SFLH6Q0AB03DJ,1SRCH7F014TAHX,1U5X071EXP5ZJG,DJI Fly,,1.12.8,3ABFAB4C-A371-3B9E-BA2F-48C456B31AE4,1SDCH7G0169R0K,,,,,6.974111279,79.91422699,5,,
2/14/2024,59:53.2,0m 36.8s,36.8,6.974145525,79.91419693,2.6,2.9,3.6,54,2.4,0,0.671082,0,0.671082,0,0,0,0,2.7,-2,-61.2,298.8,,Tripod,Other,,12,4,TRUE,,Mavic Mini,TRUE,FALSE,,Smart,RC,FALSE,TRUE,FALSE,,,TRUE,,FALSE,FALSE,FALSE,FALSE,FALSE,FALSE,FALSE,FALSE,FALSE,FALSE,0,Follow Yaw,0,0,-51.4,308.6,FALSE,FALSE,FALSE,FALSE,FALSE,FALSE,,TRUE,Normal,,100,1024,1024,1024,1024,2,FALSE,FALSE,FALSE,FALSE,FALSE,0,FALSE,FALSE,FALSE,FALSE,35,6.984,721,2095,7.145,FALSE,3.491,3.493,0.004,FALSE,TRUE,NA,84.2,84.2,84.2,0,0,0,0,5,3156,789.01,,Idle,0,20,FALSE,5,TRUE,9,Go Home,FALSE,FALSE,FALSE,FALSE,FALSE,FALSE,FALSE,FALSE,FALSE,FALSE,FALSE,FALSE,6.974142638,79.91419913,1.3,144.1,328,TRUE,1,1,FALSE,FALSE,FALSE,FALSE,,TRUE,FALSE,FALSE,Course Lock,246,75.9,16.4,Calm,24,,1.12.8,Mavic Mini,1SDCH7G0169R0K,1SFLH6Q0AB03DJ,1SRCH7F014TAHX,1U5X071EXP5ZJG,71.9,0.1,3.2,2.916522,2.460634,0,0,Mavic Mini,1SDCH7G0169R0K,1SFLH6Q0AB03DJ,1SRCH7F014TAHX,1U5X071EXP5ZJG,DJI Fly,,1.12.8,3ABFAB4C-A371-3B9E-BA2F-48C456B31AE4,1SDCH7G0169R0K,,,,,6.974111279,79.91422699,5,,
2/14/2024,59:53.3,0m 36.9s,36.9,6.974145503,79.91419679,2.6,2.9,3.6,54,2.5,0,0.671082,0,0.671082,0,0,0,0,2.9,-2,-61.1,298.9,,Tripod,Other,,12,4,TRUE,,Mavic Mini,TRUE,FALSE,,Smart,RC,FALSE,TRUE,FALSE,,,TRUE,,FALSE,FALSE,FALSE,FALSE,FALSE,FALSE,FALSE,FALSE,FALSE,FALSE,0,Follow Yaw,0,0,-51.4,308.6,FALSE,FALSE,FALSE,FALSE,FALSE,FALSE,,TRUE,Normal,,100,1024,1024,1024,1023,2,FALSE,FALSE,FALSE,FALSE,FALSE,0,FALSE,FALSE,FALSE,FALSE,35,6.984,721,2095,7.145,FALSE,3.491,3.493,0.004,FALSE,TRUE,NA,84.2,84.2,84.2,0,0,0,0,5,3156,789.01,,Idle,0,20,FALSE,5,TRUE,9,Go Home,FALSE,FALSE,FALSE,FALSE,FALSE,FALSE,FALSE,FALSE,FALSE,FALSE,FALSE,FALSE,6.974142638,79.91419913,1.3,144.1,328,TRUE,1,1,FALSE,FALSE,FALSE,FALSE,,TRUE,FALSE,FALSE,Course Lock,246,75.9,16.4,Calm,24,,1.12.8,Mavic Mini,1SDCH7G0169R0K,1SFLH6Q0AB03DJ,1SRCH7F014TAHX,1U5X071EXP5ZJG,71.9,0.1,3.2,2.916522,2.460634,0,0,Mavic Mini,1SDCH7G0169R0K,1SFLH6Q0AB03DJ,1SRCH7F014TAHX,1U5X071EXP5ZJG,DJI Fly,,1.12.8,3ABFAB4C-A371-3B9E-BA2F-48C456B31AE4,1SDCH7G0169R0K,,,,,6.974111279,79.91422699,5,,
2/14/2024,59:53.4,0m 37.0s,37,6.97414546,79.9141967,2.6,2.9,3.6,54,2.5,0,0.671082,0,0.671082,0,0,0,0,3.1,-1.9,-61.1,298.9,,Tripod,Other,,12,4,TRUE,,Mavic Mini,TRUE,FALSE,,Smart,RC,FALSE,TRUE,FALSE,,,TRUE,,FALSE,FALSE,FALSE,FALSE,FALSE,FALSE,FALSE,FALSE,FALSE,FALSE,0,Follow Yaw,0,0,-51.4,308.6,FALSE,FALSE,FALSE,FALSE,FALSE,FALSE,,TRUE,Normal,,100,1024,1024,1024,933,2,FALSE,FALSE,FALSE,FALSE,FALSE,0,FALSE,FALSE,FALSE,FALSE,35,6.984,721,2095,6.965,FALSE,3.491,3.493,0.004,FALSE,TRUE,NA,84.2,84.2,84.2,0,1,0,0,5,4008.6,1002.17,,Idle,0,20,FALSE,5,TRUE,9,Go Home,FALSE,FALSE,FALSE,FALSE,FALSE,FALSE,FALSE,FALSE,FALSE,FALSE,FALSE,FALSE,6.974142638,79.91419913,1.3,144.1,328,TRUE,1,1,FALSE,FALSE,FALSE,FALSE,,TRUE,FALSE,FALSE,Course Lock,246,75.9,16.4,Calm,24,,1.12.8,Mavic Mini,1SDCH7G0169R0K,1SFLH6Q0AB03DJ,1SRCH7F014TAHX,1U5X071EXP5ZJG,71.9,0.1,3.2,2.916522,2.460634,0,0,Mavic Mini,1SDCH7G0169R0K,1SFLH6Q0AB03DJ,1SRCH7F014TAHX,1U5X071EXP5ZJG,DJI Fly,,1.12.8,3ABFAB4C-A371-3B9E-BA2F-48C456B31AE4,1SDCH7G0169R0K,,,,,6.974111279,79.91422699,5,,
