CUSTOM.date [local],CUSTOM.updateTime [local],OSD.flyTime,OSD.flyTime [s],OSD.latitude,OSD.longitude,OSD.height [ft],OSD.heightMax [ft],OSD.vpsHeight [ft],OSD.altitude [ft],OSD.mileage [ft],OSD.hSpeed [MPH],OSD.hSpeedMax [MPH],OSD.xSpeed [MPH],OSD.xSpeedMax [MPH],OSD.ySpeed [MPH],OSD.ySpeedMax [MPH],OSD.zSpeed [MPH],OSD.zSpeedMax [MPH],OSD.pitch,OSD.roll,OSD.yaw,OSD.yaw [360],OSD.directionOfTravel,OSD.flycState,OSD.flycCommand,OSD.flightAction,OSD.gpsNum,OSD.gpsLevel,OSD.isGPSUsed,OSD.nonGPSCause,OSD.droneType,OSD.isSwaveWork,OSD.waveError,OSD.goHomeStatus,OSD.batteryType,OSD.ctrlDevice,OSD.isOnGround,OSD.isMotorOn,OSD.isMotorBlocked,OSD.motorStartFailedCause,OSD.motorFailReason,OSD.isImuPreheated,OSD.imuInitFailReason,OSD.isAcceletorOverRange,OSD.isBarometerDeadInAir,OSD.isCompassError,OSD.isGoHomeHeightModified,OSD.canIOCWork,OSD.isNotEnoughForce,OSD.isOutOfLimit,OSD.isPropellerCatapult,OSD.isVibrating,OSD.isVisionUsed,OSD.voltageWarning,GIMBAL.mode,GIMBAL.pitch,GIMBAL.roll,GIMBAL.yaw,GIMBAL.yaw [360],GIMBAL.isPitchAtLimit,GIMBAL.isRollAtLimit,GIMBAL.isYawAtLimit,GIMBAL.isStuck,CAMERA.isPhoto,CAMERA.isVideo,CAMERA.filename,CAMERA.sdCardIsInserted,CAMERA.sdCardState,RC.downlinkSignal,RC.uplinkSignal,RC.aileron,RC.elevator,RC.throttle,RC.rudder,RC.mode,RC.goHomeDepressed,RC.recordDepressed,RC.shutterDepressed,RC.playbackDepressed,RC.wheelDepressed,RC.wheelOffset,RC.custom1Depressed,RC.custom2Depressed,RC.custom3Depressed,RC.custom4Depressed,BATTERY.chargeLevel,BATTERY.currentPV [V],BATTERY.currentCapacity [mAh],BATTERY.fullCapacity [mAh],BATTERY.voltage [V],BATTERY.isCellVoltageEstimated,BATTERY.cellVoltage1 [V],BATTERY.cellVoltage2 [V],BATTERY.maxCellVoltageDeviation,BATTERY.isCellVoltageDeviationHigh,BATTERY.isVoltageLow,BATTERY.current [A],BATTERY.temperature [F],BATTERY.minTemperature [F],BATTERY.maxTemperature [F],BATTERY.usefulTime [s],BATTERY.goHomeTime [s],BATTERY.landTime [s],BATTERY.goHomeBattery,BATTERY.landBattery,BATTERY.safeFlyRadius,BATTERY.volumeConsume,BATTERY.status,BATTERY.goHomeStatus,BATTERY.goHomeCountdown,BATTERY.lowWarning,BATTERY.lowWarningGoHome,BATTERY.seriousLowWarning,BATTERY.seriousLowWarningLanding,BATTERY.timesCharged,MC.failSafeAction,MC.isObstacleAvoidanceEnabled,MC.isCollisionAvoidanceEnabled,MC.isRthObstacleAvoidanceEnabled,MC.isBraking,MC.isAvoidingObstacle,MC.isAvoidingActiveObstacle,MC.isAscentLimitedByObstacle,MC.isLandingConfirmationNeeded,MC.atLowAltitudeLimit,MC.atDistanceLimit,MC.atAirportAltitudeLimit,MC.atAirportBoundary,HOME.latitude,HOME.longitude,HOME.distance [ft],HOME.height [ft],HOME.heightLimit [ft],HOME.isHomeRecord,HOME.goHomeMode,HOME.aircraftHeadDirection,HOME.isDynamicHomePointEnabled,HOME.isReachedLimitDistance,HOME.isReachedLimitHeight,HOME.isCompassCalibrating,HOME.compassCalibrationState,HOME.isMultipleFlightModeEnabled,HOME.isBeginnerMode,HOME.isIOCEnabled,HOME.iocMode,HOME.goHomeHeight [ft],HOME.courseLockAngle,HOME.forceLandingHeight [ft],HOME.wind,HOME.dataRecorderFileIndex,RECOVER.appType,RECOVER.appVersion,RECOVER.aircraftName,RECOVER.aircraftSerial,RECOVER.cameraSerial,RECOVER.rcSerial,RECOVER.batterySerial,DETAILS.totalTime [s],DETAILS.totalDistance [ft],DETAILS.maxHeight [ft],DETAILS.maxHorizontalSpeed [MPH],DETAILS.maxVerticalSpeed [MPH],DETAILS.photoNum,DETAILS.videoTime [s],DETAILS.aircraftName,DETAILS.aircraftSerial,DETAILS.cameraSerial,DETAILS.rcSerial,DETAILS.batterySerial,DETAILS.appName,DETAILS.appType,DETAILS.appVersion,DETAILS.guid,SERIAL.flightController,SERIAL.camera,SERIAL.gimbal,SERIAL.rc,SERIAL.battery,APPGPS.latitude,APPGPS.longitude,APPGPS.accuracy,APP.tip,APP.warning
2/15/2024,24:25.3,0m 0.0s,0,6.974497027,79.91426324,0,0,0.3,49,0,0,0,0,0,0,0,0,0,3.4,0.7,24,24,,Starting Motors,Drop Calibration,Takeoff (RC Assisted),12,5,TRUE,,Mavic Mini,FALSE,FALSE,,Smart,RC,TRUE,TRUE,FALSE,,,TRUE,,FALSE,FALSE,FALSE,FALSE,FALSE,FALSE,FALSE,FALSE,FALSE,FALSE,0,Follow Yaw,0,0,48.4,48.4,FALSE,FALSE,FALSE,FALSE,FALSE,FALSE,,TRUE,Normal,,,364,364,364,1684,0,FALSE,FALSE,FALSE,FALSE,FALSE,0,FALSE,FALSE,FALSE,FALSE,97,8.18,2053,2113,8.18,TRUE,4.09,4.09,,FALSE,FALSE,NA,82.6,82.5,82.5,0,1,0,0,5,2552,638.01,,Idle,0,20,FALSE,5,TRUE,9,Go Home,FALSE,FALSE,FALSE,FALSE,FALSE,FALSE,FALSE,FALSE,FALSE,FALSE,FALSE,FALSE,6.974497738,79.91425342,3.5,126.9,328,TRUE,1,1,FALSE,FALSE,FALSE,FALSE,,TRUE,FALSE,FALSE,Course Lock,65.6,41.9,16.4,Calm,27,,1.12.8,Mavic Mini,1SDCH7G0169R0K,1SFLH6Q0AB03DJ,1SRCH7F014TAHX,1U5X071EXP5ZJG,113.2,0.2,22.9,9.712122,2.013246,0,374,Mavic Mini,1SDCH7G0169R0K,1SFLH6Q0AB03DJ,1SRCH7F014TAHX,1U5X071EXP5ZJG,DJI Fly,,1.12.8,9BF6E3B3-C81B-2932-A3DD-775863C01958,1SDCH7G0169R0K,,,,,,,,Data Recorder File Index is 27.; Set Return to Home (RTH) altitude to 20 m (66 ft).; Set maximum flight altitude to 100 m (328 ft).; Flight mode changed to Starting Motors.,
2/15/2024,24:25.5,0m 0.1s,0.1,6.974497047,79.91426341,0,0,0.3,49,0,0,0,0,0,0,0,0,0,3.4,0.7,24,24,,Starting Motors,Drop Calibration,Takeoff (RC Assisted),12,5,TRUE,,Mavic Mini,FALSE,FALSE,,Smart,RC,TRUE,TRUE,FALSE,,,TRUE,,FALSE,FALSE,FALSE,FALSE,FALSE,FALSE,FALSE,FALSE,FALSE,FALSE,0,Follow Yaw,0,0,48.3,48.3,FALSE,FALSE,FALSE,FALSE,FALSE,FALSE,,TRUE,Normal,,,1024,1024,1024,1024,0,FALSE,FALSE,FALSE,FALSE,FALSE,0,FALSE,FALSE,FALSE,FALSE,97,8.18,2053,2113,8.18,TRUE,4.09,4.09,,FALSE,FALSE,NA,82.6,82.5,82.5,0,1,0,0,5,2552,638.01,,Idle,0,20,FALSE,5,TRUE,9,Go Home,FALSE,FALSE,FALSE,FALSE,FALSE,FALSE,FALSE,FALSE,FALSE,FALSE,FALSE,FALSE,6.974497738,79.91425342,3.6,126.9,328,TRUE,1,1,FALSE,FALSE,FALSE,FALSE,,TRUE,FALSE,FALSE,Course Lock,65.6,41.9,16.4,Calm,27,,1.12.8,Mavic Mini,1SDCH7G0169R0K,1SFLH6Q0AB03DJ,1SRCH7F014TAHX,1U5X071EXP5ZJG,113.2,0.2,22.9,9.712122,2.013246,0,374,Mavic Mini,1SDCH7G0169R0K,1SFLH6Q0AB03DJ,1SRCH7F014TAHX,1U5X071EXP5ZJG,DJI Fly,,1.12.8,9BF6E3B3-C81B-2932-A3DD-775863C01958,1SDCH7G0169R0K,,,,,,,,,
2/15/2024,24:25.6,0m 0.2s,0.2,6.974497112,79.91426358,0,0,0.3,49,0,0,0,0,0,0,0,0,0,3.4,0.7,24,24,,Starting Motors,Drop Calibration,Takeoff (RC Assisted),12,5,TRUE,,Mavic Mini,FALSE,FALSE,,Smart,RC,TRUE,TRUE,FALSE,,,TRUE,,FALSE,FALSE,FALSE,FALSE,FALSE,FALSE,FALSE,FALSE,FALSE,FALSE,0,Follow Yaw,0,0,48.3,48.3,FALSE,FALSE,FALSE,FALSE,FALSE,FALSE,,TRUE,Normal,,,1024,1024,1024,1024,0,FALSE,FALSE,FALSE,FALSE,FALSE,0,FALSE,FALSE,FALSE,FALSE,97,8.18,2053,2113,8.18,TRUE,4.09,4.09,,FALSE,FALSE,NA,82.6,82.5,82.5,0,1,0,0,5,2552,638.01,,Idle,0,20,FALSE,5,TRUE,9,Go Home,FALSE,FALSE,FALSE,FALSE,FALSE,FALSE,FALSE,FALSE,FALSE,FALSE,FALSE,FALSE,6.974497738,79.91425342,3.6,126.9,328,TRUE,1,1,FALSE,FALSE,FALSE,FALSE,,TRUE,FALSE,FALSE,Course Lock,65.6,41.9,16.4,Calm,27,,1.12.8,Mavic Mini,1SDCH7G0169R0K,1SFLH6Q0AB03DJ,1SRCH7F014TAHX,1U5X071EXP5ZJG,113.2,0.2,22.9,9.712122,2.013246,0,374,Mavic Mini,1SDCH7G0169R0K,1SFLH6Q0AB03DJ,1SRCH7F014TAHX,1U5X071EXP5ZJG,DJI Fly,,1.12.8,9BF6E3B3-C81B-2932-A3DD-775863C01958,1SDCH7G0169R0K,,,,,,,,,
2/15/2024,24:25.7,0m 0.3s,0.3,6.974497217,79.91426376,0,0,0.3,49,0.1,0,0,0,0,0,0,0,0,3.4,0.7,24,24,,Starting Motors,Drop Calibration,Takeoff (RC Assisted),12,5,TRUE,,Mavic Mini,TRUE,FALSE,,Smart,RC,TRUE,TRUE,FALSE,,,TRUE,,FALSE,FALSE,FALSE,FALSE,FALSE,FALSE,FALSE,FALSE,FALSE,FALSE,0,Follow Yaw,0,0,48.3,48.3,FALSE,FALSE,FALSE,FALSE,FALSE,FALSE,,TRUE,Normal,,,1024,1024,1024,1024,0,FALSE,FALSE,FALSE,FALSE,FALSE,0,FALSE,FALSE,FALSE,FALSE,97,8.18,2053,2113,8.18,TRUE,4.09,4.09,,FALSE,FALSE,NA,82.6,82.5,82.5,0,1,0,0,5,2552,638.01,,Idle,0,20,FALSE,5,TRUE,9,Go Home,FALSE,FALSE,FALSE,FALSE,FALSE,FALSE,FALSE,FALSE,FALSE,FALSE,FALSE,FALSE,6.974497738,79.91425342,3.7,126.9,328,TRUE,1,1,FALSE,FALSE,FALSE,FALSE,,TRUE,FALSE,FALSE,Course Lock,65.6,41.9,16.4,Calm,27,,1.12.8,Mavic Mini,1SDCH7G0169R0K,1SFLH6Q0AB03DJ,1SRCH7F014TAHX,1U5X071EXP5ZJG,113.2,0.2,22.9,9.712122,2.013246,0,374,Mavic Mini,1SDCH7G0169R0K,1SFLH6Q0AB03DJ,1SRCH7F014TAHX,1U5X071EXP5ZJG,DJI Fly,,1.12.8,9BF6E3B3-C81B-2932-A3DD-775863C01958,1SDCH7G0169R0K,,,,,,,,,
2/15/2024,24:25.8,0m 0.4s,0.4,6.974497462,79.91426407,0,0,0.3,49,0.2,0,0,0,0,0,0,0,0,3.4,0.7,24,24,,Starting Motors,Drop Calibration,Takeoff (RC Assisted),12,5,TRUE,,Mavic Mini,TRUE,FALSE,,Smart,RC,TRUE,TRUE,FALSE,,,TRUE,,FALSE,FALSE,FALSE,FALSE,FALSE,FALSE,FALSE,FALSE,FALSE,FALSE,0,Follow Yaw,0,0,48.3,48.3,FALSE,FALSE,FALSE,FALSE,FALSE,FALSE,,TRUE,Normal,,100,1024,1024,1024,1024,0,FALSE,FALSE,FALSE,FALSE,FALSE,0,FALSE,FALSE,FALSE,FALSE,97,8.18,2053,2113,8.18,TRUE,4.09,4.09,,FALSE,FALSE,NA,82.6,82.5,82.5,0,1,0,0,5,2552,638.01,,Idle,0,20,FALSE,5,TRUE,9,Go Home,FALSE,FALSE,FALSE,FALSE,FALSE,FALSE,FALSE,FALSE,FALSE,FALSE,FALSE,FALSE,6.974497738,79.91425342,3.8,126.9,328,TRUE,1,1,FALSE,FALSE,FALSE,FALSE,,TRUE,FALSE,FALSE,Course Lock,65.6,41.9,16.4,Calm,27,,1.12.8,Mavic Mini,1SDCH7G0169R0K,1SFLH6Q0AB03DJ,1SRCH7F014TAHX,1U5X071EXP5ZJG,113.2,0.2,22.9,9.712122,2.013246,0,374,Mavic Mini,1SDCH7G0169R0K,1SFLH6Q0AB03DJ,1SRCH7F014TAHX,1U5X071EXP5ZJG,DJI Fly,,1.12.8,9BF6E3B3-C81B-2932-A3DD-775863C01958,1SDCH7G0169R0K,,,,,,,,,
2/15/2024,24:25.9,0m 0.5s,0.5,6.974497542,79.91426424,0,0,0.3,49,0.3,0,0,0,0,0,0,0,0,3.4,0.6,23.9,23.9,,Starting Motors,Drop Calibration,Takeoff (RC Assisted),12,5,TRUE,,Mavic Mini,TRUE,FALSE,,Smart,RC,TRUE,TRUE,FALSE,,,TRUE,,FALSE,FALSE,FALSE,FALSE,FALSE,FALSE,FALSE,FALSE,FALSE,FALSE,0,Follow Yaw,0,0,48.3,48.3,FALSE,FALSE,FALSE,FALSE,FALSE,FALSE,,TRUE,Normal,,100,1024,1024,1024,1024,0,FALSE,FALSE,FALSE,FALSE,FALSE,0,FALSE,FALSE,FALSE,FALSE,97,8.166,2053,2113,8.18,FALSE,4.084,4.082,0.002,FALSE,FALSE,NA,82.6,82.5,82.5,0,1,0,0,5,2552,638.01,,Idle,0,20,FALSE,5,TRUE,9,Go Home,FALSE,FALSE,FALSE,FALSE,FALSE,FALSE,FALSE,FALSE,FALSE,FALSE,FALSE,FALSE,6.974497738,79.91425342,3.9,126.9,328,TRUE,1,1,FALSE,FALSE,FALSE,FALSE,,TRUE,FALSE,FALSE,Course Lock,65.6,41.9,16.4,Calm,27,,1.12.8,Mavic Mini,1SDCH7G0169R0K,1SFLH6Q0AB03DJ,1SRCH7F014TAHX,1U5X071EXP5ZJG,113.2,0.2,22.9,9.712122,2.013246,0,374,Mavic Mini,1SDCH7G0169R0K,1SFLH6Q0AB03DJ,1SRCH7F014TAHX,1U5X071EXP5ZJG,DJI Fly,,1.12.8,9BF6E3B3-C81B-2932-A3DD-775863C01958,1SDCH7G0169R0K,,,,,,,,,
2/15/2024,24:26.2,0m 0.6s,0.6,6.97449761,79.91426437,0,0,0.3,49,0.4,0,0,0,0,0,0,0,0,3.4,0.5,24.1,24.1,,Starting Motors,Drop Calibration,Takeoff (RC Assisted),12,5,TRUE,,Mavic Mini,TRUE,FALSE,,Smart,RC,TRUE,TRUE,FALSE,,,TRUE,,FALSE,FALSE,FALSE,FALSE,FALSE,FALSE,FALSE,FALSE,FALSE,FALSE,0,Follow Yaw,0,0,48.3,48.3,FALSE,FALSE,FALSE,FALSE,FALSE,FALSE,,TRUE,Normal,,100,1024,1024,1024,1024,0,FALSE,FALSE,FALSE,FALSE,FALSE,0,FALSE,FALSE,FALSE,FALSE,97,8.166,2053,2113,8.18,FALSE,4.084,4.082,0.002,FALSE,FALSE,NA,82.6,82.5,82.5,0,1,0,0,5,2552,638.01,,Idle,0,20,FALSE,5,TRUE,9,Go Home,FALSE,FALSE,FALSE,FALSE,FALSE,FALSE,FALSE,FALSE,FALSE,FALSE,FALSE,FALSE,6.974497738,79.91425342,3.9,126.9,328,TRUE,1,1,FALSE,FALSE,FALSE,FALSE,,TRUE,FALSE,FALSE,Course Lock,65.6,41.9,16.4,Calm,27,,1.12.8,Mavic Mini,1SDCH7G0169R0K,1SFLH6Q0AB03DJ,1SRCH7F014TAHX,1U5X071EXP5ZJG,113.2,0.2,22.9,9.712122,2.013246,0,374,Mavic Mini,1SDCH7G0169R0K,1SFLH6Q0AB03DJ,1SRCH7F014TAHX,1U5X071EXP5ZJG,DJI Fly,,1.12.8,9BF6E3B3-C81B-2932-A3DD-775863C01958,1SDCH7G0169R0K,,,,,,,,,
2/15/2024,24:26.2,0m 0.7s,0.7,6.974497674,79.91426449,0,0,0.3,49,0.4,0,0,0,0,0,0,0,0,3.4,0.6,24,24,,Starting Motors,Drop Calibration,Takeoff (RC Assisted),12,5,TRUE,,Mavic Mini,TRUE,FALSE,,Smart,RC,TRUE,TRUE,FALSE,,,TRUE,,FALSE,FALSE,FALSE,FALSE,FALSE,FALSE,FALSE,FALSE,FALSE,FALSE,0,Follow Yaw,0,0,48.4,48.4,FALSE,FALSE,FALSE,FALSE,FALSE,FALSE,,TRUE,Normal,,100,1024,1024,1024,1024,0,FALSE,FALSE,FALSE,FALSE,FALSE,0,FALSE,FALSE,FALSE,FALSE,97,8.166,2053,2113,8.18,FALSE,4.084,4.082,0.002,FALSE,FALSE,NA,82.6,82.5,82.5,0,1,0,0,5,2552,638.01,,Idle,0,20,FALSE,5,TRUE,9,Go Home,FALSE,FALSE,FALSE,FALSE,FALSE,FALSE,FALSE,FALSE,FALSE,FALSE,FALSE,FALSE,6.974497738,79.91425342,4,126.9,328,TRUE,1,1,FALSE,FALSE,FALSE,FALSE,,TRUE,FALSE,FALSE,Course Lock,65.6,41.9,16.4,Calm,27,,1.12.8,Mavic Mini,1SDCH7G0169R0K,1SFLH6Q0AB03DJ,1SRCH7F014TAHX,1U5X071EXP5ZJG,113.2,0.2,22.9,9.712122,2.013246,0,374,Mavic Mini,1SDCH7G0169R0K,1SFLH6Q0AB03DJ,1SRCH7F014TAHX,1U5X071EXP5ZJG,DJI Fly,,1.12.8,9BF6E3B3-C81B-2932-A3DD-775863C01958,1SDCH7G0169R0K,,,,,,,,,
2/15/2024,24:26.3,0m 0.8s,0.8,6.974497729,79.91426461,0,0,0.3,49,0.5,0,0,0,0,0,0,0,0,3.4,0.6,23.9,23.9,,Starting Motors,Drop Calibration,Takeoff (RC Assisted),12,5,TRUE,,Mavic Mini,TRUE,FALSE,,Smart,RC,TRUE,TRUE,FALSE,,,TRUE,,FALSE,FALSE,FALSE,FALSE,FALSE,FALSE,FALSE,FALSE,FALSE,FALSE,0,Follow Yaw,0,0,48.4,48.4,FALSE,FALSE,FALSE,FALSE,FALSE,FALSE,,TRUE,Normal,,100,1024,1024,1024,1024,0,FALSE,FALSE,FALSE,FALSE,FALSE,0,FALSE,FALSE,FALSE,FALSE,97,8.166,2053,2113,8.18,FALSE,4.084,4.082,0.002,FALSE,FALSE,NA,82.6,82.5,82.5,0,1,0,0,5,2552,638.01,,Idle,0,20,FALSE,5,TRUE,9,Go Home,FALSE,FALSE,FALSE,FALSE,FALSE,FALSE,FALSE,FALSE,FALSE,FALSE,FALSE,FALSE,6.974497738,79.91425342,4,126.9,328,TRUE,1,1,FALSE,FALSE,FALSE,FALSE,,TRUE,FALSE,FALSE,Course Lock,65.6,41.9,16.4,Calm,27,,1.12.8,Mavic Mini,1SDCH7G0169R0K,1SFLH6Q0AB03DJ,1SRCH7F014TAHX,1U5X071EXP5ZJG,113.2,0.2,22.9,9.712122,2.013246,0,374,Mavic Mini,1SDCH7G0169R0K,1SFLH6Q0AB03DJ,1SRCH7F014TAHX,1U5X071EXP5ZJG,DJI Fly,,1.12.8,9BF6E3B3-C81B-2932-A3DD-775863C01958,1SDCH7G0169R0K,,,,,,,,,
2/15/2024,24:26.3,0m 0.9s,0.9,6.974497763,79.9142647,0,0,0.3,49,0.5,0,0,0,0,0,0,0,0,3.4,0.6,23.9,23.9,,Starting Motors,Drop Calibration,Takeoff (RC Assisted),12,5,TRUE,,Mavic Mini,TRUE,FALSE,,Smart,RC,TRUE,TRUE,FALSE,,,TRUE,,FALSE,FALSE,FALSE,FALSE,FALSE,FALSE,FALSE,FALSE,FALSE,FALSE,0,Follow Yaw,0,0,48.4,48.4,FALSE,FALSE,FALSE,FALSE,FALSE,FALSE,,TRUE,Normal,,100,1024,1024,1024,1024,0,FALSE,FALSE,FALSE,FALSE,FALSE,0,FALSE,FALSE,FALSE,FALSE,97,8.166,2053,2113,8.18,FALSE,4.084,4.082,0.002,FALSE,FALSE,NA,82.6,82.5,82.5,0,1,0,0,5,2552,638.01,,Idle,0,20,FALSE,5,TRUE,9,Go Home,FALSE,FALSE,FALSE,FALSE,FALSE,FALSE,FALSE,FALSE,FALSE,FALSE,FALSE,FALSE,6.974497738,79.91425342,4,126.9,328,TRUE,1,1,FALSE,FALSE,FALSE,FALSE,,TRUE,FALSE,FALSE,Course Lock,65.6,41.9,16.4,Calm,27,,1.12.8,Mavic Mini,1SDCH7G0169R0K,1SFLH6Q0AB03DJ,1SRCH7F014TAHX,1U5X071EXP5ZJG,113.2,0.2,22.9,9.712122,2.013246,0,374,Mavic Mini,1SDCH7G0169R0K,1SFLH6Q0AB03DJ,1SRCH7F014TAHX,1U5X071EXP5ZJG,DJI Fly,,1.12.8,9BF6E3B3-C81B-2932-A3DD-775863C01958,1SDCH7G0169R0K,,,,,,,,,
2/15/2024,24:26.4,0m 1.0s,1,6.974497811,79.91426482,0,0,0.3,49,0.5,0,0,0,0,0,0,0,0,3.4,0.6,24,24,,Starting Motors,Drop Calibration,Takeoff (RC Assisted),12,5,TRUE,,Mavic Mini,TRUE,FALSE,,Smart,RC,TRUE,TRUE,FALSE,,,TRUE,,FALSE,FALSE,FALSE,FALSE,FALSE,FALSE,FALSE,FALSE,FALSE,FALSE,0,Follow Yaw,0,0,48.4,48.4,FALSE,FALSE,FALSE,FALSE,FALSE,FALSE,,TRUE,Normal,,100,1024,1024,1024,1024,0,FALSE,FALSE,FALSE,FALSE,FALSE,0,FALSE,FALSE,FALSE,FALSE,97,8.166,2053,2113,8.163,FALSE,4.084,4.082,0.002,FALSE,FALSE,NA,82.6,82.5,82.5,0,1,0,0,5,2563.6,640.91,,Idle,0,20,FALSE,5,TRUE,9,Go Home,FALSE,FALSE,FALSE,FALSE,FALSE,FALSE,FALSE,FALSE,FALSE,FALSE,FALSE,FALSE,6.974497738,79.91425342,4.1,126.9,328,TRUE,1,1,FALSE,FALSE,FALSE,FALSE,,TRUE,FALSE,FALSE,Course Lock,65.6,41.9,16.4,Calm,27,,1.12.8,Mavic Mini,1SDCH7G0169R0K,1SFLH6Q0AB03DJ,1SRCH7F014TAHX,1U5X071EXP5ZJG,113.2,0.2,22.9,9.712122,2.013246,0,374,Mavic Mini,1SDCH7G0169R0K,1SFLH6Q0AB03DJ,1SRCH7F014TAHX,1U5X071EXP5ZJG,DJI Fly,,1.12.8,9BF6E3B3-C81B-2932-A3DD-775863C01958,1SDCH7G0169R0K,,,,,,,,,
2/15/2024,24:26.5,0m 1.1s,1.1,6.974497859,79.91426492,0,0,0.3,49,0.6,0,0,0,0,0,0,0,0,3.4,0.6,24,24,,Manual Takeoff,Drop Calibration,Takeoff (RC Assisted),12,5,TRUE,,Mavic Mini,TRUE,FALSE,,Smart,RC,TRUE,TRUE,FALSE,,,TRUE,,FALSE,FALSE,FALSE,FALSE,FALSE,FALSE,FALSE,FALSE,FALSE,FALSE,0,Follow Yaw,0,0,48.4,48.4,FALSE,FALSE,FALSE,FALSE,FALSE,FALSE,,TRUE,Normal,,100,1024,1024,1024,1024,0,FALSE,FALSE,FALSE,FALSE,FALSE,0,FALSE,FALSE,FALSE,FALSE,97,8.166,2053,2113,8.163,FALSE,4.084,4.082,0.002,FALSE,FALSE,NA,82.6,82.5,82.5,0,1,0,0,5,2563.6,640.91,,Idle,0,20,FALSE,5,TRUE,9,Go Home,FALSE,FALSE,FALSE,FALSE,FALSE,FALSE,FALSE,FALSE,FALSE,FALSE,FALSE,FALSE,6.974497738,79.91425342,4.1,126.9,328,TRUE,1,1,FALSE,FALSE,FALSE,FALSE,,TRUE,FALSE,FALSE,Course Lock,65.6,41.9,16.4,Calm,27,,1.12.8,Mavic Mini,1SDCH7G0169R0K,1SFLH6Q0AB03DJ,1SRCH7F014TAHX,1U5X071EXP5ZJG,113.2,0.2,22.9,9.712122,2.013246,0,374,Mavic Mini,1SDCH7G0169R0K,1SFLH6Q0AB03DJ,1SRCH7F014TAHX,1U5X071EXP5ZJG,DJI Fly,,1.12.8,9BF6E3B3-C81B-2932-A3DD-775863C01958,1SDCH7G0169R0K,,,,,,,,Flight mode changed to Manual Takeoff.,
2/15/2024,24:26.6,0m 1.2s,1.2,6.974497876,79.91426501,0,0,0.3,49,0.6,0,0,0,0,0,0,0,0,3.3,0.6,24,24,,Manual Takeoff,Drop Calibration,Takeoff (RC Assisted),12,5,TRUE,,Mavic Mini,TRUE,FALSE,,Smart,RC,TRUE,TRUE,FALSE,,,TRUE,,FALSE,FALSE,FALSE,FALSE,FALSE,FALSE,FALSE,FALSE,FALSE,FALSE,0,Follow Yaw,0,0,48.4,48.4,FALSE,FALSE,FALSE,FALSE,FALSE,FALSE,,TRUE,Normal,,100,1024,1024,1024,1024,0,FALSE,FALSE,FALSE,FALSE,FALSE,0,FALSE,FALSE,FALSE,FALSE,97,8.166,2053,2113,8.163,FALSE,4.084,4.082,0.002,FALSE,FALSE,NA,82.6,82.5,82.5,0,1,0,0,5,2563.6,640.91,,Idle,0,20,FALSE,5,TRUE,9,Go Home,FALSE,FALSE,FALSE,FALSE,FALSE,FALSE,FALSE,FALSE,FALSE,FALSE,FALSE,FALSE,6.974497738,79.91425342,4.1,126.9,328,TRUE,1,1,FALSE,FALSE,FALSE,FALSE,,TRUE,FALSE,FALSE,Course Lock,65.6,41.9,16.4,Calm,27,,1.12.8,Mavic Mini,1SDCH7G0169R0K,1SFLH6Q0AB03DJ,1SRCH7F014TAHX,1U5X071EXP5ZJG,113.2,0.2,22.9,9.712122,2.013246,0,374,Mavic Mini,1SDCH7G0169R0K,1SFLH6Q0AB03DJ,1SRCH7F014TAHX,1U5X071EXP5ZJG,DJI Fly,,1.12.8,9BF6E3B3-C81B-2932-A3DD-775863C01958,1SDCH7G0169R0K,,,,,,,,,
2/15/2024,24:26.7,0m 1.3s,1.3,6.974497773,79.91426499,0,0,0.3,49,0.6,0,0,0,0,0,0,0,0,3.4,0.6,24,24,,Manual Takeoff,Drop Calibration,Takeoff (RC Assisted),12,5,TRUE,,Mavic Mini,TRUE,FALSE,,Smart,RC,TRUE,TRUE,FALSE,,,TRUE,,FALSE,FALSE,FALSE,FALSE,FALSE,FALSE,FALSE,FALSE,FALSE,FALSE,0,Follow Yaw,0,0,48.4,48.4,FALSE,FALSE,FALSE,FALSE,FALSE,FALSE,,TRUE,Normal,,100,1024,1024,1024,1024,0,FALSE,FALSE,FALSE,FALSE,FALSE,0,FALSE,FALSE,FALSE,FALSE,97,8.166,2053,2113,8.163,FALSE,4.084,4.082,0.002,FALSE,FALSE,NA,82.6,82.5,82.5,0,1,0,0,5,2563.6,640.91,,Idle,0,20,FALSE,5,TRUE,9,Go Home,FALSE,FALSE,FALSE,FALSE,FALSE,FALSE,FALSE,FALSE,FALSE,FALSE,FALSE,FALSE,6.974497738,79.91425342,4.1,126.9,328,TRUE,1,1,FALSE,FALSE,FALSE,FALSE,,TRUE,FALSE,FALSE,Course Lock,65.6,41.9,16.4,Calm,27,,1.12.8,Mavic Mini,1SDCH7G0169R0K,1SFLH6Q0AB03DJ,1SRCH7F014TAHX,1U5X071EXP5ZJG,113.2,0.2,22.9,9.712122,2.013246,0,374,Mavic Mini,1SDCH7G0169R0K,1SFLH6Q0AB03DJ,1SRCH7F014TAHX,1U5X071EXP5ZJG,DJI Fly,,1.12.8,9BF6E3B3-C81B-2932-A3DD-775863C01958,1SDCH7G0169R0K,,,,,,,,,
2/15/2024,24:26.8,0m 1.4s,1.4,6.974497789,79.91426504,0,0,0.3,49,0.7,0,0,0,0,0,0,0,0,3.4,0.6,24,24,,Manual Takeoff,Drop Calibration,Takeoff (RC Assisted),12,5,TRUE,,Mavic Mini,TRUE,FALSE,,Smart,RC,TRUE,TRUE,FALSE,,,TRUE,,FALSE,FALSE,FALSE,FALSE,FALSE,FALSE,FALSE,FALSE,FALSE,FALSE,0,Follow Yaw,0,0,48.4,48.4,FALSE,FALSE,FALSE,FALSE,FALSE,FALSE,,TRUE,Normal,,100,1024,1024,1024,1024,0,FALSE,FALSE,FALSE,FALSE,FALSE,0,FALSE,FALSE,FALSE,FALSE,97,8.166,2053,2113,8.163,FALSE,4.084,4.082,0.002,FALSE,FALSE,NA,82.6,82.5,82.5,0,1,0,0,5,2563.6,640.91,,Idle,0,20,FALSE,5,TRUE,9,Go Home,FALSE,FALSE,FALSE,FALSE,FALSE,FALSE,FALSE,FALSE,FALSE,FALSE,FALSE,FALSE,6.974497738,79.91425342,4.2,126.9,328,TRUE,1,1,FALSE,FALSE,FALSE,FALSE,,TRUE,FALSE,FALSE,Course Lock,65.6,41.9,16.4,Calm,27,,1.12.8,Mavic Mini,1SDCH7G0169R0K,1SFLH6Q0AB03DJ,1SRCH7F014TAHX,1U5X071EXP5ZJG,113.2,0.2,22.9,9.712122,2.013246,0,374,Mavic Mini,1SDCH7G0169R0K,1SFLH6Q0AB03DJ,1SRCH7F014TAHX,1U5X071EXP5ZJG,DJI Fly,,1.12.8,9BF6E3B3-C81B-2932-A3DD-775863C01958,1SDCH7G0169R0K,,,,,,,,,
2/15/2024,24:26.9,0m 1.5s,1.5,6.974497822,79.91426508,0,0,0.3,49,0.7,0,0,0,0,0,0,0,0,3.4,0.6,23.9,23.9,,Manual Takeoff,Drop Calibration,Takeoff (RC Assisted),12,5,TRUE,,Mavic Mini,TRUE,FALSE,,Smart,RC,TRUE,TRUE,FALSE,,,TRUE,,FALSE,FALSE,FALSE,FALSE,FALSE,FALSE,FALSE,FALSE,FALSE,FALSE,0,Follow Yaw,0,0,48.4,48.4,FALSE,FALSE,FALSE,FALSE,FALSE,FALSE,,TRUE,Normal,,100,1024,1024,1024,1024,0,FALSE,FALSE,FALSE,FALSE,FALSE,0,FALSE,FALSE,FALSE,FALSE,97,8.166,2053,2113,8.163,FALSE,4.084,4.082,0.002,FALSE,FALSE,NA,82.6,82.5,82.5,0,1,0,0,5,2563.6,640.91,,Idle,0,20,FALSE,5,TRUE,9,Go Home,FALSE,FALSE,FALSE,FALSE,FALSE,FALSE,FALSE,FALSE,FALSE,FALSE,FALSE,FALSE,6.974497738,79.91425342,4.2,126.9,328,TRUE,1,1,FALSE,FALSE,FALSE,FALSE,,TRUE,FALSE,FALSE,Course Lock,65.6,41.9,16.4,Calm,27,,1.12.8,Mavic Mini,1SDCH7G0169R0K,1SFLH6Q0AB03DJ,1SRCH7F014TAHX,1U5X071EXP5ZJG,113.2,0.2,22.9,9.712122,2.013246,0,374,Mavic Mini,1SDCH7G0169R0K,1SFLH6Q0AB03DJ,1SRCH7F014TAHX,1U5X071EXP5ZJG,DJI Fly,,1.12.8,9BF6E3B3-C81B-2932-A3DD-775863C01958,1SDCH7G0169R0K,,,,,,,,,
2/15/2024,24:27.0,0m 1.6s,1.6,6.974497836,79.91426513,0,0,0.3,49,0.7,0,0,0,0,0,0,0,0,3.4,0.6,24,24,,Manual Takeoff,Drop Calibration,Takeoff (RC Assisted),12,5,TRUE,,Mavic Mini,TRUE,FALSE,,Smart,RC,TRUE,TRUE,FALSE,,,TRUE,,FALSE,FALSE,FALSE,FALSE,FALSE,FALSE,FALSE,FALSE,FALSE,FALSE,0,Follow Yaw,0,0,48.4,48.4,FALSE,FALSE,FALSE,FALSE,FALSE,FALSE,,TRUE,Normal,,100,1024,1024,1024,1024,0,FALSE,FALSE,FALSE,FALSE,FALSE,0,FALSE,FALSE,FALSE,FALSE,97,8.166,2053,2113,8.163,FALSE,4.084,4.082,0.002,FALSE,FALSE,NA,82.6,82.5,82.5,0,1,0,0,5,2563.6,640.91,,Idle,0,20,FALSE,5,TRUE,9,Go Home,FALSE,FALSE,FALSE,FALSE,FALSE,FALSE,FALSE,FALSE,FALSE,FALSE,FALSE,FALSE,6.974497738,79.91425342,4.2,126.9,328,TRUE,1,1,FALSE,FALSE,FALSE,FALSE,,TRUE,FALSE,FALSE,Course Lock,65.6,41.9,16.4,Calm,27,,1.12.8,Mavic Mini,1SDCH7G0169R0K,1SFLH6Q0AB03DJ,1SRCH7F014TAHX,1U5X071EXP5ZJG,113.2,0.2,22.9,9.712122,2.013246,0,374,Mavic Mini,1SDCH7G0169R0K,1SFLH6Q0AB03DJ,1SRCH7F014TAHX,1U5X071EXP5ZJG,DJI Fly,,1.12.8,9BF6E3B3-C81B-2932-A3DD-775863C01958,1SDCH7G0169R0K,,,,,,,,,
2/15/2024,24:27.1,0m 1.7s,1.7,6.974497777,79.91426509,0,0,0.3,49,0.7,0,0,0,0,0,0,0,0,3.4,0.6,24,24,,Manual Takeoff,Drop Calibration,Takeoff (RC Assisted),11,4,TRUE,,Mavic Mini,TRUE,FALSE,,Smart,RC,TRUE,TRUE,FALSE,,,TRUE,,FALSE,FALSE,FALSE,FALSE,FALSE,FALSE,FALSE,FALSE,FALSE,FALSE,0,Follow Yaw,0,0,48.4,48.4,FALSE,FALSE,FALSE,FALSE,FALSE,FALSE,,TRUE,Normal,,100,1024,1024,1024,1024,0,FALSE,FALSE,FALSE,FALSE,FALSE,0,FALSE,FALSE,FALSE,FALSE,97,8.163,2053,2113,8.163,FALSE,4.082,4.081,0.002,FALSE,FALSE,NA,82.6,82.5,82.5,0,1,0,0,5,2563.6,640.91,,Idle,0,20,FALSE,5,TRUE,9,Go Home,FALSE,FALSE,FALSE,FALSE,FALSE,FALSE,FALSE,FALSE,FALSE,FALSE,FALSE,FALSE,6.974497738,79.91425342,4.2,126.9,328,TRUE,1,1,FALSE,FALSE,FALSE,FALSE,,TRUE,FALSE,FALSE,Course Lock,65.6,41.9,16.4,Calm,27,,1.12.8,Mavic Mini,1SDCH7G0169R0K,1SFLH6Q0AB03DJ,1SRCH7F014TAHX,1U5X071EXP5ZJG,113.2,0.2,22.9,9.712122,2.013246,0,374,Mavic Mini,1SDCH7G0169R0K,1SFLH6Q0AB03DJ,1SRCH7F014TAHX,1U5X071EXP5ZJG,DJI Fly,,1.12.8,9BF6E3B3-C81B-2932-A3DD-775863C01958,1SDCH7G0169R0K,,,,,,,,,
2/15/2024,24:27.2,0m 1.8s,1.8,6.974497772,79.91426515,0,0,0.3,49,0.8,0,0,0,0,0,0,0,0,3.4,0.6,24,24,,Manual Takeoff,Drop Calibration,Takeoff (RC Assisted),11,4,TRUE,,Mavic Mini,TRUE,FALSE,,Smart,RC,TRUE,TRUE,FALSE,,,TRUE,,FALSE,FALSE,FALSE,FALSE,FALSE,FALSE,FALSE,FALSE,FALSE,FALSE,0,Follow Yaw,0,0,48.4,48.4,FALSE,FALSE,FALSE,FALSE,FALSE,FALSE,,TRUE,Normal,,100,1024,1024,1024,1024,0,FALSE,FALSE,FALSE,FALSE,FALSE,0,FALSE,FALSE,FALSE,FALSE,97,8.163,2053,2113,8.163,FALSE,4.082,4.081,0.002,FALSE,FALSE,NA,82.6,82.5,82.5,0,1,0,0,5,2563.6,640.91,,Idle,0,20,FALSE,5,TRUE,9,Go Home,FALSE,FALSE,FALSE,FALSE,FALSE,FALSE,FALSE,FALSE,FALSE,FALSE,FALSE,FALSE,6.974497738,79.91425342,4.2,126.9,328,TRUE,1,1,FALSE,FALSE,FALSE,FALSE,,TRUE,FALSE,FALSE,Course Lock,65.6,41.9,16.4,Calm,27,,1.12.8,Mavic Mini,1SDCH7G0169R0K,1SFLH6Q0AB03DJ,1SRCH7F014TAHX,1U5X071EXP5ZJG,113.2,0.2,22.9,9.712122,2.013246,0,374,Mavic Mini,1SDCH7G0169R0K,1SFLH6Q0AB03DJ,1SRCH7F014TAHX,1U5X071EXP5ZJG,DJI Fly,,1.12.8,9BF6E3B3-C81B-2932-A3DD-775863C01958,1SDCH7G0169R0K,,,,,,,,,
2/15/2024,24:27.2,0m 1.9s,1.9,6.974497764,79.91426519,0,0,0.3,49,0.8,0,0,0,0,0,0,0,0,3.4,0.6,24,24,,Manual Takeoff,Drop Calibration,Takeoff (RC Assisted),11,4,TRUE,,Mavic Mini,TRUE,FALSE,,Smart,RC,TRUE,TRUE,FALSE,,,TRUE,,FALSE,FALSE,FALSE,FALSE,FALSE,FALSE,FALSE,FALSE,FALSE,FALSE,0,Follow Yaw,0,0,48.4,48.4,FALSE,FALSE,FALSE,FALSE,FALSE,FALSE,,TRUE,Normal,,100,1024,1024,1024,1024,0,FALSE,FALSE,FALSE,FALSE,FALSE,0,FALSE,FALSE,FALSE,FALSE,97,8.163,2053,2113,8.163,FALSE,4.082,4.081,0.002,FALSE,FALSE,NA,82.6,82.5,82.5,0,1,0,0,5,2563.6,640.91,,Idle,0,20,FALSE,5,TRUE,9,Go Home,FALSE,FALSE,FALSE,FALSE,FALSE,FALSE,FALSE,FALSE,FALSE,FALSE,FALSE,FALSE,6.974497738,79.91425342,4.2,126.9,328,TRUE,1,1,FALSE,FALSE,FALSE,FALSE,,TRUE,FALSE,FALSE,Course Lock,65.6,41.9,16.4,Calm,27,,1.12.8,Mavic Mini,1SDCH7G0169R0K,1SFLH6Q0AB03DJ,1SRCH7F014TAHX,1U5X071EXP5ZJG,113.2,0.2,22.9,9.712122,2.013246,0,374,Mavic Mini,1SDCH7G0169R0K,1SFLH6Q0AB03DJ,1SRCH7F014TAHX,1U5X071EXP5ZJG,DJI Fly,,1.12.8,9BF6E3B3-C81B-2932-A3DD-775863C01958,1SDCH7G0169R0K,,,,,,,,,
2/15/2024,24:27.5,0m 2.0s,2,6.974497753,79.91426523,0,0,0.3,49,0.8,0,0,0,0,0,0,0,0,3.4,0.6,24,24,,Manual Takeoff,Drop Calibration,Takeoff (RC Assisted),11,4,TRUE,,Mavic Mini,TRUE,FALSE,,Smart,RC,TRUE,TRUE,FALSE,,,TRUE,,FALSE,FALSE,FALSE,FALSE,FALSE,FALSE,FALSE,FALSE,FALSE,FALSE,0,Follow Yaw,0,0,48.4,48.4,FALSE,FALSE,FALSE,FALSE,FALSE,FALSE,,TRUE,Normal,,100,1024,1024,1024,1024,0,FALSE,FALSE,FALSE,FALSE,FALSE,0,FALSE,FALSE,FALSE,FALSE,97,8.163,2053,2113,8.164,FALSE,4.082,4.081,0.002,FALSE,FALSE,NA,82.6,82.5,82.5,0,1,0,0,5,2619.7,654.94,,Idle,0,20,FALSE,5,TRUE,9,Go Home,FALSE,FALSE,FALSE,FALSE,FALSE,FALSE,FALSE,FALSE,FALSE,FALSE,FALSE,FALSE,6.974497738,79.91425342,4.2,126.9,328,TRUE,1,1,FALSE,FALSE,FALSE,FALSE,,TRUE,FALSE,FALSE,Course Lock,65.6,41.9,16.4,Calm,27,,1.12.8,Mavic Mini,1SDCH7G0169R0K,1SFLH6Q0AB03DJ,1SRCH7F014TAHX,1U5X071EXP5ZJG,113.2,0.2,22.9,9.712122,2.013246,0,374,Mavic Mini,1SDCH7G0169R0K,1SFLH6Q0AB03DJ,1SRCH7F014TAHX,1U5X071EXP5ZJG,DJI Fly,,1.12.8,9BF6E3B3-C81B-2932-A3DD-775863C01958,1SDCH7G0169R0K,,,,,6.974506066,79.91426714,5,,
2/15/2024,24:27.5,0m 2.1s,2.1,6.974497659,79.91426517,0,0,0.3,49,0.8,0,0,0,0,0,0,0,0,3.4,0.6,24,24,,Manual Takeoff,Drop Calibration,Takeoff (RC Assisted),11,4,TRUE,,Mavic Mini,TRUE,FALSE,,Smart,RC,TRUE,TRUE,FALSE,,,TRUE,,FALSE,FALSE,FALSE,FALSE,FALSE,FALSE,FALSE,FALSE,FALSE,FALSE,0,Follow Yaw,0,0,48.4,48.4,FALSE,FALSE,FALSE,FALSE,FALSE,FALSE,,TRUE,Normal,,100,1024,1024,1024,1024,0,FALSE,FALSE,FALSE,FALSE,FALSE,0,FALSE,FALSE,FALSE,FALSE,97,8.163,2053,2113,8.164,FALSE,4.082,4.081,0.002,FALSE,FALSE,NA,82.6,82.5,82.5,0,1,0,0,5,2619.7,654.94,,Idle,0,20,FALSE,5,TRUE,9,Go Home,FALSE,FALSE,FALSE,FALSE,FALSE,FALSE,FALSE,FALSE,FALSE,FALSE,FALSE,FALSE,6.974497738,79.91425342,4.2,126.9,328,TRUE,1,1,FALSE,FALSE,FALSE,FALSE,,TRUE,FALSE,FALSE,Course Lock,65.6,41.9,16.4,Calm,27,,1.12.8,Mavic Mini,1SDCH7G0169R0K,1SFLH6Q0AB03DJ,1SRCH7F014TAHX,1U5X071EXP5ZJG,113.2,0.2,22.9,9.712122,2.013246,0,374,Mavic Mini,1SDCH7G0169R0K,1SFLH6Q0AB03DJ,1SRCH7F014TAHX,1U5X071EXP5ZJG,DJI Fly,,1.12.8,9BF6E3B3-C81B-2932-A3DD-775863C01958,1SDCH7G0169R0K,,,,,6.974506066,79.91426714,5,,
2/15/2024,24:27.6,0m 2.2s,2.2,6.974497652,79.91426521,0,0,0.3,49,0.8,0,0,0,0,0,0,0,0,3.4,0.6,24,24,,Manual Takeoff,Drop Calibration,Takeoff (RC Assisted),11,4,TRUE,,Mavic Mini,TRUE,FALSE,,Smart,RC,TRUE,TRUE,FALSE,,,TRUE,,FALSE,FALSE,FALSE,FALSE,FALSE,FALSE,FALSE,FALSE,FALSE,FALSE,0,Follow Yaw,0,0,48.4,48.4,FALSE,FALSE,FALSE,FALSE,FALSE,FALSE,,TRUE,Normal,,100,1024,1024,1024,1024,0,FALSE,FALSE,FALSE,FALSE,FALSE,0,FALSE,FALSE,FALSE,FALSE,97,8.163,2053,2113,8.164,FALSE,4.082,4.081,0.002,FALSE,FALSE,NA,82.6,82.5,82.5,0,1,0,0,5,2619.7,654.94,,Idle,0,20,FALSE,5,TRUE,9,Go Home,FALSE,FALSE,FALSE,FALSE,FALSE,FALSE,FALSE,FALSE,FALSE,FALSE,FALSE,FALSE,6.974497738,79.91425342,4.2,126.9,328,TRUE,1,1,FALSE,FALSE,FALSE,FALSE,,TRUE,FALSE,FALSE,Course Lock,65.6,41.9,16.4,Calm,27,,1.12.8,Mavic Mini,1SDCH7G0169R0K,1SFLH6Q0AB03DJ,1SRCH7F014TAHX,1U5X071EXP5ZJG,113.2,0.2,22.9,9.712122,2.013246,0,374,Mavic Mini,1SDCH7G0169R0K,1SFLH6Q0AB03DJ,1SRCH7F014TAHX,1U5X071EXP5ZJG,DJI Fly,,1.12.8,9BF6E3B3-C81B-2932-A3DD-775863C01958,1SDCH7G0169R0K,,,,,6.974506066,79.91426714,5,,
2/15/2024,24:27.7,0m 2.3s,2.3,6.974497645,79.91426524,0,0,0.3,49,0.9,0,0,0,0,0,0,0,0,3.4,0.6,24,24,,Manual Takeoff,Drop Calibration,Takeoff (RC Assisted),11,4,TRUE,,Mavic Mini,TRUE,FALSE,,Smart,RC,TRUE,TRUE,FALSE,,,TRUE,,FALSE,FALSE,FALSE,FALSE,FALSE,FALSE,FALSE,FALSE,FALSE,FALSE,0,Follow Yaw,0,0,48.4,48.4,FALSE,FALSE,FALSE,FALSE,FALSE,FALSE,,TRUE,Normal,,100,1024,1024,1024,1024,0,FALSE,FALSE,FALSE,FALSE,FALSE,0,FALSE,FALSE,FALSE,FALSE,97,8.163,2053,2113,8.164,FALSE,4.082,4.081,0.002,FALSE,FALSE,NA,82.6,82.5,82.5,0,1,0,0,5,2619.7,654.94,,Idle,0,20,FALSE,5,TRUE,9,Go Home,FALSE,FALSE,FALSE,FALSE,FALSE,FALSE,FALSE,FALSE,FALSE,FALSE,FALSE,FALSE,6.974497738,79.91425342,4.2,126.9,328,TRUE,1,1,FALSE,FALSE,FALSE,FALSE,,TRUE,FALSE,FALSE,Course Lock,65.6,41.9,16.4,Calm,27,,1.12.8,Mavic Mini,1SDCH7G0169R0K,1SFLH6Q0AB03DJ,1SRCH7F014TAHX,1U5X071EXP5ZJG,113.2,0.2,22.9,9.712122,2.013246,0,374,Mavic Mini,1SDCH7G0169R0K,1SFLH6Q0AB03DJ,1SRCH7F014TAHX,1U5X071EXP5ZJG,DJI Fly,,1.12.8,9BF6E3B3-C81B-2932-A3DD-775863C01958,1SDCH7G0169R0K,,,,,6.974506066,79.91426714,5,,
2/15/2024,24:27.8,0m 2.4s,2.4,6.97449764,79.91426528,0,0,0.3,49,0.9,0,0,0,0,0,0,0,0,3.4,0.6,24,24,,Manual Takeoff,Drop Calibration,Takeoff (RC Assisted),11,4,TRUE,,Mavic Mini,TRUE,FALSE,,Smart,RC,TRUE,TRUE,FALSE,,,TRUE,,FALSE,FALSE,FALSE,FALSE,FALSE,FALSE,FALSE,FALSE,FALSE,FALSE,0,Follow Yaw,0,0,48.4,48.4,FALSE,FALSE,FALSE,FALSE,FALSE,FALSE,,TRUE,Normal,,100,1024,1024,1024,1024,0,FALSE,FALSE,FALSE,FALSE,FALSE,0,FALSE,FALSE,FALSE,FALSE,97,8.163,2053,2113,8.164,FALSE,4.082,4.081,0.002,FALSE,FALSE,NA,82.6,82.5,82.5,0,1,0,0,5,2619.7,654.94,,Idle,0,20,FALSE,5,TRUE,9,Go Home,FALSE,FALSE,FALSE,FALSE,FALSE,FALSE,FALSE,FALSE,FALSE,FALSE,FALSE,FALSE,6.974497738,79.91425342,4.2,126.9,328,TRUE,1,1,FALSE,FALSE,FALSE,FALSE,,TRUE,FALSE,FALSE,Course Lock,65.6,41.9,16.4,Calm,27,,1.12.8,Mavic Mini,1SDCH7G0169R0K,1SFLH6Q0AB03DJ,1SRCH7F014TAHX,1U5X071EXP5ZJG,113.2,0.2,22.9,9.712122,2.013246,0,374,Mavic Mini,1SDCH7G0169R0K,1SFLH6Q0AB03DJ,1SRCH7F014TAHX,1U5X071EXP5ZJG,DJI Fly,,1.12.8,9BF6E3B3-C81B-2932-A3DD-775863C01958,1SDCH7G0169R0K,,,,,6.974506066,79.91426714,5,,
2/15/2024,24:27.9,0m 2.5s,2.5,6.974497636,79.91426532,0,0,0.3,49,0.9,0,0,0,0,0,0,0,0,3.4,0.6,24,24,,Manual Takeoff,Drop Calibration,Takeoff (RC Assisted),11,4,TRUE,,Mavic Mini,TRUE,FALSE,,Smart,RC,TRUE,TRUE,FALSE,,,TRUE,,FALSE,FALSE,FALSE,FALSE,FALSE,FALSE,FALSE,FALSE,FALSE,FALSE,0,Follow Yaw,0,0,48.4,48.4,FALSE,FALSE,FALSE,FALSE,FALSE,FALSE,,TRUE,Normal,,100,1024,1024,1024,1024,0,FALSE,FALSE,FALSE,FALSE,FALSE,0,FALSE,FALSE,FALSE,FALSE,97,8.163,2053,2113,8.164,FALSE,4.082,4.081,0.002,FALSE,FALSE,NA,82.6,82.5,82.5,0,1,0,0,5,2619.7,654.94,,Idle,0,20,FALSE,5,TRUE,9,Go Home,FALSE,FALSE,FALSE,FALSE,FALSE,FALSE,FALSE,FALSE,FALSE,FALSE,FALSE,FALSE,6.974497738,79.91425342,4.3,126.9,328,TRUE,1,1,FALSE,FALSE,FALSE,FALSE,,TRUE,FALSE,FALSE,Course Lock,65.6,41.9,16.4,Calm,27,,1.12.8,Mavic Mini,1SDCH7G0169R0K,1SFLH6Q0AB03DJ,1SRCH7F014TAHX,1U5X071EXP5ZJG,113.2,0.2,22.9,9.712122,2.013246,0,374,Mavic Mini,1SDCH7G0169R0K,1SFLH6Q0AB03DJ,1SRCH7F014TAHX,1U5X071EXP5ZJG,DJI Fly,,1.12.8,9BF6E3B3-C81B-2932-A3DD-775863C01958,1SDCH7G0169R0K,,,,,6.974506066,79.91426714,5,,
2/15/2024,24:28.0,0m 2.6s,2.6,6.974497576,79.9142653,0,0,0.3,49,0.9,0,0,0,0,0,0,0,0,3.4,0.6,24,24,,Manual Takeoff,Drop Calibration,Takeoff (RC Assisted),11,4,TRUE,,Mavic Mini,TRUE,FALSE,,Smart,RC,TRUE,TRUE,FALSE,,,TRUE,,FALSE,FALSE,FALSE,FALSE,FALSE,FALSE,FALSE,FALSE,FALSE,FALSE,0,Follow Yaw,0,0,48.4,48.4,FALSE,FALSE,FALSE,FALSE,FALSE,FALSE,,TRUE,Normal,,100,1024,1024,1024,1024,0,FALSE,FALSE,FALSE,FALSE,FALSE,0,FALSE,FALSE,FALSE,FALSE,97,8.163,2053,2113,8.164,FALSE,4.082,4.081,0.002,FALSE,FALSE,NA,82.6,82.5,82.5,0,1,0,0,5,2619.7,654.94,,Idle,0,20,FALSE,5,TRUE,9,Go Home,FALSE,FALSE,FALSE,FALSE,FALSE,FALSE,FALSE,FALSE,FALSE,FALSE,FALSE,FALSE,6.974497738,79.91425342,4.3,126.9,328,TRUE,1,1,FALSE,FALSE,FALSE,FALSE,,TRUE,FALSE,FALSE,Course Lock,65.6,41.9,16.4,Calm,27,,1.12.8,Mavic Mini,1SDCH7G0169R0K,1SFLH6Q0AB03DJ,1SRCH7F014TAHX,1U5X071EXP5ZJG,113.2,0.2,22.9,9.712122,2.013246,0,374,Mavic Mini,1SDCH7G0169R0K,1SFLH6Q0AB03DJ,1SRCH7F014TAHX,1U5X071EXP5ZJG,DJI Fly,,1.12.8,9BF6E3B3-C81B-2932-A3DD-775863C01958,1SDCH7G0169R0K,,,,,6.974506066,79.91426714,5,,
2/15/2024,24:28.1,0m 2.7s,2.7,6.974497523,79.9142653,0,0,0.3,49,0.9,0,0,0,0,0,0,0,0,3.4,0.6,24,24,,Manual Takeoff,Drop Calibration,Takeoff (RC Assisted),11,4,TRUE,,Mavic Mini,TRUE,FALSE,,Smart,RC,TRUE,TRUE,FALSE,,,TRUE,,FALSE,FALSE,FALSE,FALSE,FALSE,FALSE,FALSE,FALSE,FALSE,FALSE,0,Follow Yaw,0,0,48.4,48.4,FALSE,FALSE,FALSE,FALSE,FALSE,FALSE,,TRUE,Normal,,100,1024,1024,1024,1024,0,FALSE,FALSE,FALSE,FALSE,FALSE,0,FALSE,FALSE,FALSE,FALSE,97,8.163,2053,2113,8.164,FALSE,4.082,4.081,0.002,FALSE,FALSE,NA,82.6,82.5,82.5,0,1,0,0,5,2619.7,654.94,,Idle,0,20,FALSE,5,TRUE,9,Go Home,FALSE,FALSE,FALSE,FALSE,FALSE,FALSE,FALSE,FALSE,FALSE,FALSE,FALSE,FALSE,6.974497738,79.91425342,4.3,126.9,328,TRUE,1,1,FALSE,FALSE,FALSE,FALSE,,TRUE,FALSE,FALSE,Course Lock,65.6,41.9,16.4,Calm,27,,1.12.8,Mavic Mini,1SDCH7G0169R0K,1SFLH6Q0AB03DJ,1SRCH7F014TAHX,1U5X071EXP5ZJG,113.2,0.2,22.9,9.712122,2.013246,0,374,Mavic Mini,1SDCH7G0169R0K,1SFLH6Q0AB03DJ,1SRCH7F014TAHX,1U5X071EXP5ZJG,DJI Fly,,1.12.8,9BF6E3B3-C81B-2932-A3DD-775863C01958,1SDCH7G0169R0K,,,,,6.974506066,79.91426714,5,,
2/15/2024,24:28.2,0m 2.8s,2.8,6.97449749,79.91426531,0,0,0.3,49,0.9,0,0,0,0,0,0,0,0,3.4,0.6,24,24,,Manual Takeoff,Drop Calibration,Takeoff (RC Assisted),11,4,TRUE,,Mavic Mini,TRUE,FALSE,,Smart,RC,TRUE,TRUE,FALSE,,,TRUE,,FALSE,FALSE,FALSE,FALSE,FALSE,FALSE,FALSE,FALSE,FALSE,FALSE,0,Follow Yaw,0,0,48.4,48.4,FALSE,FALSE,FALSE,FALSE,FALSE,FALSE,,TRUE,Normal,,100,1024,1024,1024,1024,0,FALSE,FALSE,FALSE,FALSE,FALSE,0,FALSE,FALSE,FALSE,FALSE,97,8.163,2053,2113,8.164,FALSE,4.082,4.081,0.002,FALSE,FALSE,NA,82.6,82.5,82.5,0,1,0,0,5,2619.7,654.94,,Idle,0,20,FALSE,5,TRUE,9,Go Home,FALSE,FALSE,FALSE,FALSE,FALSE,FALSE,FALSE,FALSE,FALSE,FALSE,FALSE,FALSE,6.974497738,79.91425342,4.3,126.9,328,TRUE,1,1,FALSE,FALSE,FALSE,FALSE,,TRUE,FALSE,FALSE,Course Lock,65.6,41.9,16.4,Calm,27,,1.12.8,Mavic Mini,1SDCH7G0169R0K,1SFLH6Q0AB03DJ,1SRCH7F014TAHX,1U5X071EXP5ZJG,113.2,0.2,22.9,9.712122,2.013246,0,374,Mavic Mini,1SDCH7G0169R0K,1SFLH6Q0AB03DJ,1SRCH7F014TAHX,1U5X071EXP5ZJG,DJI Fly,,1.12.8,9BF6E3B3-C81B-2932-A3DD-775863C01958,1SDCH7G0169R0K,,,,,6.974506066,79.91426714,5,,
2/15/2024,24:28.3,0m 2.9s,2.9,6.974497474,79.91426535,0,0,0.3,49,0.9,0,0,0,0,0,0,0,0,3.3,0.6,24,24,,Manual Takeoff,Drop Calibration,Takeoff (RC Assisted),11,4,TRUE,,Mavic Mini,TRUE,FALSE,,Smart,RC,TRUE,TRUE,FALSE,,,TRUE,,FALSE,FALSE,FALSE,FALSE,FALSE,FALSE,FALSE,FALSE,FALSE,FALSE,0,Follow Yaw,0,0,48.4,48.4,FALSE,FALSE,FALSE,FALSE,FALSE,FALSE,,TRUE,Normal,,100,1024,1024,1024,1024,0,FALSE,FALSE,FALSE,FALSE,FALSE,0,FALSE,FALSE,FALSE,FALSE,97,8.161,2052,2113,8.164,FALSE,4.081,4.08,0.002,FALSE,FALSE,NA,82.4,82.4,82.5,0,1,0,0,5,2619.7,654.94,,Idle,0,20,FALSE,5,TRUE,9,Go Home,FALSE,FALSE,FALSE,FALSE,FALSE,FALSE,FALSE,FALSE,FALSE,FALSE,FALSE,FALSE,6.974497738,79.91425342,4.3,126.9,328,TRUE,1,1,FALSE,FALSE,FALSE,FALSE,,TRUE,FALSE,FALSE,Course Lock,65.6,41.9,16.4,Calm,27,,1.12.8,Mavic Mini,1SDCH7G0169R0K,1SFLH6Q0AB03DJ,1SRCH7F014TAHX,1U5X071EXP5ZJG,113.2,0.2,22.9,9.712122,2.013246,0,374,Mavic Mini,1SDCH7G0169R0K,1SFLH6Q0AB03DJ,1SRCH7F014TAHX,1U5X071EXP5ZJG,DJI Fly,,1.12.8,9BF6E3B3-C81B-2932-A3DD-775863C01958,1SDCH7G0169R0K,,,,,6.974506066,79.91426714,5,,
2/15/2024,24:28.4,0m 3.0s,3,6.974497333,79.91426525,0,0,0.3,49,1,0,0,0,0,0,0,0,0,3.4,0.6,23.9,23.9,,Manual Takeoff,Drop Calibration,Takeoff (RC Assisted),11,4,TRUE,,Mavic Mini,TRUE,FALSE,,Smart,RC,TRUE,TRUE,FALSE,,,TRUE,,FALSE,FALSE,FALSE,FALSE,FALSE,FALSE,FALSE,FALSE,FALSE,FALSE,0,Follow Yaw,0,0,48.4,48.4,FALSE,FALSE,FALSE,FALSE,FALSE,FALSE,,TRUE,Normal,,100,1024,1024,1024,1024,0,FALSE,FALSE,FALSE,FALSE,FALSE,0,FALSE,FALSE,FALSE,FALSE,97,8.161,2052,2113,8.163,FALSE,4.081,4.08,0.002,FALSE,FALSE,NA,82.4,82.4,82.5,0,1,0,0,5,2738.1,684.53,,Idle,0,20,FALSE,5,TRUE,9,Go Home,FALSE,FALSE,FALSE,FALSE,FALSE,FALSE,FALSE,FALSE,FALSE,FALSE,FALSE,FALSE,6.974497738,79.91425342,4.2,126.9,328,TRUE,1,1,FALSE,FALSE,FALSE,FALSE,,TRUE,FALSE,FALSE,Course Lock,65.6,41.9,16.4,Calm,27,,1.12.8,Mavic Mini,1SDCH7G0169R0K,1SFLH6Q0AB03DJ,1SRCH7F014TAHX,1U5X071EXP5ZJG,113.2,0.2,22.9,9.712122,2.013246,0,374,Mavic Mini,1SDCH7G0169R0K,1SFLH6Q0AB03DJ,1SRCH7F014TAHX,1U5X071EXP5ZJG,DJI Fly,,1.12.8,9BF6E3B3-C81B-2932-A3DD-775863C01958,1SDCH7G0169R0K,,,,,6.974506066,79.91426714,5,,
2/15/2024,24:28.5,0m 3.1s,3.1,6.974497285,79.91426525,0,0,0.3,49,1,0,0,0,0,0,0,0,0,3.4,0.6,24,24,,Manual Takeoff,Drop Calibration,Takeoff (RC Assisted),11,4,TRUE,,Mavic Mini,TRUE,FALSE,,Smart,RC,TRUE,TRUE,FALSE,,,TRUE,,FALSE,FALSE,FALSE,FALSE,FALSE,FALSE,FALSE,FALSE,FALSE,FALSE,0,Follow Yaw,0,0,48.4,48.4,FALSE,FALSE,FALSE,FALSE,FALSE,FALSE,,TRUE,Normal,,100,1024,1024,1024,1024,0,FALSE,FALSE,FALSE,FALSE,FALSE,0,FALSE,FALSE,FALSE,FALSE,97,8.161,2052,2113,8.163,FALSE,4.081,4.08,0.002,FALSE,FALSE,NA,82.4,82.4,82.5,0,1,0,0,5,2738.1,684.53,,Idle,0,20,FALSE,5,TRUE,9,Go Home,FALSE,FALSE,FALSE,FALSE,FALSE,FALSE,FALSE,FALSE,FALSE,FALSE,FALSE,FALSE,6.974497738,79.91425342,4.2,126.9,328,TRUE,1,1,FALSE,FALSE,FALSE,FALSE,,TRUE,FALSE,FALSE,Course Lock,65.6,41.9,16.4,Calm,27,,1.12.8,Mavic Mini,1SDCH7G0169R0K,1SFLH6Q0AB03DJ,1SRCH7F014TAHX,1U5X071EXP5ZJG,113.2,0.2,22.9,9.712122,2.013246,0,374,Mavic Mini,1SDCH7G0169R0K,1SFLH6Q0AB03DJ,1SRCH7F014TAHX,1U5X071EXP5ZJG,DJI Fly,,1.12.8,9BF6E3B3-C81B-2932-A3DD-775863C01958,1SDCH7G0169R0K,,,,,6.974506066,79.91426714,5,,
2/15/2024,24:28.6,0m 3.2s,3.2,6.974497261,79.91426525,0,0,0.3,49,1,0,0,0,0,0,0,0,0,3.4,0.6,24,24,,Manual Takeoff,Drop Calibration,Takeoff (RC Assisted),11,4,TRUE,,Mavic Mini,TRUE,FALSE,,Smart,RC,TRUE,TRUE,FALSE,,,TRUE,,FALSE,FALSE,FALSE,FALSE,FALSE,FALSE,FALSE,FALSE,FALSE,FALSE,0,Follow Yaw,0,0,48.4,48.4,FALSE,FALSE,FALSE,FALSE,FALSE,FALSE,,TRUE,Normal,,100,1024,1024,1024,1024,0,FALSE,FALSE,FALSE,FALSE,FALSE,0,FALSE,FALSE,FALSE,FALSE,97,8.161,2052,2113,8.163,FALSE,4.081,4.08,0.002,FALSE,FALSE,NA,82.4,82.4,82.5,0,1,0,0,5,2738.1,684.53,,Idle,0,20,FALSE,5,TRUE,9,Go Home,FALSE,FALSE,FALSE,FALSE,FALSE,FALSE,FALSE,FALSE,FALSE,FALSE,FALSE,FALSE,6.974497738,79.91425342,4.2,126.9,328,TRUE,1,1,FALSE,FALSE,FALSE,FALSE,,TRUE,FALSE,FALSE,Course Lock,65.6,41.9,16.4,Calm,27,,1.12.8,Mavic Mini,1SDCH7G0169R0K,1SFLH6Q0AB03DJ,1SRCH7F014TAHX,1U5X071EXP5ZJG,113.2,0.2,22.9,9.712122,2.013246,0,374,Mavic Mini,1SDCH7G0169R0K,1SFLH6Q0AB03DJ,1SRCH7F014TAHX,1U5X071EXP5ZJG,DJI Fly,,1.12.8,9BF6E3B3-C81B-2932-A3DD-775863C01958,1SDCH7G0169R0K,,,,,6.974506066,79.91426714,5,,
2/15/2024,24:28.7,0m 3.3s,3.3,6.974497254,79.91426523,0,0,0.3,49,1,0,0,0,0,0,0,0,0,3.4,0.6,24,24,,Manual Takeoff,Drop Calibration,Takeoff (RC Assisted),11,4,TRUE,,Mavic Mini,TRUE,FALSE,,Smart,RC,TRUE,TRUE,FALSE,,,TRUE,,FALSE,FALSE,FALSE,FALSE,FALSE,FALSE,FALSE,FALSE,FALSE,FALSE,0,Follow Yaw,0,0,48.4,48.4,FALSE,FALSE,FALSE,FALSE,FALSE,FALSE,,TRUE,Normal,,100,1024,1024,1024,1024,0,FALSE,FALSE,FALSE,FALSE,FALSE,0,FALSE,FALSE,FALSE,FALSE,97,8.161,2052,2113,8.163,FALSE,4.081,4.08,0.002,FALSE,FALSE,NA,82.4,82.4,82.5,0,1,0,0,5,2738.1,684.53,,Idle,0,20,FALSE,5,TRUE,9,Go Home,FALSE,FALSE,FALSE,FALSE,FALSE,FALSE,FALSE,FALSE,FALSE,FALSE,FALSE,FALSE,6.974497738,79.91425342,4.2,126.9,328,TRUE,1,1,FALSE,FALSE,FALSE,FALSE,,TRUE,FALSE,FALSE,Course Lock,65.6,41.9,16.4,Calm,27,,1.12.8,Mavic Mini,1SDCH7G0169R0K,1SFLH6Q0AB03DJ,1SRCH7F014TAHX,1U5X071EXP5ZJG,113.2,0.2,22.9,9.712122,2.013246,0,374,Mavic Mini,1SDCH7G0169R0K,1SFLH6Q0AB03DJ,1SRCH7F014TAHX,1U5X071EXP5ZJG,DJI Fly,,1.12.8,9BF6E3B3-C81B-2932-A3DD-775863C01958,1SDCH7G0169R0K,,,,,6.974506066,79.91426714,5,,
2/15/2024,24:28.7,0m 3.4s,3.4,6.974497214,79.91426515,0,0,0.3,49,1.1,0,0,0,0,0,0,0,0,3.4,0.6,24,24,,Manual Takeoff,Drop Calibration,Takeoff (RC Assisted),11,4,TRUE,,Mavic Mini,TRUE,FALSE,,Smart,RC,TRUE,TRUE,FALSE,,,TRUE,,FALSE,FALSE,FALSE,FALSE,FALSE,FALSE,FALSE,FALSE,FALSE,FALSE,0,Follow Yaw,0,0,48.4,48.4,FALSE,FALSE,FALSE,FALSE,FALSE,FALSE,,TRUE,Normal,,100,1024,1024,1024,1024,0,FALSE,FALSE,FALSE,FALSE,FALSE,0,FALSE,FALSE,FALSE,FALSE,97,8.161,2052,2113,8.163,FALSE,4.081,4.08,0.002,FALSE,FALSE,NA,82.4,82.4,82.5,0,1,0,0,5,2738.1,684.53,,Idle,0,20,FALSE,5,TRUE,9,Go Home,FALSE,FALSE,FALSE,FALSE,FALSE,FALSE,FALSE,FALSE,FALSE,FALSE,FALSE,FALSE,6.974497738,79.91425342,4.2,126.9,328,TRUE,1,1,FALSE,FALSE,FALSE,FALSE,,TRUE,FALSE,FALSE,Course Lock,65.6,41.9,16.4,Calm,27,,1.12.8,Mavic Mini,1SDCH7G0169R0K,1SFLH6Q0AB03DJ,1SRCH7F014TAHX,1U5X071EXP5ZJG,113.2,0.2,22.9,9.712122,2.013246,0,374,Mavic Mini,1SDCH7G0169R0K,1SFLH6Q0AB03DJ,1SRCH7F014TAHX,1U5X071EXP5ZJG,DJI Fly,,1.12.8,9BF6E3B3-C81B-2932-A3DD-775863C01958,1SDCH7G0169R0K,,,,,6.974506066,79.91426714,5,,
2/15/2024,24:28.8,0m 3.5s,3.5,6.97449717,79.91426514,0,0,0.3,49,1.1,0,0,0,0,0,0,0,0,3.4,0.6,24,24,,Manual Takeoff,Drop Calibration,Takeoff (RC Assisted),12,4,TRUE,,Mavic Mini,TRUE,FALSE,,Smart,RC,TRUE,TRUE,FALSE,,,TRUE,,FALSE,FALSE,FALSE,FALSE,FALSE,FALSE,FALSE,FALSE,FALSE,FALSE,0,Follow Yaw,0,0,48.4,48.4,FALSE,FALSE,FALSE,FALSE,FALSE,FALSE,,TRUE,Normal,,100,1024,1024,1041,1024,0,FALSE,FALSE,FALSE,FALSE,FALSE,0,FALSE,FALSE,FALSE,FALSE,97,8.161,2052,2113,8.163,FALSE,4.081,4.08,0.002,FALSE,FALSE,NA,82.4,82.4,82.5,0,1,0,0,5,2738.1,684.53,,Idle,0,20,FALSE,5,TRUE,9,Go Home,FALSE,FALSE,FALSE,FALSE,FALSE,FALSE,FALSE,FALSE,FALSE,FALSE,FALSE,FALSE,6.974497738,79.91425342,4.2,126.9,328,TRUE,1,1,FALSE,FALSE,FALSE,FALSE,,TRUE,FALSE,FALSE,Course Lock,65.6,41.9,16.4,Calm,27,,1.12.8,Mavic Mini,1SDCH7G0169R0K,1SFLH6Q0AB03DJ,1SRCH7F014TAHX,1U5X071EXP5ZJG,113.2,0.2,22.9,9.712122,2.013246,0,374,Mavic Mini,1SDCH7G0169R0K,1SFLH6Q0AB03DJ,1SRCH7F014TAHX,1U5X071EXP5ZJG,DJI Fly,,1.12.8,9BF6E3B3-C81B-2932-A3DD-775863C01958,1SDCH7G0169R0K,,,,,6.974506066,79.91426714,5,,
2/15/2024,24:28.9,0m 3.6s,3.6,6.97449715,79.91426513,0,0,0.3,49,1.1,0,0,0,0,0,0,0,0,3.4,0.6,24,24,,Manual Takeoff,Drop Calibration,Takeoff (RC Assisted),12,4,TRUE,,Mavic Mini,TRUE,FALSE,,Smart,RC,TRUE,TRUE,FALSE,,,TRUE,,FALSE,FALSE,FALSE,FALSE,FALSE,FALSE,FALSE,FALSE,FALSE,FALSE,0,Follow Yaw,0,0,48.4,48.4,FALSE,FALSE,FALSE,FALSE,FALSE,FALSE,,TRUE,Normal,,100,1024,1024,1103,1024,0,FALSE,FALSE,FALSE,FALSE,FALSE,0,FALSE,FALSE,FALSE,FALSE,97,8.161,2052,2113,8.163,FALSE,4.081,4.08,0.002,FALSE,FALSE,NA,82.4,82.4,82.5,0,1,0,0,5,2738.1,684.53,,Idle,0,20,FALSE,5,TRUE,9,Go Home,FALSE,FALSE,FALSE,FALSE,FALSE,FALSE,FALSE,FALSE,FALSE,FALSE,FALSE,FALSE,6.974497738,79.91425342,4.2,126.9,328,TRUE,1,1,FALSE,FALSE,FALSE,FALSE,,TRUE,FALSE,FALSE,Course Lock,65.6,41.9,16.4,Calm,27,,1.12.8,Mavic Mini,1SDCH7G0169R0K,1SFLH6Q0AB03DJ,1SRCH7F014TAHX,1U5X071EXP5ZJG,113.2,0.2,22.9,9.712122,2.013246,0,374,Mavic Mini,1SDCH7G0169R0K,1SFLH6Q0AB03DJ,1SRCH7F014TAHX,1U5X071EXP5ZJG,DJI Fly,,1.12.8,9BF6E3B3-C81B-2932-A3DD-775863C01958,1SDCH7G0169R0K,,,,,6.974506066,79.91426714,5,,
2/15/2024,24:29.0,0m 3.7s,3.7,6.974497146,79.91426512,0,0,0.3,49,1.1,0,0,0,0,0,0,0,0,3.4,0.6,24,24,,Manual Takeoff,Drop Calibration,Takeoff (RC Assisted),12,4,TRUE,,Mavic Mini,TRUE,FALSE,,Smart,RC,TRUE,TRUE,FALSE,,,TRUE,,FALSE,FALSE,FALSE,FALSE,FALSE,FALSE,FALSE,FALSE,FALSE,FALSE,0,Follow Yaw,0,0,48.4,48.4,FALSE,FALSE,FALSE,FALSE,FALSE,FALSE,,TRUE,Normal,,100,1024,1024,1140,1024,0,FALSE,FALSE,FALSE,FALSE,FALSE,0,FALSE,FALSE,FALSE,FALSE,97,8.161,2052,2113,8.163,FALSE,4.081,4.08,0.002,FALSE,FALSE,NA,82.4,82.4,82.5,0,1,0,0,5,2738.1,684.53,,Idle,0,20,FALSE,5,TRUE,9,Go Home,FALSE,FALSE,FALSE,FALSE,FALSE,FALSE,FALSE,FALSE,FALSE,FALSE,FALSE,FALSE,6.974497738,79.91425342,4.2,126.9,328,TRUE,1,1,FALSE,FALSE,FALSE,FALSE,,TRUE,FALSE,FALSE,Course Lock,65.6,41.9,16.4,Calm,27,,1.12.8,Mavic Mini,1SDCH7G0169R0K,1SFLH6Q0AB03DJ,1SRCH7F014TAHX,1U5X071EXP5ZJG,113.2,0.2,22.9,9.712122,2.013246,0,374,Mavic Mini,1SDCH7G0169R0K,1SFLH6Q0AB03DJ,1SRCH7F014TAHX,1U5X071EXP5ZJG,DJI Fly,,1.12.8,9BF6E3B3-C81B-2932-A3DD-775863C01958,1SDCH7G0169R0K,,,,,6.974506066,79.91426714,5,,
2/15/2024,24:29.2,0m 3.8s,3.8,6.974497125,79.91426521,0,0,0.3,49,1.1,0,0,0,0,0,0,0,0,3.4,0.6,24,24,,Manual Takeoff,Drop Calibration,Takeoff (RC Assisted),12,4,TRUE,,Mavic Mini,TRUE,FALSE,,Smart,RC,TRUE,TRUE,FALSE,,,TRUE,,FALSE,FALSE,FALSE,FALSE,FALSE,FALSE,FALSE,FALSE,FALSE,FALSE,0,Follow Yaw,0,0,48.4,48.4,FALSE,FALSE,FALSE,FALSE,FALSE,FALSE,,TRUE,Normal,,100,1024,1024,1182,1024,0,FALSE,FALSE,FALSE,FALSE,FALSE,0,FALSE,FALSE,FALSE,FALSE,97,8.161,2052,2113,8.163,FALSE,4.081,4.08,0.002,FALSE,FALSE,NA,82.4,82.4,82.5,0,1,0,0,5,2738.1,684.53,,Idle,0,20,FALSE,5,TRUE,9,Go Home,FALSE,FALSE,FALSE,FALSE,FALSE,FALSE,FALSE,FALSE,FALSE,FALSE,FALSE,FALSE,6.974497738,79.91425342,4.2,126.9,328,TRUE,1,1,FALSE,FALSE,FALSE,FALSE,,TRUE,FALSE,FALSE,Course Lock,65.6,41.9,16.4,Calm,27,,1.12.8,Mavic Mini,1SDCH7G0169R0K,1SFLH6Q0AB03DJ,1SRCH7F014TAHX,1U5X071EXP5ZJG,113.2,0.2,22.9,9.712122,2.013246,0,374,Mavic Mini,1SDCH7G0169R0K,1SFLH6Q0AB03DJ,1SRCH7F014TAHX,1U5X071EXP5ZJG,DJI Fly,,1.12.8,9BF6E3B3-C81B-2932-A3DD-775863C01958,1SDCH7G0169R0K,,,,,6.974506066,79.91426714,5,,
2/15/2024,24:29.3,0m 3.9s,3.9,6.974497083,79.91426525,0,0,0.3,49,1.2,0,0,0,0,0,0,0,0,3.4,0.5,24,24,,Manual Takeoff,Drop Calibration,Takeoff (RC Assisted),12,4,TRUE,,Mavic Mini,TRUE,FALSE,,Smart,RC,TRUE,TRUE,FALSE,,,TRUE,,FALSE,FALSE,FALSE,FALSE,FALSE,FALSE,FALSE,FALSE,FALSE,FALSE,0,Follow Yaw,0,0,48.4,48.4,FALSE,FALSE,FALSE,FALSE,FALSE,FALSE,,TRUE,Normal,,100,1024,1024,1208,1024,0,FALSE,FALSE,FALSE,FALSE,FALSE,0,FALSE,FALSE,FALSE,FALSE,97,8.161,2052,2113,8.163,FALSE,4.081,4.08,0.002,FALSE,FALSE,NA,82.4,82.4,82.5,0,1,0,0,5,2738.1,684.53,,Idle,0,20,FALSE,5,TRUE,9,Go Home,FALSE,FALSE,FALSE,FALSE,FALSE,FALSE,FALSE,FALSE,FALSE,FALSE,FALSE,FALSE,6.974497738,79.91425342,4.2,126.9,328,TRUE,1,1,FALSE,FALSE,FALSE,FALSE,,TRUE,FALSE,FALSE,Course Lock,65.6,41.9,16.4,Calm,27,,1.12.8,Mavic Mini,1SDCH7G0169R0K,1SFLH6Q0AB03DJ,1SRCH7F014TAHX,1U5X071EXP5ZJG,113.2,0.2,22.9,9.712122,2.013246,0,374,Mavic Mini,1SDCH7G0169R0K,1SFLH6Q0AB03DJ,1SRCH7F014TAHX,1U5X071EXP5ZJG,DJI Fly,,1.12.8,9BF6E3B3-C81B-2932-A3DD-775863C01958,1SDCH7G0169R0K,,,,,6.974506066,79.91426714,5,,
2/15/2024,24:29.4,0m 4.0s,4,6.974497063,79.91426528,0,0,0.3,49,1.2,0,0,0,0,0,0,0,0,3.3,0.4,24,24,,Manual Takeoff,Drop Calibration,Takeoff (RC Assisted),12,4,TRUE,,Mavic Mini,TRUE,FALSE,,Smart,RC,TRUE,TRUE,FALSE,,,TRUE,,FALSE,FALSE,FALSE,FALSE,FALSE,FALSE,FALSE,FALSE,FALSE,FALSE,0,Follow Yaw,0,0,48.4,48.4,FALSE,FALSE,FALSE,FALSE,FALSE,FALSE,,TRUE,Normal,,100,1024,1024,1219,1024,0,FALSE,FALSE,FALSE,FALSE,FALSE,0,FALSE,FALSE,FALSE,FALSE,97,8.157,2052,2113,8.147,FALSE,4.081,4.076,0.005,FALSE,FALSE,NA,82.6,82.4,82.5,0,1,0,0,5,2738.1,684.53,,Idle,0,20,FALSE,5,TRUE,9,Go Home,FALSE,FALSE,FALSE,FALSE,FALSE,FALSE,FALSE,FALSE,FALSE,FALSE,FALSE,FALSE,6.974497738,79.91425342,4.3,126.9,328,TRUE,1,1,FALSE,FALSE,FALSE,FALSE,,TRUE,FALSE,FALSE,Course Lock,65.6,41.9,16.4,Calm,27,,1.12.8,Mavic Mini,1SDCH7G0169R0K,1SFLH6Q0AB03DJ,1SRCH7F014TAHX,1U5X071EXP5ZJG,113.2,0.2,22.9,9.712122,2.013246,0,374,Mavic Mini,1SDCH7G0169R0K,1SFLH6Q0AB03DJ,1SRCH7F014TAHX,1U5X071EXP5ZJG,DJI Fly,,1.12.8,9BF6E3B3-C81B-2932-A3DD-775863C01958,1SDCH7G0169R0K,,,,,6.974506066,79.91426714,5,,
2/15/2024,24:29.5,0m 4.1s,4.1,6.974497057,79.91426529,0,0,0.3,49,1.2,0,0,0,0,0,0,0,0,3.4,0.4,24,24,,Manual Takeoff,Drop Calibration,Takeoff (RC Assisted),12,4,TRUE,,Mavic Mini,TRUE,FALSE,,Smart,RC,TRUE,TRUE,FALSE,,,TRUE,,FALSE,FALSE,FALSE,FALSE,FALSE,FALSE,FALSE,FALSE,FALSE,FALSE,0,Follow Yaw,0,0,48.4,48.4,FALSE,FALSE,FALSE,FALSE,FALSE,FALSE,,TRUE,Normal,,100,1024,1024,1235,1024,0,FALSE,FALSE,FALSE,FALSE,FALSE,0,FALSE,FALSE,FALSE,FALSE,97,8.157,2052,2113,8.147,FALSE,4.081,4.076,0.005,FALSE,FALSE,NA,82.6,82.4,82.5,0,1,0,0,5,2738.1,684.53,,Idle,0,20,FALSE,5,TRUE,9,Go Home,FALSE,FALSE,FALSE,FALSE,FALSE,FALSE,FALSE,FALSE,FALSE,FALSE,FALSE,FALSE,6.974497738,79.91425342,4.3,126.9,328,TRUE,1,1,FALSE,FALSE,FALSE,FALSE,,TRUE,FALSE,FALSE,Course Lock,65.6,41.9,16.4,Calm,27,,1.12.8,Mavic Mini,1SDCH7G0169R0K,1SFLH6Q0AB03DJ,1SRCH7F014TAHX,1U5X071EXP5ZJG,113.2,0.2,22.9,9.712122,2.013246,0,374,Mavic Mini,1SDCH7G0169R0K,1SFLH6Q0AB03DJ,1SRCH7F014TAHX,1U5X071EXP5ZJG,DJI Fly,,1.12.8,9BF6E3B3-C81B-2932-A3DD-775863C01958,1SDCH7G0169R0K,,,,,6.974506066,79.91426714,5,,
2/15/2024,24:29.6,0m 4.2s,4.2,6.97449703,79.91426529,0,0,0.3,49,1.2,0,0,0,0,0,0,0,0,3.2,0.3,23.8,23.8,,Manual Takeoff,Drop Calibration,Takeoff (RC Assisted),12,4,TRUE,,Mavic Mini,TRUE,FALSE,,Smart,RC,TRUE,TRUE,FALSE,,,TRUE,,FALSE,FALSE,FALSE,FALSE,FALSE,FALSE,FALSE,FALSE,FALSE,FALSE,0,Follow Yaw,0,0,48.4,48.4,FALSE,FALSE,FALSE,FALSE,FALSE,FALSE,,TRUE,Normal,,100,1024,1024,1247,1024,0,FALSE,FALSE,FALSE,FALSE,FALSE,0,FALSE,FALSE,FALSE,FALSE,97,8.157,2052,2113,8.147,FALSE,4.081,4.076,0.005,FALSE,FALSE,NA,82.6,82.4,82.5,0,1,0,0,5,2738.1,684.53,,Idle,0,20,FALSE,5,TRUE,9,Go Home,FALSE,FALSE,FALSE,FALSE,FALSE,FALSE,FALSE,FALSE,FALSE,FALSE,FALSE,FALSE,6.974497738,79.91425342,4.3,126.9,328,TRUE,1,1,FALSE,FALSE,FALSE,FALSE,,TRUE,FALSE,FALSE,Course Lock,65.6,41.9,16.4,Calm,27,,1.12.8,Mavic Mini,1SDCH7G0169R0K,1SFLH6Q0AB03DJ,1SRCH7F014TAHX,1U5X071EXP5ZJG,113.2,0.2,22.9,9.712122,2.013246,0,374,Mavic Mini,1SDCH7G0169R0K,1SFLH6Q0AB03DJ,1SRCH7F014TAHX,1U5X071EXP5ZJG,DJI Fly,,1.12.8,9BF6E3B3-C81B-2932-A3DD-775863C01958,1SDCH7G0169R0K,,,,,6.974506066,79.91426714,5,,
2/15/2024,24:29.7,0m 4.3s,4.3,6.974496983,79.91426526,0,0,0.3,49,1.2,0,0,0,0,0,0,0,0,3.4,0.2,23.7,23.7,,Manual Takeoff,Drop Calibration,Takeoff (RC Assisted),12,4,TRUE,,Mavic Mini,TRUE,FALSE,,Smart,RC,TRUE,TRUE,FALSE,,,TRUE,,FALSE,FALSE,FALSE,FALSE,FALSE,FALSE,FALSE,FALSE,FALSE,FALSE,0,Follow Yaw,0,0,48.3,48.3,FALSE,FALSE,FALSE,FALSE,FALSE,FALSE,,TRUE,Normal,,100,1024,1024,1257,1024,0,FALSE,FALSE,FALSE,FALSE,FALSE,0,FALSE,FALSE,FALSE,FALSE,97,8.157,2052,2113,8.147,FALSE,4.081,4.076,0.005,FALSE,FALSE,NA,82.6,82.4,82.5,0,1,0,0,5,2738.1,684.53,,Idle,0,20,FALSE,5,TRUE,9,Go Home,FALSE,FALSE,FALSE,FALSE,FALSE,FALSE,FALSE,FALSE,FALSE,FALSE,FALSE,FALSE,6.974497738,79.91425342,4.2,126.9,328,TRUE,1,1,FALSE,FALSE,FALSE,FALSE,,TRUE,FALSE,FALSE,Course Lock,65.6,41.9,16.4,Calm,27,,1.12.8,Mavic Mini,1SDCH7G0169R0K,1SFLH6Q0AB03DJ,1SRCH7F014TAHX,1U5X071EXP5ZJG,113.2,0.2,22.9,9.712122,2.013246,0,374,Mavic Mini,1SDCH7G0169R0K,1SFLH6Q0AB03DJ,1SRCH7F014TAHX,1U5X071EXP5ZJG,DJI Fly,,1.12.8,9BF6E3B3-C81B-2932-A3DD-775863C01958,1SDCH7G0169R0K,,,,,6.974506066,79.91426714,5,,
2/15/2024,24:29.8,0m 4.4s,4.4,6.974496959,79.91426525,0,0,0.3,49,1.2,0,0,0,0,0,0,0,0,2.8,0.3,23.9,23.9,,Manual Takeoff,Drop Calibration,Takeoff (RC Assisted),12,4,TRUE,,Mavic Mini,TRUE,FALSE,,Smart,RC,TRUE,TRUE,FALSE,,,TRUE,,FALSE,FALSE,FALSE,FALSE,FALSE,FALSE,FALSE,FALSE,FALSE,FALSE,0,Follow Yaw,0,0,48.3,48.3,FALSE,FALSE,FALSE,FALSE,FALSE,FALSE,,TRUE,Normal,,100,1024,1024,1257,1024,0,FALSE,FALSE,FALSE,FALSE,FALSE,0,FALSE,FALSE,FALSE,FALSE,97,8.157,2052,2113,8.147,FALSE,4.081,4.076,0.005,FALSE,FALSE,NA,82.6,82.4,82.5,0,1,0,0,5,2738.1,684.53,,Idle,0,20,FALSE,5,TRUE,9,Go Home,FALSE,FALSE,FALSE,FALSE,FALSE,FALSE,FALSE,FALSE,FALSE,FALSE,FALSE,FALSE,6.974497738,79.91425342,4.2,126.9,328,TRUE,1,1,FALSE,FALSE,FALSE,FALSE,,TRUE,FALSE,FALSE,Course Lock,65.6,41.9,16.4,Calm,27,,1.12.8,Mavic Mini,1SDCH7G0169R0K,1SFLH6Q0AB03DJ,1SRCH7F014TAHX,1U5X071EXP5ZJG,113.2,0.2,22.9,9.712122,2.013246,0,374,Mavic Mini,1SDCH7G0169R0K,1SFLH6Q0AB03DJ,1SRCH7F014TAHX,1U5X071EXP5ZJG,DJI Fly,,1.12.8,9BF6E3B3-C81B-2932-A3DD-775863C01958,1SDCH7G0169R0K,,,,,6.974506066,79.91426714,5,,
2/15/2024,24:29.9,0m 4.5s,4.5,6.974496953,79.91426522,0,0,0.3,49,1.2,0,0,0,0,0,0,0,0,1.1,-1,24.2,24.2,,Manual Takeoff,Drop Calibration,Takeoff (RC Assisted),12,4,TRUE,,Mavic Mini,TRUE,FALSE,,Smart,RC,TRUE,TRUE,FALSE,,,TRUE,,FALSE,FALSE,FALSE,FALSE,FALSE,FALSE,FALSE,FALSE,FALSE,FALSE,0,Follow Yaw,0,0,48.3,48.3,FALSE,FALSE,FALSE,FALSE,FALSE,FALSE,,TRUE,Normal,,100,1024,1024,1257,1024,0,FALSE,FALSE,FALSE,FALSE,FALSE,0,FALSE,FALSE,FALSE,FALSE,97,8.157,2052,2113,8.147,FALSE,4.081,4.076,0.005,FALSE,FALSE,NA,82.6,82.4,82.5,0,1,0,0,5,2738.1,684.53,,Idle,0,20,FALSE,5,TRUE,9,Go Home,FALSE,FALSE,FALSE,FALSE,FALSE,FALSE,FALSE,FALSE,FALSE,FALSE,FALSE,FALSE,6.974497738,79.91425342,4.2,126.9,328,TRUE,1,1,FALSE,FALSE,FALSE,FALSE,,TRUE,FALSE,FALSE,Course Lock,65.6,41.9,16.4,Calm,27,,1.12.8,Mavic Mini,1SDCH7G0169R0K,1SFLH6Q0AB03DJ,1SRCH7F014TAHX,1U5X071EXP5ZJG,113.2,0.2,22.9,9.712122,2.013246,0,374,Mavic Mini,1SDCH7G0169R0K,1SFLH6Q0AB03DJ,1SRCH7F014TAHX,1U5X071EXP5ZJG,DJI Fly,,1.12.8,9BF6E3B3-C81B-2932-A3DD-775863C01958,1SDCH7G0169R0K,,,,,6.974506066,79.91426714,5,,
2/15/2024,24:30.0,0m 4.6s,4.6,6.974496946,79.9142652,0,0,0.3,49,1.2,0,0,0,0,0,0,-0.223694,0,-0.3,-1.9,23.4,23.4,,Manual Takeoff,Drop Calibration,Takeoff (RC Assisted),12,4,TRUE,,Mavic Mini,TRUE,FALSE,,Smart,RC,TRUE,TRUE,FALSE,,,TRUE,,FALSE,FALSE,FALSE,FALSE,FALSE,FALSE,FALSE,FALSE,FALSE,FALSE,0,Follow Yaw,0,0,48.3,48.3,FALSE,FALSE,FALSE,FALSE,FALSE,FALSE,,TRUE,Normal,,100,1024,1024,1256,1024,0,FALSE,FALSE,FALSE,FALSE,FALSE,0,FALSE,FALSE,FALSE,FALSE,97,8.157,2052,2113,8.147,FALSE,4.081,4.076,0.005,FALSE,FALSE,NA,82.6,82.4,82.5,0,1,0,0,5,2738.1,684.53,,Idle,0,20,FALSE,5,TRUE,9,Go Home,FALSE,FALSE,FALSE,FALSE,FALSE,FALSE,FALSE,FALSE,FALSE,FALSE,FALSE,FALSE,6.974497738,79.91425342,4.2,126.9,328,TRUE,1,1,FALSE,FALSE,FALSE,FALSE,,TRUE,FALSE,FALSE,Course Lock,65.6,41.9,16.4,Calm,27,,1.12.8,Mavic Mini,1SDCH7G0169R0K,1SFLH6Q0AB03DJ,1SRCH7F014TAHX,1U5X071EXP5ZJG,113.2,0.2,22.9,9.712122,2.013246,0,374,Mavic Mini,1SDCH7G0169R0K,1SFLH6Q0AB03DJ,1SRCH7F014TAHX,1U5X071EXP5ZJG,DJI Fly,,1.12.8,9BF6E3B3-C81B-2932-A3DD-775863C01958,1SDCH7G0169R0K,,,,,6.974506066,79.91426714,5,,
2/15/2024,24:30.1,0m 4.7s,4.7,6.974496953,79.91426521,0,0,0.3,49,1.2,0.223694,0.223694,0,0,-0.223694,0,-0.447388,0,-0.4,-1.5,23,23,45.6,Sport,Drop Calibration,,12,4,TRUE,,Mavic Mini,TRUE,FALSE,,Smart,RC,FALSE,TRUE,FALSE,,,TRUE,,FALSE,FALSE,FALSE,FALSE,FALSE,FALSE,FALSE,FALSE,FALSE,FALSE,0,Follow Yaw,0,0,48.3,48.3,FALSE,FALSE,FALSE,FALSE,FALSE,FALSE,,TRUE,Normal,,100,1024,1024,1256,1024,0,FALSE,FALSE,FALSE,FALSE,FALSE,0,FALSE,FALSE,FALSE,FALSE,97,8.157,2052,2113,8.147,FALSE,4.081,4.076,0.005,FALSE,FALSE,NA,82.6,82.4,82.5,0,1,0,0,5,2738.1,684.53,,Idle,0,20,FALSE,5,TRUE,9,Go Home,FALSE,FALSE,FALSE,FALSE,FALSE,FALSE,FALSE,FALSE,TRUE,FALSE,FALSE,FALSE,6.974497738,79.91425342,4.2,126.9,328,TRUE,1,1,FALSE,FALSE,FALSE,FALSE,,TRUE,FALSE,FALSE,Course Lock,65.6,41.9,16.4,Calm,27,,1.12.8,Mavic Mini,1SDCH7G0169R0K,1SFLH6Q0AB03DJ,1SRCH7F014TAHX,1U5X071EXP5ZJG,113.2,0.2,22.9,9.712122,2.013246,0,374,Mavic Mini,1SDCH7G0169R0K,1SFLH6Q0AB03DJ,1SRCH7F014TAHX,1U5X071EXP5ZJG,DJI Fly,,1.12.8,9BF6E3B3-C81B-2932-A3DD-775863C01958,1SDCH7G0169R0K,,,,,6.974506066,79.91426714,5,Flight mode changed to Sport.,
2/15/2024,24:30.1,0m 4.8s,4.8,6.974497035,79.91426511,0,0,0.3,49,1.3,0.316351,0.316351,0.223694,0.223694,-0.223694,0,-0.671082,0,0.8,0.5,23.3,23.3,316.4,Sport,Drop Calibration,,12,4,TRUE,,Mavic Mini,TRUE,FALSE,,Smart,RC,FALSE,TRUE,FALSE,,,TRUE,,FALSE,FALSE,FALSE,FALSE,FALSE,FALSE,FALSE,FALSE,FALSE,FALSE,0,Follow Yaw,0,0,48.3,48.3,FALSE,FALSE,FALSE,FALSE,FALSE,FALSE,,TRUE,Normal,,100,1024,1024,1256,1024,0,FALSE,FALSE,FALSE,FALSE,FALSE,0,FALSE,FALSE,FALSE,FALSE,97,8.157,2052,2113,8.147,FALSE,4.081,4.076,0.005,FALSE,FALSE,NA,82.6,82.4,82.5,0,1,0,0,5,2738.1,684.53,,Idle,0,20,FALSE,5,TRUE,9,Go Home,FALSE,FALSE,FALSE,FALSE,FALSE,FALSE,FALSE,FALSE,TRUE,FALSE,FALSE,FALSE,6.974497738,79.91425342,4.2,126.9,328,TRUE,1,1,FALSE,FALSE,FALSE,FALSE,,TRUE,FALSE,FALSE,Course Lock,65.6,41.9,16.4,Calm,27,,1.12.8,Mavic Mini,1SDCH7G0169R0K,1SFLH6Q0AB03DJ,1SRCH7F014TAHX,1U5X071EXP5ZJG,113.2,0.2,22.9,9.712122,2.013246,0,374,Mavic Mini,1SDCH7G0169R0K,1SFLH6Q0AB03DJ,1SRCH7F014TAHX,1U5X071EXP5ZJG,DJI Fly,,1.12.8,9BF6E3B3-C81B-2932-A3DD-775863C01958,1SDCH7G0169R0K,,,,,6.974506066,79.91426714,5,,
2/15/2024,24:30.3,0m 4.9s,4.9,6.97449716,79.91426497,0,0,0.6,49,1.4,0.316351,0.316351,0.223694,0.223694,-0.223694,0,-0.894776,0,1.5,1.6,23.6,23.6,320.2,Sport,Drop Calibration,,12,4,TRUE,,Mavic Mini,TRUE,FALSE,,Smart,RC,FALSE,TRUE,FALSE,,,TRUE,,FALSE,FALSE,FALSE,FALSE,FALSE,FALSE,FALSE,FALSE,FALSE,FALSE,0,Follow Yaw,0,0,48.3,48.3,FALSE,FALSE,FALSE,FALSE,FALSE,FALSE,,TRUE,Normal,,100,1024,1024,1255,1024,0,FALSE,FALSE,FALSE,FALSE,FALSE,0,FALSE,FALSE,FALSE,FALSE,97,8.157,2052,2113,8.147,FALSE,4.081,4.076,0.005,FALSE,FALSE,NA,82.6,82.4,82.5,0,1,0,0,5,2738.1,684.53,,Idle,0,20,FALSE,5,TRUE,9,Go Home,FALSE,FALSE,FALSE,FALSE,FALSE,FALSE,FALSE,FALSE,TRUE,FALSE,FALSE,FALSE,6.974497738,79.91425342,4.1,126.9,328,TRUE,1,1,FALSE,FALSE,FALSE,FALSE,,TRUE,FALSE,FALSE,Course Lock,65.6,41.9,16.4,Calm,27,,1.12.8,Mavic Mini,1SDCH7G0169R0K,1SFLH6Q0AB03DJ,1SRCH7F014TAHX,1U5X071EXP5ZJG,113.2,0.2,22.9,9.712122,2.013246,0,374,Mavic Mini,1SDCH7G0169R0K,1SFLH6Q0AB03DJ,1SRCH7F014TAHX,1U5X071EXP5ZJG,DJI Fly,,1.12.8,9BF6E3B3-C81B-2932-A3DD-775863C01958,1SDCH7G0169R0K,,,,,6.974506066,79.91426714,5,,
2/15/2024,24:30.3,0m 5.0s,5,6.974497259,79.91426488,0.3,0.3,0.6,49,1.4,0.223694,0.316351,0.223694,0.223694,0,0,-1.342164,0,1.7,1.8,23.5,23.5,324.9,Sport,Drop Calibration,,12,4,TRUE,,Mavic Mini,TRUE,FALSE,,Smart,RC,FALSE,TRUE,FALSE,,,TRUE,,FALSE,FALSE,FALSE,FALSE,FALSE,FALSE,FALSE,FALSE,FALSE,FALSE,0,Follow Yaw,0,0,48.3,48.3,FALSE,FALSE,FALSE,FALSE,FALSE,FALSE,,TRUE,Normal,,100,1024,1024,1255,1024,0,FALSE,FALSE,FALSE,FALSE,FALSE,0,FALSE,FALSE,FALSE,FALSE,97,8.157,2052,2113,8.109,FALSE,4.081,4.076,0.005,FALSE,FALSE,NA,82.6,82.4,82.5,0,0,0,0,5,2896.2,724.05,,Idle,0,20,FALSE,5,TRUE,9,Go Home,FALSE,FALSE,FALSE,FALSE,FALSE,FALSE,FALSE,FALSE,TRUE,FALSE,FALSE,FALSE,6.974496947,79.91426519,0.1,126.9,328,TRUE,1,1,FALSE,FALSE,FALSE,FALSE,,TRUE,FALSE,FALSE,Course Lock,65.6,41.9,16.4,Calm,27,,1.12.8,Mavic Mini,1SDCH7G0169R0K,1SFLH6Q0AB03DJ,1SRCH7F014TAHX,1U5X071EXP5ZJG,113.2,0.2,22.9,9.712122,2.013246,0,374,Mavic Mini,1SDCH7G0169R0K,1SFLH6Q0AB03DJ,1SRCH7F014TAHX,1U5X071EXP5ZJG,DJI Fly,,1.12.8,9BF6E3B3-C81B-2932-A3DD-775863C01958,1SDCH7G0169R0K,,,,,6.974506066,79.91426714,5,Home Point Updated.,
2/15/2024,24:30.5,0m 5.1s,5.1,6.974497328,79.91426475,0.3,0.3,0.9,49,1.5,0.223694,0.316351,0.223694,0.223694,0,0,-1.342164,0,1.8,1.5,23.6,23.6,303.6,Sport,Drop Calibration,,12,4,TRUE,,Mavic Mini,TRUE,FALSE,,Smart,RC,FALSE,TRUE,FALSE,,,TRUE,,FALSE,FALSE,FALSE,FALSE,FALSE,FALSE,FALSE,FALSE,FALSE,FALSE,0,Follow Yaw,0,0,48.3,48.3,FALSE,FALSE,FALSE,FALSE,FALSE,FALSE,,TRUE,Normal,,100,1024,1024,1255,1024,0,FALSE,FALSE,FALSE,FALSE,FALSE,0,FALSE,FALSE,FALSE,FALSE,97,8.157,2052,2113,8.109,FALSE,4.081,4.076,0.005,FALSE,FALSE,NA,82.6,82.4,82.5,0,0,0,0,5,2896.2,724.05,,Idle,0,20,FALSE,5,TRUE,9,Go Home,FALSE,FALSE,FALSE,FALSE,FALSE,FALSE,FALSE,FALSE,TRUE,FALSE,FALSE,FALSE,6.974496947,79.91426519,0.2,126.9,328,TRUE,1,1,FALSE,FALSE,FALSE,FALSE,,TRUE,FALSE,FALSE,Course Lock,65.6,41.9,16.4,Calm,27,,1.12.8,Mavic Mini,1SDCH7G0169R0K,1SFLH6Q0AB03DJ,1SRCH7F014TAHX,1U5X071EXP5ZJG,113.2,0.2,22.9,9.712122,2.013246,0,374,Mavic Mini,1SDCH7G0169R0K,1SFLH6Q0AB03DJ,1SRCH7F014TAHX,1U5X071EXP5ZJG,DJI Fly,,1.12.8,9BF6E3B3-C81B-2932-A3DD-775863C01958,1SDCH7G0169R0K,,,,,6.974506066,79.91426714,5,Home Point updated. RTH altitude adjusted to 20 m! (Code: 120852).,
2/15/2024,24:30.6,0m 5.2s,5.2,6.974497414,79.91426464,0.6,0.6,0.9,49,1.5,0.223694,0.316351,0.223694,0.223694,0,0,-1.565858,0,1.2,1.9,23.7,23.7,315.2,Sport,Drop Calibration,,12,4,TRUE,,Mavic Mini,TRUE,FALSE,,Smart,RC,FALSE,TRUE,FALSE,,,TRUE,,FALSE,FALSE,FALSE,FALSE,FALSE,FALSE,FALSE,FALSE,FALSE,FALSE,0,Follow Yaw,0,0,48.3,48.3,FALSE,FALSE,FALSE,FALSE,FALSE,FALSE,,TRUE,Normal,,100,1024,1024,1254,1024,0,FALSE,FALSE,FALSE,FALSE,FALSE,0,FALSE,FALSE,FALSE,FALSE,97,7.921,2051,2113,8.109,FALSE,3.962,3.959,0.005,FALSE,FALSE,NA,82.6,82.4,82.5,0,0,0,0,5,2896.2,724.05,,Idle,0,20,FALSE,5,TRUE,9,Go Home,FALSE,FALSE,FALSE,FALSE,FALSE,FALSE,FALSE,FALSE,TRUE,FALSE,FALSE,FALSE,6.974496947,79.91426519,0.2,126.9,328,TRUE,1,1,FALSE,FALSE,FALSE,FALSE,,TRUE,FALSE,FALSE,Course Lock,65.6,41.9,16.4,Calm,27,,1.12.8,Mavic Mini,1SDCH7G0169R0K,1SFLH6Q0AB03DJ,1SRCH7F014TAHX,1U5X071EXP5ZJG,113.2,0.2,22.9,9.712122,2.013246,0,374,Mavic Mini,1SDCH7G0169R0K,1SFLH6Q0AB03DJ,1SRCH7F014TAHX,1U5X071EXP5ZJG,DJI Fly,,1.12.8,9BF6E3B3-C81B-2932-A3DD-775863C01958,1SDCH7G0169R0K,,,,,6.974506066,79.91426714,5,,
