CUSTOM.date [local],CUSTOM.updateTime [local],OSD.flyTime,OSD.flyTime [s],OSD.latitude,OSD.longitude,OSD.height [ft],OSD.heightMax [ft],OSD.vpsHeight [ft],OSD.altitude [ft],OSD.mileage [ft],OSD.hSpeed [MPH],OSD.hSpeedMax [MPH],OSD.xSpeed [MPH],OSD.xSpeedMax [MPH],OSD.ySpeed [MPH],OSD.ySpeedMax [MPH],OSD.zSpeed [MPH],OSD.zSpeedMax [MPH],OSD.pitch,OSD.roll,OSD.yaw,OSD.yaw [360],OSD.directionOfTravel,OSD.flycState,OSD.flycCommand,OSD.flightAction,OSD.gpsNum,OSD.gpsLevel,OSD.isGPSUsed,OSD.nonGPSCause,OSD.droneType,OSD.isSwaveWork,OSD.waveError,OSD.goHomeStatus,OSD.batteryType,OSD.ctrlDevice,OSD.isOnGround,OSD.isMotorOn,OSD.isMotorBlocked,OSD.motorStartFailedCause,OSD.motorFailReason,OSD.isImuPreheated,OSD.imuInitFailReason,OSD.isAcceletorOverRange,OSD.isBarometerDeadInAir,OSD.isCompassError,OSD.isGoHomeHeightModified,OSD.canIOCWork,OSD.isNotEnoughForce,OSD.isOutOfLimit,OSD.isPropellerCatapult,OSD.isVibrating,OSD.isVisionUsed,OSD.voltageWarning,GIMBAL.mode,GIMBAL.pitch,GIMBAL.roll,GIMBAL.yaw,GIMBAL.yaw [360],GIMBAL.isPitchAtLimit,GIMBAL.isRollAtLimit,GIMBAL.isYawAtLimit,GIMBAL.isStuck,CAMERA.isPhoto,CAMERA.isVideo,CAMERA.filename,CAMERA.sdCardIsInserted,CAMERA.sdCardState,RC.downlinkSignal,RC.uplinkSignal,RC.aileron,RC.elevator,RC.throttle,RC.rudder,RC.mode,RC.goHomeDepressed,RC.recordDepressed,RC.shutterDepressed,RC.playbackDepressed,RC.wheelDepressed,RC.wheelOffset,RC.custom1Depressed,RC.custom2Depressed,RC.custom3Depressed,RC.custom4Depressed,BATTERY.chargeLevel,BATTERY.currentPV [V],BATTERY.currentCapacity [mAh],BATTERY.fullCapacity [mAh],BATTERY.voltage [V],BATTERY.isCellVoltageEstimated,BATTERY.cellVoltage1 [V],BATTERY.cellVoltage2 [V],BATTERY.maxCellVoltageDeviation,BATTERY.isCellVoltageDeviationHigh,BATTERY.isVoltageLow,BATTERY.current [A],BATTERY.temperature [F],BATTERY.minTemperature [F],BATTERY.maxTemperature [F],BATTERY.usefulTime [s],BATTERY.goHomeTime [s],BATTERY.landTime [s],BATTERY.goHomeBattery,BATTERY.landBattery,BATTERY.safeFlyRadius,BATTERY.volumeConsume,BATTERY.status,BATTERY.goHomeStatus,BATTERY.goHomeCountdown,BATTERY.lowWarning,BATTERY.lowWarningGoHome,BATTERY.seriousLowWarning,BATTERY.seriousLowWarningLanding,BATTERY.timesCharged,MC.failSafeAction,MC.isObstacleAvoidanceEnabled,MC.isCollisionAvoidanceEnabled,MC.isRthObstacleAvoidanceEnabled,MC.isBraking,MC.isAvoidingObstacle,MC.isAvoidingActiveObstacle,MC.isAscentLimitedByObstacle,MC.isLandingConfirmationNeeded,MC.atLowAltitudeLimit,MC.atDistanceLimit,MC.atAirportAltitudeLimit,MC.atAirportBoundary,HOME.latitude,HOME.longitude,HOME.distance [ft],HOME.height [ft],HOME.heightLimit [ft],HOME.isHomeRecord,HOME.goHomeMode,HOME.aircraftHeadDirection,HOME.isDynamicHomePointEnabled,HOME.isReachedLimitDistance,HOME.isReachedLimitHeight,HOME.isCompassCalibrating,HOME.compassCalibrationState,HOME.isMultipleFlightModeEnabled,HOME.isBeginnerMode,HOME.isIOCEnabled,HOME.iocMode,HOME.goHomeHeight [ft],HOME.courseLockAngle,HOME.forceLandingHeight [ft],HOME.wind,HOME.dataRecorderFileIndex,RECOVER.appType,RECOVER.appVersion,RECOVER.aircraftName,RECOVER.aircraftSerial,RECOVER.cameraSerial,RECOVER.rcSerial,RECOVER.batterySerial,DETAILS.totalTime [s],DETAILS.totalDistance [ft],DETAILS.maxHeight [ft],DETAILS.maxHorizontalSpeed [MPH],DETAILS.maxVerticalSpeed [MPH],DETAILS.photoNum,DETAILS.videoTime [s],DETAILS.aircraftName,DETAILS.aircraftSerial,DETAILS.cameraSerial,DETAILS.rcSerial,DETAILS.batterySerial,DETAILS.appName,DETAILS.appType,DETAILS.appVersion,DETAILS.guid,SERIAL.flightController,SERIAL.camera,SERIAL.gimbal,SERIAL.rc,SERIAL.battery,APPGPS.latitude,APPGPS.longitude,APPGPS.accuracy,APP.tip,APP.warning
2/22/2024,35:12.6,9m 45.7s,585.7,6.974224709,79.91415398,0,0,0.3,50,0,0,0,0,0,0,0,0,0,6.6,2.2,-53.3,306.7,,Starting Motors,Drop Calibration,Takeoff (RC Assisted),16,5,TRUE,,Mavic Mini,FALSE,FALSE,,Smart,RC,TRUE,TRUE,FALSE,,,TRUE,,FALSE,FALSE,FALSE,FALSE,FALSE,FALSE,FALSE,FALSE,FALSE,FALSE,0,Follow Yaw,0,0,-36.9,323.1,FALSE,FALSE,FALSE,FALSE,FALSE,FALSE,,TRUE,Normal,,,1024,1024,1024,1024,2,FALSE,FALSE,FALSE,FALSE,FALSE,0,FALSE,FALSE,FALSE,FALSE,59,7.602,1214,2056,7.602,TRUE,3.801,3.801,,FALSE,FALSE,NA,114.4,114.4,114.4,,,,,,,,,Idle,,,TRUE,,FALSE,6,Go Home,FALSE,FALSE,FALSE,FALSE,FALSE,FALSE,FALSE,FALSE,FALSE,FALSE,FALSE,FALSE,,,,,,FALSE,,,FALSE,FALSE,FALSE,FALSE,,FALSE,FALSE,FALSE,,,,,Calm,,,1.12.8,Mavic Mini,1SDCH7G0169R0K,1SFLH6Q0AB03DJ,1SRCH7F014TAHX,1U5X071EXP6C9Y,228.4,0.1,72.1,3.302841,3.579104,0,0,Mavic Mini,1SDCH7G0169R0K,1SFLH6Q0AB03DJ,1SRCH7F014TAHX,1U5X071EXP6C9Y,DJI Fly,,1.12.8,81C8C3F3-1670-44FF-FA8B-5DA58CA1B90D,1SDCH7G0169R0K,,,,,,,,Flight mode changed to Starting Motors.,
2/22/2024,25:27.0,9m 45.8s,585.8,6.974224729,79.91415393,0,0,0.3,50,0,0,0,0,0,0,0,0,0,6.6,2.2,-53.3,306.7,,Starting Motors,Drop Calibration,Takeoff (RC Assisted),16,5,TRUE,,Mavic Mini,FALSE,FALSE,,Smart,RC,TRUE,TRUE,FALSE,,,TRUE,,FALSE,FALSE,FALSE,FALSE,FALSE,FALSE,FALSE,FALSE,FALSE,FALSE,0,Follow Yaw,0,0,-36.9,323.1,FALSE,FALSE,FALSE,FALSE,FALSE,FALSE,,TRUE,Normal,,100,1024,1024,1024,1024,2,FALSE,FALSE,FALSE,FALSE,FALSE,0,FALSE,FALSE,FALSE,FALSE,59,7.602,1214,2056,7.602,TRUE,3.801,3.801,,FALSE,FALSE,NA,114.4,114.4,114.4,,,,,,,,,Idle,,,TRUE,,FALSE,6,Go Home,FALSE,FALSE,FALSE,FALSE,FALSE,FALSE,FALSE,FALSE,FALSE,FALSE,FALSE,FALSE,,,,,,FALSE,,,FALSE,FALSE,FALSE,FALSE,,FALSE,FALSE,FALSE,,,,,Calm,,,1.12.8,Mavic Mini,1SDCH7G0169R0K,1SFLH6Q0AB03DJ,1SRCH7F014TAHX,1U5X071EXP6C9Y,228.4,0.1,72.1,3.302841,3.579104,0,0,Mavic Mini,1SDCH7G0169R0K,1SFLH6Q0AB03DJ,1SRCH7F014TAHX,1U5X071EXP6C9Y,DJI Fly,,1.12.8,81C8C3F3-1670-44FF-FA8B-5DA58CA1B90D,1SDCH7G0169R0K,,,,,,,,,
2/22/2024,25:27.1,9m 45.9s,585.9,6.974224721,79.91415388,0,0,0.3,50,0,0,0,0,0,0,0,0,0,6.6,2.2,-53.3,306.7,,Starting Motors,Drop Calibration,Takeoff (RC Assisted),16,5,TRUE,,Mavic Mini,TRUE,FALSE,,Smart,RC,TRUE,TRUE,FALSE,,,TRUE,,FALSE,FALSE,FALSE,FALSE,FALSE,FALSE,FALSE,FALSE,FALSE,FALSE,0,Follow Yaw,0,0,-36.9,323.1,FALSE,FALSE,FALSE,FALSE,FALSE,FALSE,,TRUE,Normal,,100,1024,1024,1024,1024,2,FALSE,FALSE,FALSE,FALSE,FALSE,0,FALSE,FALSE,FALSE,FALSE,59,7.602,1214,2056,7.602,TRUE,3.801,3.801,,FALSE,FALSE,NA,114.4,114.4,114.4,,,,,,,,,Idle,,,TRUE,,FALSE,6,Go Home,FALSE,FALSE,FALSE,FALSE,FALSE,FALSE,FALSE,FALSE,FALSE,FALSE,FALSE,FALSE,,,,,,FALSE,,,FALSE,FALSE,FALSE,FALSE,,FALSE,FALSE,FALSE,,,,,Calm,,,1.12.8,Mavic Mini,1SDCH7G0169R0K,1SFLH6Q0AB03DJ,1SRCH7F014TAHX,1U5X071EXP6C9Y,228.4,0.1,72.1,3.302841,3.579104,0,0,Mavic Mini,1SDCH7G0169R0K,1SFLH6Q0AB03DJ,1SRCH7F014TAHX,1U5X071EXP6C9Y,DJI Fly,,1.12.8,81C8C3F3-1670-44FF-FA8B-5DA58CA1B90D,1SDCH7G0169R0K,,,,,,,,,
2/22/2024,25:27.2,9m 46.0s,586,6.974224715,79.91415383,0,0,0.3,50,0,0,0,0,0,0,0,0,0,6.6,2.2,-53.3,306.7,,Starting Motors,Drop Calibration,Takeoff (RC Assisted),16,5,TRUE,,Mavic Mini,TRUE,FALSE,,Smart,RC,TRUE,TRUE,FALSE,,,TRUE,,FALSE,FALSE,FALSE,FALSE,FALSE,FALSE,FALSE,FALSE,FALSE,FALSE,0,Follow Yaw,0,0,-36.8,323.2,FALSE,FALSE,FALSE,FALSE,FALSE,FALSE,,TRUE,Normal,,100,1024,1024,1024,1024,2,FALSE,FALSE,FALSE,FALSE,FALSE,0,FALSE,FALSE,FALSE,FALSE,59,7.602,1214,2056,7.602,TRUE,3.801,3.801,,FALSE,FALSE,NA,114.4,114.4,114.4,,,,,,,,,Idle,,,TRUE,,FALSE,6,Go Home,FALSE,FALSE,FALSE,FALSE,FALSE,FALSE,FALSE,FALSE,FALSE,FALSE,FALSE,FALSE,,,,,,FALSE,,,FALSE,FALSE,FALSE,FALSE,,FALSE,FALSE,FALSE,,,,,Calm,,,1.12.8,Mavic Mini,1SDCH7G0169R0K,1SFLH6Q0AB03DJ,1SRCH7F014TAHX,1U5X071EXP6C9Y,228.4,0.1,72.1,3.302841,3.579104,0,0,Mavic Mini,1SDCH7G0169R0K,1SFLH6Q0AB03DJ,1SRCH7F014TAHX,1U5X071EXP6C9Y,DJI Fly,,1.12.8,81C8C3F3-1670-44FF-FA8B-5DA58CA1B90D,1SDCH7G0169R0K,,,,,,,,,
2/22/2024,25:27.3,9m 46.1s,586.1,6.974224706,79.91415378,0,0,0.3,50,0,0,0,0,0,0,0,0,0,6.5,2.3,-53.3,306.7,,Starting Motors,Drop Calibration,Takeoff (RC Assisted),16,5,TRUE,,Mavic Mini,TRUE,FALSE,,Smart,RC,TRUE,TRUE,FALSE,,,TRUE,,FALSE,FALSE,FALSE,FALSE,FALSE,FALSE,FALSE,FALSE,FALSE,FALSE,0,Follow Yaw,0,0,-36.8,323.2,FALSE,FALSE,FALSE,FALSE,FALSE,FALSE,,TRUE,Normal,,100,1024,1024,1024,1024,2,FALSE,FALSE,FALSE,FALSE,FALSE,0,FALSE,FALSE,FALSE,FALSE,59,7.602,1214,2056,7.602,TRUE,3.801,3.801,,FALSE,FALSE,NA,114.4,114.4,114.4,,,,,,,,,Idle,,,TRUE,,FALSE,6,Go Home,FALSE,FALSE,FALSE,FALSE,FALSE,FALSE,FALSE,FALSE,FALSE,FALSE,FALSE,FALSE,,,,,,FALSE,,,FALSE,FALSE,FALSE,FALSE,,FALSE,FALSE,FALSE,,,,,Calm,,,1.12.8,Mavic Mini,1SDCH7G0169R0K,1SFLH6Q0AB03DJ,1SRCH7F014TAHX,1U5X071EXP6C9Y,228.4,0.1,72.1,3.302841,3.579104,0,0,Mavic Mini,1SDCH7G0169R0K,1SFLH6Q0AB03DJ,1SRCH7F014TAHX,1U5X071EXP6C9Y,DJI Fly,,1.12.8,81C8C3F3-1670-44FF-FA8B-5DA58CA1B90D,1SDCH7G0169R0K,,,,,,,,,
2/22/2024,25:27.4,9m 46.2s,586.2,6.974224604,79.91415372,0,0,0.3,50,0,0,0,0,0,0,0,0,0,6.5,2.2,-53.3,306.7,,Starting Motors,Drop Calibration,Takeoff (RC Assisted),16,5,TRUE,,Mavic Mini,TRUE,FALSE,,Smart,RC,TRUE,TRUE,FALSE,,,TRUE,,FALSE,FALSE,FALSE,FALSE,FALSE,FALSE,FALSE,FALSE,FALSE,FALSE,0,Follow Yaw,0,0,-36.8,323.2,FALSE,FALSE,FALSE,FALSE,FALSE,FALSE,,TRUE,Normal,,100,1024,1024,1024,1024,2,FALSE,FALSE,FALSE,FALSE,FALSE,0,FALSE,FALSE,FALSE,FALSE,59,7.602,1214,2056,7.602,FALSE,3.803,3.799,0.004,FALSE,FALSE,NA,114.4,114.4,114.4,,,,,,,,,Idle,,,TRUE,,FALSE,6,Go Home,FALSE,FALSE,FALSE,FALSE,FALSE,FALSE,FALSE,FALSE,FALSE,FALSE,FALSE,FALSE,,,,,,FALSE,,,FALSE,FALSE,FALSE,FALSE,,FALSE,FALSE,FALSE,,,,,Calm,,,1.12.8,Mavic Mini,1SDCH7G0169R0K,1SFLH6Q0AB03DJ,1SRCH7F014TAHX,1U5X071EXP6C9Y,228.4,0.1,72.1,3.302841,3.579104,0,0,Mavic Mini,1SDCH7G0169R0K,1SFLH6Q0AB03DJ,1SRCH7F014TAHX,1U5X071EXP6C9Y,DJI Fly,,1.12.8,81C8C3F3-1670-44FF-FA8B-5DA58CA1B90D,1SDCH7G0169R0K,,,,,,,,,
2/22/2024,25:27.5,9m 46.3s,586.3,6.974224545,79.91415367,0,0,0.3,50,0.1,0,0,0,0,0,0,0,0,6.6,2.2,-53.3,306.7,,Starting Motors,Drop Calibration,Takeoff (RC Assisted),16,5,TRUE,,Mavic Mini,TRUE,FALSE,,Smart,RC,TRUE,TRUE,FALSE,,,TRUE,,FALSE,FALSE,FALSE,FALSE,FALSE,FALSE,FALSE,FALSE,FALSE,FALSE,0,Follow Yaw,0,0,-36.8,323.2,FALSE,FALSE,FALSE,FALSE,FALSE,FALSE,,TRUE,Normal,,100,1024,1024,1024,1024,2,FALSE,FALSE,FALSE,FALSE,FALSE,0,FALSE,FALSE,FALSE,FALSE,59,7.602,1214,2056,7.587,FALSE,3.803,3.799,0.004,FALSE,FALSE,NA,114.4,114.4,114.4,0,0,0,0,5,2321.6,580.41,,Idle,0,20,FALSE,5,TRUE,6,Go Home,FALSE,FALSE,FALSE,FALSE,FALSE,FALSE,FALSE,FALSE,FALSE,FALSE,FALSE,FALSE,6.974223646,79.9141598,2.2,96.3,328,TRUE,1,1,FALSE,FALSE,FALSE,FALSE,,TRUE,FALSE,FALSE,Course Lock,49.2,,16.4,Calm,33,,1.12.8,Mavic Mini,1SDCH7G0169R0K,1SFLH6Q0AB03DJ,1SRCH7F014TAHX,1U5X071EXP6C9Y,228.4,0.1,72.1,3.302841,3.579104,0,0,Mavic Mini,1SDCH7G0169R0K,1SFLH6Q0AB03DJ,1SRCH7F014TAHX,1U5X071EXP6C9Y,DJI Fly,,1.12.8,81C8C3F3-1670-44FF-FA8B-5DA58CA1B90D,1SDCH7G0169R0K,,,,,,,,Data Recorder File Index is 33.; Set Return to Home (RTH) altitude to 15 m (49 ft).; Set maximum flight altitude to 100 m (328 ft).,
2/22/2024,25:27.5,9m 46.4s,586.4,6.974224521,79.91415362,0,0,0.3,50,0.1,0,0,0,0,0,0,0,0,6.6,2.1,-53.4,306.6,,Starting Motors,Drop Calibration,Takeoff (RC Assisted),16,5,TRUE,,Mavic Mini,TRUE,FALSE,,Smart,RC,TRUE,TRUE,FALSE,,,TRUE,,FALSE,FALSE,FALSE,FALSE,FALSE,FALSE,FALSE,FALSE,FALSE,FALSE,0,Follow Yaw,0,0,-36.8,323.2,FALSE,FALSE,FALSE,FALSE,FALSE,FALSE,,TRUE,Normal,,100,1024,1024,1024,1024,2,FALSE,FALSE,FALSE,FALSE,FALSE,0,FALSE,FALSE,FALSE,FALSE,59,7.602,1214,2056,7.587,FALSE,3.803,3.799,0.004,FALSE,FALSE,NA,114.4,114.4,114.4,0,0,0,0,5,2321.6,580.41,,Idle,0,20,FALSE,5,TRUE,6,Go Home,FALSE,FALSE,FALSE,FALSE,FALSE,FALSE,FALSE,FALSE,FALSE,FALSE,FALSE,FALSE,6.974223646,79.9141598,2.2,96.3,328,TRUE,1,1,FALSE,FALSE,FALSE,FALSE,,TRUE,FALSE,FALSE,Course Lock,49.2,,16.4,Calm,33,,1.12.8,Mavic Mini,1SDCH7G0169R0K,1SFLH6Q0AB03DJ,1SRCH7F014TAHX,1U5X071EXP6C9Y,228.4,0.1,72.1,3.302841,3.579104,0,0,Mavic Mini,1SDCH7G0169R0K,1SFLH6Q0AB03DJ,1SRCH7F014TAHX,1U5X071EXP6C9Y,DJI Fly,,1.12.8,81C8C3F3-1670-44FF-FA8B-5DA58CA1B90D,1SDCH7G0169R0K,,,,,,,,,
2/22/2024,25:27.8,9m 46.5s,586.5,6.974224497,79.91415358,0,0,0.3,50,0.1,0,0,0,0,0,0,0,0,6.6,2.1,-53.3,306.7,,Starting Motors,Drop Calibration,Takeoff (RC Assisted),16,5,TRUE,,Mavic Mini,TRUE,FALSE,,Smart,RC,TRUE,TRUE,FALSE,,,TRUE,,FALSE,FALSE,FALSE,FALSE,FALSE,FALSE,FALSE,FALSE,FALSE,FALSE,0,Follow Yaw,0,0,-36.8,323.2,FALSE,FALSE,FALSE,FALSE,FALSE,FALSE,,TRUE,Normal,,100,1024,1024,1024,1024,2,FALSE,FALSE,FALSE,FALSE,FALSE,0,FALSE,FALSE,FALSE,FALSE,59,7.602,1214,2056,7.587,FALSE,3.803,3.799,0.004,FALSE,FALSE,NA,114.4,114.4,114.4,0,0,0,0,5,2321.6,580.41,,Idle,0,20,FALSE,5,TRUE,6,Go Home,FALSE,FALSE,FALSE,FALSE,FALSE,FALSE,FALSE,FALSE,FALSE,FALSE,FALSE,FALSE,6.974223646,79.9141598,2.2,96.3,328,TRUE,1,1,FALSE,FALSE,FALSE,FALSE,,TRUE,FALSE,FALSE,Course Lock,49.2,,16.4,Calm,33,,1.12.8,Mavic Mini,1SDCH7G0169R0K,1SFLH6Q0AB03DJ,1SRCH7F014TAHX,1U5X071EXP6C9Y,228.4,0.1,72.1,3.302841,3.579104,0,0,Mavic Mini,1SDCH7G0169R0K,1SFLH6Q0AB03DJ,1SRCH7F014TAHX,1U5X071EXP6C9Y,DJI Fly,,1.12.8,81C8C3F3-1670-44FF-FA8B-5DA58CA1B90D,1SDCH7G0169R0K,,,,,,,,,
2/22/2024,25:27.8,9m 46.6s,586.6,6.974224543,79.91415351,0,0,0.3,50,0.1,0,0,0,0,0,0,0,0,6.6,2.2,-53.3,306.7,,Starting Motors,Drop Calibration,Takeoff (RC Assisted),16,5,TRUE,,Mavic Mini,TRUE,FALSE,,Smart,RC,TRUE,TRUE,FALSE,,,TRUE,,FALSE,FALSE,FALSE,FALSE,FALSE,FALSE,FALSE,FALSE,FALSE,FALSE,0,Follow Yaw,0,0,-36.8,323.2,FALSE,FALSE,FALSE,FALSE,FALSE,FALSE,,TRUE,Normal,,100,1024,1024,1024,1024,2,FALSE,FALSE,FALSE,FALSE,FALSE,0,FALSE,FALSE,FALSE,FALSE,59,7.602,1214,2056,7.587,FALSE,3.803,3.799,0.004,FALSE,FALSE,NA,114.4,114.4,114.4,0,0,0,0,5,2321.6,580.41,,Idle,0,20,FALSE,5,TRUE,6,Go Home,FALSE,FALSE,FALSE,FALSE,FALSE,FALSE,FALSE,FALSE,FALSE,FALSE,FALSE,FALSE,6.974223646,79.9141598,2.3,96.3,328,TRUE,1,1,FALSE,FALSE,FALSE,FALSE,,TRUE,FALSE,FALSE,Course Lock,49.2,,16.4,Calm,33,,1.12.8,Mavic Mini,1SDCH7G0169R0K,1SFLH6Q0AB03DJ,1SRCH7F014TAHX,1U5X071EXP6C9Y,228.4,0.1,72.1,3.302841,3.579104,0,0,Mavic Mini,1SDCH7G0169R0K,1SFLH6Q0AB03DJ,1SRCH7F014TAHX,1U5X071EXP6C9Y,DJI Fly,,1.12.8,81C8C3F3-1670-44FF-FA8B-5DA58CA1B90D,1SDCH7G0169R0K,,,,,,,,,
2/22/2024,25:28.0,9m 46.7s,586.7,6.974224535,79.91415346,0,0,0.3,50,0.2,0,0,0,0,0,0,0,0,6.6,2.1,-53.4,306.6,,Starting Motors,Drop Calibration,Takeoff (RC Assisted),16,5,TRUE,,Mavic Mini,TRUE,FALSE,,Smart,RC,TRUE,TRUE,FALSE,,,TRUE,,FALSE,FALSE,FALSE,FALSE,FALSE,FALSE,FALSE,FALSE,FALSE,FALSE,0,Follow Yaw,0,0,-36.8,323.2,FALSE,FALSE,FALSE,FALSE,FALSE,FALSE,,TRUE,Normal,,100,1024,1024,1024,1024,2,FALSE,FALSE,FALSE,FALSE,FALSE,0,FALSE,FALSE,FALSE,FALSE,59,7.602,1214,2056,7.587,FALSE,3.803,3.799,0.004,FALSE,FALSE,NA,114.4,114.4,114.4,0,0,0,0,5,2321.6,580.41,,Idle,0,20,FALSE,5,TRUE,6,Go Home,FALSE,FALSE,FALSE,FALSE,FALSE,FALSE,FALSE,FALSE,FALSE,FALSE,FALSE,FALSE,6.974223646,79.9141598,2.3,96.3,328,TRUE,1,1,FALSE,FALSE,FALSE,FALSE,,TRUE,FALSE,FALSE,Course Lock,49.2,,16.4,Calm,33,,1.12.8,Mavic Mini,1SDCH7G0169R0K,1SFLH6Q0AB03DJ,1SRCH7F014TAHX,1U5X071EXP6C9Y,228.4,0.1,72.1,3.302841,3.579104,0,0,Mavic Mini,1SDCH7G0169R0K,1SFLH6Q0AB03DJ,1SRCH7F014TAHX,1U5X071EXP6C9Y,DJI Fly,,1.12.8,81C8C3F3-1670-44FF-FA8B-5DA58CA1B90D,1SDCH7G0169R0K,,,,,,,,,
2/22/2024,25:28.0,9m 46.8s,586.8,6.974224536,79.91415341,0,0,0.3,50,0.2,0,0,0,0,0,0,0,0,6.6,2.2,-53.3,306.7,,Manual Takeoff,Drop Calibration,Takeoff (RC Assisted),16,5,TRUE,,Mavic Mini,TRUE,FALSE,,Smart,RC,TRUE,TRUE,FALSE,,,TRUE,,FALSE,FALSE,FALSE,FALSE,FALSE,FALSE,FALSE,FALSE,FALSE,FALSE,0,Follow Yaw,0,0,-36.8,323.2,FALSE,FALSE,FALSE,FALSE,FALSE,FALSE,,TRUE,Normal,,100,1024,1024,1024,1024,2,FALSE,FALSE,FALSE,FALSE,FALSE,0,FALSE,FALSE,FALSE,FALSE,59,7.573,1213,2056,7.587,FALSE,3.8,3.773,0.027,FALSE,FALSE,NA,114.4,114.4,114.4,0,0,0,0,5,2321.6,580.41,,Idle,0,20,FALSE,5,TRUE,6,Go Home,FALSE,FALSE,FALSE,FALSE,FALSE,FALSE,FALSE,FALSE,FALSE,FALSE,FALSE,FALSE,6.974223646,79.9141598,2.3,96.3,328,TRUE,1,1,FALSE,FALSE,FALSE,FALSE,,TRUE,FALSE,FALSE,Course Lock,49.2,,16.4,Calm,33,,1.12.8,Mavic Mini,1SDCH7G0169R0K,1SFLH6Q0AB03DJ,1SRCH7F014TAHX,1U5X071EXP6C9Y,228.4,0.1,72.1,3.302841,3.579104,0,0,Mavic Mini,1SDCH7G0169R0K,1SFLH6Q0AB03DJ,1SRCH7F014TAHX,1U5X071EXP6C9Y,DJI Fly,,1.12.8,81C8C3F3-1670-44FF-FA8B-5DA58CA1B90D,1SDCH7G0169R0K,,,,,,,,Flight mode changed to Manual Takeoff.,
2/22/2024,25:28.1,9m 46.9s,586.9,6.974224537,79.91415337,0,0,0.3,50,0.2,0,0,0,0,0,0,0,0,6.6,2.2,-53.4,306.6,,Manual Takeoff,Drop Calibration,Takeoff (RC Assisted),16,5,TRUE,,Mavic Mini,TRUE,FALSE,,Smart,RC,TRUE,TRUE,FALSE,,,TRUE,,FALSE,FALSE,FALSE,FALSE,FALSE,FALSE,FALSE,FALSE,FALSE,FALSE,0,Follow Yaw,0,0,-36.8,323.2,FALSE,FALSE,FALSE,FALSE,FALSE,FALSE,,TRUE,Normal,,100,1024,1024,1024,1024,2,FALSE,FALSE,FALSE,FALSE,FALSE,0,FALSE,FALSE,FALSE,FALSE,59,7.573,1213,2056,7.587,FALSE,3.8,3.773,0.027,FALSE,FALSE,NA,114.4,114.4,114.4,0,0,0,0,5,2321.6,580.41,,Idle,0,20,FALSE,5,TRUE,6,Go Home,FALSE,FALSE,FALSE,FALSE,FALSE,FALSE,FALSE,FALSE,FALSE,FALSE,FALSE,FALSE,6.974223646,79.9141598,2.3,96.3,328,TRUE,1,1,FALSE,FALSE,FALSE,FALSE,,TRUE,FALSE,FALSE,Course Lock,49.2,,16.4,Calm,33,,1.12.8,Mavic Mini,1SDCH7G0169R0K,1SFLH6Q0AB03DJ,1SRCH7F014TAHX,1U5X071EXP6C9Y,228.4,0.1,72.1,3.302841,3.579104,0,0,Mavic Mini,1SDCH7G0169R0K,1SFLH6Q0AB03DJ,1SRCH7F014TAHX,1U5X071EXP6C9Y,DJI Fly,,1.12.8,81C8C3F3-1670-44FF-FA8B-5DA58CA1B90D,1SDCH7G0169R0K,,,,,,,,,
2/22/2024,25:28.2,9m 47.0s,587,6.974224492,79.91415337,0,0,0.3,50,0.2,0,0,0,0,0,0,0,0,6.6,2.2,-53.3,306.7,,Manual Takeoff,Drop Calibration,Takeoff (RC Assisted),16,5,TRUE,,Mavic Mini,TRUE,FALSE,,Smart,RC,TRUE,TRUE,FALSE,,,TRUE,,FALSE,FALSE,FALSE,FALSE,FALSE,FALSE,FALSE,FALSE,FALSE,FALSE,0,Follow Yaw,0,0,-36.8,323.2,FALSE,FALSE,FALSE,FALSE,FALSE,FALSE,,TRUE,Normal,,100,1024,1024,1024,1024,2,FALSE,FALSE,FALSE,FALSE,FALSE,0,FALSE,FALSE,FALSE,FALSE,59,7.573,1213,2056,7.587,FALSE,3.8,3.773,0.027,FALSE,FALSE,NA,114.4,114.4,114.4,0,0,0,0,5,2321.6,580.41,,Idle,0,20,FALSE,5,TRUE,6,Go Home,FALSE,FALSE,FALSE,FALSE,FALSE,FALSE,FALSE,FALSE,FALSE,FALSE,FALSE,FALSE,6.974223646,79.9141598,2.3,96.3,328,TRUE,1,1,FALSE,FALSE,FALSE,FALSE,,TRUE,FALSE,FALSE,Course Lock,49.2,,16.4,Calm,33,,1.12.8,Mavic Mini,1SDCH7G0169R0K,1SFLH6Q0AB03DJ,1SRCH7F014TAHX,1U5X071EXP6C9Y,228.4,0.1,72.1,3.302841,3.579104,0,0,Mavic Mini,1SDCH7G0169R0K,1SFLH6Q0AB03DJ,1SRCH7F014TAHX,1U5X071EXP6C9Y,DJI Fly,,1.12.8,81C8C3F3-1670-44FF-FA8B-5DA58CA1B90D,1SDCH7G0169R0K,,,,,,,,,
2/22/2024,25:28.3,9m 47.1s,587.1,6.974224429,79.91415345,0,0,0.3,50,0.2,0,0,0,0,0,0,0,0,6.6,2.1,-53.3,306.7,,Manual Takeoff,Drop Calibration,Takeoff (RC Assisted),16,5,TRUE,,Mavic Mini,TRUE,FALSE,,Smart,RC,TRUE,TRUE,FALSE,,,TRUE,,FALSE,FALSE,FALSE,FALSE,FALSE,FALSE,FALSE,FALSE,FALSE,FALSE,0,Follow Yaw,0,0,-36.8,323.2,FALSE,FALSE,FALSE,FALSE,FALSE,FALSE,,TRUE,Normal,,100,1024,1024,1024,1024,2,FALSE,FALSE,FALSE,FALSE,FALSE,0,FALSE,FALSE,FALSE,FALSE,59,7.573,1213,2056,7.587,FALSE,3.8,3.773,0.027,FALSE,FALSE,NA,114.4,114.4,114.4,0,0,0,0,5,2321.6,580.41,,Idle,0,20,FALSE,5,TRUE,6,Go Home,FALSE,FALSE,FALSE,FALSE,FALSE,FALSE,FALSE,FALSE,FALSE,FALSE,FALSE,FALSE,6.974223646,79.9141598,2.3,96.3,328,TRUE,1,1,FALSE,FALSE,FALSE,FALSE,,TRUE,FALSE,FALSE,Course Lock,49.2,,16.4,Calm,33,,1.12.8,Mavic Mini,1SDCH7G0169R0K,1SFLH6Q0AB03DJ,1SRCH7F014TAHX,1U5X071EXP6C9Y,228.4,0.1,72.1,3.302841,3.579104,0,0,Mavic Mini,1SDCH7G0169R0K,1SFLH6Q0AB03DJ,1SRCH7F014TAHX,1U5X071EXP6C9Y,DJI Fly,,1.12.8,81C8C3F3-1670-44FF-FA8B-5DA58CA1B90D,1SDCH7G0169R0K,,,,,,,,,
2/22/2024,25:28.4,9m 47.2s,587.2,6.974224407,79.91415342,0,0,0.3,50,0.3,0,0,0,0,0,0,0,0,6.6,2.1,-53.4,306.6,,Manual Takeoff,Drop Calibration,Takeoff (RC Assisted),16,5,TRUE,,Mavic Mini,TRUE,FALSE,,Smart,RC,TRUE,TRUE,FALSE,,,TRUE,,FALSE,FALSE,FALSE,FALSE,FALSE,FALSE,FALSE,FALSE,FALSE,FALSE,0,Follow Yaw,0,0,-36.8,323.2,FALSE,FALSE,FALSE,FALSE,FALSE,FALSE,,TRUE,Normal,,100,1024,1024,1156,1024,2,FALSE,FALSE,FALSE,FALSE,FALSE,0,FALSE,FALSE,FALSE,FALSE,59,7.573,1213,2056,7.587,FALSE,3.8,3.773,0.027,FALSE,FALSE,NA,114.4,114.4,114.4,0,0,0,0,5,2321.6,580.41,,Idle,0,20,FALSE,5,TRUE,6,Go Home,FALSE,FALSE,FALSE,FALSE,FALSE,FALSE,FALSE,FALSE,FALSE,FALSE,FALSE,FALSE,6.974223646,79.9141598,2.3,96.3,328,TRUE,1,1,FALSE,FALSE,FALSE,FALSE,,TRUE,FALSE,FALSE,Course Lock,49.2,,16.4,Calm,33,,1.12.8,Mavic Mini,1SDCH7G0169R0K,1SFLH6Q0AB03DJ,1SRCH7F014TAHX,1U5X071EXP6C9Y,228.4,0.1,72.1,3.302841,3.579104,0,0,Mavic Mini,1SDCH7G0169R0K,1SFLH6Q0AB03DJ,1SRCH7F014TAHX,1U5X071EXP6C9Y,DJI Fly,,1.12.8,81C8C3F3-1670-44FF-FA8B-5DA58CA1B90D,1SDCH7G0169R0K,,,,,,,,,
2/22/2024,25:28.5,9m 47.3s,587.3,6.974224386,79.91415339,0,0,0.3,50,0.3,0,0,0,0,0,0,0,0,6.6,2.1,-53.4,306.6,,Manual Takeoff,Drop Calibration,Takeoff (RC Assisted),16,5,TRUE,,Mavic Mini,TRUE,FALSE,,Smart,RC,TRUE,TRUE,FALSE,,,TRUE,,FALSE,FALSE,FALSE,FALSE,FALSE,FALSE,FALSE,FALSE,FALSE,FALSE,0,Follow Yaw,0,0,-36.9,323.1,FALSE,FALSE,FALSE,FALSE,FALSE,FALSE,,TRUE,Normal,,100,1024,1024,1387,1024,2,FALSE,FALSE,FALSE,FALSE,FALSE,0,FALSE,FALSE,FALSE,FALSE,59,7.573,1213,2056,7.591,FALSE,3.8,3.773,0.027,FALSE,FALSE,NA,114.4,114.4,114.4,0,0,0,0,5,2430.8,607.72,,Idle,0,20,FALSE,5,TRUE,6,Go Home,FALSE,FALSE,FALSE,FALSE,FALSE,FALSE,FALSE,FALSE,FALSE,FALSE,FALSE,FALSE,6.974223646,79.9141598,2.3,96.3,328,TRUE,1,1,FALSE,FALSE,FALSE,FALSE,,TRUE,FALSE,FALSE,Course Lock,49.2,,16.4,Calm,33,,1.12.8,Mavic Mini,1SDCH7G0169R0K,1SFLH6Q0AB03DJ,1SRCH7F014TAHX,1U5X071EXP6C9Y,228.4,0.1,72.1,3.302841,3.579104,0,0,Mavic Mini,1SDCH7G0169R0K,1SFLH6Q0AB03DJ,1SRCH7F014TAHX,1U5X071EXP6C9Y,DJI Fly,,1.12.8,81C8C3F3-1670-44FF-FA8B-5DA58CA1B90D,1SDCH7G0169R0K,,,,,,,,,
2/22/2024,25:28.6,9m 47.4s,587.4,6.974224381,79.91415335,0,0,0.3,50,0.3,0,0,0,0,0,0,0,0,6.6,2.1,-53.4,306.6,,Manual Takeoff,Drop Calibration,Takeoff (RC Assisted),16,5,TRUE,,Mavic Mini,TRUE,FALSE,,Smart,RC,TRUE,TRUE,FALSE,,,TRUE,,FALSE,FALSE,FALSE,FALSE,FALSE,FALSE,FALSE,FALSE,FALSE,FALSE,0,Follow Yaw,0,0,-36.9,323.1,FALSE,FALSE,FALSE,FALSE,FALSE,FALSE,,TRUE,Normal,,100,1024,1024,1446,1024,2,FALSE,FALSE,FALSE,FALSE,FALSE,0,FALSE,FALSE,FALSE,FALSE,59,7.573,1213,2056,7.591,FALSE,3.8,3.773,0.027,FALSE,FALSE,NA,114.4,114.4,114.4,0,0,0,0,5,2430.8,607.72,,Idle,0,20,FALSE,5,TRUE,6,Go Home,FALSE,FALSE,FALSE,FALSE,FALSE,FALSE,FALSE,FALSE,FALSE,FALSE,FALSE,FALSE,6.974223646,79.9141598,2.3,96.3,328,TRUE,1,1,FALSE,FALSE,FALSE,FALSE,,TRUE,FALSE,FALSE,Course Lock,49.2,,16.4,Calm,33,,1.12.8,Mavic Mini,1SDCH7G0169R0K,1SFLH6Q0AB03DJ,1SRCH7F014TAHX,1U5X071EXP6C9Y,228.4,0.1,72.1,3.302841,3.579104,0,0,Mavic Mini,1SDCH7G0169R0K,1SFLH6Q0AB03DJ,1SRCH7F014TAHX,1U5X071EXP6C9Y,DJI Fly,,1.12.8,81C8C3F3-1670-44FF-FA8B-5DA58CA1B90D,1SDCH7G0169R0K,,,,,,,,,
2/22/2024,25:28.7,9m 47.5s,587.5,6.974224442,79.91415325,0,0,0.3,50,0.3,0,0,0,0,0,0,0,0,6.6,2.1,-53.4,306.6,,Manual Takeoff,Drop Calibration,Takeoff (RC Assisted),16,5,TRUE,,Mavic Mini,TRUE,FALSE,,Smart,RC,TRUE,TRUE,FALSE,,,TRUE,,FALSE,FALSE,FALSE,FALSE,FALSE,FALSE,FALSE,FALSE,FALSE,FALSE,0,Follow Yaw,0,0,-36.9,323.1,FALSE,FALSE,FALSE,FALSE,FALSE,FALSE,,TRUE,Normal,,100,1024,1024,1482,1024,2,FALSE,FALSE,FALSE,FALSE,FALSE,0,FALSE,FALSE,FALSE,FALSE,59,7.573,1213,2056,7.591,FALSE,3.8,3.773,0.027,FALSE,FALSE,NA,114.4,114.4,114.4,0,0,0,0,5,2430.8,607.72,,Idle,0,20,FALSE,5,TRUE,6,Go Home,FALSE,FALSE,FALSE,FALSE,FALSE,FALSE,FALSE,FALSE,FALSE,FALSE,FALSE,FALSE,6.974223646,79.9141598,2.3,96.3,328,TRUE,1,1,FALSE,FALSE,FALSE,FALSE,,TRUE,FALSE,FALSE,Course Lock,49.2,,16.4,Calm,33,,1.12.8,Mavic Mini,1SDCH7G0169R0K,1SFLH6Q0AB03DJ,1SRCH7F014TAHX,1U5X071EXP6C9Y,228.4,0.1,72.1,3.302841,3.579104,0,0,Mavic Mini,1SDCH7G0169R0K,1SFLH6Q0AB03DJ,1SRCH7F014TAHX,1U5X071EXP6C9Y,DJI Fly,,1.12.8,81C8C3F3-1670-44FF-FA8B-5DA58CA1B90D,1SDCH7G0169R0K,,,,,,,,,
2/22/2024,25:28.8,9m 47.6s,587.6,6.974224443,79.9141532,0,0,0.3,50,0.3,0,0,0,0,0,0,0,0,6.5,2.1,-53.4,306.6,,Manual Takeoff,Drop Calibration,Takeoff (RC Assisted),16,5,TRUE,,Mavic Mini,TRUE,FALSE,,Smart,RC,TRUE,TRUE,FALSE,,,TRUE,,FALSE,FALSE,FALSE,FALSE,FALSE,FALSE,FALSE,FALSE,FALSE,FALSE,0,Follow Yaw,0,0,-36.9,323.1,FALSE,FALSE,FALSE,FALSE,FALSE,FALSE,,TRUE,Normal,,100,1024,1024,1482,1024,2,FALSE,FALSE,FALSE,FALSE,FALSE,0,FALSE,FALSE,FALSE,FALSE,59,7.573,1213,2056,7.591,FALSE,3.8,3.773,0.027,FALSE,FALSE,NA,114.4,114.4,114.4,0,0,0,0,5,2430.8,607.72,,Idle,0,20,FALSE,5,TRUE,6,Go Home,FALSE,FALSE,FALSE,FALSE,FALSE,FALSE,FALSE,FALSE,FALSE,FALSE,FALSE,FALSE,6.974223646,79.9141598,2.4,96.3,328,TRUE,1,1,FALSE,FALSE,FALSE,FALSE,,TRUE,FALSE,FALSE,Course Lock,49.2,,16.4,Calm,33,,1.12.8,Mavic Mini,1SDCH7G0169R0K,1SFLH6Q0AB03DJ,1SRCH7F014TAHX,1U5X071EXP6C9Y,228.4,0.1,72.1,3.302841,3.579104,0,0,Mavic Mini,1SDCH7G0169R0K,1SFLH6Q0AB03DJ,1SRCH7F014TAHX,1U5X071EXP6C9Y,DJI Fly,,1.12.8,81C8C3F3-1670-44FF-FA8B-5DA58CA1B90D,1SDCH7G0169R0K,,,,,,,,,
2/22/2024,25:28.9,9m 47.7s,587.7,6.974224442,79.91415315,0,0,0.3,50,0.4,0,0,0,0,0,0,0,0,6.5,2.1,-53.6,306.4,,Manual Takeoff,Drop Calibration,Takeoff (RC Assisted),16,5,TRUE,,Mavic Mini,TRUE,FALSE,,Smart,RC,TRUE,TRUE,FALSE,,,TRUE,,FALSE,FALSE,FALSE,FALSE,FALSE,FALSE,FALSE,FALSE,FALSE,FALSE,0,Follow Yaw,0,0,-36.9,323.1,FALSE,FALSE,FALSE,FALSE,FALSE,FALSE,,TRUE,Normal,,100,1024,1024,1462,1024,2,FALSE,FALSE,FALSE,FALSE,FALSE,0,FALSE,FALSE,FALSE,FALSE,59,7.573,1213,2056,7.591,FALSE,3.8,3.773,0.027,FALSE,FALSE,NA,114.4,114.4,114.4,0,0,0,0,5,2430.8,607.72,,Idle,0,20,FALSE,5,TRUE,6,Go Home,FALSE,FALSE,FALSE,FALSE,FALSE,FALSE,FALSE,FALSE,FALSE,FALSE,FALSE,FALSE,6.974223646,79.9141598,2.4,96.3,328,TRUE,1,1,FALSE,FALSE,FALSE,FALSE,,TRUE,FALSE,FALSE,Course Lock,49.2,,16.4,Calm,33,,1.12.8,Mavic Mini,1SDCH7G0169R0K,1SFLH6Q0AB03DJ,1SRCH7F014TAHX,1U5X071EXP6C9Y,228.4,0.1,72.1,3.302841,3.579104,0,0,Mavic Mini,1SDCH7G0169R0K,1SFLH6Q0AB03DJ,1SRCH7F014TAHX,1U5X071EXP6C9Y,DJI Fly,,1.12.8,81C8C3F3-1670-44FF-FA8B-5DA58CA1B90D,1SDCH7G0169R0K,,,,,6.974211903,79.91416278,5,,
2/22/2024,25:29.2,9m 47.8s,587.8,6.974224396,79.91415309,0,0,0.3,50,0.4,0,0,0,0,0,0,0,0,6.4,2,-54.1,305.9,,Manual Takeoff,Drop Calibration,Takeoff (RC Assisted),16,5,TRUE,,Mavic Mini,TRUE,FALSE,,Smart,RC,TRUE,TRUE,FALSE,,,TRUE,,FALSE,FALSE,FALSE,FALSE,FALSE,FALSE,FALSE,FALSE,FALSE,FALSE,0,Follow Yaw,0,0,-37.1,322.9,FALSE,FALSE,FALSE,FALSE,FALSE,FALSE,,TRUE,Normal,,100,1024,1024,1466,1024,2,FALSE,FALSE,FALSE,FALSE,FALSE,0,FALSE,FALSE,FALSE,FALSE,59,7.573,1213,2056,7.591,FALSE,3.8,3.773,0.027,FALSE,FALSE,NA,114.4,114.4,114.4,0,0,0,0,5,2430.8,607.72,,Idle,0,20,FALSE,5,TRUE,6,Go Home,FALSE,FALSE,FALSE,FALSE,FALSE,FALSE,FALSE,FALSE,FALSE,FALSE,FALSE,FALSE,6.974223646,79.9141598,2.4,96.3,328,TRUE,1,1,FALSE,FALSE,FALSE,FALSE,,TRUE,FALSE,FALSE,Course Lock,49.2,,16.4,Calm,33,,1.12.8,Mavic Mini,1SDCH7G0169R0K,1SFLH6Q0AB03DJ,1SRCH7F014TAHX,1U5X071EXP6C9Y,228.4,0.1,72.1,3.302841,3.579104,0,0,Mavic Mini,1SDCH7G0169R0K,1SFLH6Q0AB03DJ,1SRCH7F014TAHX,1U5X071EXP6C9Y,DJI Fly,,1.12.8,81C8C3F3-1670-44FF-FA8B-5DA58CA1B90D,1SDCH7G0169R0K,,,,,6.974211903,79.91416278,5,,
2/22/2024,25:29.2,9m 47.9s,587.9,6.974224334,79.914153,0,0,0.3,50,0.4,0,0,0,0,0,0,0,0,6.4,1.9,-56.2,303.8,,Manual Takeoff,Drop Calibration,Takeoff (RC Assisted),16,5,TRUE,,Mavic Mini,TRUE,FALSE,,Smart,RC,TRUE,TRUE,FALSE,,,TRUE,,FALSE,FALSE,FALSE,FALSE,FALSE,FALSE,FALSE,FALSE,FALSE,FALSE,0,Follow Yaw,0,0,-38.4,321.6,FALSE,FALSE,FALSE,FALSE,FALSE,FALSE,,TRUE,Normal,,100,1024,1024,1468,1024,2,FALSE,FALSE,FALSE,FALSE,FALSE,0,FALSE,FALSE,FALSE,FALSE,59,7.558,1213,2056,7.591,FALSE,3.783,3.775,0.027,FALSE,FALSE,NA,114.4,114.4,114.4,0,0,0,0,5,2430.8,607.72,,Idle,0,20,FALSE,5,TRUE,6,Go Home,FALSE,FALSE,FALSE,FALSE,FALSE,FALSE,FALSE,FALSE,FALSE,FALSE,FALSE,FALSE,6.974223646,79.9141598,2.4,96.3,328,TRUE,1,1,FALSE,FALSE,FALSE,FALSE,,TRUE,FALSE,FALSE,Course Lock,49.2,,16.4,Calm,33,,1.12.8,Mavic Mini,1SDCH7G0169R0K,1SFLH6Q0AB03DJ,1SRCH7F014TAHX,1U5X071EXP6C9Y,228.4,0.1,72.1,3.302841,3.579104,0,0,Mavic Mini,1SDCH7G0169R0K,1SFLH6Q0AB03DJ,1SRCH7F014TAHX,1U5X071EXP6C9Y,DJI Fly,,1.12.8,81C8C3F3-1670-44FF-FA8B-5DA58CA1B90D,1SDCH7G0169R0K,,,,,6.974211903,79.91416278,5,,
2/22/2024,25:29.2,9m 48.0s,588,6.97422432,79.91415296,0,0,0.3,50,0.5,0,0,0,0,0,0,0,0,5.1,2.3,-57.5,302.5,,Manual Takeoff,Drop Calibration,Takeoff (RC Assisted),16,5,TRUE,,Mavic Mini,TRUE,FALSE,,Smart,RC,TRUE,TRUE,FALSE,,,TRUE,,FALSE,FALSE,FALSE,FALSE,FALSE,FALSE,FALSE,FALSE,FALSE,FALSE,0,Follow Yaw,0,0,-40,320,FALSE,FALSE,FALSE,FALSE,FALSE,FALSE,,TRUE,Normal,,100,1024,1024,1467,1024,2,FALSE,FALSE,FALSE,FALSE,FALSE,0,FALSE,FALSE,FALSE,FALSE,59,7.558,1213,2056,7.591,FALSE,3.783,3.775,0.027,FALSE,FALSE,NA,114.4,114.4,114.4,0,0,0,0,5,2430.8,607.72,,Idle,0,20,FALSE,5,TRUE,6,Go Home,FALSE,FALSE,FALSE,FALSE,FALSE,FALSE,FALSE,FALSE,FALSE,FALSE,FALSE,FALSE,6.974223646,79.9141598,2.4,96.3,328,TRUE,1,1,FALSE,FALSE,FALSE,FALSE,,TRUE,FALSE,FALSE,Course Lock,49.2,,16.4,Calm,33,,1.12.8,Mavic Mini,1SDCH7G0169R0K,1SFLH6Q0AB03DJ,1SRCH7F014TAHX,1U5X071EXP6C9Y,228.4,0.1,72.1,3.302841,3.579104,0,0,Mavic Mini,1SDCH7G0169R0K,1SFLH6Q0AB03DJ,1SRCH7F014TAHX,1U5X071EXP6C9Y,DJI Fly,,1.12.8,81C8C3F3-1670-44FF-FA8B-5DA58CA1B90D,1SDCH7G0169R0K,,,,,6.974211903,79.91416278,5,,
2/22/2024,25:29.3,9m 48.1s,588.1,6.974224323,79.91415292,0,0,0.3,50,0.5,0,0,0,0,0,0,0,0,3.4,2.4,-58.3,301.7,,Manual Takeoff,Drop Calibration,Takeoff (RC Assisted),16,5,TRUE,,Mavic Mini,TRUE,FALSE,,Smart,RC,TRUE,TRUE,FALSE,,,TRUE,,FALSE,FALSE,FALSE,FALSE,FALSE,FALSE,FALSE,FALSE,FALSE,FALSE,0,Follow Yaw,0,0,-40.9,319.1,FALSE,FALSE,FALSE,FALSE,FALSE,FALSE,,TRUE,Normal,,100,1024,1024,1467,1024,2,FALSE,FALSE,FALSE,FALSE,FALSE,0,FALSE,FALSE,FALSE,FALSE,59,7.558,1213,2056,7.591,FALSE,3.783,3.775,0.027,FALSE,FALSE,NA,114.4,114.4,114.4,0,0,0,0,5,2430.8,607.72,,Idle,0,20,FALSE,5,TRUE,6,Go Home,FALSE,FALSE,FALSE,FALSE,FALSE,FALSE,FALSE,FALSE,FALSE,FALSE,FALSE,FALSE,6.974223646,79.9141598,2.5,96.3,328,TRUE,1,1,FALSE,FALSE,FALSE,FALSE,,TRUE,FALSE,FALSE,Course Lock,49.2,,16.4,Calm,33,,1.12.8,Mavic Mini,1SDCH7G0169R0K,1SFLH6Q0AB03DJ,1SRCH7F014TAHX,1U5X071EXP6C9Y,228.4,0.1,72.1,3.302841,3.579104,0,0,Mavic Mini,1SDCH7G0169R0K,1SFLH6Q0AB03DJ,1SRCH7F014TAHX,1U5X071EXP6C9Y,DJI Fly,,1.12.8,81C8C3F3-1670-44FF-FA8B-5DA58CA1B90D,1SDCH7G0169R0K,,,,,6.974211903,79.91416278,5,,
2/22/2024,25:29.4,9m 48.2s,588.2,6.974224376,79.91415291,0,0,0.3,50,0.5,0,0,0,0,0,0,0,0,0.6,1.5,-59,301,,Manual Takeoff,Drop Calibration,Takeoff (RC Assisted),16,5,TRUE,,Mavic Mini,TRUE,FALSE,,Smart,RC,TRUE,TRUE,FALSE,,,TRUE,,FALSE,FALSE,FALSE,FALSE,FALSE,FALSE,FALSE,FALSE,FALSE,FALSE,0,Follow Yaw,0,0,-41.6,318.4,FALSE,FALSE,FALSE,FALSE,FALSE,FALSE,,TRUE,Normal,,100,1024,1024,1470,1024,2,FALSE,FALSE,FALSE,FALSE,FALSE,0,FALSE,FALSE,FALSE,FALSE,59,7.558,1213,2056,7.591,FALSE,3.783,3.775,0.027,FALSE,FALSE,NA,114.4,114.4,114.4,0,0,0,0,5,2430.8,607.72,,Idle,0,20,FALSE,5,TRUE,6,Go Home,FALSE,FALSE,FALSE,FALSE,FALSE,FALSE,FALSE,FALSE,FALSE,FALSE,FALSE,FALSE,6.974223646,79.9141598,2.5,96.3,328,TRUE,1,1,FALSE,FALSE,FALSE,FALSE,,TRUE,FALSE,FALSE,Course Lock,49.2,,16.4,Calm,33,,1.12.8,Mavic Mini,1SDCH7G0169R0K,1SFLH6Q0AB03DJ,1SRCH7F014TAHX,1U5X071EXP6C9Y,228.4,0.1,72.1,3.302841,3.579104,0,0,Mavic Mini,1SDCH7G0169R0K,1SFLH6Q0AB03DJ,1SRCH7F014TAHX,1U5X071EXP6C9Y,DJI Fly,,1.12.8,81C8C3F3-1670-44FF-FA8B-5DA58CA1B90D,1SDCH7G0169R0K,,,,,6.974211903,79.91416278,5,,
2/22/2024,25:29.5,9m 48.3s,588.3,6.974224539,79.91415291,0,0,0.3,50,0.5,0.223694,0.223694,0.223694,0.223694,0,0,-0.223694,0,-0.9,-0.2,-60.1,299.9,0,Manual Takeoff,Drop Calibration,Takeoff (RC Assisted),16,5,TRUE,,Mavic Mini,TRUE,FALSE,,Smart,RC,TRUE,TRUE,FALSE,,,TRUE,,FALSE,FALSE,FALSE,FALSE,FALSE,FALSE,FALSE,FALSE,FALSE,FALSE,0,Follow Yaw,0,0,-42.3,317.7,FALSE,FALSE,FALSE,FALSE,FALSE,FALSE,,TRUE,Normal,,100,1024,1024,1490,1024,2,FALSE,FALSE,FALSE,FALSE,FALSE,0,FALSE,FALSE,FALSE,FALSE,59,7.558,1213,2056,7.529,FALSE,3.783,3.775,0.027,FALSE,FALSE,NA,114.4,114.4,114.4,0,0,6,0,5,2648.4,662.1,,Idle,0,20,FALSE,5,TRUE,6,Go Home,FALSE,FALSE,FALSE,FALSE,FALSE,FALSE,FALSE,FALSE,FALSE,FALSE,FALSE,FALSE,6.974224587,79.91415294,0,96.3,328,TRUE,1,1,FALSE,FALSE,FALSE,FALSE,,TRUE,FALSE,FALSE,Course Lock,49.2,,16.4,Calm,33,,1.12.8,Mavic Mini,1SDCH7G0169R0K,1SFLH6Q0AB03DJ,1SRCH7F014TAHX,1U5X071EXP6C9Y,228.4,0.1,72.1,3.302841,3.579104,0,0,Mavic Mini,1SDCH7G0169R0K,1SFLH6Q0AB03DJ,1SRCH7F014TAHX,1U5X071EXP6C9Y,DJI Fly,,1.12.8,81C8C3F3-1670-44FF-FA8B-5DA58CA1B90D,1SDCH7G0169R0K,,,,,6.974211903,79.91416278,5,Home Point Updated.,
2/22/2024,25:29.6,9m 48.4s,588.4,6.974224679,79.91415297,0,0,0.3,50,0.6,0.223694,0.223694,0.223694,0.223694,0,0,-0.447388,0,-0.7,-0.5,-60.7,299.3,18.6,Tripod,Drop Calibration,,16,5,TRUE,,Mavic Mini,TRUE,FALSE,,Smart,RC,FALSE,TRUE,FALSE,,,TRUE,,FALSE,FALSE,FALSE,FALSE,FALSE,FALSE,FALSE,FALSE,FALSE,FALSE,0,Follow Yaw,0,0,-43.2,316.8,FALSE,FALSE,FALSE,FALSE,FALSE,FALSE,,TRUE,Normal,,100,1024,1024,1491,1024,2,FALSE,FALSE,FALSE,FALSE,FALSE,0,FALSE,FALSE,FALSE,FALSE,59,7.558,1213,2056,7.529,FALSE,3.783,3.775,0.027,FALSE,FALSE,NA,114.4,114.4,114.4,0,0,6,0,5,2648.4,662.1,,Idle,0,20,FALSE,5,TRUE,6,Go Home,FALSE,FALSE,FALSE,FALSE,FALSE,FALSE,FALSE,FALSE,FALSE,FALSE,FALSE,FALSE,6.974224587,79.91415294,0,96.3,328,TRUE,1,1,FALSE,FALSE,FALSE,FALSE,,TRUE,FALSE,FALSE,Course Lock,49.2,,16.4,Calm,33,,1.12.8,Mavic Mini,1SDCH7G0169R0K,1SFLH6Q0AB03DJ,1SRCH7F014TAHX,1U5X071EXP6C9Y,228.4,0.1,72.1,3.302841,3.579104,0,0,Mavic Mini,1SDCH7G0169R0K,1SFLH6Q0AB03DJ,1SRCH7F014TAHX,1U5X071EXP6C9Y,DJI Fly,,1.12.8,81C8C3F3-1670-44FF-FA8B-5DA58CA1B90D,1SDCH7G0169R0K,,,,,6.974211903,79.91416278,5,Home Point updated. RTH altitude adjusted to 15 m!- (Code: 120852).; Flight mode changed to Tripod.,
2/22/2024,25:29.7,9m 48.5s,588.5,6.974224855,79.91415301,0.3,0.3,0.6,50,0.7,0.223694,0.223694,0.223694,0.223694,0,0,-0.894776,0,0.3,-2.2,-60.5,299.5,9.7,Tripod,Drop Calibration,,16,5,TRUE,,Mavic Mini,TRUE,FALSE,,Smart,RC,FALSE,TRUE,FALSE,,,TRUE,,FALSE,FALSE,FALSE,FALSE,FALSE,FALSE,FALSE,FALSE,FALSE,FALSE,0,Follow Yaw,0,0,-43.2,316.8,FALSE,FALSE,FALSE,FALSE,FALSE,FALSE,,TRUE,Normal,,100,1024,1024,1491,1024,2,FALSE,FALSE,FALSE,FALSE,FALSE,0,FALSE,FALSE,FALSE,FALSE,59,7.558,1213,2056,7.529,FALSE,3.783,3.775,0.027,FALSE,FALSE,NA,114.4,114.4,114.4,0,0,6,0,5,2648.4,662.1,,Idle,0,20,FALSE,5,TRUE,6,Go Home,FALSE,FALSE,FALSE,FALSE,FALSE,FALSE,FALSE,FALSE,FALSE,FALSE,FALSE,FALSE,6.974224587,79.91415294,0.1,96.3,328,TRUE,1,1,FALSE,FALSE,FALSE,FALSE,,TRUE,FALSE,FALSE,Course Lock,49.2,,16.4,Calm,33,,1.12.8,Mavic Mini,1SDCH7G0169R0K,1SFLH6Q0AB03DJ,1SRCH7F014TAHX,1U5X071EXP6C9Y,228.4,0.1,72.1,3.302841,3.579104,0,0,Mavic Mini,1SDCH7G0169R0K,1SFLH6Q0AB03DJ,1SRCH7F014TAHX,1U5X071EXP6C9Y,DJI Fly,,1.12.8,81C8C3F3-1670-44FF-FA8B-5DA58CA1B90D,1SDCH7G0169R0K,,,,,6.974211903,79.91416278,5,,
2/22/2024,25:29.8,9m 48.6s,588.6,6.974225011,79.91415303,0.3,0.3,0.6,50,0.7,0.223694,0.223694,0.223694,0.223694,0,0,-1.11847,0,1.3,-2.3,-60.4,299.6,3.9,Tripod,Drop Calibration,,16,5,TRUE,,Mavic Mini,TRUE,FALSE,,Smart,RC,FALSE,TRUE,FALSE,,,TRUE,,FALSE,FALSE,FALSE,FALSE,FALSE,FALSE,FALSE,FALSE,FALSE,FALSE,0,Follow Yaw,0,0,-43.2,316.8,FALSE,FALSE,FALSE,FALSE,FALSE,FALSE,,TRUE,Normal,,100,1024,1024,1463,1024,2,FALSE,FALSE,FALSE,FALSE,FALSE,0,FALSE,FALSE,FALSE,FALSE,59,7.558,1213,2056,7.529,FALSE,3.783,3.775,0.027,FALSE,FALSE,NA,114.4,114.4,114.4,0,0,6,0,5,2648.4,662.1,,Idle,0,20,FALSE,5,TRUE,6,Go Home,FALSE,FALSE,FALSE,FALSE,FALSE,FALSE,FALSE,FALSE,FALSE,FALSE,FALSE,FALSE,6.974224587,79.91415294,0.1,96.3,328,TRUE,1,1,FALSE,FALSE,FALSE,FALSE,,TRUE,FALSE,FALSE,Course Lock,49.2,,16.4,Calm,33,,1.12.8,Mavic Mini,1SDCH7G0169R0K,1SFLH6Q0AB03DJ,1SRCH7F014TAHX,1U5X071EXP6C9Y,228.4,0.1,72.1,3.302841,3.579104,0,0,Mavic Mini,1SDCH7G0169R0K,1SFLH6Q0AB03DJ,1SRCH7F014TAHX,1U5X071EXP6C9Y,DJI Fly,,1.12.8,81C8C3F3-1670-44FF-FA8B-5DA58CA1B90D,1SDCH7G0169R0K,,,,,6.974211903,79.91416278,5,,
2/22/2024,25:29.9,9m 48.7s,588.7,6.974225156,79.91415303,0.6,0.6,0.6,50,0.8,0.223694,0.223694,0.223694,0.223694,0,0,-1.565858,0,1.5,-2.3,-60.3,299.7,0.5,Tripod,Drop Calibration,,16,5,TRUE,,Mavic Mini,TRUE,FALSE,,Smart,RC,FALSE,TRUE,FALSE,,,TRUE,,FALSE,FALSE,FALSE,FALSE,FALSE,FALSE,FALSE,FALSE,FALSE,FALSE,0,Follow Yaw,0,0,-43.2,316.8,FALSE,FALSE,FALSE,FALSE,FALSE,FALSE,,TRUE,Normal,,100,1024,1024,1373,1024,2,FALSE,FALSE,FALSE,FALSE,FALSE,0,FALSE,FALSE,FALSE,FALSE,59,7.558,1213,2056,7.529,FALSE,3.783,3.775,0.027,FALSE,FALSE,NA,114.4,114.4,114.4,0,0,6,0,5,2648.4,662.1,,Idle,0,20,FALSE,5,TRUE,6,Go Home,FALSE,FALSE,FALSE,FALSE,FALSE,FALSE,FALSE,FALSE,FALSE,FALSE,FALSE,FALSE,6.974224587,79.91415294,0.2,96.3,328,TRUE,1,1,FALSE,FALSE,FALSE,FALSE,,TRUE,FALSE,FALSE,Course Lock,49.2,,16.4,Calm,33,,1.12.8,Mavic Mini,1SDCH7G0169R0K,1SFLH6Q0AB03DJ,1SRCH7F014TAHX,1U5X071EXP6C9Y,228.4,0.1,72.1,3.302841,3.579104,0,0,Mavic Mini,1SDCH7G0169R0K,1SFLH6Q0AB03DJ,1SRCH7F014TAHX,1U5X071EXP6C9Y,DJI Fly,,1.12.8,81C8C3F3-1670-44FF-FA8B-5DA58CA1B90D,1SDCH7G0169R0K,,,,,6.974211903,79.91416278,5,,
2/22/2024,25:30.0,9m 48.8s,588.8,6.97422528,79.91415312,0.6,0.6,0.9,50,0.8,0.223694,0.223694,0.223694,0.223694,0,0,-1.789552,0,1.7,-2.1,-60.3,299.7,28.5,Tripod,Drop Calibration,,16,5,TRUE,,Mavic Mini,TRUE,FALSE,,Smart,RC,FALSE,TRUE,FALSE,,,TRUE,,FALSE,FALSE,FALSE,FALSE,FALSE,FALSE,FALSE,FALSE,FALSE,FALSE,0,Follow Yaw,0,0,-43.2,316.8,FALSE,FALSE,FALSE,FALSE,FALSE,FALSE,,TRUE,Normal,,100,1024,1024,1317,1024,2,FALSE,FALSE,FALSE,FALSE,FALSE,0,FALSE,FALSE,FALSE,FALSE,59,7.558,1213,2056,7.529,FALSE,3.783,3.775,0.027,FALSE,FALSE,NA,114.4,114.4,114.4,0,0,6,0,5,2648.4,662.1,,Idle,0,20,FALSE,5,TRUE,6,Go Home,FALSE,FALSE,FALSE,FALSE,FALSE,FALSE,FALSE,FALSE,FALSE,FALSE,FALSE,FALSE,6.974224587,79.91415294,0.2,96.3,328,TRUE,1,1,FALSE,FALSE,FALSE,FALSE,,TRUE,FALSE,FALSE,Course Lock,49.2,,16.4,Calm,33,,1.12.8,Mavic Mini,1SDCH7G0169R0K,1SFLH6Q0AB03DJ,1SRCH7F014TAHX,1U5X071EXP6C9Y,228.4,0.1,72.1,3.302841,3.579104,0,0,Mavic Mini,1SDCH7G0169R0K,1SFLH6Q0AB03DJ,1SRCH7F014TAHX,1U5X071EXP6C9Y,DJI Fly,,1.12.8,81C8C3F3-1670-44FF-FA8B-5DA58CA1B90D,1SDCH7G0169R0K,,,,,6.974211903,79.91416278,5,,
2/22/2024,25:30.2,9m 48.9s,588.9,6.974225396,79.91415321,0.9,0.9,1.3,51,0.9,0.223694,0.223694,0.223694,0.223694,0,0,-2.013246,0,1.4,-1.9,-60.3,299.7,31,Tripod,Drop Calibration,,16,5,TRUE,,Mavic Mini,TRUE,FALSE,,Smart,RC,FALSE,TRUE,FALSE,,,TRUE,,FALSE,FALSE,FALSE,FALSE,FALSE,FALSE,FALSE,FALSE,FALSE,FALSE,0,Follow Yaw,0,0,-43.2,316.8,FALSE,FALSE,FALSE,FALSE,FALSE,FALSE,,TRUE,Normal,,100,1024,1024,1214,1024,2,FALSE,FALSE,FALSE,FALSE,FALSE,0,FALSE,FALSE,FALSE,FALSE,59,7.558,1213,2056,7.529,FALSE,3.783,3.775,0.027,FALSE,FALSE,NA,114.4,114.4,114.4,0,0,6,0,5,2648.4,662.1,,Idle,0,20,FALSE,5,TRUE,6,Go Home,FALSE,FALSE,FALSE,FALSE,FALSE,FALSE,FALSE,FALSE,FALSE,FALSE,FALSE,FALSE,6.974224587,79.91415294,0.3,96.3,328,TRUE,1,1,FALSE,FALSE,FALSE,FALSE,,TRUE,FALSE,FALSE,Course Lock,49.2,,16.4,Calm,33,,1.12.8,Mavic Mini,1SDCH7G0169R0K,1SFLH6Q0AB03DJ,1SRCH7F014TAHX,1U5X071EXP6C9Y,228.4,0.1,72.1,3.302841,3.579104,0,0,Mavic Mini,1SDCH7G0169R0K,1SFLH6Q0AB03DJ,1SRCH7F014TAHX,1U5X071EXP6C9Y,DJI Fly,,1.12.8,81C8C3F3-1670-44FF-FA8B-5DA58CA1B90D,1SDCH7G0169R0K,,,,,6.974211903,79.91416278,5,,
2/22/2024,25:30.2,9m 49.0s,589,6.974225454,79.91415316,1.3,1.3,1.6,51,0.9,0,0.223694,0,0.223694,0,0,-2.013246,0,1.8,-1.8,-60.2,299.8,,Tripod,Drop Calibration,,16,5,TRUE,,Mavic Mini,TRUE,FALSE,,Smart,RC,FALSE,TRUE,FALSE,,,TRUE,,FALSE,FALSE,FALSE,FALSE,FALSE,FALSE,FALSE,FALSE,FALSE,FALSE,0,Follow Yaw,0,0,-43.2,316.8,FALSE,FALSE,FALSE,FALSE,FALSE,FALSE,,TRUE,Normal,,100,1024,1024,1075,1024,2,FALSE,FALSE,FALSE,FALSE,FALSE,0,FALSE,FALSE,FALSE,FALSE,59,7.558,1213,2056,7.529,FALSE,3.783,3.775,0.027,FALSE,FALSE,NA,114.4,114.4,114.4,0,0,6,0,5,2648.4,662.1,,Idle,0,20,FALSE,5,TRUE,6,Go Home,FALSE,FALSE,FALSE,FALSE,FALSE,FALSE,FALSE,FALSE,FALSE,FALSE,FALSE,FALSE,6.974224587,79.91415294,0.3,96.3,328,TRUE,1,1,FALSE,FALSE,FALSE,FALSE,,TRUE,FALSE,FALSE,Course Lock,49.2,,16.4,Calm,33,,1.12.8,Mavic Mini,1SDCH7G0169R0K,1SFLH6Q0AB03DJ,1SRCH7F014TAHX,1U5X071EXP6C9Y,228.4,0.1,72.1,3.302841,3.579104,0,0,Mavic Mini,1SDCH7G0169R0K,1SFLH6Q0AB03DJ,1SRCH7F014TAHX,1U5X071EXP6C9Y,DJI Fly,,1.12.8,81C8C3F3-1670-44FF-FA8B-5DA58CA1B90D,1SDCH7G0169R0K,,,,,6.974211903,79.91416278,5,,
2/22/2024,25:30.3,9m 49.1s,589.1,6.974225506,79.91415309,1.3,1.3,1.9,51,0.9,0.223694,0.223694,0.223694,0.223694,0,0,-1.789552,0,2,-1.9,-60.2,299.8,315.3,Tripod,Drop Calibration,,15,5,TRUE,,Mavic Mini,TRUE,FALSE,,Smart,RC,FALSE,TRUE,FALSE,,,TRUE,,FALSE,FALSE,FALSE,FALSE,FALSE,FALSE,FALSE,FALSE,FALSE,FALSE,0,Follow Yaw,0,0,-43.2,316.8,FALSE,FALSE,FALSE,FALSE,FALSE,FALSE,,TRUE,Normal,,100,1024,1024,1024,1024,2,FALSE,FALSE,FALSE,FALSE,FALSE,0,FALSE,FALSE,FALSE,FALSE,59,7.417,1212,2056,7.529,FALSE,3.711,3.707,0.027,FALSE,FALSE,NA,114.4,114.4,114.4,0,0,6,0,5,2648.4,662.1,,Idle,0,20,FALSE,5,TRUE,6,Go Home,FALSE,FALSE,FALSE,FALSE,FALSE,FALSE,FALSE,FALSE,FALSE,FALSE,FALSE,FALSE,6.974224587,79.91415294,0.3,96.3,328,TRUE,1,1,FALSE,FALSE,FALSE,FALSE,,TRUE,FALSE,FALSE,Course Lock,49.2,,16.4,Calm,33,,1.12.8,Mavic Mini,1SDCH7G0169R0K,1SFLH6Q0AB03DJ,1SRCH7F014TAHX,1U5X071EXP6C9Y,228.4,0.1,72.1,3.302841,3.579104,0,0,Mavic Mini,1SDCH7G0169R0K,1SFLH6Q0AB03DJ,1SRCH7F014TAHX,1U5X071EXP6C9Y,DJI Fly,,1.12.8,81C8C3F3-1670-44FF-FA8B-5DA58CA1B90D,1SDCH7G0169R0K,,,,,6.974211903,79.91416278,5,,
2/22/2024,25:30.4,9m 49.2s,589.2,6.97422566,79.91415287,1.6,1.6,1.9,51,1,0,0.223694,0,0.223694,0,0,-1.342164,0,2.5,-1.7,-60.2,299.8,,Tripod,Drop Calibration,,15,5,TRUE,,Mavic Mini,TRUE,FALSE,,Smart,RC,FALSE,TRUE,FALSE,,,TRUE,,FALSE,FALSE,FALSE,FALSE,FALSE,FALSE,FALSE,FALSE,FALSE,FALSE,0,Follow Yaw,0,0,-43.2,316.8,FALSE,FALSE,FALSE,FALSE,FALSE,FALSE,,TRUE,Normal,,100,1024,1024,1024,1024,2,FALSE,FALSE,FALSE,FALSE,FALSE,0,FALSE,FALSE,FALSE,FALSE,59,7.417,1212,2056,7.529,FALSE,3.711,3.707,0.027,FALSE,FALSE,NA,114.4,114.4,114.4,0,0,6,0,5,2648.4,662.1,,Idle,0,20,FALSE,5,TRUE,6,Go Home,FALSE,FALSE,FALSE,FALSE,FALSE,FALSE,FALSE,FALSE,FALSE,FALSE,FALSE,FALSE,6.974224587,79.91415294,0.3,96.3,328,TRUE,1,1,FALSE,FALSE,FALSE,FALSE,,TRUE,FALSE,FALSE,Course Lock,49.2,,16.4,Calm,33,,1.12.8,Mavic Mini,1SDCH7G0169R0K,1SFLH6Q0AB03DJ,1SRCH7F014TAHX,1U5X071EXP6C9Y,228.4,0.1,72.1,3.302841,3.579104,0,0,Mavic Mini,1SDCH7G0169R0K,1SFLH6Q0AB03DJ,1SRCH7F014TAHX,1U5X071EXP6C9Y,DJI Fly,,1.12.8,81C8C3F3-1670-44FF-FA8B-5DA58CA1B90D,1SDCH7G0169R0K,,,,,6.974211903,79.91416278,5,,
2/22/2024,25:30.5,9m 49.3s,589.3,6.974225779,79.91415279,1.6,1.6,2.2,51,1.1,0,0.223694,0,0.223694,0,0,-0.894776,0,2.5,-1.7,-60.1,299.9,,Tripod,Drop Calibration,,14,5,TRUE,,Mavic Mini,TRUE,FALSE,,Smart,RC,FALSE,TRUE,FALSE,,,TRUE,,FALSE,FALSE,FALSE,FALSE,FALSE,FALSE,FALSE,FALSE,FALSE,FALSE,0,Follow Yaw,0,0,-43.2,316.8,FALSE,FALSE,FALSE,FALSE,FALSE,FALSE,,TRUE,Normal,,100,1024,1024,1024,1024,2,FALSE,FALSE,FALSE,FALSE,FALSE,0,FALSE,FALSE,FALSE,FALSE,59,7.417,1212,2056,7.523,FALSE,3.711,3.707,0.027,FALSE,FALSE,NA,114.4,114.4,114.4,0,0,6,0,5,3325.7,831.44,,Idle,0,20,FALSE,5,TRUE,6,Go Home,FALSE,FALSE,FALSE,FALSE,FALSE,FALSE,FALSE,FALSE,FALSE,FALSE,FALSE,FALSE,6.974224587,79.91415294,0.4,96.3,328,TRUE,1,1,FALSE,FALSE,FALSE,FALSE,,TRUE,FALSE,FALSE,Course Lock,49.2,,16.4,Calm,33,,1.12.8,Mavic Mini,1SDCH7G0169R0K,1SFLH6Q0AB03DJ,1SRCH7F014TAHX,1U5X071EXP6C9Y,228.4,0.1,72.1,3.302841,3.579104,0,0,Mavic Mini,1SDCH7G0169R0K,1SFLH6Q0AB03DJ,1SRCH7F014TAHX,1U5X071EXP6C9Y,DJI Fly,,1.12.8,81C8C3F3-1670-44FF-FA8B-5DA58CA1B90D,1SDCH7G0169R0K,,,,,6.974211903,79.91416278,5,,
2/22/2024,25:30.6,9m 49.4s,589.4,6.974225798,79.91415279,1.6,1.6,2.2,51,1.1,0,0.223694,0,0.223694,0,0,-0.447388,0,2.6,-1.5,-60.1,299.9,,Tripod,Drop Calibration,,14,5,TRUE,,Mavic Mini,TRUE,FALSE,,Smart,RC,FALSE,TRUE,FALSE,,,TRUE,,FALSE,FALSE,FALSE,FALSE,FALSE,FALSE,FALSE,FALSE,FALSE,FALSE,0,Follow Yaw,0,0,-43.2,316.8,FALSE,FALSE,FALSE,FALSE,FALSE,FALSE,,TRUE,Normal,,100,1024,1024,1024,1024,2,FALSE,FALSE,FALSE,FALSE,FALSE,0,FALSE,FALSE,FALSE,FALSE,59,7.417,1212,2056,7.523,FALSE,3.711,3.707,0.027,FALSE,FALSE,NA,114.4,114.4,114.4,0,0,6,0,5,3325.7,831.44,,Idle,0,20,FALSE,5,TRUE,6,Go Home,FALSE,FALSE,FALSE,FALSE,FALSE,FALSE,FALSE,FALSE,FALSE,FALSE,FALSE,FALSE,6.974224587,79.91415294,0.4,96.3,328,TRUE,1,1,FALSE,FALSE,FALSE,FALSE,,TRUE,FALSE,FALSE,Course Lock,49.2,,16.4,Calm,33,,1.12.8,Mavic Mini,1SDCH7G0169R0K,1SFLH6Q0AB03DJ,1SRCH7F014TAHX,1U5X071EXP6C9Y,228.4,0.1,72.1,3.302841,3.579104,0,0,Mavic Mini,1SDCH7G0169R0K,1SFLH6Q0AB03DJ,1SRCH7F014TAHX,1U5X071EXP6C9Y,DJI Fly,,1.12.8,81C8C3F3-1670-44FF-FA8B-5DA58CA1B90D,1SDCH7G0169R0K,,,,,6.974211903,79.91416278,5,,
2/22/2024,25:30.7,9m 49.5s,589.5,6.974225806,79.9141528,1.6,1.6,2.6,51,1.1,0,0.223694,0,0.223694,0,0,-0.223694,0,2.4,-1.5,-60.1,299.9,,Tripod,Drop Calibration,,14,5,TRUE,,Mavic Mini,TRUE,FALSE,,Smart,RC,FALSE,TRUE,FALSE,,,TRUE,,FALSE,FALSE,FALSE,FALSE,FALSE,FALSE,FALSE,FALSE,FALSE,FALSE,0,Follow Yaw,0,0,-43.2,316.8,FALSE,FALSE,FALSE,FALSE,FALSE,FALSE,,TRUE,Normal,,100,1024,1024,1024,1024,2,FALSE,FALSE,FALSE,FALSE,FALSE,0,FALSE,FALSE,FALSE,FALSE,59,7.417,1212,2056,7.523,FALSE,3.711,3.707,0.027,FALSE,FALSE,NA,114.4,114.4,114.4,0,0,6,0,5,3325.7,831.44,,Idle,0,20,FALSE,5,TRUE,6,Go Home,FALSE,FALSE,FALSE,FALSE,FALSE,FALSE,FALSE,FALSE,FALSE,FALSE,FALSE,FALSE,6.974224587,79.91415294,0.4,96.3,328,TRUE,1,1,FALSE,FALSE,FALSE,FALSE,,TRUE,FALSE,FALSE,Course Lock,49.2,,16.4,Calm,33,,1.12.8,Mavic Mini,1SDCH7G0169R0K,1SFLH6Q0AB03DJ,1SRCH7F014TAHX,1U5X071EXP6C9Y,228.4,0.1,72.1,3.302841,3.579104,0,0,Mavic Mini,1SDCH7G0169R0K,1SFLH6Q0AB03DJ,1SRCH7F014TAHX,1U5X071EXP6C9Y,DJI Fly,,1.12.8,81C8C3F3-1670-44FF-FA8B-5DA58CA1B90D,1SDCH7G0169R0K,,,,,6.974211903,79.91416278,5,,
2/22/2024,25:30.8,9m 49.6s,589.6,6.974225764,79.91415299,1.6,1.6,2.6,51,1.2,0,0.223694,0,0.223694,0,0,0,0,2,-1.5,-60.1,299.9,,Tripod,Drop Calibration,,14,5,TRUE,,Mavic Mini,TRUE,FALSE,,Smart,RC,FALSE,TRUE,FALSE,,,TRUE,,FALSE,FALSE,FALSE,FALSE,FALSE,FALSE,FALSE,FALSE,FALSE,FALSE,0,Follow Yaw,0,0,-43.2,316.8,FALSE,FALSE,FALSE,FALSE,FALSE,FALSE,,TRUE,Normal,,100,1024,1024,1024,1024,2,FALSE,FALSE,FALSE,FALSE,FALSE,0,FALSE,FALSE,FALSE,FALSE,59,7.417,1212,2056,7.523,FALSE,3.711,3.707,0.027,FALSE,FALSE,NA,114.4,114.4,114.4,0,0,6,0,5,3325.7,831.44,,Idle,0,20,FALSE,5,TRUE,6,Go Home,FALSE,FALSE,FALSE,FALSE,FALSE,FALSE,FALSE,FALSE,FALSE,FALSE,FALSE,FALSE,6.974224587,79.91415294,0.4,96.3,328,TRUE,1,1,FALSE,FALSE,FALSE,FALSE,,TRUE,FALSE,FALSE,Course Lock,49.2,,16.4,Calm,33,,1.12.8,Mavic Mini,1SDCH7G0169R0K,1SFLH6Q0AB03DJ,1SRCH7F014TAHX,1U5X071EXP6C9Y,228.4,0.1,72.1,3.302841,3.579104,0,0,Mavic Mini,1SDCH7G0169R0K,1SFLH6Q0AB03DJ,1SRCH7F014TAHX,1U5X071EXP6C9Y,DJI Fly,,1.12.8,81C8C3F3-1670-44FF-FA8B-5DA58CA1B90D,1SDCH7G0169R0K,,,,,6.974211903,79.91416278,5,,
2/22/2024,25:30.9,9m 49.7s,589.7,6.974225803,79.91415304,1.6,1.6,2.6,51,1.2,0,0.223694,0,0.223694,0,0,0,0,1.6,-1.6,-60.2,299.8,,Tripod,Drop Calibration,,14,5,TRUE,,Mavic Mini,TRUE,FALSE,,Smart,RC,FALSE,TRUE,FALSE,,,TRUE,,FALSE,FALSE,FALSE,FALSE,FALSE,FALSE,FALSE,FALSE,FALSE,FALSE,0,Follow Yaw,0,0,-43.2,316.8,FALSE,FALSE,FALSE,FALSE,FALSE,FALSE,,TRUE,Normal,,100,1024,1024,1024,1024,2,FALSE,FALSE,FALSE,FALSE,FALSE,0,FALSE,FALSE,FALSE,FALSE,59,7.417,1212,2056,7.523,FALSE,3.711,3.707,0.027,FALSE,FALSE,NA,114.4,114.4,114.4,0,0,6,0,5,3325.7,831.44,,Idle,0,20,FALSE,5,TRUE,6,Go Home,FALSE,FALSE,FALSE,FALSE,FALSE,FALSE,FALSE,FALSE,FALSE,FALSE,FALSE,FALSE,6.974224587,79.91415294,0.4,96.3,328,TRUE,1,1,FALSE,FALSE,FALSE,FALSE,,TRUE,FALSE,FALSE,Course Lock,49.2,,16.4,Calm,33,,1.12.8,Mavic Mini,1SDCH7G0169R0K,1SFLH6Q0AB03DJ,1SRCH7F014TAHX,1U5X071EXP6C9Y,228.4,0.1,72.1,3.302841,3.579104,0,0,Mavic Mini,1SDCH7G0169R0K,1SFLH6Q0AB03DJ,1SRCH7F014TAHX,1U5X071EXP6C9Y,DJI Fly,,1.12.8,81C8C3F3-1670-44FF-FA8B-5DA58CA1B90D,1SDCH7G0169R0K,,,,,6.974211903,79.91416278,5,,
2/22/2024,25:31.0,9m 49.8s,589.8,6.974225873,79.914153,1.6,1.6,2.6,51,1.2,0,0.223694,0,0.223694,0,0,0,0,1.5,-1.8,-60.1,299.9,,Tripod,Drop Calibration,,14,5,TRUE,,Mavic Mini,TRUE,FALSE,,Smart,RC,FALSE,TRUE,FALSE,,,TRUE,,FALSE,FALSE,FALSE,FALSE,FALSE,FALSE,FALSE,FALSE,FALSE,FALSE,0,Follow Yaw,0,0,-43.2,316.8,FALSE,FALSE,FALSE,FALSE,FALSE,FALSE,,TRUE,Normal,,100,1024,1024,1030,1024,2,FALSE,FALSE,FALSE,FALSE,FALSE,0,FALSE,FALSE,FALSE,FALSE,59,7.417,1212,2056,7.523,FALSE,3.711,3.707,0.027,FALSE,FALSE,NA,114.4,114.4,114.4,0,0,6,0,5,3325.7,831.44,,Idle,0,20,FALSE,5,TRUE,6,Go Home,FALSE,FALSE,FALSE,FALSE,FALSE,FALSE,FALSE,FALSE,FALSE,FALSE,FALSE,FALSE,6.974224587,79.91415294,0.4,96.3,328,TRUE,1,1,FALSE,FALSE,FALSE,FALSE,,TRUE,FALSE,FALSE,Course Lock,49.2,,16.4,Calm,33,,1.12.8,Mavic Mini,1SDCH7G0169R0K,1SFLH6Q0AB03DJ,1SRCH7F014TAHX,1U5X071EXP6C9Y,228.4,0.1,72.1,3.302841,3.579104,0,0,Mavic Mini,1SDCH7G0169R0K,1SFLH6Q0AB03DJ,1SRCH7F014TAHX,1U5X071EXP6C9Y,DJI Fly,,1.12.8,81C8C3F3-1670-44FF-FA8B-5DA58CA1B90D,1SDCH7G0169R0K,,,,,6.974211903,79.91416278,5,,
2/22/2024,25:31.2,9m 49.9s,589.9,6.974225943,79.91415294,1.6,1.6,2.6,51,1.3,0,0.223694,0,0.223694,0,0,0,0,1.6,-2,-60.1,299.9,,Tripod,Drop Calibration,,14,5,TRUE,,Mavic Mini,TRUE,FALSE,,Smart,RC,FALSE,TRUE,FALSE,,,TRUE,,FALSE,FALSE,FALSE,FALSE,FALSE,FALSE,FALSE,FALSE,FALSE,FALSE,0,Follow Yaw,0,0,-43.2,316.8,FALSE,FALSE,FALSE,FALSE,FALSE,FALSE,,TRUE,Normal,,100,1024,1024,1168,1024,2,FALSE,FALSE,FALSE,FALSE,FALSE,0,FALSE,FALSE,FALSE,FALSE,59,7.417,1212,2056,7.523,FALSE,3.711,3.707,0.027,FALSE,FALSE,NA,114.4,114.4,114.4,0,0,6,0,5,3325.7,831.44,,Idle,0,20,FALSE,5,TRUE,6,Go Home,FALSE,FALSE,FALSE,FALSE,FALSE,FALSE,FALSE,FALSE,FALSE,FALSE,FALSE,FALSE,6.974224587,79.91415294,0.4,96.3,328,TRUE,1,1,FALSE,FALSE,FALSE,FALSE,,TRUE,FALSE,FALSE,Course Lock,49.2,,16.4,Calm,33,,1.12.8,Mavic Mini,1SDCH7G0169R0K,1SFLH6Q0AB03DJ,1SRCH7F014TAHX,1U5X071EXP6C9Y,228.4,0.1,72.1,3.302841,3.579104,0,0,Mavic Mini,1SDCH7G0169R0K,1SFLH6Q0AB03DJ,1SRCH7F014TAHX,1U5X071EXP6C9Y,DJI Fly,,1.12.8,81C8C3F3-1670-44FF-FA8B-5DA58CA1B90D,1SDCH7G0169R0K,,,,,6.974211903,79.91416278,5,,
2/22/2024,25:31.2,9m 50.0s,590,6.974226167,79.91415271,1.3,1.6,2.6,51,1.4,0,0.223694,0,0.223694,0,0,0,0,1.6,-2.2,-60.2,299.8,,Tripod,Drop Calibration,,14,5,TRUE,,Mavic Mini,TRUE,FALSE,,Smart,RC,FALSE,TRUE,FALSE,,,TRUE,,FALSE,FALSE,FALSE,FALSE,FALSE,FALSE,FALSE,FALSE,FALSE,FALSE,0,Follow Yaw,0,0,-43.2,316.8,FALSE,FALSE,FALSE,FALSE,FALSE,FALSE,,TRUE,Normal,,100,1024,1024,1298,1024,2,FALSE,FALSE,FALSE,FALSE,FALSE,0,FALSE,FALSE,FALSE,FALSE,59,7.417,1212,2056,7.523,FALSE,3.711,3.707,0.027,FALSE,FALSE,NA,114.4,114.4,114.4,0,0,6,0,5,3325.7,831.44,,Idle,0,20,FALSE,5,TRUE,6,Go Home,FALSE,FALSE,FALSE,FALSE,FALSE,FALSE,FALSE,FALSE,FALSE,FALSE,FALSE,FALSE,6.974224587,79.91415294,0.5,96.3,328,TRUE,1,1,FALSE,FALSE,FALSE,FALSE,,TRUE,FALSE,FALSE,Course Lock,49.2,,16.4,Calm,33,,1.12.8,Mavic Mini,1SDCH7G0169R0K,1SFLH6Q0AB03DJ,1SRCH7F014TAHX,1U5X071EXP6C9Y,228.4,0.1,72.1,3.302841,3.579104,0,0,Mavic Mini,1SDCH7G0169R0K,1SFLH6Q0AB03DJ,1SRCH7F014TAHX,1U5X071EXP6C9Y,DJI Fly,,1.12.8,81C8C3F3-1670-44FF-FA8B-5DA58CA1B90D,1SDCH7G0169R0K,,,,,6.974211903,79.91416278,5,,
2/22/2024,25:31.3,9m 50.1s,590.1,6.97422625,79.91415263,1.3,1.6,2.6,51,1.4,0,0.223694,0,0.223694,0,0,0,0,1.5,-2.4,-60.2,299.8,,Tripod,Drop Calibration,,14,5,TRUE,,Mavic Mini,TRUE,FALSE,,Smart,RC,FALSE,TRUE,FALSE,,,TRUE,,FALSE,FALSE,FALSE,FALSE,FALSE,FALSE,FALSE,FALSE,FALSE,FALSE,0,Follow Yaw,0,0,-43.2,316.8,FALSE,FALSE,FALSE,FALSE,FALSE,FALSE,,TRUE,Normal,,100,1024,1024,1325,1024,2,FALSE,FALSE,FALSE,FALSE,FALSE,0,FALSE,FALSE,FALSE,FALSE,59,7.417,1212,2056,7.523,FALSE,3.711,3.707,0.027,FALSE,FALSE,NA,114.4,114.4,114.4,0,0,6,0,5,3325.7,831.44,,Idle,0,20,FALSE,5,TRUE,6,Go Home,FALSE,FALSE,FALSE,FALSE,FALSE,FALSE,FALSE,FALSE,FALSE,FALSE,FALSE,FALSE,6.974224587,79.91415294,0.6,96.3,328,TRUE,1,1,FALSE,FALSE,FALSE,FALSE,,TRUE,FALSE,FALSE,Course Lock,49.2,,16.4,Calm,33,,1.12.8,Mavic Mini,1SDCH7G0169R0K,1SFLH6Q0AB03DJ,1SRCH7F014TAHX,1U5X071EXP6C9Y,228.4,0.1,72.1,3.302841,3.579104,0,0,Mavic Mini,1SDCH7G0169R0K,1SFLH6Q0AB03DJ,1SRCH7F014TAHX,1U5X071EXP6C9Y,DJI Fly,,1.12.8,81C8C3F3-1670-44FF-FA8B-5DA58CA1B90D,1SDCH7G0169R0K,,,,,6.974211903,79.91416278,5,,
2/22/2024,25:31.5,9m 50.2s,590.2,6.974226331,79.9141526,1.3,1.6,2.6,51,1.5,0,0.223694,0,0.223694,0,0,0,0,1.5,-2.2,-60.2,299.8,,Tripod,Drop Calibration,,14,5,TRUE,,Mavic Mini,TRUE,FALSE,,Smart,RC,FALSE,TRUE,FALSE,,,TRUE,,FALSE,FALSE,FALSE,FALSE,FALSE,FALSE,FALSE,FALSE,FALSE,FALSE,0,Follow Yaw,0,0,-43.2,316.8,FALSE,FALSE,FALSE,FALSE,FALSE,FALSE,,TRUE,Normal,,100,1024,1024,1325,1024,2,FALSE,FALSE,FALSE,FALSE,FALSE,0,FALSE,FALSE,FALSE,FALSE,59,7.429,1210,2056,7.523,FALSE,3.717,3.712,0.027,FALSE,FALSE,NA,114.4,114.4,114.4,0,0,6,0,5,3325.7,831.44,,Idle,0,20,FALSE,5,TRUE,6,Go Home,FALSE,FALSE,FALSE,FALSE,FALSE,FALSE,FALSE,FALSE,FALSE,FALSE,FALSE,FALSE,6.974224587,79.91415294,0.6,96.3,328,TRUE,1,1,FALSE,FALSE,FALSE,FALSE,,TRUE,FALSE,FALSE,Course Lock,49.2,,16.4,Calm,33,,1.12.8,Mavic Mini,1SDCH7G0169R0K,1SFLH6Q0AB03DJ,1SRCH7F014TAHX,1U5X071EXP6C9Y,228.4,0.1,72.1,3.302841,3.579104,0,0,Mavic Mini,1SDCH7G0169R0K,1SFLH6Q0AB03DJ,1SRCH7F014TAHX,1U5X071EXP6C9Y,DJI Fly,,1.12.8,81C8C3F3-1670-44FF-FA8B-5DA58CA1B90D,1SDCH7G0169R0K,,,,,6.974211903,79.91416278,5,,
2/22/2024,25:31.5,9m 50.3s,590.3,6.974226405,79.91415255,1.3,1.6,2.6,51,1.5,0,0.223694,0,0.223694,0,0,-0.223694,0,1.6,-2.1,-60.2,299.8,,Tripod,Drop Calibration,,14,5,TRUE,,Mavic Mini,TRUE,FALSE,,Smart,RC,FALSE,TRUE,FALSE,,,TRUE,,FALSE,FALSE,FALSE,FALSE,FALSE,FALSE,FALSE,FALSE,FALSE,FALSE,0,Follow Yaw,0,0,-43.2,316.8,FALSE,FALSE,FALSE,FALSE,FALSE,FALSE,,TRUE,Normal,,100,1024,1024,1349,1024,2,FALSE,FALSE,FALSE,FALSE,FALSE,0,FALSE,FALSE,FALSE,FALSE,59,7.429,1210,2056,7.37,FALSE,3.717,3.712,0.027,FALSE,FALSE,NA,114.4,114.4,114.4,0,0,6,0,5,4829.9,1207.49,,Idle,0,20,FALSE,5,TRUE,6,Go Home,FALSE,FALSE,FALSE,FALSE,FALSE,FALSE,FALSE,FALSE,FALSE,FALSE,FALSE,FALSE,6.974224587,79.91415294,0.6,96.3,328,TRUE,1,1,FALSE,FALSE,FALSE,FALSE,,TRUE,FALSE,FALSE,Course Lock,49.2,,16.4,Calm,33,,1.12.8,Mavic Mini,1SDCH7G0169R0K,1SFLH6Q0AB03DJ,1SRCH7F014TAHX,1U5X071EXP6C9Y,228.4,0.1,72.1,3.302841,3.579104,0,0,Mavic Mini,1SDCH7G0169R0K,1SFLH6Q0AB03DJ,1SRCH7F014TAHX,1U5X071EXP6C9Y,DJI Fly,,1.12.8,81C8C3F3-1670-44FF-FA8B-5DA58CA1B90D,1SDCH7G0169R0K,,,,,6.974211903,79.91416278,5,,
2/22/2024,25:31.6,9m 50.4s,590.4,6.974226425,79.91415252,1.3,1.6,2.6,51,1.5,0,0.223694,0,0.223694,0,0,-0.447388,0,1.8,-2.1,-60.1,299.9,,Tripod,Drop Calibration,,14,5,TRUE,,Mavic Mini,TRUE,FALSE,,Smart,RC,FALSE,TRUE,FALSE,,,TRUE,,FALSE,FALSE,FALSE,FALSE,FALSE,FALSE,FALSE,FALSE,FALSE,FALSE,0,Follow Yaw,0,0,-43.2,316.8,FALSE,FALSE,FALSE,FALSE,FALSE,FALSE,,TRUE,Normal,,100,1024,1024,1292,1024,2,FALSE,FALSE,FALSE,FALSE,FALSE,0,FALSE,FALSE,FALSE,FALSE,59,7.429,1210,2056,7.37,FALSE,3.717,3.712,0.027,FALSE,FALSE,NA,114.4,114.4,114.4,0,0,6,0,5,4829.9,1207.49,,Idle,0,20,FALSE,5,TRUE,6,Go Home,FALSE,FALSE,FALSE,FALSE,FALSE,FALSE,FALSE,FALSE,FALSE,FALSE,FALSE,FALSE,6.974224587,79.91415294,0.6,96.3,328,TRUE,1,1,FALSE,FALSE,FALSE,FALSE,,TRUE,FALSE,FALSE,Course Lock,49.2,,16.4,Calm,33,,1.12.8,Mavic Mini,1SDCH7G0169R0K,1SFLH6Q0AB03DJ,1SRCH7F014TAHX,1U5X071EXP6C9Y,228.4,0.1,72.1,3.302841,3.579104,0,0,Mavic Mini,1SDCH7G0169R0K,1SFLH6Q0AB03DJ,1SRCH7F014TAHX,1U5X071EXP6C9Y,DJI Fly,,1.12.8,81C8C3F3-1670-44FF-FA8B-5DA58CA1B90D,1SDCH7G0169R0K,,,,,6.974211903,79.91416278,5,,
2/22/2024,25:31.7,9m 50.5s,590.5,6.974226481,79.91415253,1.6,1.6,2.6,51,1.5,0,0.223694,0,0.223694,0,0,-0.894776,0,2.2,-2.4,-60.2,299.8,,Tripod,Drop Calibration,,14,5,TRUE,,Mavic Mini,TRUE,FALSE,,Smart,RC,FALSE,TRUE,FALSE,,,TRUE,,FALSE,FALSE,FALSE,FALSE,FALSE,FALSE,FALSE,FALSE,FALSE,FALSE,0,Follow Yaw,0,0,-43.2,316.8,FALSE,FALSE,FALSE,FALSE,FALSE,FALSE,,TRUE,Normal,,100,1024,1024,1292,1024,2,FALSE,FALSE,FALSE,FALSE,FALSE,0,FALSE,FALSE,FALSE,FALSE,59,7.429,1210,2056,7.37,FALSE,3.717,3.712,0.027,FALSE,FALSE,NA,114.4,114.4,114.4,0,0,6,0,5,4829.9,1207.49,,Idle,0,20,FALSE,5,TRUE,6,Go Home,FALSE,FALSE,FALSE,FALSE,FALSE,FALSE,FALSE,FALSE,FALSE,FALSE,FALSE,FALSE,6.974224587,79.91415294,0.7,96.3,328,TRUE,1,1,FALSE,FALSE,FALSE,FALSE,,TRUE,FALSE,FALSE,Course Lock,49.2,,16.4,Calm,33,,1.12.8,Mavic Mini,1SDCH7G0169R0K,1SFLH6Q0AB03DJ,1SRCH7F014TAHX,1U5X071EXP6C9Y,228.4,0.1,72.1,3.302841,3.579104,0,0,Mavic Mini,1SDCH7G0169R0K,1SFLH6Q0AB03DJ,1SRCH7F014TAHX,1U5X071EXP6C9Y,DJI Fly,,1.12.8,81C8C3F3-1670-44FF-FA8B-5DA58CA1B90D,1SDCH7G0169R0K,,,,,6.974211903,79.91416278,5,,
2/22/2024,25:31.8,9m 50.6s,590.6,6.974226509,79.91415251,1.6,1.6,2.9,51,1.5,0,0.223694,0,0.223694,0,0,-0.894776,0,2.1,-2.4,-60.2,299.8,,Tripod,Drop Calibration,,14,5,TRUE,,Mavic Mini,TRUE,FALSE,,Smart,RC,FALSE,TRUE,FALSE,,,TRUE,,FALSE,FALSE,FALSE,FALSE,FALSE,FALSE,FALSE,FALSE,FALSE,FALSE,0,Follow Yaw,0,0,-43.2,316.8,FALSE,FALSE,FALSE,FALSE,FALSE,FALSE,,TRUE,Normal,,100,1024,1024,1024,1024,2,FALSE,FALSE,FALSE,FALSE,FALSE,0,FALSE,FALSE,FALSE,FALSE,59,7.429,1210,2056,7.37,FALSE,3.717,3.712,0.027,FALSE,FALSE,NA,114.4,114.4,114.4,0,0,6,0,5,4829.9,1207.49,,Idle,0,20,FALSE,5,TRUE,6,Go Home,FALSE,FALSE,FALSE,FALSE,FALSE,FALSE,FALSE,FALSE,FALSE,FALSE,FALSE,FALSE,6.974224587,79.91415294,0.7,96.3,328,TRUE,1,1,FALSE,FALSE,FALSE,FALSE,,TRUE,FALSE,FALSE,Course Lock,49.2,,16.4,Calm,33,,1.12.8,Mavic Mini,1SDCH7G0169R0K,1SFLH6Q0AB03DJ,1SRCH7F014TAHX,1U5X071EXP6C9Y,228.4,0.1,72.1,3.302841,3.579104,0,0,Mavic Mini,1SDCH7G0169R0K,1SFLH6Q0AB03DJ,1SRCH7F014TAHX,1U5X071EXP6C9Y,DJI Fly,,1.12.8,81C8C3F3-1670-44FF-FA8B-5DA58CA1B90D,1SDCH7G0169R0K,,,,,6.974211903,79.91416278,5,,
2/22/2024,25:31.9,9m 50.7s,590.7,6.974226524,79.9141525,1.6,1.6,2.9,51,1.5,0,0.223694,0,0.223694,0,0,-1.11847,0,1.9,-2.2,-60.1,299.9,,Tripod,Drop Calibration,,14,5,TRUE,,Mavic Mini,TRUE,FALSE,,Smart,RC,FALSE,TRUE,FALSE,,,TRUE,,FALSE,FALSE,FALSE,FALSE,FALSE,FALSE,FALSE,FALSE,FALSE,FALSE,0,Follow Yaw,0,0,-43.2,316.8,FALSE,FALSE,FALSE,FALSE,FALSE,FALSE,,TRUE,Normal,,100,1024,1024,1024,1024,2,FALSE,FALSE,FALSE,FALSE,FALSE,0,FALSE,FALSE,FALSE,FALSE,59,7.429,1210,2056,7.37,FALSE,3.717,3.712,0.027,FALSE,FALSE,NA,114.4,114.4,114.4,0,0,6,0,5,4829.9,1207.49,,Idle,0,20,FALSE,5,TRUE,6,Go Home,FALSE,FALSE,FALSE,FALSE,FALSE,FALSE,FALSE,FALSE,FALSE,FALSE,FALSE,FALSE,6.974224587,79.91415294,0.7,96.3,328,TRUE,1,1,FALSE,FALSE,FALSE,FALSE,,TRUE,FALSE,FALSE,Course Lock,49.2,,16.4,Calm,33,,1.12.8,Mavic Mini,1SDCH7G0169R0K,1SFLH6Q0AB03DJ,1SRCH7F014TAHX,1U5X071EXP6C9Y,228.4,0.1,72.1,3.302841,3.579104,0,0,Mavic Mini,1SDCH7G0169R0K,1SFLH6Q0AB03DJ,1SRCH7F014TAHX,1U5X071EXP6C9Y,DJI Fly,,1.12.8,81C8C3F3-1670-44FF-FA8B-5DA58CA1B90D,1SDCH7G0169R0K,,,,,6.974211903,79.91416278,5,,
2/22/2024,25:31.9,9m 50.8s,590.8,6.974226514,79.91415245,1.9,1.9,3.2,52,1.6,0,0.223694,0,0.223694,0,0,-0.894776,0,1.8,-1.9,-60.1,299.9,,Tripod,Drop Calibration,,14,5,TRUE,,Mavic Mini,TRUE,FALSE,,Smart,RC,FALSE,TRUE,FALSE,,,TRUE,,FALSE,FALSE,FALSE,FALSE,FALSE,FALSE,FALSE,FALSE,FALSE,FALSE,0,Follow Yaw,0,0,-43.2,316.8,FALSE,FALSE,FALSE,FALSE,FALSE,FALSE,,TRUE,Normal,,100,1024,1024,1024,1024,2,FALSE,FALSE,FALSE,FALSE,FALSE,0,FALSE,FALSE,FALSE,FALSE,59,7.429,1210,2056,7.37,FALSE,3.717,3.712,0.027,FALSE,FALSE,NA,114.4,114.4,114.4,0,0,6,0,5,4829.9,1207.49,,Idle,0,20,FALSE,5,TRUE,6,Go Home,FALSE,FALSE,FALSE,FALSE,FALSE,FALSE,FALSE,FALSE,FALSE,FALSE,FALSE,FALSE,6.974224587,79.91415294,0.7,96.3,328,TRUE,1,1,FALSE,FALSE,FALSE,FALSE,,TRUE,FALSE,FALSE,Course Lock,49.2,,16.4,Calm,33,,1.12.8,Mavic Mini,1SDCH7G0169R0K,1SFLH6Q0AB03DJ,1SRCH7F014TAHX,1U5X071EXP6C9Y,228.4,0.1,72.1,3.302841,3.579104,0,0,Mavic Mini,1SDCH7G0169R0K,1SFLH6Q0AB03DJ,1SRCH7F014TAHX,1U5X071EXP6C9Y,DJI Fly,,1.12.8,81C8C3F3-1670-44FF-FA8B-5DA58CA1B90D,1SDCH7G0169R0K,,,,,6.974211903,79.91416278,5,,
2/22/2024,25:32.2,9m 50.9s,590.9,6.974226542,79.91415243,1.9,1.9,3.2,52,1.6,0,0.223694,0,0.223694,0,0,-0.447388,0,1.7,-1.8,-60.1,299.9,,Tripod,Drop Calibration,,15,5,TRUE,,Mavic Mini,TRUE,FALSE,,Smart,RC,FALSE,TRUE,FALSE,,,TRUE,,FALSE,FALSE,FALSE,FALSE,FALSE,FALSE,FALSE,FALSE,FALSE,FALSE,0,Follow Yaw,0,0,-43.2,316.8,FALSE,FALSE,FALSE,FALSE,FALSE,FALSE,,TRUE,Normal,,100,1024,1024,1024,1334,2,FALSE,FALSE,FALSE,FALSE,FALSE,0,FALSE,FALSE,FALSE,FALSE,59,7.429,1210,2056,7.37,FALSE,3.717,3.712,0.027,FALSE,FALSE,NA,114.4,114.4,114.4,0,0,6,0,5,4829.9,1207.49,,Idle,0,20,FALSE,5,TRUE,6,Go Home,FALSE,FALSE,FALSE,FALSE,FALSE,FALSE,FALSE,FALSE,FALSE,FALSE,FALSE,FALSE,6.974224587,79.91415294,0.7,96.3,328,TRUE,1,1,FALSE,FALSE,FALSE,FALSE,,TRUE,FALSE,FALSE,Course Lock,49.2,,16.4,Calm,33,,1.12.8,Mavic Mini,1SDCH7G0169R0K,1SFLH6Q0AB03DJ,1SRCH7F014TAHX,1U5X071EXP6C9Y,228.4,0.1,72.1,3.302841,3.579104,0,0,Mavic Mini,1SDCH7G0169R0K,1SFLH6Q0AB03DJ,1SRCH7F014TAHX,1U5X071EXP6C9Y,DJI Fly,,1.12.8,81C8C3F3-1670-44FF-FA8B-5DA58CA1B90D,1SDCH7G0169R0K,,,,,6.974211903,79.91416278,5,,
