CUSTOM.date [local],CUSTOM.updateTime [local],OSD.flyTime,OSD.flyTime [s],OSD.latitude,OSD.longitude,OSD.height [ft],OSD.heightMax [ft],OSD.vpsHeight [ft],OSD.altitude [ft],OSD.mileage [ft],OSD.hSpeed [MPH],OSD.hSpeedMax [MPH],OSD.xSpeed [MPH],OSD.xSpeedMax [MPH],OSD.ySpeed [MPH],OSD.ySpeedMax [MPH],OSD.zSpeed [MPH],OSD.zSpeedMax [MPH],OSD.pitch,OSD.roll,OSD.yaw,OSD.yaw [360],OSD.directionOfTravel,OSD.flycState,OSD.flycCommand,OSD.flightAction,OSD.gpsNum,OSD.gpsLevel,OSD.isGPSUsed,OSD.nonGPSCause,OSD.droneType,OSD.isSwaveWork,OSD.waveError,OSD.goHomeStatus,OSD.batteryType,OSD.ctrlDevice,OSD.isOnGround,OSD.isMotorOn,OSD.isMotorBlocked,OSD.motorStartFailedCause,OSD.motorFailReason,OSD.isImuPreheated,OSD.imuInitFailReason,OSD.isAcceletorOverRange,OSD.isBarometerDeadInAir,OSD.isCompassError,OSD.isGoHomeHeightModified,OSD.canIOCWork,OSD.isNotEnoughForce,OSD.isOutOfLimit,OSD.isPropellerCatapult,OSD.isVibrating,OSD.isVisionUsed,OSD.voltageWarning,GIMBAL.mode,GIMBAL.pitch,GIMBAL.roll,GIMBAL.yaw,GIMBAL.yaw [360],GIMBAL.isPitchAtLimit,GIMBAL.isRollAtLimit,GIMBAL.isYawAtLimit,GIMBAL.isStuck,CAMERA.isPhoto,CAMERA.isVideo,CAMERA.filename,CAMERA.sdCardIsInserted,CAMERA.sdCardState,RC.downlinkSignal,RC.uplinkSignal,RC.aileron,RC.elevator,RC.throttle,RC.rudder,RC.mode,RC.goHomeDepressed,RC.recordDepressed,RC.shutterDepressed,RC.playbackDepressed,RC.wheelDepressed,RC.wheelOffset,RC.custom1Depressed,RC.custom2Depressed,RC.custom3Depressed,RC.custom4Depressed,BATTERY.chargeLevel,BATTERY.currentPV [V],BATTERY.currentCapacity [mAh],BATTERY.fullCapacity [mAh],BATTERY.voltage [V],BATTERY.isCellVoltageEstimated,BATTERY.cellVoltage1 [V],BATTERY.cellVoltage2 [V],BATTERY.maxCellVoltageDeviation,BATTERY.isCellVoltageDeviationHigh,BATTERY.isVoltageLow,BATTERY.current [A],BATTERY.temperature [F],BATTERY.minTemperature [F],BATTERY.maxTemperature [F],BATTERY.usefulTime [s],BATTERY.goHomeTime [s],BATTERY.landTime [s],BATTERY.goHomeBattery,BATTERY.landBattery,BATTERY.safeFlyRadius,BATTERY.volumeConsume,BATTERY.status,BATTERY.goHomeStatus,BATTERY.goHomeCountdown,BATTERY.lowWarning,BATTERY.lowWarningGoHome,BATTERY.seriousLowWarning,BATTERY.seriousLowWarningLanding,BATTERY.timesCharged,MC.failSafeAction,MC.isObstacleAvoidanceEnabled,MC.isCollisionAvoidanceEnabled,MC.isRthObstacleAvoidanceEnabled,MC.isBraking,MC.isAvoidingObstacle,MC.isAvoidingActiveObstacle,MC.isAscentLimitedByObstacle,MC.isLandingConfirmationNeeded,MC.atLowAltitudeLimit,MC.atDistanceLimit,MC.atAirportAltitudeLimit,MC.atAirportBoundary,HOME.latitude,HOME.longitude,HOME.distance [ft],HOME.height [ft],HOME.heightLimit [ft],HOME.isHomeRecord,HOME.goHomeMode,HOME.aircraftHeadDirection,HOME.isDynamicHomePointEnabled,HOME.isReachedLimitDistance,HOME.isReachedLimitHeight,HOME.isCompassCalibrating,HOME.compassCalibrationState,HOME.isMultipleFlightModeEnabled,HOME.isBeginnerMode,HOME.isIOCEnabled,HOME.iocMode,HOME.goHomeHeight [ft],HOME.courseLockAngle,HOME.forceLandingHeight [ft],HOME.wind,HOME.dataRecorderFileIndex,RECOVER.appType,RECOVER.appVersion,RECOVER.aircraftName,RECOVER.aircraftSerial,RECOVER.cameraSerial,RECOVER.rcSerial,RECOVER.batterySerial,DETAILS.totalTime [s],DETAILS.totalDistance [ft],DETAILS.maxHeight [ft],DETAILS.maxHorizontalSpeed [MPH],DETAILS.maxVerticalSpeed [MPH],DETAILS.photoNum,DETAILS.videoTime [s],DETAILS.aircraftName,DETAILS.aircraftSerial,DETAILS.cameraSerial,DETAILS.rcSerial,DETAILS.batterySerial,DETAILS.appName,DETAILS.appType,DETAILS.appVersion,DETAILS.guid,SERIAL.flightController,SERIAL.camera,SERIAL.gimbal,SERIAL.rc,SERIAL.battery,APPGPS.latitude,APPGPS.longitude,APPGPS.accuracy,APP.tip,APP.warning
2/14/2024,13:57.5,3m 7.1s,187.1,6.974254423,79.91401449,0,0,0.3,50,0,0,0,0,0,0,0,0,0,-2.3,-0.6,-45,315,,Starting Motors,Other,Takeoff (RC Assisted),15,5,TRUE,,Mavic Mini,FALSE,FALSE,,Smart,RC,TRUE,TRUE,FALSE,,,TRUE,,FALSE,FALSE,FALSE,FALSE,FALSE,FALSE,FALSE,FALSE,FALSE,FALSE,0,Follow Yaw,-4.2,0,-34,326,FALSE,FALSE,FALSE,FALSE,FALSE,FALSE,,TRUE,Normal,,,1024,1024,1024,1024,2,FALSE,FALSE,FALSE,FALSE,FALSE,0,FALSE,FALSE,FALSE,FALSE,83,7.994,1778,2138,7.994,TRUE,3.997,3.997,,FALSE,FALSE,NA,102,102,102,,,,,,,,,Idle,,,TRUE,,FALSE,5,Go Home,FALSE,FALSE,FALSE,FALSE,FALSE,FALSE,FALSE,FALSE,FALSE,FALSE,FALSE,FALSE,,,,,,FALSE,,,FALSE,FALSE,FALSE,FALSE,,FALSE,FALSE,FALSE,,,,,Calm,,,1.12.8,Mavic Mini,1SDCH7G0169R0K,1SFLH6Q0AB03DJ,1SRCH7F014TAHX,1U5X071EXP6C9Y,117.7,0.3,16.4,5.279402,3.35541,0,0,Mavic Mini,1SDCH7G0169R0K,1SFLH6Q0AB03DJ,1SRCH7F014TAHX,1U5X071EXP6C9Y,DJI Fly,,1.12.8,045274C5-5EA7-3BBC-C14C-DF52045E3FF6,1SDCH7G0169R0K,,,,,,,,Flight mode changed to Starting Motors.,
2/14/2024,13:57.5,3m 7.2s,187.2,6.974254372,79.91401457,0,0,0.3,50,0,0,0,0,0,0,0,0,0,-2.3,-0.6,-45,315,,Starting Motors,Other,Takeoff (RC Assisted),15,5,TRUE,,Mavic Mini,FALSE,FALSE,,Smart,RC,TRUE,TRUE,FALSE,,,TRUE,,FALSE,FALSE,FALSE,FALSE,FALSE,FALSE,FALSE,FALSE,FALSE,FALSE,0,Follow Yaw,-4.2,0,-34,326,FALSE,FALSE,FALSE,FALSE,FALSE,FALSE,,TRUE,Normal,,,1024,1024,1024,1024,2,FALSE,FALSE,FALSE,FALSE,FALSE,0,FALSE,FALSE,FALSE,FALSE,83,7.994,1778,2138,7.994,TRUE,3.997,3.997,,FALSE,FALSE,NA,102,102,102,,,,,,,,,Idle,,,TRUE,,FALSE,5,Go Home,FALSE,FALSE,FALSE,FALSE,FALSE,FALSE,FALSE,FALSE,FALSE,FALSE,FALSE,FALSE,,,,,,FALSE,,,FALSE,FALSE,FALSE,FALSE,,FALSE,FALSE,FALSE,,,,,Calm,,,1.12.8,Mavic Mini,1SDCH7G0169R0K,1SFLH6Q0AB03DJ,1SRCH7F014TAHX,1U5X071EXP6C9Y,117.7,0.3,16.4,5.279402,3.35541,0,0,Mavic Mini,1SDCH7G0169R0K,1SFLH6Q0AB03DJ,1SRCH7F014TAHX,1U5X071EXP6C9Y,DJI Fly,,1.12.8,045274C5-5EA7-3BBC-C14C-DF52045E3FF6,1SDCH7G0169R0K,,,,,,,,,
2/14/2024,13:57.6,3m 7.3s,187.3,6.974254365,79.91401463,0,0,0.3,50,0,0,0,0,0,0,0,0,0,-2.3,-0.6,-45,315,,Starting Motors,Other,Takeoff (RC Assisted),15,5,TRUE,,Mavic Mini,TRUE,FALSE,,Smart,RC,TRUE,TRUE,FALSE,,,TRUE,,FALSE,FALSE,FALSE,FALSE,FALSE,FALSE,FALSE,FALSE,FALSE,FALSE,0,Follow Yaw,-4.2,0,-34,326,FALSE,FALSE,FALSE,FALSE,FALSE,FALSE,,TRUE,Normal,,,1024,1024,1024,1024,2,FALSE,FALSE,FALSE,FALSE,FALSE,0,FALSE,FALSE,FALSE,FALSE,83,7.994,1778,2138,7.994,TRUE,3.997,3.997,,FALSE,FALSE,NA,102,102,102,,,,,,,,,Idle,,,TRUE,,FALSE,5,Go Home,FALSE,FALSE,FALSE,FALSE,FALSE,FALSE,FALSE,FALSE,FALSE,FALSE,FALSE,FALSE,,,,,,FALSE,,,FALSE,FALSE,FALSE,FALSE,,FALSE,FALSE,FALSE,,,,,Calm,,,1.12.8,Mavic Mini,1SDCH7G0169R0K,1SFLH6Q0AB03DJ,1SRCH7F014TAHX,1U5X071EXP6C9Y,117.7,0.3,16.4,5.279402,3.35541,0,0,Mavic Mini,1SDCH7G0169R0K,1SFLH6Q0AB03DJ,1SRCH7F014TAHX,1U5X071EXP6C9Y,DJI Fly,,1.12.8,045274C5-5EA7-3BBC-C14C-DF52045E3FF6,1SDCH7G0169R0K,,,,,,,,,
2/14/2024,13:57.7,3m 7.4s,187.4,6.974254359,79.91401466,0,0,0.3,50,0,0,0,0,0,0,0,0,0,-2.3,-0.6,-45,315,,Starting Motors,Other,Takeoff (RC Assisted),15,5,TRUE,,Mavic Mini,TRUE,FALSE,,Smart,RC,TRUE,TRUE,FALSE,,,TRUE,,FALSE,FALSE,FALSE,FALSE,FALSE,FALSE,FALSE,FALSE,FALSE,FALSE,0,Follow Yaw,-4.2,0,-34,326,FALSE,FALSE,FALSE,FALSE,FALSE,FALSE,,TRUE,Normal,,,1024,1024,1024,1024,2,FALSE,FALSE,FALSE,FALSE,FALSE,0,FALSE,FALSE,FALSE,FALSE,83,7.994,1778,2138,7.994,TRUE,3.997,3.997,,FALSE,FALSE,NA,102,102,102,,,,,,,,,Idle,,,TRUE,,FALSE,5,Go Home,FALSE,FALSE,FALSE,FALSE,FALSE,FALSE,FALSE,FALSE,FALSE,FALSE,FALSE,FALSE,,,,,,FALSE,,,FALSE,FALSE,FALSE,FALSE,,FALSE,FALSE,FALSE,,,,,Calm,,,1.12.8,Mavic Mini,1SDCH7G0169R0K,1SFLH6Q0AB03DJ,1SRCH7F014TAHX,1U5X071EXP6C9Y,117.7,0.3,16.4,5.279402,3.35541,0,0,Mavic Mini,1SDCH7G0169R0K,1SFLH6Q0AB03DJ,1SRCH7F014TAHX,1U5X071EXP6C9Y,DJI Fly,,1.12.8,045274C5-5EA7-3BBC-C14C-DF52045E3FF6,1SDCH7G0169R0K,,,,,,,,,
2/14/2024,13:57.8,3m 7.5s,187.5,6.974254354,79.91401467,0,0,0.3,50,0,0,0,0,0,0,0,0,0,-2.3,-0.6,-45,315,,Starting Motors,Other,Takeoff (RC Assisted),15,5,TRUE,,Mavic Mini,TRUE,FALSE,,Smart,RC,TRUE,TRUE,FALSE,,,TRUE,,FALSE,FALSE,FALSE,FALSE,FALSE,FALSE,FALSE,FALSE,FALSE,FALSE,0,Follow Yaw,-4.2,0,-34,326,FALSE,FALSE,FALSE,FALSE,FALSE,FALSE,,TRUE,Normal,,100,1024,1024,1024,1024,2,FALSE,FALSE,FALSE,FALSE,FALSE,0,FALSE,FALSE,FALSE,FALSE,83,7.994,1778,2138,7.994,TRUE,3.997,3.997,,FALSE,FALSE,NA,102,102,102,,,,,,,,,Idle,,,TRUE,,FALSE,5,Go Home,FALSE,FALSE,FALSE,FALSE,FALSE,FALSE,FALSE,FALSE,FALSE,FALSE,FALSE,FALSE,,,,,,FALSE,,,FALSE,FALSE,FALSE,FALSE,,FALSE,FALSE,FALSE,,,,,Calm,,,1.12.8,Mavic Mini,1SDCH7G0169R0K,1SFLH6Q0AB03DJ,1SRCH7F014TAHX,1U5X071EXP6C9Y,117.7,0.3,16.4,5.279402,3.35541,0,0,Mavic Mini,1SDCH7G0169R0K,1SFLH6Q0AB03DJ,1SRCH7F014TAHX,1U5X071EXP6C9Y,DJI Fly,,1.12.8,045274C5-5EA7-3BBC-C14C-DF52045E3FF6,1SDCH7G0169R0K,,,,,,,,,
2/14/2024,13:57.9,3m 7.6s,187.6,6.974254337,79.91401471,0,0,0.3,50,0,0,0,0,0,0,0,0,0,-2.3,-0.6,-45,315,,Starting Motors,Other,Takeoff (RC Assisted),15,5,TRUE,,Mavic Mini,TRUE,FALSE,,Smart,RC,TRUE,TRUE,FALSE,,,TRUE,,FALSE,FALSE,FALSE,FALSE,FALSE,FALSE,FALSE,FALSE,FALSE,FALSE,0,Follow Yaw,-4.2,0,-34,326,FALSE,FALSE,FALSE,FALSE,FALSE,FALSE,,TRUE,Normal,,100,1024,1024,1024,1024,2,FALSE,FALSE,FALSE,FALSE,FALSE,0,FALSE,FALSE,FALSE,FALSE,83,7.994,1778,2138,7.984,FALSE,4,3.994,0.006,FALSE,FALSE,NA,102,102,102,0,1,0,0,5,2430.1,607.53,,Idle,0,20,FALSE,5,TRUE,5,Go Home,FALSE,FALSE,FALSE,FALSE,FALSE,FALSE,FALSE,FALSE,FALSE,FALSE,FALSE,FALSE,6.974256066,79.91400944,2,142,328,TRUE,1,1,FALSE,FALSE,FALSE,FALSE,,TRUE,FALSE,FALSE,Course Lock,246,,16.4,Calm,25,,1.12.8,Mavic Mini,1SDCH7G0169R0K,1SFLH6Q0AB03DJ,1SRCH7F014TAHX,1U5X071EXP6C9Y,117.7,0.3,16.4,5.279402,3.35541,0,0,Mavic Mini,1SDCH7G0169R0K,1SFLH6Q0AB03DJ,1SRCH7F014TAHX,1U5X071EXP6C9Y,DJI Fly,,1.12.8,045274C5-5EA7-3BBC-C14C-DF52045E3FF6,1SDCH7G0169R0K,,,,,,,,Data Recorder File Index is 25.; Set Return to Home (RTH) altitude to 75 m (246 ft).; Set maximum flight altitude to 100 m (328 ft).,
2/14/2024,13:58.1,3m 7.7s,187.7,6.974254334,79.91401476,0,0,0.3,50,0,0,0,0,0,0,0,0,0,-2.3,-0.6,-44.9,315.1,,Starting Motors,Other,Takeoff (RC Assisted),15,5,TRUE,,Mavic Mini,TRUE,FALSE,,Smart,RC,TRUE,TRUE,FALSE,,,TRUE,,FALSE,FALSE,FALSE,FALSE,FALSE,FALSE,FALSE,FALSE,FALSE,FALSE,0,Follow Yaw,-4.2,0,-34,326,FALSE,FALSE,FALSE,FALSE,FALSE,FALSE,,TRUE,Normal,,100,1024,1024,1024,1024,2,FALSE,FALSE,FALSE,FALSE,FALSE,0,FALSE,FALSE,FALSE,FALSE,83,7.994,1778,2138,7.984,FALSE,4,3.994,0.006,FALSE,FALSE,NA,102,102,102,0,1,0,0,5,2430.1,607.53,,Idle,0,20,FALSE,5,TRUE,5,Go Home,FALSE,FALSE,FALSE,FALSE,FALSE,FALSE,FALSE,FALSE,FALSE,FALSE,FALSE,FALSE,6.974256066,79.91400944,2,142,328,TRUE,1,1,FALSE,FALSE,FALSE,FALSE,,TRUE,FALSE,FALSE,Course Lock,246,,16.4,Calm,25,,1.12.8,Mavic Mini,1SDCH7G0169R0K,1SFLH6Q0AB03DJ,1SRCH7F014TAHX,1U5X071EXP6C9Y,117.7,0.3,16.4,5.279402,3.35541,0,0,Mavic Mini,1SDCH7G0169R0K,1SFLH6Q0AB03DJ,1SRCH7F014TAHX,1U5X071EXP6C9Y,DJI Fly,,1.12.8,045274C5-5EA7-3BBC-C14C-DF52045E3FF6,1SDCH7G0169R0K,,,,,,,,,
2/14/2024,13:58.2,3m 7.8s,187.8,6.974254332,79.91401478,0,0,0.3,50,0,0,0,0,0,0,0,0,0,-2.3,-0.8,-44.9,315.1,,Starting Motors,Other,Takeoff (RC Assisted),15,5,TRUE,,Mavic Mini,TRUE,FALSE,,Smart,RC,TRUE,TRUE,FALSE,,,TRUE,,FALSE,FALSE,FALSE,FALSE,FALSE,FALSE,FALSE,FALSE,FALSE,FALSE,0,Follow Yaw,-4.2,0,-33.9,326.1,FALSE,FALSE,FALSE,FALSE,FALSE,FALSE,,TRUE,Normal,,100,1024,1024,1024,1024,2,FALSE,FALSE,FALSE,FALSE,FALSE,0,FALSE,FALSE,FALSE,FALSE,83,7.994,1778,2138,7.984,FALSE,4,3.994,0.006,FALSE,FALSE,NA,102,102,102,0,1,0,0,5,2430.1,607.53,,Idle,0,20,FALSE,5,TRUE,5,Go Home,FALSE,FALSE,FALSE,FALSE,FALSE,FALSE,FALSE,FALSE,FALSE,FALSE,FALSE,FALSE,6.974256066,79.91400944,2,142,328,TRUE,1,1,FALSE,FALSE,FALSE,FALSE,,TRUE,FALSE,FALSE,Course Lock,246,,16.4,Calm,25,,1.12.8,Mavic Mini,1SDCH7G0169R0K,1SFLH6Q0AB03DJ,1SRCH7F014TAHX,1U5X071EXP6C9Y,117.7,0.3,16.4,5.279402,3.35541,0,0,Mavic Mini,1SDCH7G0169R0K,1SFLH6Q0AB03DJ,1SRCH7F014TAHX,1U5X071EXP6C9Y,DJI Fly,,1.12.8,045274C5-5EA7-3BBC-C14C-DF52045E3FF6,1SDCH7G0169R0K,,,,,,,,,
2/14/2024,13:58.3,3m 7.9s,187.9,6.974254329,79.91401478,0,0,0.3,50,0,0,0,0,0,0,0,0,0,-2.2,-0.7,-44.9,315.1,,Starting Motors,Other,Takeoff (RC Assisted),15,5,TRUE,,Mavic Mini,TRUE,FALSE,,Smart,RC,TRUE,TRUE,FALSE,,,TRUE,,FALSE,FALSE,FALSE,FALSE,FALSE,FALSE,FALSE,FALSE,FALSE,FALSE,0,Follow Yaw,-4.2,0,-33.9,326.1,FALSE,FALSE,FALSE,FALSE,FALSE,FALSE,,TRUE,Normal,,100,1024,1024,1024,1024,2,FALSE,FALSE,FALSE,FALSE,FALSE,0,FALSE,FALSE,FALSE,FALSE,83,7.944,1777,2138,7.984,FALSE,3.991,3.953,0.038,FALSE,FALSE,NA,102,102,102,0,1,0,0,5,2430.1,607.53,,Idle,0,20,FALSE,5,TRUE,5,Go Home,FALSE,FALSE,FALSE,FALSE,FALSE,FALSE,FALSE,FALSE,FALSE,FALSE,FALSE,FALSE,6.974256066,79.91400944,2,142,328,TRUE,1,1,FALSE,FALSE,FALSE,FALSE,,TRUE,FALSE,FALSE,Course Lock,246,,16.4,Calm,25,,1.12.8,Mavic Mini,1SDCH7G0169R0K,1SFLH6Q0AB03DJ,1SRCH7F014TAHX,1U5X071EXP6C9Y,117.7,0.3,16.4,5.279402,3.35541,0,0,Mavic Mini,1SDCH7G0169R0K,1SFLH6Q0AB03DJ,1SRCH7F014TAHX,1U5X071EXP6C9Y,DJI Fly,,1.12.8,045274C5-5EA7-3BBC-C14C-DF52045E3FF6,1SDCH7G0169R0K,,,,,,,,,
2/14/2024,13:58.3,3m 8.0s,188,6.974254445,79.91401478,0,0,0.3,50,0.1,0,0,0,0,0,0,0,0,-2.2,-0.8,-45,315,,Starting Motors,Other,Takeoff (RC Assisted),15,5,TRUE,,Mavic Mini,TRUE,FALSE,,Smart,RC,TRUE,TRUE,FALSE,,,TRUE,,FALSE,FALSE,FALSE,FALSE,FALSE,FALSE,FALSE,FALSE,FALSE,FALSE,0,Follow Yaw,-4.2,0,-33.9,326.1,FALSE,FALSE,FALSE,FALSE,FALSE,FALSE,,TRUE,Normal,,100,1024,1024,1024,1024,2,FALSE,FALSE,FALSE,FALSE,FALSE,0,FALSE,FALSE,FALSE,FALSE,83,7.944,1777,2138,7.984,FALSE,3.991,3.953,0.038,FALSE,FALSE,NA,102,102,102,0,1,0,0,5,2430.1,607.53,,Idle,0,20,FALSE,5,TRUE,5,Go Home,FALSE,FALSE,FALSE,FALSE,FALSE,FALSE,FALSE,FALSE,FALSE,FALSE,FALSE,FALSE,6.974256066,79.91400944,2,142,328,TRUE,1,1,FALSE,FALSE,FALSE,FALSE,,TRUE,FALSE,FALSE,Course Lock,246,,16.4,Calm,25,,1.12.8,Mavic Mini,1SDCH7G0169R0K,1SFLH6Q0AB03DJ,1SRCH7F014TAHX,1U5X071EXP6C9Y,117.7,0.3,16.4,5.279402,3.35541,0,0,Mavic Mini,1SDCH7G0169R0K,1SFLH6Q0AB03DJ,1SRCH7F014TAHX,1U5X071EXP6C9Y,DJI Fly,,1.12.8,045274C5-5EA7-3BBC-C14C-DF52045E3FF6,1SDCH7G0169R0K,,,,,,,,,
2/14/2024,13:58.5,3m 8.1s,188.1,6.974254495,79.91401482,0,0,0.3,50,0.1,0,0,0,0,0,0,0,0,-2.2,-0.8,-44.9,315.1,,Starting Motors,Other,Takeoff (RC Assisted),15,5,TRUE,,Mavic Mini,TRUE,FALSE,,Smart,RC,TRUE,TRUE,FALSE,,,TRUE,,FALSE,FALSE,FALSE,FALSE,FALSE,FALSE,FALSE,FALSE,FALSE,FALSE,0,Follow Yaw,-4.2,0,-33.9,326.1,FALSE,FALSE,FALSE,FALSE,FALSE,FALSE,,TRUE,Normal,,100,1024,1024,1024,1024,2,FALSE,FALSE,FALSE,FALSE,FALSE,0,FALSE,FALSE,FALSE,FALSE,83,7.944,1777,2138,7.984,FALSE,3.991,3.953,0.038,FALSE,FALSE,NA,102,102,102,0,1,0,0,5,2430.1,607.53,,Idle,0,20,FALSE,5,TRUE,5,Go Home,FALSE,FALSE,FALSE,FALSE,FALSE,FALSE,FALSE,FALSE,FALSE,FALSE,FALSE,FALSE,6.974256066,79.91400944,2,142,328,TRUE,1,1,FALSE,FALSE,FALSE,FALSE,,TRUE,FALSE,FALSE,Course Lock,246,,16.4,Calm,25,,1.12.8,Mavic Mini,1SDCH7G0169R0K,1SFLH6Q0AB03DJ,1SRCH7F014TAHX,1U5X071EXP6C9Y,117.7,0.3,16.4,5.279402,3.35541,0,0,Mavic Mini,1SDCH7G0169R0K,1SFLH6Q0AB03DJ,1SRCH7F014TAHX,1U5X071EXP6C9Y,DJI Fly,,1.12.8,045274C5-5EA7-3BBC-C14C-DF52045E3FF6,1SDCH7G0169R0K,,,,,,,,,
2/14/2024,13:58.5,3m 8.2s,188.2,6.974254489,79.91401484,0,0,0.3,50,0.1,0,0,0,0,0,0,0,0,-2.3,-0.7,-44.9,315.1,,Manual Takeoff,Other,Takeoff (RC Assisted),15,5,TRUE,,Mavic Mini,TRUE,FALSE,,Smart,RC,TRUE,TRUE,FALSE,,,TRUE,,FALSE,FALSE,FALSE,FALSE,FALSE,FALSE,FALSE,FALSE,FALSE,FALSE,0,Follow Yaw,-4.2,0,-33.9,326.1,FALSE,FALSE,FALSE,FALSE,FALSE,FALSE,,TRUE,Normal,,100,1024,1024,1024,1024,2,FALSE,FALSE,FALSE,FALSE,FALSE,0,FALSE,FALSE,FALSE,FALSE,83,7.944,1777,2138,7.984,FALSE,3.991,3.953,0.038,FALSE,FALSE,NA,102,102,102,0,1,0,0,5,2430.1,607.53,,Idle,0,20,FALSE,5,TRUE,5,Go Home,FALSE,FALSE,FALSE,FALSE,FALSE,FALSE,FALSE,FALSE,FALSE,FALSE,FALSE,FALSE,6.974256066,79.91400944,2,142,328,TRUE,1,1,FALSE,FALSE,FALSE,FALSE,,TRUE,FALSE,FALSE,Course Lock,246,,16.4,Calm,25,,1.12.8,Mavic Mini,1SDCH7G0169R0K,1SFLH6Q0AB03DJ,1SRCH7F014TAHX,1U5X071EXP6C9Y,117.7,0.3,16.4,5.279402,3.35541,0,0,Mavic Mini,1SDCH7G0169R0K,1SFLH6Q0AB03DJ,1SRCH7F014TAHX,1U5X071EXP6C9Y,DJI Fly,,1.12.8,045274C5-5EA7-3BBC-C14C-DF52045E3FF6,1SDCH7G0169R0K,,,,,,,,Flight mode changed to Manual Takeoff.,
2/14/2024,13:58.6,3m 8.3s,188.3,6.974254453,79.91401484,0,0,0.3,50,0.1,0,0,0,0,0,0,0,0,-2.3,-0.7,-44.9,315.1,,Manual Takeoff,Other,Takeoff (RC Assisted),15,5,TRUE,,Mavic Mini,TRUE,FALSE,,Smart,RC,TRUE,TRUE,FALSE,,,TRUE,,FALSE,FALSE,FALSE,FALSE,FALSE,FALSE,FALSE,FALSE,FALSE,FALSE,0,Follow Yaw,-4.2,0,-33.9,326.1,FALSE,FALSE,FALSE,FALSE,FALSE,FALSE,,TRUE,Normal,,100,1024,1024,1024,1024,2,FALSE,FALSE,FALSE,FALSE,FALSE,0,FALSE,FALSE,FALSE,FALSE,83,7.944,1777,2138,7.984,FALSE,3.991,3.953,0.038,FALSE,FALSE,NA,102,102,102,0,1,0,0,5,2430.1,607.53,,Idle,0,20,FALSE,5,TRUE,5,Go Home,FALSE,FALSE,FALSE,FALSE,FALSE,FALSE,FALSE,FALSE,FALSE,FALSE,FALSE,FALSE,6.974256066,79.91400944,2,142,328,TRUE,1,1,FALSE,FALSE,FALSE,FALSE,,TRUE,FALSE,FALSE,Course Lock,246,,16.4,Calm,25,,1.12.8,Mavic Mini,1SDCH7G0169R0K,1SFLH6Q0AB03DJ,1SRCH7F014TAHX,1U5X071EXP6C9Y,117.7,0.3,16.4,5.279402,3.35541,0,0,Mavic Mini,1SDCH7G0169R0K,1SFLH6Q0AB03DJ,1SRCH7F014TAHX,1U5X071EXP6C9Y,DJI Fly,,1.12.8,045274C5-5EA7-3BBC-C14C-DF52045E3FF6,1SDCH7G0169R0K,,,,,,,,,
2/14/2024,13:58.7,3m 8.4s,188.4,6.97425444,79.91401487,0,0,0.3,50,0.1,0,0,0,0,0,0,0,0,-2.3,-0.7,-44.9,315.1,,Manual Takeoff,Other,Takeoff (RC Assisted),15,5,TRUE,,Mavic Mini,TRUE,FALSE,,Smart,RC,TRUE,TRUE,FALSE,,,TRUE,,FALSE,FALSE,FALSE,FALSE,FALSE,FALSE,FALSE,FALSE,FALSE,FALSE,0,Follow Yaw,-4.2,0,-33.9,326.1,FALSE,FALSE,FALSE,FALSE,FALSE,FALSE,,TRUE,Normal,,100,1024,1024,1024,1024,2,FALSE,FALSE,FALSE,FALSE,FALSE,0,FALSE,FALSE,FALSE,FALSE,83,7.944,1777,2138,7.984,FALSE,3.991,3.953,0.038,FALSE,FALSE,NA,102,102,102,0,1,0,0,5,2430.1,607.53,,Idle,0,20,FALSE,5,TRUE,5,Go Home,FALSE,FALSE,FALSE,FALSE,FALSE,FALSE,FALSE,FALSE,FALSE,FALSE,FALSE,FALSE,6.974256066,79.91400944,2,142,328,TRUE,1,1,FALSE,FALSE,FALSE,FALSE,,TRUE,FALSE,FALSE,Course Lock,246,,16.4,Calm,25,,1.12.8,Mavic Mini,1SDCH7G0169R0K,1SFLH6Q0AB03DJ,1SRCH7F014TAHX,1U5X071EXP6C9Y,117.7,0.3,16.4,5.279402,3.35541,0,0,Mavic Mini,1SDCH7G0169R0K,1SFLH6Q0AB03DJ,1SRCH7F014TAHX,1U5X071EXP6C9Y,DJI Fly,,1.12.8,045274C5-5EA7-3BBC-C14C-DF52045E3FF6,1SDCH7G0169R0K,,,,,,,,,
2/14/2024,13:58.8,3m 8.5s,188.5,6.974254475,79.91401491,0,0,0.3,50,0.1,0,0,0,0,0,0,0,0,-2.3,-0.7,-44.9,315.1,,Manual Takeoff,Other,Takeoff (RC Assisted),15,5,TRUE,,Mavic Mini,TRUE,FALSE,,Smart,RC,TRUE,TRUE,FALSE,,,TRUE,,FALSE,FALSE,FALSE,FALSE,FALSE,FALSE,FALSE,FALSE,FALSE,FALSE,0,Follow Yaw,-4.2,0,-33.9,326.1,FALSE,FALSE,FALSE,FALSE,FALSE,FALSE,,TRUE,Normal,,100,1024,1024,1024,1024,2,FALSE,FALSE,FALSE,FALSE,FALSE,0,FALSE,FALSE,FALSE,FALSE,83,7.944,1777,2138,7.984,FALSE,3.991,3.953,0.038,FALSE,FALSE,NA,102,102,102,0,1,0,0,5,2430.1,607.53,,Idle,0,20,FALSE,5,TRUE,5,Go Home,FALSE,FALSE,FALSE,FALSE,FALSE,FALSE,FALSE,FALSE,FALSE,FALSE,FALSE,FALSE,6.974256066,79.91400944,2,142,328,TRUE,1,1,FALSE,FALSE,FALSE,FALSE,,TRUE,FALSE,FALSE,Course Lock,246,,16.4,Calm,25,,1.12.8,Mavic Mini,1SDCH7G0169R0K,1SFLH6Q0AB03DJ,1SRCH7F014TAHX,1U5X071EXP6C9Y,117.7,0.3,16.4,5.279402,3.35541,0,0,Mavic Mini,1SDCH7G0169R0K,1SFLH6Q0AB03DJ,1SRCH7F014TAHX,1U5X071EXP6C9Y,DJI Fly,,1.12.8,045274C5-5EA7-3BBC-C14C-DF52045E3FF6,1SDCH7G0169R0K,,,,,,,,,
2/14/2024,13:58.9,3m 8.6s,188.6,6.974254493,79.91401497,0,0,0.3,50,0.2,0,0,0,0,0,0,0,0,-2.3,-0.7,-44.9,315.1,,Manual Takeoff,Other,Takeoff (RC Assisted),15,5,TRUE,,Mavic Mini,TRUE,FALSE,,Smart,RC,TRUE,TRUE,FALSE,,,TRUE,,FALSE,FALSE,FALSE,FALSE,FALSE,FALSE,FALSE,FALSE,FALSE,FALSE,0,Follow Yaw,-4.2,0,-33.9,326.1,FALSE,FALSE,FALSE,FALSE,FALSE,FALSE,,TRUE,Normal,,100,1024,1024,1024,1024,2,FALSE,FALSE,FALSE,FALSE,FALSE,0,FALSE,FALSE,FALSE,FALSE,83,7.944,1777,2138,7.98,FALSE,3.991,3.953,0.038,FALSE,FALSE,NA,102,102,102,0,2,0,0,5,2449.1,612.29,,Idle,0,20,FALSE,5,TRUE,5,Go Home,FALSE,FALSE,FALSE,FALSE,FALSE,FALSE,FALSE,FALSE,FALSE,FALSE,FALSE,FALSE,6.974256066,79.91400944,2,142,328,TRUE,1,1,FALSE,FALSE,FALSE,FALSE,,TRUE,FALSE,FALSE,Course Lock,246,,16.4,Calm,25,,1.12.8,Mavic Mini,1SDCH7G0169R0K,1SFLH6Q0AB03DJ,1SRCH7F014TAHX,1U5X071EXP6C9Y,117.7,0.3,16.4,5.279402,3.35541,0,0,Mavic Mini,1SDCH7G0169R0K,1SFLH6Q0AB03DJ,1SRCH7F014TAHX,1U5X071EXP6C9Y,DJI Fly,,1.12.8,045274C5-5EA7-3BBC-C14C-DF52045E3FF6,1SDCH7G0169R0K,,,,,,,,,
2/14/2024,13:59.0,3m 8.7s,188.7,6.974254504,79.91401503,0,0,0.3,50,0.2,0,0,0,0,0,0,0,0,-2.3,-0.7,-44.9,315.1,,Manual Takeoff,Other,Takeoff (RC Assisted),15,5,TRUE,,Mavic Mini,TRUE,FALSE,,Smart,RC,TRUE,TRUE,FALSE,,,TRUE,,FALSE,FALSE,FALSE,FALSE,FALSE,FALSE,FALSE,FALSE,FALSE,FALSE,0,Follow Yaw,-4.2,0,-33.9,326.1,FALSE,FALSE,FALSE,FALSE,FALSE,FALSE,,TRUE,Normal,,100,1024,1024,1024,1024,2,FALSE,FALSE,FALSE,FALSE,FALSE,0,FALSE,FALSE,FALSE,FALSE,83,7.944,1777,2138,7.98,FALSE,3.991,3.953,0.038,FALSE,FALSE,NA,102,102,102,0,2,0,0,5,2449.1,612.29,,Idle,0,20,FALSE,5,TRUE,5,Go Home,FALSE,FALSE,FALSE,FALSE,FALSE,FALSE,FALSE,FALSE,FALSE,FALSE,FALSE,FALSE,6.974256066,79.91400944,2.1,142,328,TRUE,1,1,FALSE,FALSE,FALSE,FALSE,,TRUE,FALSE,FALSE,Course Lock,246,,16.4,Calm,25,,1.12.8,Mavic Mini,1SDCH7G0169R0K,1SFLH6Q0AB03DJ,1SRCH7F014TAHX,1U5X071EXP6C9Y,117.7,0.3,16.4,5.279402,3.35541,0,0,Mavic Mini,1SDCH7G0169R0K,1SFLH6Q0AB03DJ,1SRCH7F014TAHX,1U5X071EXP6C9Y,DJI Fly,,1.12.8,045274C5-5EA7-3BBC-C14C-DF52045E3FF6,1SDCH7G0169R0K,,,,,,,,,
2/14/2024,13:59.1,3m 8.8s,188.8,6.974254507,79.91401506,0,0,0.3,50,0.2,0,0,0,0,0,0,0,0,-2.2,-0.7,-44.9,315.1,,Manual Takeoff,Other,Takeoff (RC Assisted),15,5,TRUE,,Mavic Mini,TRUE,FALSE,,Smart,RC,TRUE,TRUE,FALSE,,,TRUE,,FALSE,FALSE,FALSE,FALSE,FALSE,FALSE,FALSE,FALSE,FALSE,FALSE,0,Follow Yaw,-4.2,0,-33.9,326.1,FALSE,FALSE,FALSE,FALSE,FALSE,FALSE,,TRUE,Normal,,100,1024,1024,1024,1024,2,FALSE,FALSE,FALSE,FALSE,FALSE,0,FALSE,FALSE,FALSE,FALSE,83,7.944,1777,2138,7.98,FALSE,3.991,3.953,0.038,FALSE,FALSE,NA,102,102,102,0,2,0,0,5,2449.1,612.29,,Idle,0,20,FALSE,5,TRUE,5,Go Home,FALSE,FALSE,FALSE,FALSE,FALSE,FALSE,FALSE,FALSE,FALSE,FALSE,FALSE,FALSE,6.974256066,79.91400944,2.1,142,328,TRUE,1,1,FALSE,FALSE,FALSE,FALSE,,TRUE,FALSE,FALSE,Course Lock,246,,16.4,Calm,25,,1.12.8,Mavic Mini,1SDCH7G0169R0K,1SFLH6Q0AB03DJ,1SRCH7F014TAHX,1U5X071EXP6C9Y,117.7,0.3,16.4,5.279402,3.35541,0,0,Mavic Mini,1SDCH7G0169R0K,1SFLH6Q0AB03DJ,1SRCH7F014TAHX,1U5X071EXP6C9Y,DJI Fly,,1.12.8,045274C5-5EA7-3BBC-C14C-DF52045E3FF6,1SDCH7G0169R0K,,,,,,,,,
2/14/2024,13:59.2,3m 8.9s,188.9,6.974254491,79.91401507,0,0,0.3,50,0.2,0,0,0,0,0,0,0,0,-2.2,-0.7,-44.9,315.1,,Manual Takeoff,Other,Takeoff (RC Assisted),15,5,TRUE,,Mavic Mini,TRUE,FALSE,,Smart,RC,TRUE,TRUE,FALSE,,,TRUE,,FALSE,FALSE,FALSE,FALSE,FALSE,FALSE,FALSE,FALSE,FALSE,FALSE,0,Follow Yaw,-4.2,0,-33.9,326.1,FALSE,FALSE,FALSE,FALSE,FALSE,FALSE,,TRUE,Normal,,100,1024,1024,1024,1024,2,FALSE,FALSE,FALSE,FALSE,FALSE,0,FALSE,FALSE,FALSE,FALSE,83,7.944,1777,2138,7.98,FALSE,3.991,3.953,0.038,FALSE,FALSE,NA,102,102,102,0,2,0,0,5,2449.1,612.29,,Idle,0,20,FALSE,5,TRUE,5,Go Home,FALSE,FALSE,FALSE,FALSE,FALSE,FALSE,FALSE,FALSE,FALSE,FALSE,FALSE,FALSE,6.974256066,79.91400944,2.1,142,328,TRUE,1,1,FALSE,FALSE,FALSE,FALSE,,TRUE,FALSE,FALSE,Course Lock,246,,16.4,Calm,25,,1.12.8,Mavic Mini,1SDCH7G0169R0K,1SFLH6Q0AB03DJ,1SRCH7F014TAHX,1U5X071EXP6C9Y,117.7,0.3,16.4,5.279402,3.35541,0,0,Mavic Mini,1SDCH7G0169R0K,1SFLH6Q0AB03DJ,1SRCH7F014TAHX,1U5X071EXP6C9Y,DJI Fly,,1.12.8,045274C5-5EA7-3BBC-C14C-DF52045E3FF6,1SDCH7G0169R0K,,,,,,,,,
2/14/2024,13:59.3,3m 9.0s,189,6.974254487,79.9140151,0,0,0.3,50,0.2,0,0,0,0,0,0,0,0,-2.3,-0.7,-44.9,315.1,,Manual Takeoff,Other,Takeoff (RC Assisted),15,5,TRUE,,Mavic Mini,TRUE,FALSE,,Smart,RC,TRUE,TRUE,FALSE,,,TRUE,,FALSE,FALSE,FALSE,FALSE,FALSE,FALSE,FALSE,FALSE,FALSE,FALSE,0,Follow Yaw,-4.2,0,-33.9,326.1,FALSE,FALSE,FALSE,FALSE,FALSE,FALSE,,TRUE,Normal,,100,1024,1024,1024,1024,2,FALSE,FALSE,FALSE,FALSE,FALSE,0,FALSE,FALSE,FALSE,FALSE,83,7.944,1777,2138,7.98,FALSE,3.991,3.953,0.038,FALSE,FALSE,NA,102,102,102,0,2,0,0,5,2449.1,612.29,,Idle,0,20,FALSE,5,TRUE,5,Go Home,FALSE,FALSE,FALSE,FALSE,FALSE,FALSE,FALSE,FALSE,FALSE,FALSE,FALSE,FALSE,6.974256066,79.91400944,2.1,142,328,TRUE,1,1,FALSE,FALSE,FALSE,FALSE,,TRUE,FALSE,FALSE,Course Lock,246,,16.4,Calm,25,,1.12.8,Mavic Mini,1SDCH7G0169R0K,1SFLH6Q0AB03DJ,1SRCH7F014TAHX,1U5X071EXP6C9Y,117.7,0.3,16.4,5.279402,3.35541,0,0,Mavic Mini,1SDCH7G0169R0K,1SFLH6Q0AB03DJ,1SRCH7F014TAHX,1U5X071EXP6C9Y,DJI Fly,,1.12.8,045274C5-5EA7-3BBC-C14C-DF52045E3FF6,1SDCH7G0169R0K,,,,,,,,,
2/14/2024,13:59.5,3m 9.1s,189.1,6.974254481,79.91401514,0,0,0.3,50,0.2,0,0,0,0,0,0,0,0,-2.3,-0.7,-44.9,315.1,,Manual Takeoff,Other,Takeoff (RC Assisted),15,5,TRUE,,Mavic Mini,TRUE,FALSE,,Smart,RC,TRUE,TRUE,FALSE,,,TRUE,,FALSE,FALSE,FALSE,FALSE,FALSE,FALSE,FALSE,FALSE,FALSE,FALSE,0,Follow Yaw,-4.2,0,-33.9,326.1,FALSE,FALSE,FALSE,FALSE,FALSE,FALSE,,TRUE,Normal,,100,1024,1024,1024,1024,2,FALSE,FALSE,FALSE,FALSE,FALSE,0,FALSE,FALSE,FALSE,FALSE,83,7.978,1777,2138,7.98,FALSE,3.992,3.986,0.038,FALSE,FALSE,NA,102,102,102,0,2,0,0,5,2449.1,612.29,,Idle,0,20,FALSE,5,TRUE,5,Go Home,FALSE,FALSE,FALSE,FALSE,FALSE,FALSE,FALSE,FALSE,FALSE,FALSE,FALSE,FALSE,6.974256066,79.91400944,2.1,142,328,TRUE,1,1,FALSE,FALSE,FALSE,FALSE,,TRUE,FALSE,FALSE,Course Lock,246,,16.4,Calm,25,,1.12.8,Mavic Mini,1SDCH7G0169R0K,1SFLH6Q0AB03DJ,1SRCH7F014TAHX,1U5X071EXP6C9Y,117.7,0.3,16.4,5.279402,3.35541,0,0,Mavic Mini,1SDCH7G0169R0K,1SFLH6Q0AB03DJ,1SRCH7F014TAHX,1U5X071EXP6C9Y,DJI Fly,,1.12.8,045274C5-5EA7-3BBC-C14C-DF52045E3FF6,1SDCH7G0169R0K,,,,,6.974226069,79.91401208,5,,
2/14/2024,13:59.6,3m 9.2s,189.2,6.974254509,79.91401516,0,0,0.3,50,0.2,0,0,0,0,0,0,0,0,-2.3,-0.7,-44.9,315.1,,Manual Takeoff,Other,Takeoff (RC Assisted),15,5,TRUE,,Mavic Mini,TRUE,FALSE,,Smart,RC,TRUE,TRUE,FALSE,,,TRUE,,FALSE,FALSE,FALSE,FALSE,FALSE,FALSE,FALSE,FALSE,FALSE,FALSE,0,Follow Yaw,-4.2,0,-33.9,326.1,FALSE,FALSE,FALSE,FALSE,FALSE,FALSE,,TRUE,Normal,,100,1024,1024,1024,1024,2,FALSE,FALSE,FALSE,FALSE,FALSE,0,FALSE,FALSE,FALSE,FALSE,83,7.978,1777,2138,7.98,FALSE,3.992,3.986,0.038,FALSE,FALSE,NA,102,102,102,0,2,0,0,5,2449.1,612.29,,Idle,0,20,FALSE,5,TRUE,5,Go Home,FALSE,FALSE,FALSE,FALSE,FALSE,FALSE,FALSE,FALSE,FALSE,FALSE,FALSE,FALSE,6.974256066,79.91400944,2.1,142,328,TRUE,1,1,FALSE,FALSE,FALSE,FALSE,,TRUE,FALSE,FALSE,Course Lock,246,,16.4,Calm,25,,1.12.8,Mavic Mini,1SDCH7G0169R0K,1SFLH6Q0AB03DJ,1SRCH7F014TAHX,1U5X071EXP6C9Y,117.7,0.3,16.4,5.279402,3.35541,0,0,Mavic Mini,1SDCH7G0169R0K,1SFLH6Q0AB03DJ,1SRCH7F014TAHX,1U5X071EXP6C9Y,DJI Fly,,1.12.8,045274C5-5EA7-3BBC-C14C-DF52045E3FF6,1SDCH7G0169R0K,,,,,6.974226069,79.91401208,5,,
2/14/2024,13:59.7,3m 9.3s,189.3,6.974254611,79.91401513,0,0,0.3,50,0.3,0,0,0,0,0,0,0,0,-2.3,-0.7,-44.9,315.1,,Manual Takeoff,Other,Takeoff (RC Assisted),15,5,TRUE,,Mavic Mini,TRUE,FALSE,,Smart,RC,TRUE,TRUE,FALSE,,,TRUE,,FALSE,FALSE,FALSE,FALSE,FALSE,FALSE,FALSE,FALSE,FALSE,FALSE,0,Follow Yaw,-4.2,0,-33.9,326.1,FALSE,FALSE,FALSE,FALSE,FALSE,FALSE,,TRUE,Normal,,100,1024,1024,1024,1024,2,FALSE,FALSE,FALSE,FALSE,FALSE,0,FALSE,FALSE,FALSE,FALSE,83,7.978,1777,2138,7.98,FALSE,3.992,3.986,0.038,FALSE,FALSE,NA,102,102,102,0,2,0,0,5,2449.1,612.29,,Idle,0,20,FALSE,5,TRUE,5,Go Home,FALSE,FALSE,FALSE,FALSE,FALSE,FALSE,FALSE,FALSE,FALSE,FALSE,FALSE,FALSE,6.974256066,79.91400944,2.1,142,328,TRUE,1,1,FALSE,FALSE,FALSE,FALSE,,TRUE,FALSE,FALSE,Course Lock,246,,16.4,Calm,25,,1.12.8,Mavic Mini,1SDCH7G0169R0K,1SFLH6Q0AB03DJ,1SRCH7F014TAHX,1U5X071EXP6C9Y,117.7,0.3,16.4,5.279402,3.35541,0,0,Mavic Mini,1SDCH7G0169R0K,1SFLH6Q0AB03DJ,1SRCH7F014TAHX,1U5X071EXP6C9Y,DJI Fly,,1.12.8,045274C5-5EA7-3BBC-C14C-DF52045E3FF6,1SDCH7G0169R0K,,,,,6.974226069,79.91401208,5,,
2/14/2024,13:59.8,3m 9.4s,189.4,6.974254633,79.91401516,0,0,0.3,50,0.3,0,0,0,0,0,0,0,0,-2.3,-0.6,-44.9,315.1,,Manual Takeoff,Other,Takeoff (RC Assisted),15,5,TRUE,,Mavic Mini,TRUE,FALSE,,Smart,RC,TRUE,TRUE,FALSE,,,TRUE,,FALSE,FALSE,FALSE,FALSE,FALSE,FALSE,FALSE,FALSE,FALSE,FALSE,0,Follow Yaw,-4.2,0,-33.9,326.1,FALSE,FALSE,FALSE,FALSE,FALSE,FALSE,,TRUE,Normal,,100,1024,1024,1024,1024,2,FALSE,FALSE,FALSE,FALSE,FALSE,0,FALSE,FALSE,FALSE,FALSE,83,7.978,1777,2138,7.98,FALSE,3.992,3.986,0.038,FALSE,FALSE,NA,102,102,102,0,2,0,0,5,2449.1,612.29,,Idle,0,20,FALSE,5,TRUE,5,Go Home,FALSE,FALSE,FALSE,FALSE,FALSE,FALSE,FALSE,FALSE,FALSE,FALSE,FALSE,FALSE,6.974256066,79.91400944,2.1,142,328,TRUE,1,1,FALSE,FALSE,FALSE,FALSE,,TRUE,FALSE,FALSE,Course Lock,246,,16.4,Calm,25,,1.12.8,Mavic Mini,1SDCH7G0169R0K,1SFLH6Q0AB03DJ,1SRCH7F014TAHX,1U5X071EXP6C9Y,117.7,0.3,16.4,5.279402,3.35541,0,0,Mavic Mini,1SDCH7G0169R0K,1SFLH6Q0AB03DJ,1SRCH7F014TAHX,1U5X071EXP6C9Y,DJI Fly,,1.12.8,045274C5-5EA7-3BBC-C14C-DF52045E3FF6,1SDCH7G0169R0K,,,,,6.974226069,79.91401208,5,,
2/14/2024,13:59.9,3m 9.5s,189.5,6.974254644,79.9140152,0,0,0.3,50,0.3,0,0,0,0,0,0,0,0,-2.3,-0.7,-44.9,315.1,,Manual Takeoff,Other,Takeoff (RC Assisted),15,5,TRUE,,Mavic Mini,TRUE,FALSE,,Smart,RC,TRUE,TRUE,FALSE,,,TRUE,,FALSE,FALSE,FALSE,FALSE,FALSE,FALSE,FALSE,FALSE,FALSE,FALSE,0,Follow Yaw,-4.2,0,-33.9,326.1,FALSE,FALSE,FALSE,FALSE,FALSE,FALSE,,TRUE,Normal,,100,1024,1024,1024,1024,2,FALSE,FALSE,FALSE,FALSE,FALSE,0,FALSE,FALSE,FALSE,FALSE,83,7.978,1777,2138,7.98,FALSE,3.992,3.986,0.038,FALSE,FALSE,NA,102,102,102,0,2,0,0,5,2449.1,612.29,,Idle,0,20,FALSE,5,TRUE,5,Go Home,FALSE,FALSE,FALSE,FALSE,FALSE,FALSE,FALSE,FALSE,FALSE,FALSE,FALSE,FALSE,6.974256066,79.91400944,2.1,142,328,TRUE,1,1,FALSE,FALSE,FALSE,FALSE,,TRUE,FALSE,FALSE,Course Lock,246,,16.4,Calm,25,,1.12.8,Mavic Mini,1SDCH7G0169R0K,1SFLH6Q0AB03DJ,1SRCH7F014TAHX,1U5X071EXP6C9Y,117.7,0.3,16.4,5.279402,3.35541,0,0,Mavic Mini,1SDCH7G0169R0K,1SFLH6Q0AB03DJ,1SRCH7F014TAHX,1U5X071EXP6C9Y,DJI Fly,,1.12.8,045274C5-5EA7-3BBC-C14C-DF52045E3FF6,1SDCH7G0169R0K,,,,,6.974226069,79.91401208,5,,
2/14/2024,14:00.0,3m 9.6s,189.6,6.974254645,79.91401522,0,0,0.3,50,0.3,0,0,0,0,0,0,0,0,-2.3,-0.7,-44.9,315.1,,Manual Takeoff,Other,Takeoff (RC Assisted),15,5,TRUE,,Mavic Mini,TRUE,FALSE,,Smart,RC,TRUE,TRUE,FALSE,,,TRUE,,FALSE,FALSE,FALSE,FALSE,FALSE,FALSE,FALSE,FALSE,FALSE,FALSE,0,Follow Yaw,-4.2,0,-33.9,326.1,FALSE,FALSE,FALSE,FALSE,FALSE,FALSE,,TRUE,Normal,,100,1024,1024,1024,1024,2,FALSE,FALSE,FALSE,FALSE,FALSE,0,FALSE,FALSE,FALSE,FALSE,83,7.978,1777,2138,7.977,FALSE,3.992,3.986,0.038,FALSE,FALSE,NA,102,102,102,0,2,0,0,5,2525.7,631.44,,Idle,0,20,FALSE,5,TRUE,5,Go Home,FALSE,FALSE,FALSE,FALSE,FALSE,FALSE,FALSE,FALSE,FALSE,FALSE,FALSE,FALSE,6.974256066,79.91400944,2.1,142,328,TRUE,1,1,FALSE,FALSE,FALSE,FALSE,,TRUE,FALSE,FALSE,Course Lock,246,,16.4,Calm,25,,1.12.8,Mavic Mini,1SDCH7G0169R0K,1SFLH6Q0AB03DJ,1SRCH7F014TAHX,1U5X071EXP6C9Y,117.7,0.3,16.4,5.279402,3.35541,0,0,Mavic Mini,1SDCH7G0169R0K,1SFLH6Q0AB03DJ,1SRCH7F014TAHX,1U5X071EXP6C9Y,DJI Fly,,1.12.8,045274C5-5EA7-3BBC-C14C-DF52045E3FF6,1SDCH7G0169R0K,,,,,6.974226069,79.91401208,5,,
2/14/2024,14:00.1,3m 9.7s,189.7,6.974254614,79.91401522,0,0,0.3,50,0.3,0,0,0,0,0,0,0,0,-2.3,-0.6,-44.9,315.1,,Manual Takeoff,Other,Takeoff (RC Assisted),15,5,TRUE,,Mavic Mini,TRUE,FALSE,,Smart,RC,TRUE,TRUE,FALSE,,,TRUE,,FALSE,FALSE,FALSE,FALSE,FALSE,FALSE,FALSE,FALSE,FALSE,FALSE,0,Follow Yaw,-4.2,0,-33.9,326.1,FALSE,FALSE,FALSE,FALSE,FALSE,FALSE,,TRUE,Normal,,100,1024,1024,1024,1024,2,FALSE,FALSE,FALSE,FALSE,FALSE,0,FALSE,FALSE,FALSE,FALSE,83,7.978,1777,2138,7.977,FALSE,3.992,3.986,0.038,FALSE,FALSE,NA,102,102,102,0,2,0,0,5,2525.7,631.44,,Idle,0,20,FALSE,5,TRUE,5,Go Home,FALSE,FALSE,FALSE,FALSE,FALSE,FALSE,FALSE,FALSE,FALSE,FALSE,FALSE,FALSE,6.974256066,79.91400944,2.1,142,328,TRUE,1,1,FALSE,FALSE,FALSE,FALSE,,TRUE,FALSE,FALSE,Course Lock,246,,16.4,Calm,25,,1.12.8,Mavic Mini,1SDCH7G0169R0K,1SFLH6Q0AB03DJ,1SRCH7F014TAHX,1U5X071EXP6C9Y,117.7,0.3,16.4,5.279402,3.35541,0,0,Mavic Mini,1SDCH7G0169R0K,1SFLH6Q0AB03DJ,1SRCH7F014TAHX,1U5X071EXP6C9Y,DJI Fly,,1.12.8,045274C5-5EA7-3BBC-C14C-DF52045E3FF6,1SDCH7G0169R0K,,,,,6.974226069,79.91401208,5,,
2/14/2024,14:00.2,3m 9.8s,189.8,6.97425464,79.91401525,0,0,0.3,50,0.3,0,0,0,0,0,0,0,0,-2.3,-0.7,-44.9,315.1,,Manual Takeoff,Other,Takeoff (RC Assisted),15,5,TRUE,,Mavic Mini,TRUE,FALSE,,Smart,RC,TRUE,TRUE,FALSE,,,TRUE,,FALSE,FALSE,FALSE,FALSE,FALSE,FALSE,FALSE,FALSE,FALSE,FALSE,0,Follow Yaw,-4.2,0,-33.9,326.1,FALSE,FALSE,FALSE,FALSE,FALSE,FALSE,,TRUE,Normal,,100,1024,1024,1024,1024,2,FALSE,FALSE,FALSE,FALSE,FALSE,0,FALSE,FALSE,FALSE,FALSE,83,7.978,1777,2138,7.977,FALSE,3.992,3.986,0.038,FALSE,FALSE,NA,102,102,102,0,2,0,0,5,2525.7,631.44,,Idle,0,20,FALSE,5,TRUE,5,Go Home,FALSE,FALSE,FALSE,FALSE,FALSE,FALSE,FALSE,FALSE,FALSE,FALSE,FALSE,FALSE,6.974256066,79.91400944,2.1,142,328,TRUE,1,1,FALSE,FALSE,FALSE,FALSE,,TRUE,FALSE,FALSE,Course Lock,246,,16.4,Calm,25,,1.12.8,Mavic Mini,1SDCH7G0169R0K,1SFLH6Q0AB03DJ,1SRCH7F014TAHX,1U5X071EXP6C9Y,117.7,0.3,16.4,5.279402,3.35541,0,0,Mavic Mini,1SDCH7G0169R0K,1SFLH6Q0AB03DJ,1SRCH7F014TAHX,1U5X071EXP6C9Y,DJI Fly,,1.12.8,045274C5-5EA7-3BBC-C14C-DF52045E3FF6,1SDCH7G0169R0K,,,,,6.974226069,79.91401208,5,,
2/14/2024,14:00.2,3m 9.9s,189.9,6.974254684,79.9140153,0,0,0.3,50,0.4,0,0,0,0,0,0,0,0,-2.3,-0.7,-44.9,315.1,,Manual Takeoff,Other,Takeoff (RC Assisted),16,5,TRUE,,Mavic Mini,TRUE,FALSE,,Smart,RC,TRUE,TRUE,FALSE,,,TRUE,,FALSE,FALSE,FALSE,FALSE,FALSE,FALSE,FALSE,FALSE,FALSE,FALSE,0,Follow Yaw,-4.2,0,-33.9,326.1,FALSE,FALSE,FALSE,FALSE,FALSE,FALSE,,TRUE,Normal,,100,1024,1024,1024,1024,2,FALSE,FALSE,FALSE,FALSE,FALSE,0,FALSE,FALSE,FALSE,FALSE,83,7.978,1777,2138,7.977,FALSE,3.992,3.986,0.038,FALSE,FALSE,NA,102,102,102,0,2,0,0,5,2525.7,631.44,,Idle,0,20,FALSE,5,TRUE,5,Go Home,FALSE,FALSE,FALSE,FALSE,FALSE,FALSE,FALSE,FALSE,FALSE,FALSE,FALSE,FALSE,6.974256066,79.91400944,2.1,142,328,TRUE,1,1,FALSE,FALSE,FALSE,FALSE,,TRUE,FALSE,FALSE,Course Lock,246,,16.4,Calm,25,,1.12.8,Mavic Mini,1SDCH7G0169R0K,1SFLH6Q0AB03DJ,1SRCH7F014TAHX,1U5X071EXP6C9Y,117.7,0.3,16.4,5.279402,3.35541,0,0,Mavic Mini,1SDCH7G0169R0K,1SFLH6Q0AB03DJ,1SRCH7F014TAHX,1U5X071EXP6C9Y,DJI Fly,,1.12.8,045274C5-5EA7-3BBC-C14C-DF52045E3FF6,1SDCH7G0169R0K,,,,,6.974226069,79.91401208,5,,
2/14/2024,14:00.3,3m 10.0s,190,6.974254704,79.91401532,0,0,0.3,50,0.4,0,0,0,0,0,0,0,0,-2.3,-0.6,-44.9,315.1,,Manual Takeoff,Other,Takeoff (RC Assisted),16,5,TRUE,,Mavic Mini,TRUE,FALSE,,Smart,RC,TRUE,TRUE,FALSE,,,TRUE,,FALSE,FALSE,FALSE,FALSE,FALSE,FALSE,FALSE,FALSE,FALSE,FALSE,0,Follow Yaw,-4.2,0,-33.9,326.1,FALSE,FALSE,FALSE,FALSE,FALSE,FALSE,,TRUE,Normal,,100,1024,1024,1024,1024,2,FALSE,FALSE,FALSE,FALSE,FALSE,0,FALSE,FALSE,FALSE,FALSE,83,7.978,1777,2138,7.977,FALSE,3.992,3.986,0.038,FALSE,FALSE,NA,102,102,102,0,2,0,0,5,2525.7,631.44,,Idle,0,20,FALSE,5,TRUE,5,Go Home,FALSE,FALSE,FALSE,FALSE,FALSE,FALSE,FALSE,FALSE,FALSE,FALSE,FALSE,FALSE,6.974256066,79.91400944,2.1,142,328,TRUE,1,1,FALSE,FALSE,FALSE,FALSE,,TRUE,FALSE,FALSE,Course Lock,246,,16.4,Calm,25,,1.12.8,Mavic Mini,1SDCH7G0169R0K,1SFLH6Q0AB03DJ,1SRCH7F014TAHX,1U5X071EXP6C9Y,117.7,0.3,16.4,5.279402,3.35541,0,0,Mavic Mini,1SDCH7G0169R0K,1SFLH6Q0AB03DJ,1SRCH7F014TAHX,1U5X071EXP6C9Y,DJI Fly,,1.12.8,045274C5-5EA7-3BBC-C14C-DF52045E3FF6,1SDCH7G0169R0K,,,,,6.974226069,79.91401208,5,,
2/14/2024,14:00.4,3m 10.1s,190.1,6.974254754,79.91401532,0,0,0.3,50,0.4,0,0,0,0,0,0,0,0,-2.3,-0.6,-44.9,315.1,,Manual Takeoff,Other,Takeoff (RC Assisted),16,5,TRUE,,Mavic Mini,TRUE,FALSE,,Smart,RC,TRUE,TRUE,FALSE,,,TRUE,,FALSE,FALSE,FALSE,FALSE,FALSE,FALSE,FALSE,FALSE,FALSE,FALSE,0,Follow Yaw,-4.2,0,-33.9,326.1,FALSE,FALSE,FALSE,FALSE,FALSE,FALSE,,TRUE,Normal,,100,1024,1024,1024,1024,2,FALSE,FALSE,FALSE,FALSE,FALSE,0,FALSE,FALSE,FALSE,FALSE,83,7.978,1777,2138,7.977,FALSE,3.992,3.986,0.038,FALSE,FALSE,NA,102,102,102,0,2,0,0,5,2525.7,631.44,,Idle,0,20,FALSE,5,TRUE,5,Go Home,FALSE,FALSE,FALSE,FALSE,FALSE,FALSE,FALSE,FALSE,FALSE,FALSE,FALSE,FALSE,6.974256066,79.91400944,2.1,142,328,TRUE,1,1,FALSE,FALSE,FALSE,FALSE,,TRUE,FALSE,FALSE,Course Lock,246,,16.4,Calm,25,,1.12.8,Mavic Mini,1SDCH7G0169R0K,1SFLH6Q0AB03DJ,1SRCH7F014TAHX,1U5X071EXP6C9Y,117.7,0.3,16.4,5.279402,3.35541,0,0,Mavic Mini,1SDCH7G0169R0K,1SFLH6Q0AB03DJ,1SRCH7F014TAHX,1U5X071EXP6C9Y,DJI Fly,,1.12.8,045274C5-5EA7-3BBC-C14C-DF52045E3FF6,1SDCH7G0169R0K,,,,,6.974226069,79.91401208,5,,
2/14/2024,14:00.5,3m 10.2s,190.2,6.974254754,79.91401536,0,0,0.3,50,0.4,0,0,0,0,0,0,0,0,-2.3,-0.7,-44.9,315.1,,Manual Takeoff,Other,Takeoff (RC Assisted),16,5,TRUE,,Mavic Mini,TRUE,FALSE,,Smart,RC,TRUE,TRUE,FALSE,,,TRUE,,FALSE,FALSE,FALSE,FALSE,FALSE,FALSE,FALSE,FALSE,FALSE,FALSE,0,Follow Yaw,-4.2,0,-33.8,326.2,FALSE,FALSE,FALSE,FALSE,FALSE,FALSE,,TRUE,Normal,,100,1024,1024,1024,1024,2,FALSE,FALSE,FALSE,FALSE,FALSE,0,FALSE,FALSE,FALSE,FALSE,83,7.98,1777,2138,7.977,FALSE,3.993,3.987,0.038,FALSE,FALSE,NA,102,102,102,0,2,0,0,5,2525.7,631.44,,Idle,0,20,FALSE,5,TRUE,5,Go Home,FALSE,FALSE,FALSE,FALSE,FALSE,FALSE,FALSE,FALSE,FALSE,FALSE,FALSE,FALSE,6.974256066,79.91400944,2.1,142,328,TRUE,1,1,FALSE,FALSE,FALSE,FALSE,,TRUE,FALSE,FALSE,Course Lock,246,,16.4,Calm,25,,1.12.8,Mavic Mini,1SDCH7G0169R0K,1SFLH6Q0AB03DJ,1SRCH7F014TAHX,1U5X071EXP6C9Y,117.7,0.3,16.4,5.279402,3.35541,0,0,Mavic Mini,1SDCH7G0169R0K,1SFLH6Q0AB03DJ,1SRCH7F014TAHX,1U5X071EXP6C9Y,DJI Fly,,1.12.8,045274C5-5EA7-3BBC-C14C-DF52045E3FF6,1SDCH7G0169R0K,,,,,6.974226069,79.91401208,5,,
2/14/2024,14:00.6,3m 10.3s,190.3,6.974254748,79.91401541,0,0,0.3,50,0.4,0,0,0,0,0,0,0,0,-2.3,-0.7,-44.8,315.2,,Manual Takeoff,Other,Takeoff (RC Assisted),16,5,TRUE,,Mavic Mini,TRUE,FALSE,,Smart,RC,TRUE,TRUE,FALSE,,,TRUE,,FALSE,FALSE,FALSE,FALSE,FALSE,FALSE,FALSE,FALSE,FALSE,FALSE,0,Follow Yaw,-4.2,0,-33.9,326.1,FALSE,FALSE,FALSE,FALSE,FALSE,FALSE,,TRUE,Normal,,100,1024,1024,1024,1024,2,FALSE,FALSE,FALSE,FALSE,FALSE,0,FALSE,FALSE,FALSE,FALSE,83,7.98,1777,2138,7.977,FALSE,3.993,3.987,0.038,FALSE,FALSE,NA,102,102,102,0,2,0,0,5,2525.7,631.44,,Idle,0,20,FALSE,5,TRUE,5,Go Home,FALSE,FALSE,FALSE,FALSE,FALSE,FALSE,FALSE,FALSE,FALSE,FALSE,FALSE,FALSE,6.974256066,79.91400944,2.2,142,328,TRUE,1,1,FALSE,FALSE,FALSE,FALSE,,TRUE,FALSE,FALSE,Course Lock,246,,16.4,Calm,25,,1.12.8,Mavic Mini,1SDCH7G0169R0K,1SFLH6Q0AB03DJ,1SRCH7F014TAHX,1U5X071EXP6C9Y,117.7,0.3,16.4,5.279402,3.35541,0,0,Mavic Mini,1SDCH7G0169R0K,1SFLH6Q0AB03DJ,1SRCH7F014TAHX,1U5X071EXP6C9Y,DJI Fly,,1.12.8,045274C5-5EA7-3BBC-C14C-DF52045E3FF6,1SDCH7G0169R0K,,,,,6.974226069,79.91401208,5,,
2/14/2024,14:00.7,3m 10.4s,190.4,6.974254741,79.91401543,0,0,0.3,50,0.4,0,0,0,0,0,0,0,0,-2.3,-0.7,-44.9,315.1,,Manual Takeoff,Other,Takeoff (RC Assisted),16,5,TRUE,,Mavic Mini,TRUE,FALSE,,Smart,RC,TRUE,TRUE,FALSE,,,TRUE,,FALSE,FALSE,FALSE,FALSE,FALSE,FALSE,FALSE,FALSE,FALSE,FALSE,0,Follow Yaw,-4.2,0,-33.9,326.1,FALSE,FALSE,FALSE,FALSE,FALSE,FALSE,,TRUE,Normal,,100,1024,1024,1024,1024,2,FALSE,FALSE,FALSE,FALSE,FALSE,0,FALSE,FALSE,FALSE,FALSE,83,7.98,1777,2138,7.977,FALSE,3.993,3.987,0.038,FALSE,FALSE,NA,102,102,102,0,2,0,0,5,2525.7,631.44,,Idle,0,20,FALSE,5,TRUE,5,Go Home,FALSE,FALSE,FALSE,FALSE,FALSE,FALSE,FALSE,FALSE,FALSE,FALSE,FALSE,FALSE,6.974256066,79.91400944,2.2,142,328,TRUE,1,1,FALSE,FALSE,FALSE,FALSE,,TRUE,FALSE,FALSE,Course Lock,246,,16.4,Calm,25,,1.12.8,Mavic Mini,1SDCH7G0169R0K,1SFLH6Q0AB03DJ,1SRCH7F014TAHX,1U5X071EXP6C9Y,117.7,0.3,16.4,5.279402,3.35541,0,0,Mavic Mini,1SDCH7G0169R0K,1SFLH6Q0AB03DJ,1SRCH7F014TAHX,1U5X071EXP6C9Y,DJI Fly,,1.12.8,045274C5-5EA7-3BBC-C14C-DF52045E3FF6,1SDCH7G0169R0K,,,,,6.974226069,79.91401208,5,,
2/14/2024,14:00.8,3m 10.5s,190.5,6.974254733,79.91401544,0,0,0.3,50,0.4,0,0,0,0,0,0,0,0,-2.3,-0.6,-44.9,315.1,,Manual Takeoff,Other,Takeoff (RC Assisted),16,5,TRUE,,Mavic Mini,TRUE,FALSE,,Smart,RC,TRUE,TRUE,FALSE,,,TRUE,,FALSE,FALSE,FALSE,FALSE,FALSE,FALSE,FALSE,FALSE,FALSE,FALSE,0,Follow Yaw,-4.2,0,-33.8,326.2,FALSE,FALSE,FALSE,FALSE,FALSE,FALSE,,TRUE,Normal,,100,1024,1024,1024,1024,2,FALSE,FALSE,FALSE,FALSE,FALSE,0,FALSE,FALSE,FALSE,FALSE,83,7.98,1777,2138,7.977,FALSE,3.993,3.987,0.038,FALSE,FALSE,NA,102,102,102,0,2,0,0,5,2525.7,631.44,,Idle,0,20,FALSE,5,TRUE,5,Go Home,FALSE,FALSE,FALSE,FALSE,FALSE,FALSE,FALSE,FALSE,FALSE,FALSE,FALSE,FALSE,6.974256066,79.91400944,2.2,142,328,TRUE,1,1,FALSE,FALSE,FALSE,FALSE,,TRUE,FALSE,FALSE,Course Lock,246,,16.4,Calm,25,,1.12.8,Mavic Mini,1SDCH7G0169R0K,1SFLH6Q0AB03DJ,1SRCH7F014TAHX,1U5X071EXP6C9Y,117.7,0.3,16.4,5.279402,3.35541,0,0,Mavic Mini,1SDCH7G0169R0K,1SFLH6Q0AB03DJ,1SRCH7F014TAHX,1U5X071EXP6C9Y,DJI Fly,,1.12.8,045274C5-5EA7-3BBC-C14C-DF52045E3FF6,1SDCH7G0169R0K,,,,,6.974226069,79.91401208,5,,
2/14/2024,14:01.0,3m 10.6s,190.6,6.974254709,79.91401546,0,0,0.3,50,0.5,0,0,0,0,0,0,0,0,-2.3,-0.7,-44.9,315.1,,Manual Takeoff,Other,Takeoff (RC Assisted),16,5,TRUE,,Mavic Mini,TRUE,FALSE,,Smart,RC,TRUE,TRUE,FALSE,,,TRUE,,FALSE,FALSE,FALSE,FALSE,FALSE,FALSE,FALSE,FALSE,FALSE,FALSE,0,Follow Yaw,-4.2,0,-33.8,326.2,FALSE,FALSE,FALSE,FALSE,FALSE,FALSE,,TRUE,Normal,,100,1024,1024,1024,1024,2,FALSE,FALSE,FALSE,FALSE,FALSE,0,FALSE,FALSE,FALSE,FALSE,83,7.98,1777,2138,7.982,FALSE,3.993,3.987,0.038,FALSE,FALSE,NA,102,102,102,0,2,0,0,5,2661.7,665.44,,Idle,0,20,FALSE,5,TRUE,5,Go Home,FALSE,FALSE,FALSE,FALSE,FALSE,FALSE,FALSE,FALSE,FALSE,FALSE,FALSE,FALSE,6.974256066,79.91400944,2.2,142,328,TRUE,1,1,FALSE,FALSE,FALSE,FALSE,,TRUE,FALSE,FALSE,Course Lock,246,,16.4,Calm,25,,1.12.8,Mavic Mini,1SDCH7G0169R0K,1SFLH6Q0AB03DJ,1SRCH7F014TAHX,1U5X071EXP6C9Y,117.7,0.3,16.4,5.279402,3.35541,0,0,Mavic Mini,1SDCH7G0169R0K,1SFLH6Q0AB03DJ,1SRCH7F014TAHX,1U5X071EXP6C9Y,DJI Fly,,1.12.8,045274C5-5EA7-3BBC-C14C-DF52045E3FF6,1SDCH7G0169R0K,,,,,6.974226069,79.91401208,5,,
2/14/2024,14:01.1,3m 10.7s,190.7,6.974254755,79.91401551,0,0,0.3,50,0.5,0,0,0,0,0,0,0,0,-2.3,-0.7,-44.8,315.2,,Manual Takeoff,Other,Takeoff (RC Assisted),16,5,TRUE,,Mavic Mini,TRUE,FALSE,,Smart,RC,TRUE,TRUE,FALSE,,,TRUE,,FALSE,FALSE,FALSE,FALSE,FALSE,FALSE,FALSE,FALSE,FALSE,FALSE,0,Follow Yaw,-4.2,0,-33.8,326.2,FALSE,FALSE,FALSE,FALSE,FALSE,FALSE,,TRUE,Normal,,100,1024,1024,1024,1024,2,FALSE,FALSE,FALSE,FALSE,FALSE,0,FALSE,FALSE,FALSE,FALSE,83,7.98,1777,2138,7.982,FALSE,3.993,3.987,0.038,FALSE,FALSE,NA,102,102,102,0,2,0,0,5,2661.7,665.44,,Idle,0,20,FALSE,5,TRUE,5,Go Home,FALSE,FALSE,FALSE,FALSE,FALSE,FALSE,FALSE,FALSE,FALSE,FALSE,FALSE,FALSE,6.974256066,79.91400944,2.2,142,328,TRUE,1,1,FALSE,FALSE,FALSE,FALSE,,TRUE,FALSE,FALSE,Course Lock,246,,16.4,Calm,25,,1.12.8,Mavic Mini,1SDCH7G0169R0K,1SFLH6Q0AB03DJ,1SRCH7F014TAHX,1U5X071EXP6C9Y,117.7,0.3,16.4,5.279402,3.35541,0,0,Mavic Mini,1SDCH7G0169R0K,1SFLH6Q0AB03DJ,1SRCH7F014TAHX,1U5X071EXP6C9Y,DJI Fly,,1.12.8,045274C5-5EA7-3BBC-C14C-DF52045E3FF6,1SDCH7G0169R0K,,,,,6.974226069,79.91401208,5,,
2/14/2024,14:01.2,3m 10.8s,190.8,6.97425478,79.91401556,0,0,0.3,50,0.5,0,0,0,0,0,0,0,0,-2.3,-0.7,-44.9,315.1,,Manual Takeoff,Other,Takeoff (RC Assisted),16,5,TRUE,,Mavic Mini,TRUE,FALSE,,Smart,RC,TRUE,TRUE,FALSE,,,TRUE,,FALSE,FALSE,FALSE,FALSE,FALSE,FALSE,FALSE,FALSE,FALSE,FALSE,0,Follow Yaw,-4.2,0,-33.8,326.2,FALSE,FALSE,FALSE,FALSE,FALSE,FALSE,,TRUE,Normal,,100,1024,1024,1024,1024,2,FALSE,FALSE,FALSE,FALSE,FALSE,0,FALSE,FALSE,FALSE,FALSE,83,7.98,1777,2138,7.982,FALSE,3.993,3.987,0.038,FALSE,FALSE,NA,102,102,102,0,2,0,0,5,2661.7,665.44,,Idle,0,20,FALSE,5,TRUE,5,Go Home,FALSE,FALSE,FALSE,FALSE,FALSE,FALSE,FALSE,FALSE,FALSE,FALSE,FALSE,FALSE,6.974256066,79.91400944,2.2,142,328,TRUE,1,1,FALSE,FALSE,FALSE,FALSE,,TRUE,FALSE,FALSE,Course Lock,246,,16.4,Calm,25,,1.12.8,Mavic Mini,1SDCH7G0169R0K,1SFLH6Q0AB03DJ,1SRCH7F014TAHX,1U5X071EXP6C9Y,117.7,0.3,16.4,5.279402,3.35541,0,0,Mavic Mini,1SDCH7G0169R0K,1SFLH6Q0AB03DJ,1SRCH7F014TAHX,1U5X071EXP6C9Y,DJI Fly,,1.12.8,045274C5-5EA7-3BBC-C14C-DF52045E3FF6,1SDCH7G0169R0K,,,,,6.974226069,79.91401208,5,,
2/14/2024,14:01.2,3m 10.9s,190.9,6.974254794,79.91401562,0,0,0.3,50,0.5,0,0,0,0,0,0,0,0,-2.3,-0.7,-44.9,315.1,,Manual Takeoff,Other,Takeoff (RC Assisted),16,5,TRUE,,Mavic Mini,TRUE,FALSE,,Smart,RC,TRUE,TRUE,FALSE,,,TRUE,,FALSE,FALSE,FALSE,FALSE,FALSE,FALSE,FALSE,FALSE,FALSE,FALSE,0,Follow Yaw,-4.2,0,-33.8,326.2,FALSE,FALSE,FALSE,FALSE,FALSE,FALSE,,TRUE,Normal,,100,1024,1024,1024,1024,2,FALSE,FALSE,FALSE,FALSE,FALSE,0,FALSE,FALSE,FALSE,FALSE,83,7.98,1777,2138,7.982,FALSE,3.993,3.987,0.038,FALSE,FALSE,NA,102,102,102,0,2,0,0,5,2661.7,665.44,,Idle,0,20,FALSE,5,TRUE,5,Go Home,FALSE,FALSE,FALSE,FALSE,FALSE,FALSE,FALSE,FALSE,FALSE,FALSE,FALSE,FALSE,6.974256066,79.91400944,2.2,142,328,TRUE,1,1,FALSE,FALSE,FALSE,FALSE,,TRUE,FALSE,FALSE,Course Lock,246,,16.4,Calm,25,,1.12.8,Mavic Mini,1SDCH7G0169R0K,1SFLH6Q0AB03DJ,1SRCH7F014TAHX,1U5X071EXP6C9Y,117.7,0.3,16.4,5.279402,3.35541,0,0,Mavic Mini,1SDCH7G0169R0K,1SFLH6Q0AB03DJ,1SRCH7F014TAHX,1U5X071EXP6C9Y,DJI Fly,,1.12.8,045274C5-5EA7-3BBC-C14C-DF52045E3FF6,1SDCH7G0169R0K,,,,,6.974226069,79.91401208,5,,
2/14/2024,14:01.4,3m 11.0s,191,6.974254824,79.91401565,0,0,0.3,50,0.5,0,0,0,0,0,0,0,0,-2.3,-0.7,-44.8,315.2,,Manual Takeoff,Other,Takeoff (RC Assisted),16,5,TRUE,,Mavic Mini,TRUE,FALSE,,Smart,RC,TRUE,TRUE,FALSE,,,TRUE,,FALSE,FALSE,FALSE,FALSE,FALSE,FALSE,FALSE,FALSE,FALSE,FALSE,0,Follow Yaw,-4.2,0,-33.8,326.2,FALSE,FALSE,FALSE,FALSE,FALSE,FALSE,,TRUE,Normal,,100,1024,1024,1024,1024,2,FALSE,FALSE,FALSE,FALSE,FALSE,0,FALSE,FALSE,FALSE,FALSE,83,7.98,1777,2138,7.982,FALSE,3.993,3.987,0.038,FALSE,FALSE,NA,102,102,102,0,2,0,0,5,2661.7,665.44,,Idle,0,20,FALSE,5,TRUE,5,Go Home,FALSE,FALSE,FALSE,FALSE,FALSE,FALSE,FALSE,FALSE,FALSE,FALSE,FALSE,FALSE,6.974256066,79.91400944,2.2,142,328,TRUE,1,1,FALSE,FALSE,FALSE,FALSE,,TRUE,FALSE,FALSE,Course Lock,246,,16.4,Calm,25,,1.12.8,Mavic Mini,1SDCH7G0169R0K,1SFLH6Q0AB03DJ,1SRCH7F014TAHX,1U5X071EXP6C9Y,117.7,0.3,16.4,5.279402,3.35541,0,0,Mavic Mini,1SDCH7G0169R0K,1SFLH6Q0AB03DJ,1SRCH7F014TAHX,1U5X071EXP6C9Y,DJI Fly,,1.12.8,045274C5-5EA7-3BBC-C14C-DF52045E3FF6,1SDCH7G0169R0K,,,,,6.974226069,79.91401208,5,,
2/14/2024,14:01.5,3m 11.1s,191.1,6.974254822,79.91401566,0,0,0.3,50,0.5,0,0,0,0,0,0,0,0,-2.3,-0.7,-44.8,315.2,,Manual Takeoff,Other,Takeoff (RC Assisted),16,5,TRUE,,Mavic Mini,TRUE,FALSE,,Smart,RC,TRUE,TRUE,FALSE,,,TRUE,,FALSE,FALSE,FALSE,FALSE,FALSE,FALSE,FALSE,FALSE,FALSE,FALSE,0,Follow Yaw,-4.2,0,-33.8,326.2,FALSE,FALSE,FALSE,FALSE,FALSE,FALSE,,TRUE,Normal,,100,1024,1024,1024,1024,2,FALSE,FALSE,FALSE,FALSE,FALSE,0,FALSE,FALSE,FALSE,FALSE,83,7.98,1777,2138,7.982,FALSE,3.993,3.987,0.038,FALSE,FALSE,NA,102,102,102,0,2,0,0,5,2661.7,665.44,,Idle,0,20,FALSE,5,TRUE,5,Go Home,FALSE,FALSE,FALSE,FALSE,FALSE,FALSE,FALSE,FALSE,FALSE,FALSE,FALSE,FALSE,6.974256066,79.91400944,2.2,142,328,TRUE,1,1,FALSE,FALSE,FALSE,FALSE,,TRUE,FALSE,FALSE,Course Lock,246,,16.4,Calm,25,,1.12.8,Mavic Mini,1SDCH7G0169R0K,1SFLH6Q0AB03DJ,1SRCH7F014TAHX,1U5X071EXP6C9Y,117.7,0.3,16.4,5.279402,3.35541,0,0,Mavic Mini,1SDCH7G0169R0K,1SFLH6Q0AB03DJ,1SRCH7F014TAHX,1U5X071EXP6C9Y,DJI Fly,,1.12.8,045274C5-5EA7-3BBC-C14C-DF52045E3FF6,1SDCH7G0169R0K,,,,,6.974226069,79.91401208,5,,
2/14/2024,14:01.6,3m 11.2s,191.2,6.974254854,79.91401565,0,0,0.3,50,0.6,0,0,0,0,0,0,0,0,-2.3,-0.7,-44.9,315.1,,Manual Takeoff,Other,Takeoff (RC Assisted),16,5,TRUE,,Mavic Mini,TRUE,FALSE,,Smart,RC,TRUE,TRUE,FALSE,,,TRUE,,FALSE,FALSE,FALSE,FALSE,FALSE,FALSE,FALSE,FALSE,FALSE,FALSE,0,Follow Yaw,-4.2,0,-33.8,326.2,FALSE,FALSE,FALSE,FALSE,FALSE,FALSE,,TRUE,Normal,,100,1024,1024,1024,1024,2,FALSE,FALSE,FALSE,FALSE,FALSE,0,FALSE,FALSE,FALSE,FALSE,83,7.98,1777,2138,7.982,FALSE,3.993,3.987,0.038,FALSE,FALSE,NA,102,102,102,0,2,0,0,5,2661.7,665.44,,Idle,0,20,FALSE,5,TRUE,5,Go Home,FALSE,FALSE,FALSE,FALSE,FALSE,FALSE,FALSE,FALSE,FALSE,FALSE,FALSE,FALSE,6.974256066,79.91400944,2.2,142,328,TRUE,1,1,FALSE,FALSE,FALSE,FALSE,,TRUE,FALSE,FALSE,Course Lock,246,,16.4,Calm,25,,1.12.8,Mavic Mini,1SDCH7G0169R0K,1SFLH6Q0AB03DJ,1SRCH7F014TAHX,1U5X071EXP6C9Y,117.7,0.3,16.4,5.279402,3.35541,0,0,Mavic Mini,1SDCH7G0169R0K,1SFLH6Q0AB03DJ,1SRCH7F014TAHX,1U5X071EXP6C9Y,DJI Fly,,1.12.8,045274C5-5EA7-3BBC-C14C-DF52045E3FF6,1SDCH7G0169R0K,,,,,6.974226069,79.91401208,5,,
2/14/2024,14:01.6,3m 11.3s,191.3,6.974254898,79.91401565,0,0,0.3,50,0.6,0,0,0,0,0,0,0,0,-2.3,-0.7,-44.8,315.2,,Manual Takeoff,Other,Takeoff (RC Assisted),16,5,TRUE,,Mavic Mini,TRUE,FALSE,,Smart,RC,TRUE,TRUE,FALSE,,,TRUE,,FALSE,FALSE,FALSE,FALSE,FALSE,FALSE,FALSE,FALSE,FALSE,FALSE,0,Follow Yaw,-4.2,0,-33.8,326.2,FALSE,FALSE,FALSE,FALSE,FALSE,FALSE,,TRUE,Normal,,100,1024,1024,1024,1024,2,FALSE,FALSE,FALSE,FALSE,FALSE,0,FALSE,FALSE,FALSE,FALSE,83,7.979,1776,2138,7.982,FALSE,3.992,3.987,0.038,FALSE,FALSE,NA,102,102,102,0,2,0,0,5,2661.7,665.44,,Idle,0,20,FALSE,5,TRUE,5,Go Home,FALSE,FALSE,FALSE,FALSE,FALSE,FALSE,FALSE,FALSE,FALSE,FALSE,FALSE,FALSE,6.974256066,79.91400944,2.2,142,328,TRUE,1,1,FALSE,FALSE,FALSE,FALSE,,TRUE,FALSE,FALSE,Course Lock,246,,16.4,Calm,25,,1.12.8,Mavic Mini,1SDCH7G0169R0K,1SFLH6Q0AB03DJ,1SRCH7F014TAHX,1U5X071EXP6C9Y,117.7,0.3,16.4,5.279402,3.35541,0,0,Mavic Mini,1SDCH7G0169R0K,1SFLH6Q0AB03DJ,1SRCH7F014TAHX,1U5X071EXP6C9Y,DJI Fly,,1.12.8,045274C5-5EA7-3BBC-C14C-DF52045E3FF6,1SDCH7G0169R0K,,,,,6.974226069,79.91401208,5,,
2/14/2024,14:01.7,3m 11.4s,191.4,6.974254959,79.91401565,0,0,0.3,50,0.6,0,0,0,0,0,0,0,0,-2.3,-0.7,-44.8,315.2,,Manual Takeoff,Other,Takeoff (RC Assisted),16,5,TRUE,,Mavic Mini,TRUE,FALSE,,Smart,RC,TRUE,TRUE,FALSE,,,TRUE,,FALSE,FALSE,FALSE,FALSE,FALSE,FALSE,FALSE,FALSE,FALSE,FALSE,0,Follow Yaw,-4.2,0,-33.8,326.2,FALSE,FALSE,FALSE,FALSE,FALSE,FALSE,,TRUE,Normal,,100,1024,1024,1024,1024,2,FALSE,FALSE,FALSE,FALSE,FALSE,0,FALSE,FALSE,FALSE,FALSE,83,7.979,1776,2138,7.982,FALSE,3.992,3.987,0.038,FALSE,FALSE,NA,102,102,102,0,2,0,0,5,2661.7,665.44,,Idle,0,20,FALSE,5,TRUE,5,Go Home,FALSE,FALSE,FALSE,FALSE,FALSE,FALSE,FALSE,FALSE,FALSE,FALSE,FALSE,FALSE,6.974256066,79.91400944,2.2,142,328,TRUE,1,1,FALSE,FALSE,FALSE,FALSE,,TRUE,FALSE,FALSE,Course Lock,246,,16.4,Calm,25,,1.12.8,Mavic Mini,1SDCH7G0169R0K,1SFLH6Q0AB03DJ,1SRCH7F014TAHX,1U5X071EXP6C9Y,117.7,0.3,16.4,5.279402,3.35541,0,0,Mavic Mini,1SDCH7G0169R0K,1SFLH6Q0AB03DJ,1SRCH7F014TAHX,1U5X071EXP6C9Y,DJI Fly,,1.12.8,045274C5-5EA7-3BBC-C14C-DF52045E3FF6,1SDCH7G0169R0K,,,,,6.974226069,79.91401208,5,,
2/14/2024,14:01.8,3m 11.5s,191.5,6.97425497,79.91401569,0,0,0.3,50,0.6,0,0,0,0,0,0,0,0,-2.3,-0.7,-44.9,315.1,,Manual Takeoff,Other,Takeoff (RC Assisted),16,5,TRUE,,Mavic Mini,TRUE,FALSE,,Smart,RC,TRUE,TRUE,FALSE,,,TRUE,,FALSE,FALSE,FALSE,FALSE,FALSE,FALSE,FALSE,FALSE,FALSE,FALSE,0,Follow Yaw,-4.2,0,-33.8,326.2,FALSE,FALSE,FALSE,FALSE,FALSE,FALSE,,TRUE,Normal,,100,1024,1024,1024,1024,2,FALSE,FALSE,FALSE,FALSE,FALSE,0,FALSE,FALSE,FALSE,FALSE,83,7.979,1776,2138,7.982,FALSE,3.992,3.987,0.038,FALSE,FALSE,NA,102,102,102,0,2,0,0,5,2661.7,665.44,,Idle,0,20,FALSE,5,TRUE,5,Go Home,FALSE,FALSE,FALSE,FALSE,FALSE,FALSE,FALSE,FALSE,FALSE,FALSE,FALSE,FALSE,6.974256066,79.91400944,2.2,142,328,TRUE,1,1,FALSE,FALSE,FALSE,FALSE,,TRUE,FALSE,FALSE,Course Lock,246,,16.4,Calm,25,,1.12.8,Mavic Mini,1SDCH7G0169R0K,1SFLH6Q0AB03DJ,1SRCH7F014TAHX,1U5X071EXP6C9Y,117.7,0.3,16.4,5.279402,3.35541,0,0,Mavic Mini,1SDCH7G0169R0K,1SFLH6Q0AB03DJ,1SRCH7F014TAHX,1U5X071EXP6C9Y,DJI Fly,,1.12.8,045274C5-5EA7-3BBC-C14C-DF52045E3FF6,1SDCH7G0169R0K,,,,,6.974226069,79.91401208,5,,
2/14/2024,14:01.9,3m 11.6s,191.6,6.97425497,79.91401571,0,0,0.3,50,0.6,0,0,0,0,0,0,0,0,-2.3,-0.7,-44.9,315.1,,Manual Takeoff,Other,Takeoff (RC Assisted),16,5,TRUE,,Mavic Mini,TRUE,FALSE,,Smart,RC,TRUE,TRUE,FALSE,,,TRUE,,FALSE,FALSE,FALSE,FALSE,FALSE,FALSE,FALSE,FALSE,FALSE,FALSE,0,Follow Yaw,-4.2,0,-33.8,326.2,FALSE,FALSE,FALSE,FALSE,FALSE,FALSE,,TRUE,Normal,,100,1024,1024,1024,1024,2,FALSE,FALSE,FALSE,FALSE,FALSE,0,FALSE,FALSE,FALSE,FALSE,83,7.979,1776,2138,7.979,FALSE,3.992,3.987,0.038,FALSE,FALSE,NA,102,102,102,0,2,0,0,5,2827.2,706.81,,Idle,0,20,FALSE,5,TRUE,5,Go Home,FALSE,FALSE,FALSE,FALSE,FALSE,FALSE,FALSE,FALSE,FALSE,FALSE,FALSE,FALSE,6.974256066,79.91400944,2.3,142,328,TRUE,1,1,FALSE,FALSE,FALSE,FALSE,,TRUE,FALSE,FALSE,Course Lock,246,,16.4,Calm,25,,1.12.8,Mavic Mini,1SDCH7G0169R0K,1SFLH6Q0AB03DJ,1SRCH7F014TAHX,1U5X071EXP6C9Y,117.7,0.3,16.4,5.279402,3.35541,0,0,Mavic Mini,1SDCH7G0169R0K,1SFLH6Q0AB03DJ,1SRCH7F014TAHX,1U5X071EXP6C9Y,DJI Fly,,1.12.8,045274C5-5EA7-3BBC-C14C-DF52045E3FF6,1SDCH7G0169R0K,,,,,6.974226069,79.91401208,5,,
2/14/2024,14:02.1,3m 11.7s,191.7,6.974254966,79.91401572,0,0,0.3,50,0.6,0,0,0,0,0,0,0,0,-2.3,-0.7,-44.8,315.2,,Manual Takeoff,Other,Takeoff (RC Assisted),16,5,TRUE,,Mavic Mini,TRUE,FALSE,,Smart,RC,TRUE,TRUE,FALSE,,,TRUE,,FALSE,FALSE,FALSE,FALSE,FALSE,FALSE,FALSE,FALSE,FALSE,FALSE,0,Follow Yaw,-4.2,0,-33.8,326.2,FALSE,FALSE,FALSE,FALSE,FALSE,FALSE,,TRUE,Normal,,100,1024,1024,1024,1024,2,FALSE,FALSE,FALSE,FALSE,FALSE,0,FALSE,FALSE,FALSE,FALSE,83,7.979,1776,2138,7.979,FALSE,3.992,3.987,0.038,FALSE,FALSE,NA,102,102,102,0,2,0,0,5,2827.2,706.81,,Idle,0,20,FALSE,5,TRUE,5,Go Home,FALSE,FALSE,FALSE,FALSE,FALSE,FALSE,FALSE,FALSE,FALSE,FALSE,FALSE,FALSE,6.974256066,79.91400944,2.3,142,328,TRUE,1,1,FALSE,FALSE,FALSE,FALSE,,TRUE,FALSE,FALSE,Course Lock,246,,16.4,Calm,25,,1.12.8,Mavic Mini,1SDCH7G0169R0K,1SFLH6Q0AB03DJ,1SRCH7F014TAHX,1U5X071EXP6C9Y,117.7,0.3,16.4,5.279402,3.35541,0,0,Mavic Mini,1SDCH7G0169R0K,1SFLH6Q0AB03DJ,1SRCH7F014TAHX,1U5X071EXP6C9Y,DJI Fly,,1.12.8,045274C5-5EA7-3BBC-C14C-DF52045E3FF6,1SDCH7G0169R0K,,,,,6.974226069,79.91401208,5,,
2/14/2024,14:02.2,3m 11.8s,191.8,6.974255011,79.91401565,0,0,0.3,50,0.7,0,0,0,0,0,0,0,0,-2.3,-0.6,-44.8,315.2,,Manual Takeoff,Other,Takeoff (RC Assisted),16,5,TRUE,,Mavic Mini,TRUE,FALSE,,Smart,RC,TRUE,TRUE,FALSE,,,TRUE,,FALSE,FALSE,FALSE,FALSE,FALSE,FALSE,FALSE,FALSE,FALSE,FALSE,0,Follow Yaw,-4.2,0,-33.8,326.2,FALSE,FALSE,FALSE,FALSE,FALSE,FALSE,,TRUE,Normal,,100,1024,1024,1024,1024,2,FALSE,FALSE,FALSE,FALSE,FALSE,0,FALSE,FALSE,FALSE,FALSE,83,7.979,1776,2138,7.979,FALSE,3.992,3.987,0.038,FALSE,FALSE,NA,102,102,102,0,2,0,0,5,2827.2,706.81,,Idle,0,20,FALSE,5,TRUE,5,Go Home,FALSE,FALSE,FALSE,FALSE,FALSE,FALSE,FALSE,FALSE,FALSE,FALSE,FALSE,FALSE,6.974256066,79.91400944,2.2,142,328,TRUE,1,1,FALSE,FALSE,FALSE,FALSE,,TRUE,FALSE,FALSE,Course Lock,246,,16.4,Calm,25,,1.12.8,Mavic Mini,1SDCH7G0169R0K,1SFLH6Q0AB03DJ,1SRCH7F014TAHX,1U5X071EXP6C9Y,117.7,0.3,16.4,5.279402,3.35541,0,0,Mavic Mini,1SDCH7G0169R0K,1SFLH6Q0AB03DJ,1SRCH7F014TAHX,1U5X071EXP6C9Y,DJI Fly,,1.12.8,045274C5-5EA7-3BBC-C14C-DF52045E3FF6,1SDCH7G0169R0K,,,,,6.974226069,79.91401208,5,,
2/14/2024,14:02.3,3m 11.9s,191.9,6.974255055,79.91401565,0,0,0.3,50,0.7,0,0,0,0,0,0,0,0,-2.3,-0.7,-44.9,315.1,,Manual Takeoff,Other,Takeoff (RC Assisted),16,5,TRUE,,Mavic Mini,TRUE,FALSE,,Smart,RC,TRUE,TRUE,FALSE,,,TRUE,,FALSE,FALSE,FALSE,FALSE,FALSE,FALSE,FALSE,FALSE,FALSE,FALSE,0,Follow Yaw,-4.2,0,-33.8,326.2,FALSE,FALSE,FALSE,FALSE,FALSE,FALSE,,TRUE,Normal,,100,1024,1024,1024,1024,2,FALSE,FALSE,FALSE,FALSE,FALSE,0,FALSE,FALSE,FALSE,FALSE,83,7.979,1776,2138,7.979,FALSE,3.992,3.987,0.038,FALSE,FALSE,NA,102,102,102,0,2,0,0,5,2827.2,706.81,,Idle,0,20,FALSE,5,TRUE,5,Go Home,FALSE,FALSE,FALSE,FALSE,FALSE,FALSE,FALSE,FALSE,FALSE,FALSE,FALSE,FALSE,6.974256066,79.91400944,2.2,142,328,TRUE,1,1,FALSE,FALSE,FALSE,FALSE,,TRUE,FALSE,FALSE,Course Lock,246,,16.4,Calm,25,,1.12.8,Mavic Mini,1SDCH7G0169R0K,1SFLH6Q0AB03DJ,1SRCH7F014TAHX,1U5X071EXP6C9Y,117.7,0.3,16.4,5.279402,3.35541,0,0,Mavic Mini,1SDCH7G0169R0K,1SFLH6Q0AB03DJ,1SRCH7F014TAHX,1U5X071EXP6C9Y,DJI Fly,,1.12.8,045274C5-5EA7-3BBC-C14C-DF52045E3FF6,1SDCH7G0169R0K,,,,,6.974226069,79.91401208,5,,
2/14/2024,14:02.4,3m 12.0s,192,6.974255076,79.91401564,0,0,0.3,50,0.7,0,0,0,0,0,0,0,0,-2.3,-0.7,-44.8,315.2,,Manual Takeoff,Other,Takeoff (RC Assisted),16,5,TRUE,,Mavic Mini,TRUE,FALSE,,Smart,RC,TRUE,TRUE,FALSE,,,TRUE,,FALSE,FALSE,FALSE,FALSE,FALSE,FALSE,FALSE,FALSE,FALSE,FALSE,0,Follow Yaw,-4.2,0,-33.8,326.2,FALSE,FALSE,FALSE,FALSE,FALSE,FALSE,,TRUE,Normal,,100,1024,1024,1024,1024,2,FALSE,FALSE,FALSE,FALSE,FALSE,0,FALSE,FALSE,FALSE,FALSE,83,7.979,1776,2138,7.979,FALSE,3.992,3.987,0.038,FALSE,FALSE,NA,102,102,102,0,2,0,0,5,2827.2,706.81,,Idle,0,20,FALSE,5,TRUE,5,Go Home,FALSE,FALSE,FALSE,FALSE,FALSE,FALSE,FALSE,FALSE,FALSE,FALSE,FALSE,FALSE,6.974256066,79.91400944,2.2,142,328,TRUE,1,1,FALSE,FALSE,FALSE,FALSE,,TRUE,FALSE,FALSE,Course Lock,246,,16.4,Calm,25,,1.12.8,Mavic Mini,1SDCH7G0169R0K,1SFLH6Q0AB03DJ,1SRCH7F014TAHX,1U5X071EXP6C9Y,117.7,0.3,16.4,5.279402,3.35541,0,0,Mavic Mini,1SDCH7G0169R0K,1SFLH6Q0AB03DJ,1SRCH7F014TAHX,1U5X071EXP6C9Y,DJI Fly,,1.12.8,045274C5-5EA7-3BBC-C14C-DF52045E3FF6,1SDCH7G0169R0K,,,,,6.974226069,79.91401208,5,,
2/14/2024,14:02.5,3m 12.1s,192.1,6.974255088,79.91401564,0,0,0.3,50,0.7,0,0,0,0,0,0,0,0,-2.3,-0.6,-44.9,315.1,,Manual Takeoff,Other,Takeoff (RC Assisted),16,5,TRUE,,Mavic Mini,TRUE,FALSE,,Smart,RC,TRUE,TRUE,FALSE,,,TRUE,,FALSE,FALSE,FALSE,FALSE,FALSE,FALSE,FALSE,FALSE,FALSE,FALSE,0,Follow Yaw,-4.2,0,-33.8,326.2,FALSE,FALSE,FALSE,FALSE,FALSE,FALSE,,TRUE,Normal,,100,1024,1024,1024,1024,2,FALSE,FALSE,FALSE,FALSE,FALSE,0,FALSE,FALSE,FALSE,FALSE,83,7.979,1776,2138,7.979,FALSE,3.992,3.987,0.038,FALSE,FALSE,NA,102,102,102,0,2,0,0,5,2827.2,706.81,,Idle,0,20,FALSE,5,TRUE,5,Go Home,FALSE,FALSE,FALSE,FALSE,FALSE,FALSE,FALSE,FALSE,FALSE,FALSE,FALSE,FALSE,6.974256066,79.91400944,2.2,142,328,TRUE,1,1,FALSE,FALSE,FALSE,FALSE,,TRUE,FALSE,FALSE,Course Lock,246,,16.4,Calm,25,,1.12.8,Mavic Mini,1SDCH7G0169R0K,1SFLH6Q0AB03DJ,1SRCH7F014TAHX,1U5X071EXP6C9Y,117.7,0.3,16.4,5.279402,3.35541,0,0,Mavic Mini,1SDCH7G0169R0K,1SFLH6Q0AB03DJ,1SRCH7F014TAHX,1U5X071EXP6C9Y,DJI Fly,,1.12.8,045274C5-5EA7-3BBC-C14C-DF52045E3FF6,1SDCH7G0169R0K,,,,,6.974226069,79.91401208,5,,
2/14/2024,14:02.6,3m 12.2s,192.2,6.974255123,79.91401564,0,0,0.3,50,0.7,0,0,0,0,0,0,0,0,-2.3,-0.6,-44.8,315.2,,Manual Takeoff,Other,Takeoff (RC Assisted),16,5,TRUE,,Mavic Mini,TRUE,FALSE,,Smart,RC,TRUE,TRUE,FALSE,,,TRUE,,FALSE,FALSE,FALSE,FALSE,FALSE,FALSE,FALSE,FALSE,FALSE,FALSE,0,Follow Yaw,-4.2,0,-33.8,326.2,FALSE,FALSE,FALSE,FALSE,FALSE,FALSE,,TRUE,Normal,,100,1024,1024,1024,1024,2,FALSE,FALSE,FALSE,FALSE,FALSE,0,FALSE,FALSE,FALSE,FALSE,83,7.979,1776,2138,7.979,FALSE,3.992,3.987,0.038,FALSE,FALSE,NA,102,102,102,0,2,0,0,5,2827.2,706.81,,Idle,0,20,FALSE,5,TRUE,5,Go Home,FALSE,FALSE,FALSE,FALSE,FALSE,FALSE,FALSE,FALSE,FALSE,FALSE,FALSE,FALSE,6.974256066,79.91400944,2.2,142,328,TRUE,1,1,FALSE,FALSE,FALSE,FALSE,,TRUE,FALSE,FALSE,Course Lock,246,,16.4,Calm,25,,1.12.8,Mavic Mini,1SDCH7G0169R0K,1SFLH6Q0AB03DJ,1SRCH7F014TAHX,1U5X071EXP6C9Y,117.7,0.3,16.4,5.279402,3.35541,0,0,Mavic Mini,1SDCH7G0169R0K,1SFLH6Q0AB03DJ,1SRCH7F014TAHX,1U5X071EXP6C9Y,DJI Fly,,1.12.8,045274C5-5EA7-3BBC-C14C-DF52045E3FF6,1SDCH7G0169R0K,,,,,6.974226069,79.91401208,5,,
2/14/2024,14:02.7,3m 12.3s,192.3,6.974255195,79.91401559,0,0,0.3,50,0.7,0,0,0,0,0,0,0,0,-2.3,-0.6,-44.8,315.2,,Manual Takeoff,Other,Takeoff (RC Assisted),16,5,TRUE,,Mavic Mini,TRUE,FALSE,,Smart,RC,TRUE,TRUE,FALSE,,,TRUE,,FALSE,FALSE,FALSE,FALSE,FALSE,FALSE,FALSE,FALSE,FALSE,FALSE,0,Follow Yaw,-4.2,0,-33.8,326.2,FALSE,FALSE,FALSE,FALSE,FALSE,FALSE,,TRUE,Normal,,100,1024,1024,1024,1024,2,FALSE,FALSE,FALSE,FALSE,FALSE,0,FALSE,FALSE,FALSE,FALSE,83,7.979,1776,2138,7.979,FALSE,3.992,3.987,0.038,FALSE,FALSE,NA,102,102,102,0,2,0,0,5,2827.2,706.81,,Idle,0,20,FALSE,5,TRUE,5,Go Home,FALSE,FALSE,FALSE,FALSE,FALSE,FALSE,FALSE,FALSE,FALSE,FALSE,FALSE,FALSE,6.974256066,79.91400944,2.2,142,328,TRUE,1,1,FALSE,FALSE,FALSE,FALSE,,TRUE,FALSE,FALSE,Course Lock,246,,16.4,Calm,25,,1.12.8,Mavic Mini,1SDCH7G0169R0K,1SFLH6Q0AB03DJ,1SRCH7F014TAHX,1U5X071EXP6C9Y,117.7,0.3,16.4,5.279402,3.35541,0,0,Mavic Mini,1SDCH7G0169R0K,1SFLH6Q0AB03DJ,1SRCH7F014TAHX,1U5X071EXP6C9Y,DJI Fly,,1.12.8,045274C5-5EA7-3BBC-C14C-DF52045E3FF6,1SDCH7G0169R0K,,,,,6.974226069,79.91401208,5,,
2/14/2024,14:02.7,3m 12.4s,192.4,6.974255217,79.91401562,0,0,0.3,50,0.7,0,0,0,0,0,0,0,0,-2.3,-0.7,-44.8,315.2,,Manual Takeoff,Other,Takeoff (RC Assisted),16,5,TRUE,,Mavic Mini,TRUE,FALSE,,Smart,RC,TRUE,TRUE,FALSE,,,TRUE,,FALSE,FALSE,FALSE,FALSE,FALSE,FALSE,FALSE,FALSE,FALSE,FALSE,0,Follow Yaw,-4.2,0,-33.8,326.2,FALSE,FALSE,FALSE,FALSE,FALSE,FALSE,,TRUE,Normal,,100,1024,1024,1024,1024,2,FALSE,FALSE,FALSE,FALSE,FALSE,0,FALSE,FALSE,FALSE,FALSE,83,7.978,1776,2138,7.979,FALSE,3.992,3.986,0.038,FALSE,FALSE,NA,102,102,102,0,2,0,0,5,2827.2,706.81,,Idle,0,20,FALSE,5,TRUE,5,Go Home,FALSE,FALSE,FALSE,FALSE,FALSE,FALSE,FALSE,FALSE,FALSE,FALSE,FALSE,FALSE,6.974256066,79.91400944,2.2,142,328,TRUE,1,1,FALSE,FALSE,FALSE,FALSE,,TRUE,FALSE,FALSE,Course Lock,246,,16.4,Calm,25,,1.12.8,Mavic Mini,1SDCH7G0169R0K,1SFLH6Q0AB03DJ,1SRCH7F014TAHX,1U5X071EXP6C9Y,117.7,0.3,16.4,5.279402,3.35541,0,0,Mavic Mini,1SDCH7G0169R0K,1SFLH6Q0AB03DJ,1SRCH7F014TAHX,1U5X071EXP6C9Y,DJI Fly,,1.12.8,045274C5-5EA7-3BBC-C14C-DF52045E3FF6,1SDCH7G0169R0K,,,,,6.974226069,79.91401208,5,,
