CUSTOM.date [local],CUSTOM.updateTime [local],OSD.flyTime,OSD.flyTime [s],OSD.latitude,OSD.longitude,OSD.height [ft],OSD.heightMax [ft],OSD.vpsHeight [ft],OSD.altitude [ft],OSD.mileage [ft],OSD.hSpeed [MPH],OSD.hSpeedMax [MPH],OSD.xSpeed [MPH],OSD.xSpeedMax [MPH],OSD.ySpeed [MPH],OSD.ySpeedMax [MPH],OSD.zSpeed [MPH],OSD.zSpeedMax [MPH],OSD.pitch,OSD.roll,OSD.yaw,OSD.yaw [360],OSD.directionOfTravel,OSD.flycState,OSD.flycCommand,OSD.flightAction,OSD.gpsNum,OSD.gpsLevel,OSD.isGPSUsed,OSD.nonGPSCause,OSD.droneType,OSD.isSwaveWork,OSD.waveError,OSD.goHomeStatus,OSD.batteryType,OSD.ctrlDevice,OSD.isOnGround,OSD.isMotorOn,OSD.isMotorBlocked,OSD.motorStartFailedCause,OSD.motorFailReason,OSD.isImuPreheated,OSD.imuInitFailReason,OSD.isAcceletorOverRange,OSD.isBarometerDeadInAir,OSD.isCompassError,OSD.isGoHomeHeightModified,OSD.canIOCWork,OSD.isNotEnoughForce,OSD.isOutOfLimit,OSD.isPropellerCatapult,OSD.isVibrating,OSD.isVisionUsed,OSD.voltageWarning,GIMBAL.mode,GIMBAL.pitch,GIMBAL.roll,GIMBAL.yaw,GIMBAL.yaw [360],GIMBAL.isPitchAtLimit,GIMBAL.isRollAtLimit,GIMBAL.isYawAtLimit,GIMBAL.isStuck,CAMERA.isPhoto,CAMERA.isVideo,CAMERA.filename,CAMERA.sdCardIsInserted,CAMERA.sdCardState,RC.downlinkSignal,RC.uplinkSignal,RC.aileron,RC.elevator,RC.throttle,RC.rudder,RC.mode,RC.goHomeDepressed,RC.recordDepressed,RC.shutterDepressed,RC.playbackDepressed,RC.wheelDepressed,RC.wheelOffset,RC.custom1Depressed,RC.custom2Depressed,RC.custom3Depressed,RC.custom4Depressed,BATTERY.chargeLevel,BATTERY.currentPV [V],BATTERY.currentCapacity [mAh],BATTERY.fullCapacity [mAh],BATTERY.voltage [V],BATTERY.isCellVoltageEstimated,BATTERY.cellVoltage1 [V],BATTERY.cellVoltage2 [V],BATTERY.maxCellVoltageDeviation,BATTERY.isCellVoltageDeviationHigh,BATTERY.isVoltageLow,BATTERY.current [A],BATTERY.temperature [F],BATTERY.minTemperature [F],BATTERY.maxTemperature [F],BATTERY.usefulTime [s],BATTERY.goHomeTime [s],BATTERY.landTime [s],BATTERY.goHomeBattery,BATTERY.landBattery,BATTERY.safeFlyRadius,BATTERY.volumeConsume,BATTERY.status,BATTERY.goHomeStatus,BATTERY.goHomeCountdown,BATTERY.lowWarning,BATTERY.lowWarningGoHome,BATTERY.seriousLowWarning,BATTERY.seriousLowWarningLanding,BATTERY.timesCharged,MC.failSafeAction,MC.isObstacleAvoidanceEnabled,MC.isCollisionAvoidanceEnabled,MC.isRthObstacleAvoidanceEnabled,MC.isBraking,MC.isAvoidingObstacle,MC.isAvoidingActiveObstacle,MC.isAscentLimitedByObstacle,MC.isLandingConfirmationNeeded,MC.atLowAltitudeLimit,MC.atDistanceLimit,MC.atAirportAltitudeLimit,MC.atAirportBoundary,HOME.latitude,HOME.longitude,HOME.distance [ft],HOME.height [ft],HOME.heightLimit [ft],HOME.isHomeRecord,HOME.goHomeMode,HOME.aircraftHeadDirection,HOME.isDynamicHomePointEnabled,HOME.isReachedLimitDistance,HOME.isReachedLimitHeight,HOME.isCompassCalibrating,HOME.compassCalibrationState,HOME.isMultipleFlightModeEnabled,HOME.isBeginnerMode,HOME.isIOCEnabled,HOME.iocMode,HOME.goHomeHeight [ft],HOME.courseLockAngle,HOME.forceLandingHeight [ft],HOME.wind,HOME.dataRecorderFileIndex,RECOVER.appType,RECOVER.appVersion,RECOVER.aircraftName,RECOVER.aircraftSerial,RECOVER.cameraSerial,RECOVER.rcSerial,RECOVER.batterySerial,DETAILS.totalTime [s],DETAILS.totalDistance [ft],DETAILS.maxHeight [ft],DETAILS.maxHorizontalSpeed [MPH],DETAILS.maxVerticalSpeed [MPH],DETAILS.photoNum,DETAILS.videoTime [s],DETAILS.aircraftName,DETAILS.aircraftSerial,DETAILS.cameraSerial,DETAILS.rcSerial,DETAILS.batterySerial,DETAILS.appName,DETAILS.appType,DETAILS.appVersion,DETAILS.guid,SERIAL.flightController,SERIAL.camera,SERIAL.gimbal,SERIAL.rc,SERIAL.battery,APPGPS.latitude,APPGPS.longitude,APPGPS.accuracy,APP.tip,APP.warning
2/22/2024,28:34.2,6m 55.8s,415.8,6.974218627,79.91415494,0,0,0.6,50,0,0,0,0,0,0,0,0,0,6.1,2.6,-59.6,300.4,,Tripod,Drop Calibration,Takeoff (RC Assisted),16,5,TRUE,,Mavic Mini,FALSE,FALSE,,Smart,RC,TRUE,TRUE,FALSE,,,TRUE,,FALSE,FALSE,FALSE,FALSE,FALSE,FALSE,FALSE,FALSE,FALSE,FALSE,0,Follow Yaw,0,0,-43.1,316.9,FALSE,FALSE,FALSE,FALSE,FALSE,TRUE,,TRUE,Normal,,,1024,1024,1024,1024,2,FALSE,FALSE,FALSE,FALSE,FALSE,0,FALSE,FALSE,FALSE,FALSE,71,7.743,1457,2056,7.74,TRUE,3.87,3.87,,FALSE,FALSE,NA,107.2,107.2,107.2,0,0,0,0,5,3173.2,793.32,,Idle,0,20,FALSE,5,TRUE,6,Go Home,FALSE,FALSE,FALSE,FALSE,FALSE,FALSE,FALSE,FALSE,FALSE,FALSE,FALSE,FALSE,6.974226694,79.91415629,2.9,97.7,328,TRUE,1,1,FALSE,FALSE,FALSE,FALSE,,TRUE,FALSE,FALSE,Course Lock,49.2,,16.4,Calm,33,,1.12.8,Mavic Mini,1SDCH7G0169R0K,1SFLH6Q0AB03DJ,1SRCH7F014TAHX,1U5X071EXP6C9Y,81.4,0.2,3.2,6.023184,2.908022,0,22440,Mavic Mini,1SDCH7G0169R0K,1SFLH6Q0AB03DJ,1SRCH7F014TAHX,1U5X071EXP6C9Y,DJI Fly,,1.12.8,B60E5890-7D2B-9224-34CF-11D447E21797,1SDCH7G0169R0K,,,,,,,,Data Recorder File Index is 33.; Set Return to Home (RTH) altitude to 15 m (49 ft).; Set maximum flight altitude to 100 m (328 ft).; Flight mode changed to Tripod.,
2/22/2024,21:38.6,6m 55.9s,415.9,6.974218584,79.91415499,0,0,0.6,50,0,0,0,0,0,0,0,0,0,6.1,2.6,-59.6,300.4,,Starting Motors,Drop Calibration,Takeoff (RC Assisted),16,5,TRUE,,Mavic Mini,FALSE,FALSE,,Smart,RC,TRUE,TRUE,FALSE,,,TRUE,,FALSE,FALSE,FALSE,FALSE,FALSE,FALSE,FALSE,FALSE,FALSE,FALSE,0,Follow Yaw,0,0,-43.1,316.9,FALSE,FALSE,FALSE,FALSE,FALSE,TRUE,,TRUE,Normal,,100,1024,1024,1024,1024,2,FALSE,FALSE,FALSE,FALSE,FALSE,0,FALSE,FALSE,FALSE,FALSE,71,7.743,1457,2056,7.74,TRUE,3.87,3.87,,FALSE,FALSE,NA,107.2,107.2,107.2,0,0,0,0,5,3173.2,793.32,,Idle,0,20,FALSE,5,TRUE,6,Go Home,FALSE,FALSE,FALSE,FALSE,FALSE,FALSE,FALSE,FALSE,FALSE,FALSE,FALSE,FALSE,6.974226694,79.91415629,2.9,97.7,328,TRUE,1,1,FALSE,FALSE,FALSE,FALSE,,TRUE,FALSE,FALSE,Course Lock,49.2,,16.4,Calm,33,,1.12.8,Mavic Mini,1SDCH7G0169R0K,1SFLH6Q0AB03DJ,1SRCH7F014TAHX,1U5X071EXP6C9Y,81.4,0.2,3.2,6.023184,2.908022,0,22440,Mavic Mini,1SDCH7G0169R0K,1SFLH6Q0AB03DJ,1SRCH7F014TAHX,1U5X071EXP6C9Y,DJI Fly,,1.12.8,B60E5890-7D2B-9224-34CF-11D447E21797,1SDCH7G0169R0K,,,,,,,,Flight mode changed to Starting Motors.,
2/22/2024,21:38.7,6m 56.0s,416,6.974218572,79.91415507,0,0,0.3,50,0,0,0,0,0,0,0,0,0,6.1,2.6,-59.6,300.4,,Starting Motors,Drop Calibration,Takeoff (RC Assisted),16,5,TRUE,,Mavic Mini,TRUE,FALSE,,Smart,RC,TRUE,TRUE,FALSE,,,TRUE,,FALSE,FALSE,FALSE,FALSE,FALSE,FALSE,FALSE,FALSE,FALSE,FALSE,0,Follow Yaw,0,0,-43.1,316.9,FALSE,FALSE,FALSE,FALSE,FALSE,TRUE,,TRUE,Normal,,100,1024,1024,1024,1024,2,FALSE,FALSE,FALSE,FALSE,FALSE,0,FALSE,FALSE,FALSE,FALSE,71,7.743,1457,2056,7.74,TRUE,3.87,3.87,,FALSE,FALSE,NA,107.2,107.2,107.2,0,0,0,0,5,3173.2,793.32,,Idle,0,20,FALSE,5,TRUE,6,Go Home,FALSE,FALSE,FALSE,FALSE,FALSE,FALSE,FALSE,FALSE,FALSE,FALSE,FALSE,FALSE,6.974226694,79.91415629,2.9,97.7,328,TRUE,1,1,FALSE,FALSE,FALSE,FALSE,,TRUE,FALSE,FALSE,Course Lock,49.2,,16.4,Calm,33,,1.12.8,Mavic Mini,1SDCH7G0169R0K,1SFLH6Q0AB03DJ,1SRCH7F014TAHX,1U5X071EXP6C9Y,81.4,0.2,3.2,6.023184,2.908022,0,22440,Mavic Mini,1SDCH7G0169R0K,1SFLH6Q0AB03DJ,1SRCH7F014TAHX,1U5X071EXP6C9Y,DJI Fly,,1.12.8,B60E5890-7D2B-9224-34CF-11D447E21797,1SDCH7G0169R0K,,,,,,,,,
2/22/2024,21:38.8,6m 56.1s,416.1,6.974218558,79.91415522,0,0,0.3,50,0,0,0,0,0,0,0,0,0,6.1,2.6,-59.6,300.4,,Starting Motors,Drop Calibration,Takeoff (RC Assisted),16,5,TRUE,,Mavic Mini,TRUE,FALSE,,Smart,RC,TRUE,TRUE,FALSE,,,TRUE,,FALSE,FALSE,FALSE,FALSE,FALSE,FALSE,FALSE,FALSE,FALSE,FALSE,0,Follow Yaw,0,0,-43.1,316.9,FALSE,FALSE,FALSE,FALSE,FALSE,TRUE,,TRUE,Normal,,100,1024,1024,1024,1024,2,FALSE,FALSE,FALSE,FALSE,FALSE,0,FALSE,FALSE,FALSE,FALSE,71,7.743,1457,2056,7.74,TRUE,3.87,3.87,,FALSE,FALSE,NA,107.2,107.2,107.2,0,0,0,0,5,3173.2,793.32,,Idle,0,20,FALSE,5,TRUE,6,Go Home,FALSE,FALSE,FALSE,FALSE,FALSE,FALSE,FALSE,FALSE,FALSE,FALSE,FALSE,FALSE,6.974226694,79.91415629,2.9,97.7,328,TRUE,1,1,FALSE,FALSE,FALSE,FALSE,,TRUE,FALSE,FALSE,Course Lock,49.2,,16.4,Calm,33,,1.12.8,Mavic Mini,1SDCH7G0169R0K,1SFLH6Q0AB03DJ,1SRCH7F014TAHX,1U5X071EXP6C9Y,81.4,0.2,3.2,6.023184,2.908022,0,22440,Mavic Mini,1SDCH7G0169R0K,1SFLH6Q0AB03DJ,1SRCH7F014TAHX,1U5X071EXP6C9Y,DJI Fly,,1.12.8,B60E5890-7D2B-9224-34CF-11D447E21797,1SDCH7G0169R0K,,,,,,,,,
2/22/2024,21:38.9,6m 56.2s,416.2,6.974218512,79.91415524,0,0,0.3,50,0.1,0,0,0,0,0,0,0,0,6,2.7,-59.6,300.4,,Starting Motors,Drop Calibration,Takeoff (RC Assisted),16,5,TRUE,,Mavic Mini,TRUE,FALSE,,Smart,RC,TRUE,TRUE,FALSE,,,TRUE,,FALSE,FALSE,FALSE,FALSE,FALSE,FALSE,FALSE,FALSE,FALSE,FALSE,0,Follow Yaw,0,0,-43.1,316.9,FALSE,FALSE,FALSE,FALSE,FALSE,TRUE,,TRUE,Normal,,100,1024,1024,1024,1024,2,FALSE,FALSE,FALSE,FALSE,FALSE,0,FALSE,FALSE,FALSE,FALSE,71,7.743,1457,2056,7.74,TRUE,3.87,3.87,,FALSE,FALSE,NA,107.2,107.2,107.2,0,0,0,0,5,3173.2,793.32,,Idle,0,20,FALSE,5,TRUE,6,Go Home,FALSE,FALSE,FALSE,FALSE,FALSE,FALSE,FALSE,FALSE,FALSE,FALSE,FALSE,FALSE,6.974226694,79.91415629,3,97.7,328,TRUE,1,1,FALSE,FALSE,FALSE,FALSE,,TRUE,FALSE,FALSE,Course Lock,49.2,,16.4,Calm,33,,1.12.8,Mavic Mini,1SDCH7G0169R0K,1SFLH6Q0AB03DJ,1SRCH7F014TAHX,1U5X071EXP6C9Y,81.4,0.2,3.2,6.023184,2.908022,0,22440,Mavic Mini,1SDCH7G0169R0K,1SFLH6Q0AB03DJ,1SRCH7F014TAHX,1U5X071EXP6C9Y,DJI Fly,,1.12.8,B60E5890-7D2B-9224-34CF-11D447E21797,1SDCH7G0169R0K,,,,,,,,,
2/22/2024,21:38.9,6m 56.3s,416.3,6.974218481,79.91415526,0,0,0.3,50,0.1,0,0,0,0,0,0,0,0,6.1,2.6,-59.6,300.4,,Starting Motors,Drop Calibration,Takeoff (RC Assisted),16,5,TRUE,,Mavic Mini,TRUE,FALSE,,Smart,RC,TRUE,TRUE,FALSE,,,TRUE,,FALSE,FALSE,FALSE,FALSE,FALSE,FALSE,FALSE,FALSE,FALSE,FALSE,0,Follow Yaw,0,0,-43.1,316.9,FALSE,FALSE,FALSE,FALSE,FALSE,TRUE,,TRUE,Normal,,100,1024,1024,1024,1024,2,FALSE,FALSE,FALSE,FALSE,FALSE,0,FALSE,FALSE,FALSE,FALSE,71,7.743,1457,2056,7.74,TRUE,3.87,3.87,,FALSE,FALSE,NA,107.2,107.2,107.2,0,0,0,0,5,3173.2,793.32,,Idle,0,20,FALSE,5,TRUE,6,Go Home,FALSE,FALSE,FALSE,FALSE,FALSE,FALSE,FALSE,FALSE,FALSE,FALSE,FALSE,FALSE,6.974226694,79.91415629,3,97.7,328,TRUE,1,1,FALSE,FALSE,FALSE,FALSE,,TRUE,FALSE,FALSE,Course Lock,49.2,,16.4,Calm,33,,1.12.8,Mavic Mini,1SDCH7G0169R0K,1SFLH6Q0AB03DJ,1SRCH7F014TAHX,1U5X071EXP6C9Y,81.4,0.2,3.2,6.023184,2.908022,0,22440,Mavic Mini,1SDCH7G0169R0K,1SFLH6Q0AB03DJ,1SRCH7F014TAHX,1U5X071EXP6C9Y,DJI Fly,,1.12.8,B60E5890-7D2B-9224-34CF-11D447E21797,1SDCH7G0169R0K,,,,,,,,,
2/22/2024,21:39.0,6m 56.4s,416.4,6.974218472,79.91415526,0,0,0.3,50,0.1,0,0,0,0,0,0,0,0,6,2.6,-59.7,300.3,,Starting Motors,Drop Calibration,Takeoff (RC Assisted),16,5,TRUE,,Mavic Mini,TRUE,FALSE,,Smart,RC,TRUE,TRUE,FALSE,,,TRUE,,FALSE,FALSE,FALSE,FALSE,FALSE,FALSE,FALSE,FALSE,FALSE,FALSE,0,Follow Yaw,0,0,-43.2,316.8,FALSE,FALSE,FALSE,FALSE,FALSE,TRUE,,TRUE,Normal,,100,1024,1024,1024,1024,2,FALSE,FALSE,FALSE,FALSE,FALSE,0,FALSE,FALSE,FALSE,FALSE,71,7.743,1457,2056,7.74,TRUE,3.87,3.87,,FALSE,FALSE,NA,107.2,107.2,107.2,0,0,0,0,5,3173.2,793.32,,Idle,0,20,FALSE,5,TRUE,6,Go Home,FALSE,FALSE,FALSE,FALSE,FALSE,FALSE,FALSE,FALSE,FALSE,FALSE,FALSE,FALSE,6.974226694,79.91415629,3,97.7,328,TRUE,1,1,FALSE,FALSE,FALSE,FALSE,,TRUE,FALSE,FALSE,Course Lock,49.2,,16.4,Calm,33,,1.12.8,Mavic Mini,1SDCH7G0169R0K,1SFLH6Q0AB03DJ,1SRCH7F014TAHX,1U5X071EXP6C9Y,81.4,0.2,3.2,6.023184,2.908022,0,22440,Mavic Mini,1SDCH7G0169R0K,1SFLH6Q0AB03DJ,1SRCH7F014TAHX,1U5X071EXP6C9Y,DJI Fly,,1.12.8,B60E5890-7D2B-9224-34CF-11D447E21797,1SDCH7G0169R0K,,,,,,,,,
2/22/2024,21:39.2,6m 56.5s,416.5,6.9742185,79.91415514,0,0,0.3,50,0.1,0,0,0,0,0,0,0,0,6.1,2.5,-59.7,300.3,,Starting Motors,Drop Calibration,Takeoff (RC Assisted),16,5,TRUE,,Mavic Mini,TRUE,FALSE,,Smart,RC,TRUE,TRUE,FALSE,,,TRUE,,FALSE,FALSE,FALSE,FALSE,FALSE,FALSE,FALSE,FALSE,FALSE,FALSE,0,Follow Yaw,0,0,-43.2,316.8,FALSE,FALSE,FALSE,FALSE,FALSE,TRUE,,TRUE,Normal,,100,1024,1024,1024,1024,2,FALSE,FALSE,FALSE,FALSE,FALSE,0,FALSE,FALSE,FALSE,FALSE,71,7.743,1457,2056,7.74,TRUE,3.87,3.87,,FALSE,FALSE,NA,107.2,107.2,107.2,0,0,0,0,5,3173.2,793.32,,Idle,0,20,FALSE,5,TRUE,6,Go Home,FALSE,FALSE,FALSE,FALSE,FALSE,FALSE,FALSE,FALSE,FALSE,FALSE,FALSE,FALSE,6.974226694,79.91415629,3,97.7,328,TRUE,1,1,FALSE,FALSE,FALSE,FALSE,,TRUE,FALSE,FALSE,Course Lock,49.2,,16.4,Calm,33,,1.12.8,Mavic Mini,1SDCH7G0169R0K,1SFLH6Q0AB03DJ,1SRCH7F014TAHX,1U5X071EXP6C9Y,81.4,0.2,3.2,6.023184,2.908022,0,22440,Mavic Mini,1SDCH7G0169R0K,1SFLH6Q0AB03DJ,1SRCH7F014TAHX,1U5X071EXP6C9Y,DJI Fly,,1.12.8,B60E5890-7D2B-9224-34CF-11D447E21797,1SDCH7G0169R0K,,,,,,,,,
2/22/2024,21:39.2,6m 56.6s,416.6,6.974218504,79.91415513,0,0,0.3,50,0.1,0,0,0,0,0,0,0,0,6.1,2.5,-59.7,300.3,,Starting Motors,Drop Calibration,Takeoff (RC Assisted),16,5,TRUE,,Mavic Mini,TRUE,FALSE,,Smart,RC,TRUE,TRUE,FALSE,,,TRUE,,FALSE,FALSE,FALSE,FALSE,FALSE,FALSE,FALSE,FALSE,FALSE,FALSE,0,Follow Yaw,0,0,-43.2,316.8,FALSE,FALSE,FALSE,FALSE,FALSE,TRUE,,TRUE,Normal,,100,1024,1024,1024,1024,2,FALSE,FALSE,FALSE,FALSE,FALSE,0,FALSE,FALSE,FALSE,FALSE,71,7.743,1457,2056,7.74,TRUE,3.87,3.87,,FALSE,FALSE,NA,107.2,107.2,107.2,0,0,0,0,5,3173.2,793.32,,Idle,0,20,FALSE,5,TRUE,6,Go Home,FALSE,FALSE,FALSE,FALSE,FALSE,FALSE,FALSE,FALSE,FALSE,FALSE,FALSE,FALSE,6.974226694,79.91415629,3,97.7,328,TRUE,1,1,FALSE,FALSE,FALSE,FALSE,,TRUE,FALSE,FALSE,Course Lock,49.2,,16.4,Calm,33,,1.12.8,Mavic Mini,1SDCH7G0169R0K,1SFLH6Q0AB03DJ,1SRCH7F014TAHX,1U5X071EXP6C9Y,81.4,0.2,3.2,6.023184,2.908022,0,22440,Mavic Mini,1SDCH7G0169R0K,1SFLH6Q0AB03DJ,1SRCH7F014TAHX,1U5X071EXP6C9Y,DJI Fly,,1.12.8,B60E5890-7D2B-9224-34CF-11D447E21797,1SDCH7G0169R0K,,,,,,,,,
2/22/2024,21:39.3,6m 56.7s,416.7,6.974218495,79.91415514,0,0,0.3,50,0.1,0,0,0,0,0,0,0,0,6.1,2.6,-59.8,300.2,,Starting Motors,Drop Calibration,Takeoff (RC Assisted),16,5,TRUE,,Mavic Mini,TRUE,FALSE,,Smart,RC,TRUE,TRUE,FALSE,,,TRUE,,FALSE,FALSE,FALSE,FALSE,FALSE,FALSE,FALSE,FALSE,FALSE,FALSE,0,Follow Yaw,0,0,-43.2,316.8,FALSE,FALSE,FALSE,FALSE,FALSE,TRUE,,TRUE,Normal,,100,1024,1024,1024,1024,2,FALSE,FALSE,FALSE,FALSE,FALSE,0,FALSE,FALSE,FALSE,FALSE,71,7.73,1457,2056,7.74,FALSE,3.866,3.864,0.002,FALSE,FALSE,NA,107.2,107.2,107.2,0,0,0,0,5,3173.2,793.32,,Idle,0,20,FALSE,5,TRUE,6,Go Home,FALSE,FALSE,FALSE,FALSE,FALSE,FALSE,FALSE,FALSE,FALSE,FALSE,FALSE,FALSE,6.974226694,79.91415629,3,97.7,328,TRUE,1,1,FALSE,FALSE,FALSE,FALSE,,TRUE,FALSE,FALSE,Course Lock,49.2,,16.4,Calm,33,,1.12.8,Mavic Mini,1SDCH7G0169R0K,1SFLH6Q0AB03DJ,1SRCH7F014TAHX,1U5X071EXP6C9Y,81.4,0.2,3.2,6.023184,2.908022,0,22440,Mavic Mini,1SDCH7G0169R0K,1SFLH6Q0AB03DJ,1SRCH7F014TAHX,1U5X071EXP6C9Y,DJI Fly,,1.12.8,B60E5890-7D2B-9224-34CF-11D447E21797,1SDCH7G0169R0K,,,,,,,,,
2/22/2024,21:39.4,6m 56.8s,416.8,6.974218449,79.91415518,0,0,0.3,50,0.1,0,0,0,0,0,0,0,0,6.1,2.5,-59.7,300.3,,Starting Motors,Drop Calibration,Takeoff (RC Assisted),16,5,TRUE,,Mavic Mini,TRUE,FALSE,,Smart,RC,TRUE,TRUE,FALSE,,,TRUE,,FALSE,FALSE,FALSE,FALSE,FALSE,FALSE,FALSE,FALSE,FALSE,FALSE,0,Follow Yaw,0,0,-43.2,316.8,FALSE,FALSE,FALSE,FALSE,FALSE,TRUE,,TRUE,Normal,,100,1024,1024,1030,1024,2,FALSE,FALSE,FALSE,FALSE,FALSE,0,FALSE,FALSE,FALSE,FALSE,71,7.73,1457,2056,7.737,FALSE,3.866,3.864,0.002,FALSE,FALSE,NA,107.2,107.2,107.2,0,0,0,0,5,3173.2,793.32,,Idle,0,20,FALSE,5,TRUE,6,Go Home,FALSE,FALSE,FALSE,FALSE,FALSE,FALSE,FALSE,FALSE,FALSE,FALSE,FALSE,FALSE,6.974226694,79.91415629,3,97.7,328,TRUE,1,1,FALSE,FALSE,FALSE,FALSE,,TRUE,FALSE,FALSE,Course Lock,49.2,,16.4,Calm,33,,1.12.8,Mavic Mini,1SDCH7G0169R0K,1SFLH6Q0AB03DJ,1SRCH7F014TAHX,1U5X071EXP6C9Y,81.4,0.2,3.2,6.023184,2.908022,0,22440,Mavic Mini,1SDCH7G0169R0K,1SFLH6Q0AB03DJ,1SRCH7F014TAHX,1U5X071EXP6C9Y,DJI Fly,,1.12.8,B60E5890-7D2B-9224-34CF-11D447E21797,1SDCH7G0169R0K,,,,,,,,,
2/22/2024,21:39.5,6m 56.9s,416.9,6.974218437,79.91415522,0,0,0.3,50,0.2,0,0,0,0,0,0,0,0,6.1,2.6,-59.7,300.3,,Starting Motors,Drop Calibration,Takeoff (RC Assisted),16,5,TRUE,,Mavic Mini,TRUE,FALSE,,Smart,RC,TRUE,TRUE,FALSE,,,TRUE,,FALSE,FALSE,FALSE,FALSE,FALSE,FALSE,FALSE,FALSE,FALSE,FALSE,0,Follow Yaw,0,0,-43.2,316.8,FALSE,FALSE,FALSE,FALSE,FALSE,TRUE,,TRUE,Normal,,100,1024,1024,1240,1024,2,FALSE,FALSE,FALSE,FALSE,FALSE,0,FALSE,FALSE,FALSE,FALSE,71,7.73,1457,2056,7.737,FALSE,3.866,3.864,0.002,FALSE,FALSE,NA,107.2,107.2,107.2,0,0,0,0,5,3173.2,793.32,,Idle,0,20,FALSE,5,TRUE,6,Go Home,FALSE,FALSE,FALSE,FALSE,FALSE,FALSE,FALSE,FALSE,FALSE,FALSE,FALSE,FALSE,6.974226694,79.91415629,3,97.7,328,TRUE,1,1,FALSE,FALSE,FALSE,FALSE,,TRUE,FALSE,FALSE,Course Lock,49.2,,16.4,Calm,33,,1.12.8,Mavic Mini,1SDCH7G0169R0K,1SFLH6Q0AB03DJ,1SRCH7F014TAHX,1U5X071EXP6C9Y,81.4,0.2,3.2,6.023184,2.908022,0,22440,Mavic Mini,1SDCH7G0169R0K,1SFLH6Q0AB03DJ,1SRCH7F014TAHX,1U5X071EXP6C9Y,DJI Fly,,1.12.8,B60E5890-7D2B-9224-34CF-11D447E21797,1SDCH7G0169R0K,,,,,,,,,
2/22/2024,21:39.6,6m 57.0s,417,6.974218424,79.91415524,0,0,0.3,50,0.2,0,0,0,0,0,0,0,0,6.1,2.5,-59.7,300.3,,Manual Takeoff,Drop Calibration,Takeoff (RC Assisted),16,5,TRUE,,Mavic Mini,TRUE,FALSE,,Smart,RC,TRUE,TRUE,FALSE,,,TRUE,,FALSE,FALSE,FALSE,FALSE,FALSE,FALSE,FALSE,FALSE,FALSE,FALSE,0,Follow Yaw,0,0,-43.2,316.8,FALSE,FALSE,FALSE,FALSE,FALSE,TRUE,,TRUE,Normal,,100,1024,1024,1365,1024,2,FALSE,FALSE,FALSE,FALSE,FALSE,0,FALSE,FALSE,FALSE,FALSE,71,7.73,1457,2056,7.737,FALSE,3.866,3.864,0.002,FALSE,FALSE,NA,107.2,107.2,107.2,0,0,0,0,5,3173.2,793.32,,Idle,0,20,FALSE,5,TRUE,6,Go Home,FALSE,FALSE,FALSE,FALSE,FALSE,FALSE,FALSE,FALSE,FALSE,FALSE,FALSE,FALSE,6.974226694,79.91415629,3,97.7,328,TRUE,1,1,FALSE,FALSE,FALSE,FALSE,,TRUE,FALSE,FALSE,Course Lock,49.2,,16.4,Calm,33,,1.12.8,Mavic Mini,1SDCH7G0169R0K,1SFLH6Q0AB03DJ,1SRCH7F014TAHX,1U5X071EXP6C9Y,81.4,0.2,3.2,6.023184,2.908022,0,22440,Mavic Mini,1SDCH7G0169R0K,1SFLH6Q0AB03DJ,1SRCH7F014TAHX,1U5X071EXP6C9Y,DJI Fly,,1.12.8,B60E5890-7D2B-9224-34CF-11D447E21797,1SDCH7G0169R0K,,,,,,,,Flight mode changed to Manual Takeoff.,
2/22/2024,21:39.7,6m 57.1s,417.1,6.9742184,79.91415525,0,0,0.3,50,0.2,0,0,0,0,0,0,0,0,6.1,2.6,-59.7,300.3,,Manual Takeoff,Drop Calibration,Takeoff (RC Assisted),16,5,TRUE,,Mavic Mini,TRUE,FALSE,,Smart,RC,TRUE,TRUE,FALSE,,,TRUE,,FALSE,FALSE,FALSE,FALSE,FALSE,FALSE,FALSE,FALSE,FALSE,FALSE,0,Follow Yaw,0,0,-43.2,316.8,FALSE,FALSE,FALSE,FALSE,FALSE,TRUE,,TRUE,Normal,,100,1024,1024,1529,1024,2,FALSE,FALSE,FALSE,FALSE,FALSE,0,FALSE,FALSE,FALSE,FALSE,71,7.73,1457,2056,7.737,FALSE,3.866,3.864,0.002,FALSE,FALSE,NA,107.2,107.2,107.2,0,0,0,0,5,3173.2,793.32,,Idle,0,20,FALSE,5,TRUE,6,Go Home,FALSE,FALSE,FALSE,FALSE,FALSE,FALSE,FALSE,FALSE,FALSE,FALSE,FALSE,FALSE,6.974226694,79.91415629,3,97.7,328,TRUE,1,1,FALSE,FALSE,FALSE,FALSE,,TRUE,FALSE,FALSE,Course Lock,49.2,,16.4,Calm,33,,1.12.8,Mavic Mini,1SDCH7G0169R0K,1SFLH6Q0AB03DJ,1SRCH7F014TAHX,1U5X071EXP6C9Y,81.4,0.2,3.2,6.023184,2.908022,0,22440,Mavic Mini,1SDCH7G0169R0K,1SFLH6Q0AB03DJ,1SRCH7F014TAHX,1U5X071EXP6C9Y,DJI Fly,,1.12.8,B60E5890-7D2B-9224-34CF-11D447E21797,1SDCH7G0169R0K,,,,,,,,,
2/22/2024,21:39.8,6m 57.2s,417.2,6.974218349,79.91415525,0,0,0.3,50,0.2,0,0,0,0,0,0,0,0,6.1,2.6,-59.6,300.4,,Manual Takeoff,Drop Calibration,Takeoff (RC Assisted),16,5,TRUE,,Mavic Mini,TRUE,FALSE,,Smart,RC,TRUE,TRUE,FALSE,,,TRUE,,FALSE,FALSE,FALSE,FALSE,FALSE,FALSE,FALSE,FALSE,FALSE,FALSE,0,Follow Yaw,0,0,-43.2,316.8,FALSE,FALSE,FALSE,FALSE,FALSE,TRUE,,TRUE,Normal,,100,1024,1024,1529,1024,2,FALSE,FALSE,FALSE,FALSE,FALSE,0,FALSE,FALSE,FALSE,FALSE,71,7.73,1457,2056,7.737,FALSE,3.866,3.864,0.002,FALSE,FALSE,NA,107.2,107.2,107.2,0,0,0,0,5,3173.2,793.32,,Idle,0,20,FALSE,5,TRUE,6,Go Home,FALSE,FALSE,FALSE,FALSE,FALSE,FALSE,FALSE,FALSE,FALSE,FALSE,FALSE,FALSE,6.974226694,79.91415629,3,97.7,328,TRUE,1,1,FALSE,FALSE,FALSE,FALSE,,TRUE,FALSE,FALSE,Course Lock,49.2,,16.4,Calm,33,,1.12.8,Mavic Mini,1SDCH7G0169R0K,1SFLH6Q0AB03DJ,1SRCH7F014TAHX,1U5X071EXP6C9Y,81.4,0.2,3.2,6.023184,2.908022,0,22440,Mavic Mini,1SDCH7G0169R0K,1SFLH6Q0AB03DJ,1SRCH7F014TAHX,1U5X071EXP6C9Y,DJI Fly,,1.12.8,B60E5890-7D2B-9224-34CF-11D447E21797,1SDCH7G0169R0K,,,,,,,,,
2/22/2024,21:40.0,6m 57.3s,417.3,6.974218352,79.91415526,0,0,0.3,50,0.2,0,0,0,0,0,0,0,0,6.1,2.5,-59.8,300.2,,Manual Takeoff,Drop Calibration,Takeoff (RC Assisted),16,5,TRUE,,Mavic Mini,TRUE,FALSE,,Smart,RC,TRUE,TRUE,FALSE,,,TRUE,,FALSE,FALSE,FALSE,FALSE,FALSE,FALSE,FALSE,FALSE,FALSE,FALSE,0,Follow Yaw,0,0,-43.2,316.8,FALSE,FALSE,FALSE,FALSE,FALSE,TRUE,,TRUE,Normal,,100,1024,1024,1589,1024,2,FALSE,FALSE,FALSE,FALSE,FALSE,0,FALSE,FALSE,FALSE,FALSE,71,7.73,1457,2056,7.737,FALSE,3.866,3.864,0.002,FALSE,FALSE,NA,107.2,107.2,107.2,0,0,0,0,5,3173.2,793.32,,Idle,0,20,FALSE,5,TRUE,6,Go Home,FALSE,FALSE,FALSE,FALSE,FALSE,FALSE,FALSE,FALSE,FALSE,FALSE,FALSE,FALSE,6.974226694,79.91415629,3,97.7,328,TRUE,1,1,FALSE,FALSE,FALSE,FALSE,,TRUE,FALSE,FALSE,Course Lock,49.2,,16.4,Calm,33,,1.12.8,Mavic Mini,1SDCH7G0169R0K,1SFLH6Q0AB03DJ,1SRCH7F014TAHX,1U5X071EXP6C9Y,81.4,0.2,3.2,6.023184,2.908022,0,22440,Mavic Mini,1SDCH7G0169R0K,1SFLH6Q0AB03DJ,1SRCH7F014TAHX,1U5X071EXP6C9Y,DJI Fly,,1.12.8,B60E5890-7D2B-9224-34CF-11D447E21797,1SDCH7G0169R0K,,,,,,,,,
2/22/2024,21:40.1,6m 57.4s,417.4,6.974218343,79.91415531,0,0,0.3,50,0.2,0,0,0,0,0,0,0,0,6,2.4,-59.8,300.2,,Manual Takeoff,Drop Calibration,Takeoff (RC Assisted),16,5,TRUE,,Mavic Mini,TRUE,FALSE,,Smart,RC,TRUE,TRUE,FALSE,,,TRUE,,FALSE,FALSE,FALSE,FALSE,FALSE,FALSE,FALSE,FALSE,FALSE,FALSE,0,Follow Yaw,0,0,-43.2,316.8,FALSE,FALSE,FALSE,FALSE,FALSE,TRUE,,TRUE,Normal,,100,1024,1024,1589,1024,2,FALSE,FALSE,FALSE,FALSE,FALSE,0,FALSE,FALSE,FALSE,FALSE,71,7.73,1457,2056,7.737,FALSE,3.866,3.864,0.002,FALSE,FALSE,NA,107.2,107.2,107.2,0,0,0,0,5,3173.2,793.32,,Idle,0,20,FALSE,5,TRUE,6,Go Home,FALSE,FALSE,FALSE,FALSE,FALSE,FALSE,FALSE,FALSE,FALSE,FALSE,FALSE,FALSE,6.974226694,79.91415629,3,97.7,328,TRUE,1,1,FALSE,FALSE,FALSE,FALSE,,TRUE,FALSE,FALSE,Course Lock,49.2,,16.4,Calm,33,,1.12.8,Mavic Mini,1SDCH7G0169R0K,1SFLH6Q0AB03DJ,1SRCH7F014TAHX,1U5X071EXP6C9Y,81.4,0.2,3.2,6.023184,2.908022,0,22440,Mavic Mini,1SDCH7G0169R0K,1SFLH6Q0AB03DJ,1SRCH7F014TAHX,1U5X071EXP6C9Y,DJI Fly,,1.12.8,B60E5890-7D2B-9224-34CF-11D447E21797,1SDCH7G0169R0K,,,,,,,,,
2/22/2024,21:40.2,6m 57.5s,417.5,6.97421834,79.91415535,0,0,0.3,50,0.2,0,0,0,0,0,0,0,0,5.7,2.4,-60.9,299.1,,Manual Takeoff,Drop Calibration,Takeoff (RC Assisted),16,5,TRUE,,Mavic Mini,TRUE,FALSE,,Smart,RC,TRUE,TRUE,FALSE,,,TRUE,,FALSE,FALSE,FALSE,FALSE,FALSE,FALSE,FALSE,FALSE,FALSE,FALSE,0,Follow Yaw,0,0,-43.6,316.4,FALSE,FALSE,FALSE,FALSE,FALSE,TRUE,,TRUE,Normal,,100,1024,1024,1589,1024,2,FALSE,FALSE,FALSE,FALSE,FALSE,0,FALSE,FALSE,FALSE,FALSE,71,7.73,1457,2056,7.737,FALSE,3.866,3.864,0.002,FALSE,FALSE,NA,107.2,107.2,107.2,0,0,0,0,5,3173.2,793.32,,Idle,0,20,FALSE,5,TRUE,6,Go Home,FALSE,FALSE,FALSE,FALSE,FALSE,FALSE,FALSE,FALSE,FALSE,FALSE,FALSE,FALSE,6.974226694,79.91415629,3,97.7,328,TRUE,1,1,FALSE,FALSE,FALSE,FALSE,,TRUE,FALSE,FALSE,Course Lock,49.2,,16.4,Calm,33,,1.12.8,Mavic Mini,1SDCH7G0169R0K,1SFLH6Q0AB03DJ,1SRCH7F014TAHX,1U5X071EXP6C9Y,81.4,0.2,3.2,6.023184,2.908022,0,22440,Mavic Mini,1SDCH7G0169R0K,1SFLH6Q0AB03DJ,1SRCH7F014TAHX,1U5X071EXP6C9Y,DJI Fly,,1.12.8,B60E5890-7D2B-9224-34CF-11D447E21797,1SDCH7G0169R0K,,,,,,,,,
2/22/2024,21:40.3,6m 57.6s,417.6,6.974218356,79.91415538,0,0,0.3,50,0.2,0,0,0,0,0,0,0,0,5.2,2.6,-62.4,297.6,,Manual Takeoff,Drop Calibration,Takeoff (RC Assisted),16,5,TRUE,,Mavic Mini,TRUE,FALSE,,Smart,RC,TRUE,TRUE,FALSE,,,TRUE,,FALSE,FALSE,FALSE,FALSE,FALSE,FALSE,FALSE,FALSE,FALSE,FALSE,0,Follow Yaw,0,0,-44.9,315.1,FALSE,FALSE,FALSE,FALSE,FALSE,TRUE,,TRUE,Normal,,100,1024,1024,1591,1024,2,FALSE,FALSE,FALSE,FALSE,FALSE,0,FALSE,FALSE,FALSE,FALSE,71,7.73,1457,2056,7.737,FALSE,3.866,3.864,0.002,FALSE,FALSE,NA,107.2,107.2,107.2,0,0,0,0,5,3173.2,793.32,,Idle,0,20,FALSE,5,TRUE,6,Go Home,FALSE,FALSE,FALSE,FALSE,FALSE,FALSE,FALSE,FALSE,FALSE,FALSE,FALSE,FALSE,6.974226694,79.91415629,3,97.7,328,TRUE,1,1,FALSE,FALSE,FALSE,FALSE,,TRUE,FALSE,FALSE,Course Lock,49.2,,16.4,Calm,33,,1.12.8,Mavic Mini,1SDCH7G0169R0K,1SFLH6Q0AB03DJ,1SRCH7F014TAHX,1U5X071EXP6C9Y,81.4,0.2,3.2,6.023184,2.908022,0,22440,Mavic Mini,1SDCH7G0169R0K,1SFLH6Q0AB03DJ,1SRCH7F014TAHX,1U5X071EXP6C9Y,DJI Fly,,1.12.8,B60E5890-7D2B-9224-34CF-11D447E21797,1SDCH7G0169R0K,,,,,,,,,
2/22/2024,21:40.4,6m 57.7s,417.7,6.97421836,79.91415541,0,0,0.3,50,0.3,0,0,0,0,0,0,0,0,4.1,2.7,-62.9,297.1,,Manual Takeoff,Drop Calibration,Takeoff (RC Assisted),16,5,TRUE,,Mavic Mini,TRUE,FALSE,,Smart,RC,TRUE,TRUE,FALSE,,,TRUE,,FALSE,FALSE,FALSE,FALSE,FALSE,FALSE,FALSE,FALSE,FALSE,FALSE,0,Follow Yaw,0,0,-45.8,314.2,FALSE,FALSE,FALSE,FALSE,FALSE,TRUE,,TRUE,Normal,,100,1024,1024,1599,1024,2,FALSE,FALSE,FALSE,FALSE,FALSE,0,FALSE,FALSE,FALSE,FALSE,71,7.73,1457,2056,7.737,FALSE,3.866,3.864,0.002,FALSE,FALSE,NA,107.2,107.2,107.2,0,0,0,0,5,3173.2,793.32,,Idle,0,20,FALSE,5,TRUE,6,Go Home,FALSE,FALSE,FALSE,FALSE,FALSE,FALSE,FALSE,FALSE,FALSE,FALSE,FALSE,FALSE,6.974226694,79.91415629,3,97.7,328,TRUE,1,1,FALSE,FALSE,FALSE,FALSE,,TRUE,FALSE,FALSE,Course Lock,49.2,,16.4,Calm,33,,1.12.8,Mavic Mini,1SDCH7G0169R0K,1SFLH6Q0AB03DJ,1SRCH7F014TAHX,1U5X071EXP6C9Y,81.4,0.2,3.2,6.023184,2.908022,0,22440,Mavic Mini,1SDCH7G0169R0K,1SFLH6Q0AB03DJ,1SRCH7F014TAHX,1U5X071EXP6C9Y,DJI Fly,,1.12.8,B60E5890-7D2B-9224-34CF-11D447E21797,1SDCH7G0169R0K,,,,,,,,,
2/22/2024,21:40.5,6m 57.8s,417.8,6.974218351,79.91415537,0,0,0.3,50,0.3,0,0,0,0,0,0,0,0,1.7,1.4,-63.8,296.2,,Manual Takeoff,Drop Calibration,Takeoff (RC Assisted),16,5,TRUE,,Mavic Mini,TRUE,FALSE,,Smart,RC,TRUE,TRUE,FALSE,,,TRUE,,FALSE,FALSE,FALSE,FALSE,FALSE,FALSE,FALSE,FALSE,FALSE,FALSE,0,Follow Yaw,0,0,-46.3,313.7,FALSE,FALSE,FALSE,FALSE,FALSE,TRUE,,TRUE,Normal,,100,1024,1024,1604,1024,2,FALSE,FALSE,FALSE,FALSE,FALSE,0,FALSE,FALSE,FALSE,FALSE,71,7.73,1457,2056,7.679,FALSE,3.866,3.864,0.002,FALSE,FALSE,NA,107.2,107.2,107.2,0,0,0,0,5,3240.4,810.12,,Idle,0,20,FALSE,5,TRUE,6,Go Home,FALSE,FALSE,FALSE,FALSE,FALSE,FALSE,FALSE,FALSE,FALSE,FALSE,FALSE,FALSE,6.974226694,79.91415629,3,97.7,328,TRUE,1,1,FALSE,FALSE,FALSE,FALSE,,TRUE,FALSE,FALSE,Course Lock,49.2,,16.4,Calm,33,,1.12.8,Mavic Mini,1SDCH7G0169R0K,1SFLH6Q0AB03DJ,1SRCH7F014TAHX,1U5X071EXP6C9Y,81.4,0.2,3.2,6.023184,2.908022,0,22440,Mavic Mini,1SDCH7G0169R0K,1SFLH6Q0AB03DJ,1SRCH7F014TAHX,1U5X071EXP6C9Y,DJI Fly,,1.12.8,B60E5890-7D2B-9224-34CF-11D447E21797,1SDCH7G0169R0K,,,,,6.974227284,79.91417653,5,,
2/22/2024,21:40.6,6m 57.9s,417.9,6.974218404,79.91415546,0,0,0.3,50,0.3,0.316351,0.316351,0.223694,0.223694,0.223694,0.223694,-0.223694,0,-1.1,0,-65.2,294.8,51.3,Manual Takeoff,Drop Calibration,,16,5,TRUE,,Mavic Mini,TRUE,FALSE,,Smart,RC,FALSE,TRUE,FALSE,,,TRUE,,FALSE,FALSE,FALSE,FALSE,FALSE,FALSE,FALSE,FALSE,FALSE,FALSE,0,Follow Yaw,0,0,-47.3,312.7,FALSE,FALSE,FALSE,FALSE,FALSE,TRUE,,TRUE,Normal,,100,1024,1024,1604,1024,2,FALSE,FALSE,FALSE,FALSE,FALSE,0,FALSE,FALSE,FALSE,FALSE,71,7.632,1457,2056,7.679,FALSE,3.82,3.812,0.008,FALSE,FALSE,NA,107.2,107.2,107.2,0,0,0,0,5,3240.4,810.12,,Idle,0,20,FALSE,5,TRUE,6,Go Home,FALSE,FALSE,FALSE,FALSE,FALSE,FALSE,FALSE,FALSE,FALSE,FALSE,FALSE,FALSE,6.974226694,79.91415629,3,97.7,328,TRUE,1,1,FALSE,FALSE,FALSE,FALSE,,TRUE,FALSE,FALSE,Course Lock,49.2,,16.4,Calm,33,,1.12.8,Mavic Mini,1SDCH7G0169R0K,1SFLH6Q0AB03DJ,1SRCH7F014TAHX,1U5X071EXP6C9Y,81.4,0.2,3.2,6.023184,2.908022,0,22440,Mavic Mini,1SDCH7G0169R0K,1SFLH6Q0AB03DJ,1SRCH7F014TAHX,1U5X071EXP6C9Y,DJI Fly,,1.12.8,B60E5890-7D2B-9224-34CF-11D447E21797,1SDCH7G0169R0K,,,,,6.974227284,79.91417653,5,,
2/22/2024,21:40.7,6m 58.0s,418,6.974218534,79.91415558,0,0,0.3,50,0.4,0.223694,0.316351,0.223694,0.223694,0,0.223694,-0.447388,0,-0.4,-1.7,-65.4,294.6,35.8,Tripod,Drop Calibration,,16,5,TRUE,,Mavic Mini,TRUE,FALSE,,Smart,RC,FALSE,TRUE,FALSE,,,TRUE,,FALSE,FALSE,FALSE,FALSE,FALSE,FALSE,FALSE,FALSE,FALSE,FALSE,0,Follow Yaw,0,0,-47.8,312.2,FALSE,FALSE,FALSE,FALSE,FALSE,TRUE,,TRUE,Normal,,100,1024,1024,1604,1024,2,FALSE,FALSE,FALSE,FALSE,FALSE,0,FALSE,FALSE,FALSE,FALSE,71,7.632,1457,2056,7.679,FALSE,3.82,3.812,0.008,FALSE,FALSE,NA,107.2,107.2,107.2,0,0,0,0,5,3240.4,810.12,,Idle,0,20,FALSE,5,TRUE,6,Go Home,FALSE,FALSE,FALSE,FALSE,FALSE,FALSE,FALSE,FALSE,FALSE,FALSE,FALSE,FALSE,6.974226694,79.91415629,2.9,97.7,328,TRUE,1,1,FALSE,FALSE,FALSE,FALSE,,TRUE,FALSE,FALSE,Course Lock,49.2,,16.4,Calm,33,,1.12.8,Mavic Mini,1SDCH7G0169R0K,1SFLH6Q0AB03DJ,1SRCH7F014TAHX,1U5X071EXP6C9Y,81.4,0.2,3.2,6.023184,2.908022,0,22440,Mavic Mini,1SDCH7G0169R0K,1SFLH6Q0AB03DJ,1SRCH7F014TAHX,1U5X071EXP6C9Y,DJI Fly,,1.12.8,B60E5890-7D2B-9224-34CF-11D447E21797,1SDCH7G0169R0K,,,,,6.974227284,79.91417653,5,Flight mode changed to Tripod.,
2/22/2024,21:40.7,6m 58.1s,418.1,6.974218673,79.91415565,0,0,0.6,50,0.4,0.223694,0.316351,0.223694,0.223694,0,0.223694,-0.894776,0,0.1,-2.2,-65.1,294.9,21.1,Tripod,Drop Calibration,,16,5,TRUE,,Mavic Mini,TRUE,FALSE,,Smart,RC,FALSE,TRUE,FALSE,,,TRUE,,FALSE,FALSE,FALSE,FALSE,FALSE,FALSE,FALSE,FALSE,FALSE,FALSE,0,Follow Yaw,0,0,-47.8,312.2,FALSE,FALSE,FALSE,FALSE,FALSE,TRUE,,TRUE,Normal,,100,1024,1024,1599,1024,2,FALSE,FALSE,FALSE,FALSE,FALSE,0,FALSE,FALSE,FALSE,FALSE,71,7.632,1457,2056,7.679,FALSE,3.82,3.812,0.008,FALSE,FALSE,NA,107.2,107.2,107.2,0,0,0,0,5,3240.4,810.12,,Idle,0,20,FALSE,5,TRUE,6,Go Home,FALSE,FALSE,FALSE,FALSE,FALSE,FALSE,FALSE,FALSE,FALSE,FALSE,FALSE,FALSE,6.974226694,79.91415629,2.9,97.7,328,TRUE,1,1,FALSE,FALSE,FALSE,FALSE,,TRUE,FALSE,FALSE,Course Lock,49.2,,16.4,Calm,33,,1.12.8,Mavic Mini,1SDCH7G0169R0K,1SFLH6Q0AB03DJ,1SRCH7F014TAHX,1U5X071EXP6C9Y,81.4,0.2,3.2,6.023184,2.908022,0,22440,Mavic Mini,1SDCH7G0169R0K,1SFLH6Q0AB03DJ,1SRCH7F014TAHX,1U5X071EXP6C9Y,DJI Fly,,1.12.8,B60E5890-7D2B-9224-34CF-11D447E21797,1SDCH7G0169R0K,,,,,6.974227284,79.91417653,5,,
2/22/2024,21:41.0,6m 58.2s,418.2,6.974218868,79.91415566,0,0,0.6,50,0.5,0.223694,0.316351,0.223694,0.223694,0,0.223694,-1.342164,0,0.5,-1.4,-65.2,294.8,2.2,Tripod,Drop Calibration,,16,5,TRUE,,Mavic Mini,TRUE,FALSE,,Smart,RC,FALSE,TRUE,FALSE,,,TRUE,,FALSE,FALSE,FALSE,FALSE,FALSE,FALSE,FALSE,FALSE,FALSE,FALSE,0,Follow Yaw,0,0,-47.8,312.2,FALSE,FALSE,FALSE,FALSE,FALSE,TRUE,,TRUE,Normal,,100,1024,1024,1569,1024,2,FALSE,FALSE,FALSE,FALSE,FALSE,0,FALSE,FALSE,FALSE,FALSE,71,7.632,1457,2056,7.679,FALSE,3.82,3.812,0.008,FALSE,FALSE,NA,107.2,107.2,107.2,0,0,0,0,5,3240.4,810.12,,Idle,0,20,FALSE,5,TRUE,6,Go Home,FALSE,FALSE,FALSE,FALSE,FALSE,FALSE,FALSE,FALSE,FALSE,FALSE,FALSE,FALSE,6.974226694,79.91415629,2.8,97.7,328,TRUE,1,1,FALSE,FALSE,FALSE,FALSE,,TRUE,FALSE,FALSE,Course Lock,49.2,,16.4,Calm,33,,1.12.8,Mavic Mini,1SDCH7G0169R0K,1SFLH6Q0AB03DJ,1SRCH7F014TAHX,1U5X071EXP6C9Y,81.4,0.2,3.2,6.023184,2.908022,0,22440,Mavic Mini,1SDCH7G0169R0K,1SFLH6Q0AB03DJ,1SRCH7F014TAHX,1U5X071EXP6C9Y,DJI Fly,,1.12.8,B60E5890-7D2B-9224-34CF-11D447E21797,1SDCH7G0169R0K,,,,,6.974227284,79.91417653,5,,
2/22/2024,21:41.0,6m 58.3s,418.3,6.974218998,79.91415565,0.3,0.3,0.9,50,0.5,0.223694,0.316351,0.223694,0.223694,0,0.223694,-1.789552,0,1.5,-1.9,-65,295,357.8,Tripod,Drop Calibration,,16,5,TRUE,,Mavic Mini,TRUE,FALSE,,Smart,RC,FALSE,TRUE,FALSE,,,TRUE,,FALSE,FALSE,FALSE,FALSE,FALSE,FALSE,FALSE,FALSE,FALSE,FALSE,0,Follow Yaw,0,0,-47.8,312.2,FALSE,FALSE,FALSE,FALSE,FALSE,TRUE,,TRUE,Normal,,100,1024,1024,1548,1024,2,FALSE,FALSE,FALSE,FALSE,FALSE,0,FALSE,FALSE,FALSE,FALSE,71,7.632,1457,2056,7.679,FALSE,3.82,3.812,0.008,FALSE,FALSE,NA,107.2,107.2,107.2,0,0,0,0,5,3240.4,810.12,,Idle,0,20,FALSE,5,TRUE,6,Go Home,FALSE,FALSE,FALSE,FALSE,FALSE,FALSE,FALSE,FALSE,FALSE,FALSE,FALSE,FALSE,6.974226694,79.91415629,2.8,97.7,328,TRUE,1,1,FALSE,FALSE,FALSE,FALSE,,TRUE,FALSE,FALSE,Course Lock,49.2,,16.4,Calm,33,,1.12.8,Mavic Mini,1SDCH7G0169R0K,1SFLH6Q0AB03DJ,1SRCH7F014TAHX,1U5X071EXP6C9Y,81.4,0.2,3.2,6.023184,2.908022,0,22440,Mavic Mini,1SDCH7G0169R0K,1SFLH6Q0AB03DJ,1SRCH7F014TAHX,1U5X071EXP6C9Y,DJI Fly,,1.12.8,B60E5890-7D2B-9224-34CF-11D447E21797,1SDCH7G0169R0K,,,,,6.974227284,79.91417653,5,,
2/22/2024,21:41.0,6m 58.4s,418.4,6.974219143,79.91415567,0.6,0.6,1.3,50,0.6,0.223694,0.316351,0.223694,0.223694,0,0.223694,-2.23694,0,1.4,-1.5,-64.9,295.1,5.3,Tripod,Drop Calibration,,16,5,TRUE,,Mavic Mini,TRUE,FALSE,,Smart,RC,FALSE,TRUE,FALSE,,,TRUE,,FALSE,FALSE,FALSE,FALSE,FALSE,FALSE,FALSE,FALSE,FALSE,FALSE,0,Follow Yaw,0,0,-47.8,312.2,FALSE,FALSE,FALSE,FALSE,FALSE,TRUE,,TRUE,Normal,,100,1024,1024,1532,1024,2,FALSE,FALSE,FALSE,FALSE,FALSE,0,FALSE,FALSE,FALSE,FALSE,71,7.632,1457,2056,7.679,FALSE,3.82,3.812,0.008,FALSE,FALSE,NA,107.2,107.2,107.2,0,0,0,0,5,3240.4,810.12,,Idle,0,20,FALSE,5,TRUE,6,Go Home,FALSE,FALSE,FALSE,FALSE,FALSE,FALSE,FALSE,FALSE,FALSE,FALSE,FALSE,FALSE,6.974226694,79.91415629,2.7,97.7,328,TRUE,1,1,FALSE,FALSE,FALSE,FALSE,,TRUE,FALSE,FALSE,Course Lock,49.2,,16.4,Calm,33,,1.12.8,Mavic Mini,1SDCH7G0169R0K,1SFLH6Q0AB03DJ,1SRCH7F014TAHX,1U5X071EXP6C9Y,81.4,0.2,3.2,6.023184,2.908022,0,22440,Mavic Mini,1SDCH7G0169R0K,1SFLH6Q0AB03DJ,1SRCH7F014TAHX,1U5X071EXP6C9Y,DJI Fly,,1.12.8,B60E5890-7D2B-9224-34CF-11D447E21797,1SDCH7G0169R0K,,,,,6.974227284,79.91417653,5,,
2/22/2024,21:41.2,6m 58.5s,418.5,6.97421929,79.91415568,0.9,0.9,1.6,51,0.7,0.223694,0.316351,0.223694,0.223694,0,0.223694,-2.460634,0,1.5,-2.1,-64.8,295.2,2.9,Tripod,Drop Calibration,,15,5,TRUE,,Mavic Mini,TRUE,FALSE,,Smart,RC,FALSE,TRUE,FALSE,,,TRUE,,FALSE,FALSE,FALSE,FALSE,FALSE,FALSE,FALSE,FALSE,FALSE,FALSE,0,Follow Yaw,0,0,-47.8,312.2,FALSE,FALSE,FALSE,FALSE,FALSE,TRUE,,TRUE,Normal,,100,1024,1024,1531,1024,2,FALSE,FALSE,FALSE,FALSE,FALSE,0,FALSE,FALSE,FALSE,FALSE,71,7.632,1457,2056,7.679,FALSE,3.82,3.812,0.008,FALSE,FALSE,NA,107.2,107.2,107.2,0,0,0,0,5,3240.4,810.12,,Idle,0,20,FALSE,5,TRUE,6,Go Home,FALSE,FALSE,FALSE,FALSE,FALSE,FALSE,FALSE,FALSE,FALSE,FALSE,FALSE,FALSE,6.974226694,79.91415629,2.7,97.7,328,TRUE,1,1,FALSE,FALSE,FALSE,FALSE,,TRUE,FALSE,FALSE,Course Lock,49.2,,16.4,Calm,33,,1.12.8,Mavic Mini,1SDCH7G0169R0K,1SFLH6Q0AB03DJ,1SRCH7F014TAHX,1U5X071EXP6C9Y,81.4,0.2,3.2,6.023184,2.908022,0,22440,Mavic Mini,1SDCH7G0169R0K,1SFLH6Q0AB03DJ,1SRCH7F014TAHX,1U5X071EXP6C9Y,DJI Fly,,1.12.8,B60E5890-7D2B-9224-34CF-11D447E21797,1SDCH7G0169R0K,,,,,6.974227284,79.91417653,5,,
2/22/2024,21:41.3,6m 58.6s,418.6,6.974219555,79.91415573,1.3,1.3,1.9,51,0.7,0.223694,0.316351,0.223694,0.223694,0,0.223694,-2.684328,0,2,-2.2,-64.9,295.1,8.3,Tripod,Drop Calibration,,15,5,TRUE,,Mavic Mini,TRUE,FALSE,,Smart,RC,FALSE,TRUE,FALSE,,,TRUE,,FALSE,FALSE,FALSE,FALSE,FALSE,FALSE,FALSE,FALSE,FALSE,FALSE,0,Follow Yaw,0,0,-47.8,312.2,FALSE,FALSE,FALSE,FALSE,FALSE,TRUE,,TRUE,Normal,,100,1024,1024,1523,1024,2,FALSE,FALSE,FALSE,FALSE,FALSE,0,FALSE,FALSE,FALSE,FALSE,71,7.632,1457,2056,7.679,FALSE,3.82,3.812,0.008,FALSE,FALSE,NA,107.2,107.2,107.2,0,0,0,0,5,3240.4,810.12,,Idle,0,20,FALSE,5,TRUE,6,Go Home,FALSE,FALSE,FALSE,FALSE,FALSE,FALSE,FALSE,FALSE,FALSE,FALSE,FALSE,FALSE,6.974226694,79.91415629,2.6,97.7,328,TRUE,1,1,FALSE,FALSE,FALSE,FALSE,,TRUE,FALSE,FALSE,Course Lock,49.2,,16.4,Calm,33,,1.12.8,Mavic Mini,1SDCH7G0169R0K,1SFLH6Q0AB03DJ,1SRCH7F014TAHX,1U5X071EXP6C9Y,81.4,0.2,3.2,6.023184,2.908022,0,22440,Mavic Mini,1SDCH7G0169R0K,1SFLH6Q0AB03DJ,1SRCH7F014TAHX,1U5X071EXP6C9Y,DJI Fly,,1.12.8,B60E5890-7D2B-9224-34CF-11D447E21797,1SDCH7G0169R0K,,,,,6.974227284,79.91417653,5,,
2/22/2024,21:41.4,6m 58.7s,418.7,6.974219703,79.9141557,1.6,1.6,2.2,51,0.8,0.223694,0.316351,0.223694,0.223694,0,0.223694,-2.684328,0,2.5,-2.3,-64.9,295.1,349.6,Tripod,Drop Calibration,,16,5,TRUE,,Mavic Mini,TRUE,FALSE,,Smart,RC,FALSE,TRUE,FALSE,,,TRUE,,FALSE,FALSE,FALSE,FALSE,FALSE,FALSE,FALSE,FALSE,FALSE,FALSE,0,Follow Yaw,0,0,-47.8,312.2,FALSE,FALSE,FALSE,FALSE,FALSE,TRUE,,TRUE,Normal,,100,1024,1024,1487,1024,2,FALSE,FALSE,FALSE,FALSE,FALSE,0,FALSE,FALSE,FALSE,FALSE,71,7.632,1457,2056,7.679,FALSE,3.82,3.812,0.008,FALSE,FALSE,NA,107.2,107.2,107.2,0,0,0,0,5,3240.4,810.12,,Idle,0,20,FALSE,5,TRUE,6,Go Home,FALSE,FALSE,FALSE,FALSE,FALSE,FALSE,FALSE,FALSE,FALSE,FALSE,FALSE,FALSE,6.974226694,79.91415629,2.5,97.7,328,TRUE,1,1,FALSE,FALSE,FALSE,FALSE,,TRUE,FALSE,FALSE,Course Lock,49.2,,16.4,Calm,33,,1.12.8,Mavic Mini,1SDCH7G0169R0K,1SFLH6Q0AB03DJ,1SRCH7F014TAHX,1U5X071EXP6C9Y,81.4,0.2,3.2,6.023184,2.908022,0,22440,Mavic Mini,1SDCH7G0169R0K,1SFLH6Q0AB03DJ,1SRCH7F014TAHX,1U5X071EXP6C9Y,DJI Fly,,1.12.8,B60E5890-7D2B-9224-34CF-11D447E21797,1SDCH7G0169R0K,,,,,6.974227284,79.91417653,5,,
2/22/2024,21:41.5,6m 58.8s,418.8,6.974219841,79.9141556,1.9,1.9,2.6,52,0.9,0.223694,0.316351,0.223694,0.223694,0,0.223694,-2.460634,0,2.4,-2.2,-64.9,295.1,331.6,Tripod,Drop Calibration,,16,5,TRUE,,Mavic Mini,TRUE,FALSE,,Smart,RC,FALSE,TRUE,FALSE,,,TRUE,,FALSE,FALSE,FALSE,FALSE,FALSE,FALSE,FALSE,FALSE,FALSE,FALSE,0,Follow Yaw,0,0,-47.8,312.2,FALSE,FALSE,FALSE,FALSE,FALSE,TRUE,,TRUE,Normal,,100,1024,1024,1464,1024,2,FALSE,FALSE,FALSE,FALSE,FALSE,0,FALSE,FALSE,FALSE,FALSE,71,7.632,1457,2056,7.65,FALSE,3.82,3.812,0.008,FALSE,FALSE,NA,107.2,107.2,107.2,0,0,4,0,5,3508.7,877.19,,Idle,0,20,FALSE,5,TRUE,6,Go Home,FALSE,FALSE,FALSE,FALSE,FALSE,FALSE,FALSE,FALSE,FALSE,FALSE,FALSE,FALSE,6.974218421,79.91415548,0.5,97.7,328,TRUE,1,1,FALSE,FALSE,FALSE,FALSE,,TRUE,FALSE,FALSE,Course Lock,49.2,,16.4,Calm,33,,1.12.8,Mavic Mini,1SDCH7G0169R0K,1SFLH6Q0AB03DJ,1SRCH7F014TAHX,1U5X071EXP6C9Y,81.4,0.2,3.2,6.023184,2.908022,0,22440,Mavic Mini,1SDCH7G0169R0K,1SFLH6Q0AB03DJ,1SRCH7F014TAHX,1U5X071EXP6C9Y,DJI Fly,,1.12.8,B60E5890-7D2B-9224-34CF-11D447E21797,1SDCH7G0169R0K,,,,,6.974227284,79.91417653,5,Home Point Updated.,
2/22/2024,21:41.6,6m 58.9s,418.9,6.974219929,79.91415553,2.2,2.2,2.9,52,0.9,0.223694,0.316351,0.223694,0.223694,0,0.223694,-2.460634,0,2.4,-2,-64.9,295.1,328,Tripod,Drop Calibration,,16,5,TRUE,,Mavic Mini,TRUE,FALSE,,Smart,RC,FALSE,TRUE,FALSE,,,TRUE,,FALSE,FALSE,FALSE,FALSE,FALSE,FALSE,FALSE,FALSE,FALSE,FALSE,0,Follow Yaw,0,0,-47.8,312.2,FALSE,FALSE,FALSE,FALSE,FALSE,TRUE,,TRUE,Normal,,100,1024,1024,1464,1024,2,FALSE,FALSE,FALSE,FALSE,FALSE,0,FALSE,FALSE,FALSE,FALSE,71,7.632,1457,2056,7.65,FALSE,3.82,3.812,0.008,FALSE,FALSE,NA,107.2,107.2,107.2,0,0,4,0,5,3508.7,877.19,,Idle,0,20,FALSE,5,TRUE,6,Go Home,FALSE,FALSE,FALSE,FALSE,FALSE,FALSE,FALSE,FALSE,FALSE,FALSE,FALSE,FALSE,6.974218421,79.91415548,0.5,97.7,328,TRUE,1,1,FALSE,FALSE,FALSE,FALSE,,TRUE,FALSE,FALSE,Course Lock,49.2,,16.4,Calm,33,,1.12.8,Mavic Mini,1SDCH7G0169R0K,1SFLH6Q0AB03DJ,1SRCH7F014TAHX,1U5X071EXP6C9Y,81.4,0.2,3.2,6.023184,2.908022,0,22440,Mavic Mini,1SDCH7G0169R0K,1SFLH6Q0AB03DJ,1SRCH7F014TAHX,1U5X071EXP6C9Y,DJI Fly,,1.12.8,B60E5890-7D2B-9224-34CF-11D447E21797,1SDCH7G0169R0K,,,,,6.974227284,79.91417653,5,Home Point updated. RTH altitude adjusted to 15 m! (Code: 120852).,
2/22/2024,21:41.7,6m 59.0s,419,6.974219841,79.91415538,2.6,2.6,3.6,52,1,0,0.316351,0,0.223694,0,0.223694,-2.23694,0,2.3,-2.3,-64.9,295.1,,Tripod,Drop Calibration,,16,5,TRUE,,Mavic Mini,TRUE,FALSE,,Smart,RC,FALSE,TRUE,FALSE,,,TRUE,,FALSE,FALSE,FALSE,FALSE,FALSE,FALSE,FALSE,FALSE,FALSE,FALSE,0,Follow Yaw,0,0,-47.8,312.2,FALSE,FALSE,FALSE,FALSE,FALSE,TRUE,,TRUE,Normal,,100,1024,1024,1462,1024,2,FALSE,FALSE,FALSE,FALSE,FALSE,0,FALSE,FALSE,FALSE,FALSE,71,7.632,1457,2056,7.65,FALSE,3.82,3.812,0.008,FALSE,FALSE,NA,107.2,107.2,107.2,0,0,4,0,5,3508.7,877.19,,Idle,0,20,FALSE,5,TRUE,6,Go Home,FALSE,FALSE,FALSE,FALSE,FALSE,FALSE,FALSE,FALSE,FALSE,FALSE,FALSE,FALSE,6.974218421,79.91415548,0.5,97.7,328,TRUE,1,1,FALSE,FALSE,FALSE,FALSE,,TRUE,FALSE,FALSE,Course Lock,49.2,,16.4,Calm,33,,1.12.8,Mavic Mini,1SDCH7G0169R0K,1SFLH6Q0AB03DJ,1SRCH7F014TAHX,1U5X071EXP6C9Y,81.4,0.2,3.2,6.023184,2.908022,0,22440,Mavic Mini,1SDCH7G0169R0K,1SFLH6Q0AB03DJ,1SRCH7F014TAHX,1U5X071EXP6C9Y,DJI Fly,,1.12.8,B60E5890-7D2B-9224-34CF-11D447E21797,1SDCH7G0169R0K,,,,,6.974227284,79.91417653,5,,
2/22/2024,21:41.7,6m 59.1s,419.1,6.974219874,79.91415533,2.9,2.9,3.9,53,1,0,0.316351,0,0.223694,0,0.223694,-2.23694,0,2.3,-2.4,-64.8,295.2,,Tripod,Drop Calibration,,16,5,TRUE,,Mavic Mini,TRUE,FALSE,,Smart,RC,FALSE,TRUE,FALSE,,,TRUE,,FALSE,FALSE,FALSE,FALSE,FALSE,FALSE,FALSE,FALSE,FALSE,FALSE,0,Follow Yaw,0,0,-47.8,312.2,FALSE,FALSE,FALSE,FALSE,FALSE,TRUE,,TRUE,Normal,,100,1024,1024,1443,1024,2,FALSE,FALSE,FALSE,FALSE,FALSE,0,FALSE,FALSE,FALSE,FALSE,71,7.564,1455,2056,7.65,FALSE,3.784,3.78,0.008,FALSE,FALSE,NA,107.2,107.2,107.2,0,0,4,0,5,3508.7,877.19,,Idle,0,20,FALSE,5,TRUE,6,Go Home,FALSE,FALSE,FALSE,FALSE,FALSE,FALSE,FALSE,FALSE,FALSE,FALSE,FALSE,FALSE,6.974218421,79.91415548,0.5,97.7,328,TRUE,1,1,FALSE,FALSE,FALSE,FALSE,,TRUE,FALSE,FALSE,Course Lock,49.2,,16.4,Calm,33,,1.12.8,Mavic Mini,1SDCH7G0169R0K,1SFLH6Q0AB03DJ,1SRCH7F014TAHX,1U5X071EXP6C9Y,81.4,0.2,3.2,6.023184,2.908022,0,22440,Mavic Mini,1SDCH7G0169R0K,1SFLH6Q0AB03DJ,1SRCH7F014TAHX,1U5X071EXP6C9Y,DJI Fly,,1.12.8,B60E5890-7D2B-9224-34CF-11D447E21797,1SDCH7G0169R0K,,,,,6.974227284,79.91417653,5,,
2/22/2024,21:41.8,6m 59.2s,419.2,6.974219945,79.91415521,3.2,3.2,4.2,53,1,0,0.316351,0,0.223694,0,0.223694,-2.013246,0,2.1,-2.6,-64.8,295.2,,Tripod,Drop Calibration,,16,5,TRUE,,Mavic Mini,TRUE,FALSE,,Smart,RC,FALSE,TRUE,FALSE,,,TRUE,,FALSE,FALSE,FALSE,FALSE,FALSE,FALSE,FALSE,FALSE,FALSE,FALSE,0,Follow Yaw,0,0,-47.8,312.2,FALSE,FALSE,FALSE,FALSE,FALSE,TRUE,,TRUE,Normal,,100,1024,1024,1375,1024,2,FALSE,FALSE,FALSE,FALSE,FALSE,0,FALSE,FALSE,FALSE,FALSE,71,7.564,1455,2056,7.65,FALSE,3.784,3.78,0.008,FALSE,FALSE,NA,107.2,107.2,107.2,0,0,4,0,5,3508.7,877.19,,Idle,0,20,FALSE,5,TRUE,6,Go Home,FALSE,FALSE,FALSE,FALSE,FALSE,FALSE,FALSE,FALSE,FALSE,FALSE,FALSE,FALSE,6.974218421,79.91415548,0.5,97.7,328,TRUE,1,1,FALSE,FALSE,FALSE,FALSE,,TRUE,FALSE,FALSE,Course Lock,49.2,,16.4,Calm,33,,1.12.8,Mavic Mini,1SDCH7G0169R0K,1SFLH6Q0AB03DJ,1SRCH7F014TAHX,1U5X071EXP6C9Y,81.4,0.2,3.2,6.023184,2.908022,0,22440,Mavic Mini,1SDCH7G0169R0K,1SFLH6Q0AB03DJ,1SRCH7F014TAHX,1U5X071EXP6C9Y,DJI Fly,,1.12.8,B60E5890-7D2B-9224-34CF-11D447E21797,1SDCH7G0169R0K,,,,,6.974227284,79.91417653,5,,
2/22/2024,21:41.9,6m 59.3s,419.3,6.974220003,79.91415515,3.6,3.6,4.5,53,1.1,0,0.316351,0,0.223694,0,0.223694,-2.013246,0,1.9,-2.8,-64.7,295.3,,Tripod,Drop Calibration,,16,5,TRUE,,Mavic Mini,TRUE,FALSE,,Smart,RC,FALSE,TRUE,FALSE,,,TRUE,,FALSE,FALSE,FALSE,FALSE,FALSE,FALSE,FALSE,FALSE,FALSE,FALSE,0,Follow Yaw,0,0,-47.8,312.2,FALSE,FALSE,FALSE,FALSE,FALSE,TRUE,,TRUE,Normal,,100,1024,1024,1254,1024,2,FALSE,FALSE,FALSE,FALSE,FALSE,0,FALSE,FALSE,FALSE,FALSE,71,7.564,1455,2056,7.65,FALSE,3.784,3.78,0.008,FALSE,FALSE,NA,107.2,107.2,107.2,0,0,4,0,5,3508.7,877.19,,Idle,0,20,FALSE,5,TRUE,6,Go Home,FALSE,FALSE,FALSE,FALSE,FALSE,FALSE,FALSE,FALSE,FALSE,FALSE,FALSE,FALSE,6.974218421,79.91415548,0.5,97.7,328,TRUE,1,1,FALSE,FALSE,FALSE,FALSE,,TRUE,FALSE,FALSE,Course Lock,49.2,,16.4,Calm,33,,1.12.8,Mavic Mini,1SDCH7G0169R0K,1SFLH6Q0AB03DJ,1SRCH7F014TAHX,1U5X071EXP6C9Y,81.4,0.2,3.2,6.023184,2.908022,0,22440,Mavic Mini,1SDCH7G0169R0K,1SFLH6Q0AB03DJ,1SRCH7F014TAHX,1U5X071EXP6C9Y,DJI Fly,,1.12.8,B60E5890-7D2B-9224-34CF-11D447E21797,1SDCH7G0169R0K,,,,,6.974227284,79.91417653,5,,
2/22/2024,21:42.2,6m 59.4s,419.4,6.97422005,79.9141552,3.9,3.9,4.9,54,1.1,0,0.316351,0,0.223694,0,0.223694,-1.789552,0,1.7,-2.8,-64.7,295.3,,Tripod,Drop Calibration,,16,5,TRUE,,Mavic Mini,TRUE,FALSE,,Smart,RC,FALSE,TRUE,FALSE,,,TRUE,,FALSE,FALSE,FALSE,FALSE,FALSE,FALSE,FALSE,FALSE,FALSE,FALSE,0,Follow Yaw,0,0,-47.8,312.2,FALSE,FALSE,FALSE,FALSE,FALSE,TRUE,,TRUE,Normal,,100,1024,1024,1123,1024,2,FALSE,FALSE,FALSE,FALSE,FALSE,0,FALSE,FALSE,FALSE,FALSE,71,7.564,1455,2056,7.65,FALSE,3.784,3.78,0.008,FALSE,FALSE,NA,107.2,107.2,107.2,0,0,4,0,5,3508.7,877.19,,Idle,0,20,FALSE,5,TRUE,6,Go Home,FALSE,FALSE,FALSE,FALSE,FALSE,FALSE,FALSE,FALSE,FALSE,FALSE,FALSE,FALSE,6.974218421,79.91415548,0.6,97.7,328,TRUE,1,1,FALSE,FALSE,FALSE,FALSE,,TRUE,FALSE,FALSE,Course Lock,49.2,,16.4,Calm,33,,1.12.8,Mavic Mini,1SDCH7G0169R0K,1SFLH6Q0AB03DJ,1SRCH7F014TAHX,1U5X071EXP6C9Y,81.4,0.2,3.2,6.023184,2.908022,0,22440,Mavic Mini,1SDCH7G0169R0K,1SFLH6Q0AB03DJ,1SRCH7F014TAHX,1U5X071EXP6C9Y,DJI Fly,,1.12.8,B60E5890-7D2B-9224-34CF-11D447E21797,1SDCH7G0169R0K,,,,,6.974227284,79.91417653,5,,
2/22/2024,21:42.2,6m 59.5s,419.5,6.974220113,79.91415523,3.9,3.9,4.9,54,1.1,0,0.316351,0,0.223694,0,0.223694,-1.565858,0,1.5,-3,-64.7,295.3,,Tripod,Drop Calibration,,16,5,TRUE,,Mavic Mini,TRUE,FALSE,,Smart,RC,FALSE,TRUE,FALSE,,,TRUE,,FALSE,FALSE,FALSE,FALSE,FALSE,FALSE,FALSE,FALSE,FALSE,FALSE,0,Follow Yaw,0,0,-47.8,312.2,FALSE,FALSE,FALSE,FALSE,FALSE,TRUE,,TRUE,Normal,,100,1024,1024,1026,1024,2,FALSE,FALSE,FALSE,FALSE,FALSE,0,FALSE,FALSE,FALSE,FALSE,71,7.564,1455,2056,7.65,FALSE,3.784,3.78,0.008,FALSE,FALSE,NA,107.2,107.2,107.2,0,0,4,0,5,3508.7,877.19,,Idle,0,20,FALSE,5,TRUE,6,Go Home,FALSE,FALSE,FALSE,FALSE,FALSE,FALSE,FALSE,FALSE,FALSE,FALSE,FALSE,FALSE,6.974218421,79.91415548,0.6,97.7,328,TRUE,1,1,FALSE,FALSE,FALSE,FALSE,,TRUE,FALSE,FALSE,Course Lock,49.2,,16.4,Calm,33,,1.12.8,Mavic Mini,1SDCH7G0169R0K,1SFLH6Q0AB03DJ,1SRCH7F014TAHX,1U5X071EXP6C9Y,81.4,0.2,3.2,6.023184,2.908022,0,22440,Mavic Mini,1SDCH7G0169R0K,1SFLH6Q0AB03DJ,1SRCH7F014TAHX,1U5X071EXP6C9Y,DJI Fly,,1.12.8,B60E5890-7D2B-9224-34CF-11D447E21797,1SDCH7G0169R0K,,,,,6.974227284,79.91417653,5,,
2/22/2024,21:42.2,6m 59.6s,419.6,6.97422016,79.91415523,4.2,4.2,5.2,54,1.1,0,0.316351,0,0.223694,0,0.223694,-1.11847,0,1.6,-3.1,-64.7,295.3,,Tripod,Drop Calibration,,16,5,TRUE,,Mavic Mini,TRUE,FALSE,,Smart,RC,FALSE,TRUE,FALSE,,,TRUE,,FALSE,FALSE,FALSE,FALSE,FALSE,FALSE,FALSE,FALSE,FALSE,FALSE,0,Follow Yaw,0,0,-47.8,312.2,FALSE,FALSE,FALSE,FALSE,FALSE,TRUE,,TRUE,Normal,,100,1024,1024,1024,1024,2,FALSE,FALSE,FALSE,FALSE,FALSE,0,FALSE,FALSE,FALSE,FALSE,71,7.564,1455,2056,7.65,FALSE,3.784,3.78,0.008,FALSE,FALSE,NA,107.2,107.2,107.2,0,0,4,0,5,3508.7,877.19,,Idle,0,20,FALSE,5,TRUE,6,Go Home,FALSE,FALSE,FALSE,FALSE,FALSE,FALSE,FALSE,FALSE,FALSE,FALSE,FALSE,FALSE,6.974218421,79.91415548,0.6,97.7,328,TRUE,1,1,FALSE,FALSE,FALSE,FALSE,,TRUE,FALSE,FALSE,Course Lock,49.2,,16.4,Calm,33,,1.12.8,Mavic Mini,1SDCH7G0169R0K,1SFLH6Q0AB03DJ,1SRCH7F014TAHX,1U5X071EXP6C9Y,81.4,0.2,3.2,6.023184,2.908022,0,22440,Mavic Mini,1SDCH7G0169R0K,1SFLH6Q0AB03DJ,1SRCH7F014TAHX,1U5X071EXP6C9Y,DJI Fly,,1.12.8,B60E5890-7D2B-9224-34CF-11D447E21797,1SDCH7G0169R0K,,,,,6.974227284,79.91417653,5,,
2/22/2024,21:42.4,6m 59.7s,419.7,6.974220203,79.91415521,4.2,4.2,5.5,54,1.2,0,0.316351,0,0.223694,0,0.223694,-0.671082,0,1.5,-3,-64.7,295.3,,Tripod,Drop Calibration,,16,5,TRUE,,Mavic Mini,TRUE,FALSE,,Smart,RC,FALSE,TRUE,FALSE,,,TRUE,,FALSE,FALSE,FALSE,FALSE,FALSE,FALSE,FALSE,FALSE,FALSE,FALSE,0,Follow Yaw,0,0,-47.8,312.2,FALSE,FALSE,FALSE,FALSE,FALSE,TRUE,,TRUE,Normal,,100,1024,1024,1024,1024,2,FALSE,FALSE,FALSE,FALSE,FALSE,0,FALSE,FALSE,FALSE,FALSE,71,7.564,1455,2056,7.65,FALSE,3.784,3.78,0.008,FALSE,FALSE,NA,107.2,107.2,107.2,0,0,4,0,5,3508.7,877.19,,Idle,0,20,FALSE,5,TRUE,6,Go Home,FALSE,FALSE,FALSE,FALSE,FALSE,FALSE,FALSE,FALSE,FALSE,FALSE,FALSE,FALSE,6.974218421,79.91415548,0.6,97.7,328,TRUE,1,1,FALSE,FALSE,FALSE,FALSE,,TRUE,FALSE,FALSE,Course Lock,49.2,,16.4,Calm,33,,1.12.8,Mavic Mini,1SDCH7G0169R0K,1SFLH6Q0AB03DJ,1SRCH7F014TAHX,1U5X071EXP6C9Y,81.4,0.2,3.2,6.023184,2.908022,0,22440,Mavic Mini,1SDCH7G0169R0K,1SFLH6Q0AB03DJ,1SRCH7F014TAHX,1U5X071EXP6C9Y,DJI Fly,,1.12.8,B60E5890-7D2B-9224-34CF-11D447E21797,1SDCH7G0169R0K,,,,,6.974227284,79.91417653,5,,
2/22/2024,21:42.5,6m 59.8s,419.8,6.974220253,79.91415516,4.2,4.2,5.5,54,1.2,0,0.316351,0,0.223694,0,0.223694,-0.447388,0,1.4,-2.9,-64.6,295.4,,Tripod,Drop Calibration,,16,5,TRUE,,Mavic Mini,TRUE,FALSE,,Smart,RC,FALSE,TRUE,FALSE,,,TRUE,,FALSE,FALSE,FALSE,FALSE,FALSE,FALSE,FALSE,FALSE,FALSE,FALSE,0,Follow Yaw,0,0,-47.8,312.2,FALSE,FALSE,FALSE,FALSE,FALSE,TRUE,,TRUE,Normal,,100,1024,1024,1024,1024,2,FALSE,FALSE,FALSE,FALSE,FALSE,0,FALSE,FALSE,FALSE,FALSE,71,7.564,1455,2056,7.571,FALSE,3.784,3.78,0.008,FALSE,FALSE,NA,107.2,107.2,107.2,0,0,4,0,5,4419.9,1104.98,,Idle,0,20,FALSE,5,TRUE,6,Go Home,FALSE,FALSE,FALSE,FALSE,FALSE,FALSE,FALSE,FALSE,FALSE,FALSE,FALSE,FALSE,6.974218421,79.91415548,0.6,97.7,328,TRUE,1,1,FALSE,FALSE,FALSE,FALSE,,TRUE,FALSE,FALSE,Course Lock,49.2,,16.4,Calm,33,,1.12.8,Mavic Mini,1SDCH7G0169R0K,1SFLH6Q0AB03DJ,1SRCH7F014TAHX,1U5X071EXP6C9Y,81.4,0.2,3.2,6.023184,2.908022,0,22440,Mavic Mini,1SDCH7G0169R0K,1SFLH6Q0AB03DJ,1SRCH7F014TAHX,1U5X071EXP6C9Y,DJI Fly,,1.12.8,B60E5890-7D2B-9224-34CF-11D447E21797,1SDCH7G0169R0K,,,,,6.974227284,79.91417653,5,,
2/22/2024,21:42.6,6m 59.9s,419.9,6.974220373,79.9141551,4.2,4.2,5.5,54,1.2,0,0.316351,0,0.223694,0,0.223694,0,0,1.6,-2.7,-64.6,295.4,,Tripod,Drop Calibration,,16,5,TRUE,,Mavic Mini,TRUE,FALSE,,Smart,RC,FALSE,TRUE,FALSE,,,TRUE,,FALSE,FALSE,FALSE,FALSE,FALSE,FALSE,FALSE,FALSE,FALSE,FALSE,0,Follow Yaw,0,0,-47.8,312.2,FALSE,FALSE,FALSE,FALSE,FALSE,TRUE,,TRUE,Normal,,100,1024,1024,1024,1024,2,FALSE,FALSE,FALSE,FALSE,FALSE,0,FALSE,FALSE,FALSE,FALSE,71,7.564,1455,2056,7.571,FALSE,3.784,3.78,0.008,FALSE,FALSE,NA,107.2,107.2,107.2,0,0,4,0,5,4419.9,1104.98,,Idle,0,20,FALSE,5,TRUE,6,Go Home,FALSE,FALSE,FALSE,FALSE,FALSE,FALSE,FALSE,FALSE,FALSE,FALSE,FALSE,FALSE,6.974218421,79.91415548,0.7,97.7,328,TRUE,1,1,FALSE,FALSE,FALSE,FALSE,,TRUE,FALSE,FALSE,Course Lock,49.2,,16.4,Calm,33,,1.12.8,Mavic Mini,1SDCH7G0169R0K,1SFLH6Q0AB03DJ,1SRCH7F014TAHX,1U5X071EXP6C9Y,81.4,0.2,3.2,6.023184,2.908022,0,22440,Mavic Mini,1SDCH7G0169R0K,1SFLH6Q0AB03DJ,1SRCH7F014TAHX,1U5X071EXP6C9Y,DJI Fly,,1.12.8,B60E5890-7D2B-9224-34CF-11D447E21797,1SDCH7G0169R0K,,,,,6.974227284,79.91417653,5,,
2/22/2024,21:42.7,7m 0.0s,420,6.974220383,79.91415517,4.2,4.2,5.5,54,1.3,0,0.316351,0,0.223694,0,0.223694,0,0,1.9,-2.7,-64.7,295.3,,Tripod,Drop Calibration,,16,5,TRUE,,Mavic Mini,TRUE,FALSE,,Smart,RC,FALSE,TRUE,FALSE,,,TRUE,,FALSE,FALSE,FALSE,FALSE,FALSE,FALSE,FALSE,FALSE,FALSE,FALSE,0,Follow Yaw,0,0,-47.8,312.2,FALSE,FALSE,FALSE,FALSE,FALSE,TRUE,,TRUE,Normal,,100,1024,1024,1024,1024,2,FALSE,FALSE,FALSE,FALSE,FALSE,0,FALSE,FALSE,FALSE,FALSE,71,7.564,1455,2056,7.571,FALSE,3.784,3.78,0.008,FALSE,FALSE,NA,107.2,107.2,107.2,0,0,4,0,5,4419.9,1104.98,,Idle,0,20,FALSE,5,TRUE,6,Go Home,FALSE,FALSE,FALSE,FALSE,FALSE,FALSE,FALSE,FALSE,FALSE,FALSE,FALSE,FALSE,6.974218421,79.91415548,0.7,97.7,328,TRUE,1,1,FALSE,FALSE,FALSE,FALSE,,TRUE,FALSE,FALSE,Course Lock,49.2,,16.4,Calm,33,,1.12.8,Mavic Mini,1SDCH7G0169R0K,1SFLH6Q0AB03DJ,1SRCH7F014TAHX,1U5X071EXP6C9Y,81.4,0.2,3.2,6.023184,2.908022,0,22440,Mavic Mini,1SDCH7G0169R0K,1SFLH6Q0AB03DJ,1SRCH7F014TAHX,1U5X071EXP6C9Y,DJI Fly,,1.12.8,B60E5890-7D2B-9224-34CF-11D447E21797,1SDCH7G0169R0K,,,,,6.974227284,79.91417653,5,,
2/22/2024,21:42.8,7m 0.1s,420.1,6.974220403,79.91415523,4.2,4.2,5.5,54,1.3,0,0.316351,0,0.223694,0,0.223694,0,0,1.9,-2.6,-64.7,295.3,,Tripod,Drop Calibration,,16,5,TRUE,,Mavic Mini,TRUE,FALSE,,Smart,RC,FALSE,TRUE,FALSE,,,TRUE,,FALSE,FALSE,FALSE,FALSE,FALSE,FALSE,FALSE,FALSE,FALSE,FALSE,0,Follow Yaw,0,0,-47.8,312.2,FALSE,FALSE,FALSE,FALSE,FALSE,TRUE,,TRUE,Normal,,100,1024,1024,1024,1024,2,FALSE,FALSE,FALSE,FALSE,FALSE,0,FALSE,FALSE,FALSE,FALSE,71,7.564,1455,2056,7.571,FALSE,3.784,3.78,0.008,FALSE,FALSE,NA,107.2,107.2,107.2,0,0,4,0,5,4419.9,1104.98,,Idle,0,20,FALSE,5,TRUE,6,Go Home,FALSE,FALSE,FALSE,FALSE,FALSE,FALSE,FALSE,FALSE,FALSE,FALSE,FALSE,FALSE,6.974218421,79.91415548,0.7,97.7,328,TRUE,1,1,FALSE,FALSE,FALSE,FALSE,,TRUE,FALSE,FALSE,Course Lock,49.2,,16.4,Calm,33,,1.12.8,Mavic Mini,1SDCH7G0169R0K,1SFLH6Q0AB03DJ,1SRCH7F014TAHX,1U5X071EXP6C9Y,81.4,0.2,3.2,6.023184,2.908022,0,22440,Mavic Mini,1SDCH7G0169R0K,1SFLH6Q0AB03DJ,1SRCH7F014TAHX,1U5X071EXP6C9Y,DJI Fly,,1.12.8,B60E5890-7D2B-9224-34CF-11D447E21797,1SDCH7G0169R0K,,,,,6.974227284,79.91417653,5,,
2/22/2024,21:42.9,7m 0.2s,420.2,6.974220457,79.91415524,4.2,4.2,5.5,54,1.3,0,0.316351,0,0.223694,0,0.223694,0,0,1.7,-2.6,-64.7,295.3,,Tripod,Drop Calibration,,16,5,TRUE,,Mavic Mini,TRUE,FALSE,,Smart,RC,FALSE,TRUE,FALSE,,,TRUE,,FALSE,FALSE,FALSE,FALSE,FALSE,FALSE,FALSE,FALSE,FALSE,FALSE,0,Follow Yaw,0,0,-47.8,312.2,FALSE,FALSE,FALSE,FALSE,FALSE,TRUE,,TRUE,Normal,,100,1024,1024,1024,1024,2,FALSE,FALSE,FALSE,FALSE,FALSE,0,FALSE,FALSE,FALSE,FALSE,71,7.564,1455,2056,7.571,FALSE,3.784,3.78,0.008,FALSE,FALSE,NA,107.2,107.2,107.2,0,0,4,0,5,4419.9,1104.98,,Idle,0,20,FALSE,5,TRUE,6,Go Home,FALSE,FALSE,FALSE,FALSE,FALSE,FALSE,FALSE,FALSE,FALSE,FALSE,FALSE,FALSE,6.974218421,79.91415548,0.7,97.7,328,TRUE,1,1,FALSE,FALSE,FALSE,FALSE,,TRUE,FALSE,FALSE,Course Lock,49.2,,16.4,Calm,33,,1.12.8,Mavic Mini,1SDCH7G0169R0K,1SFLH6Q0AB03DJ,1SRCH7F014TAHX,1U5X071EXP6C9Y,81.4,0.2,3.2,6.023184,2.908022,0,22440,Mavic Mini,1SDCH7G0169R0K,1SFLH6Q0AB03DJ,1SRCH7F014TAHX,1U5X071EXP6C9Y,DJI Fly,,1.12.8,B60E5890-7D2B-9224-34CF-11D447E21797,1SDCH7G0169R0K,,,,,6.974227284,79.91417653,5,,
2/22/2024,21:43.0,7m 0.3s,420.3,6.974220565,79.91415542,4.2,4.2,5.5,54,1.4,0,0.316351,0,0.223694,0,0.223694,0,0,2,-2.5,-64.7,295.3,,Tripod,Drop Calibration,,16,5,TRUE,,Mavic Mini,TRUE,FALSE,,Smart,RC,FALSE,TRUE,FALSE,,,TRUE,,FALSE,FALSE,FALSE,FALSE,FALSE,FALSE,FALSE,FALSE,FALSE,FALSE,0,Follow Yaw,0,0,-47.8,312.2,FALSE,FALSE,FALSE,FALSE,FALSE,TRUE,,TRUE,Normal,,100,1024,1024,1024,1024,2,FALSE,FALSE,FALSE,FALSE,FALSE,0,FALSE,FALSE,FALSE,FALSE,71,7.577,1453,2056,7.571,FALSE,3.792,3.785,0.008,FALSE,FALSE,NA,107.4,107.2,107.4,0,0,4,0,5,4419.9,1104.98,,Idle,0,20,FALSE,5,TRUE,6,Go Home,FALSE,FALSE,FALSE,FALSE,FALSE,FALSE,FALSE,FALSE,FALSE,FALSE,FALSE,FALSE,6.974218421,79.91415548,0.7,97.7,328,TRUE,1,1,FALSE,FALSE,FALSE,FALSE,,TRUE,FALSE,FALSE,Course Lock,49.2,,16.4,Calm,33,,1.12.8,Mavic Mini,1SDCH7G0169R0K,1SFLH6Q0AB03DJ,1SRCH7F014TAHX,1U5X071EXP6C9Y,81.4,0.2,3.2,6.023184,2.908022,0,22440,Mavic Mini,1SDCH7G0169R0K,1SFLH6Q0AB03DJ,1SRCH7F014TAHX,1U5X071EXP6C9Y,DJI Fly,,1.12.8,B60E5890-7D2B-9224-34CF-11D447E21797,1SDCH7G0169R0K,,,,,6.974227284,79.91417653,5,,
2/22/2024,21:43.1,7m 0.4s,420.4,6.97422054,79.91415536,4.2,4.2,5.5,54,1.4,0,0.316351,0,0.223694,0,0.223694,0,0,2.2,-2.4,-64.7,295.3,,Tripod,Drop Calibration,,16,5,TRUE,,Mavic Mini,TRUE,FALSE,,Smart,RC,FALSE,TRUE,FALSE,,,TRUE,,FALSE,FALSE,FALSE,FALSE,FALSE,FALSE,FALSE,FALSE,FALSE,FALSE,0,Follow Yaw,0,0,-47.8,312.2,FALSE,FALSE,FALSE,FALSE,FALSE,TRUE,,TRUE,Normal,,100,1024,1024,1024,1024,2,FALSE,FALSE,FALSE,FALSE,FALSE,0,FALSE,FALSE,FALSE,FALSE,71,7.577,1453,2056,7.571,FALSE,3.792,3.785,0.008,FALSE,FALSE,NA,107.4,107.2,107.4,0,0,4,0,5,4419.9,1104.98,,Idle,0,20,FALSE,5,TRUE,6,Go Home,FALSE,FALSE,FALSE,FALSE,FALSE,FALSE,FALSE,FALSE,FALSE,FALSE,FALSE,FALSE,6.974218421,79.91415548,0.7,97.7,328,TRUE,1,1,FALSE,FALSE,FALSE,FALSE,,TRUE,FALSE,FALSE,Course Lock,49.2,,16.4,Calm,33,,1.12.8,Mavic Mini,1SDCH7G0169R0K,1SFLH6Q0AB03DJ,1SRCH7F014TAHX,1U5X071EXP6C9Y,81.4,0.2,3.2,6.023184,2.908022,0,22440,Mavic Mini,1SDCH7G0169R0K,1SFLH6Q0AB03DJ,1SRCH7F014TAHX,1U5X071EXP6C9Y,DJI Fly,,1.12.8,B60E5890-7D2B-9224-34CF-11D447E21797,1SDCH7G0169R0K,,,,,6.974227284,79.91417653,5,,
2/22/2024,21:43.1,7m 0.5s,420.5,6.974220504,79.91415533,4.2,4.2,5.5,54,1.4,0,0.316351,0,0.223694,0,0.223694,0,0,2,-2.4,-64.6,295.4,,Tripod,Drop Calibration,,16,5,TRUE,,Mavic Mini,TRUE,FALSE,,Smart,RC,FALSE,TRUE,FALSE,,,TRUE,,FALSE,FALSE,FALSE,FALSE,FALSE,FALSE,FALSE,FALSE,FALSE,FALSE,0,Follow Yaw,0,0,-47.8,312.2,FALSE,FALSE,FALSE,FALSE,FALSE,TRUE,,TRUE,Normal,,100,1024,1024,1024,1024,2,FALSE,FALSE,FALSE,FALSE,FALSE,0,FALSE,FALSE,FALSE,FALSE,71,7.577,1453,2056,7.571,FALSE,3.792,3.785,0.008,FALSE,FALSE,NA,107.4,107.2,107.4,0,0,4,0,5,4419.9,1104.98,,Idle,0,20,FALSE,5,TRUE,6,Go Home,FALSE,FALSE,FALSE,FALSE,FALSE,FALSE,FALSE,FALSE,FALSE,FALSE,FALSE,FALSE,6.974218421,79.91415548,0.7,97.7,328,TRUE,1,1,FALSE,FALSE,FALSE,FALSE,,TRUE,FALSE,FALSE,Course Lock,49.2,,16.4,Calm,33,,1.12.8,Mavic Mini,1SDCH7G0169R0K,1SFLH6Q0AB03DJ,1SRCH7F014TAHX,1U5X071EXP6C9Y,81.4,0.2,3.2,6.023184,2.908022,0,22440,Mavic Mini,1SDCH7G0169R0K,1SFLH6Q0AB03DJ,1SRCH7F014TAHX,1U5X071EXP6C9Y,DJI Fly,,1.12.8,B60E5890-7D2B-9224-34CF-11D447E21797,1SDCH7G0169R0K,,,,,6.974227284,79.91417653,5,,
2/22/2024,21:43.2,7m 0.6s,420.6,6.974220453,79.91415532,4.2,4.2,5.5,54,1.4,0,0.316351,0,0.223694,0,0.223694,0,0,2.1,-2.3,-64.7,295.3,,Tripod,Drop Calibration,,16,5,TRUE,,Mavic Mini,TRUE,FALSE,,Smart,RC,FALSE,TRUE,FALSE,,,TRUE,,FALSE,FALSE,FALSE,FALSE,FALSE,FALSE,FALSE,FALSE,FALSE,FALSE,0,Follow Yaw,0,0,-47.8,312.2,FALSE,FALSE,FALSE,FALSE,FALSE,TRUE,,TRUE,Normal,,100,1024,1024,1024,942,2,FALSE,FALSE,FALSE,FALSE,FALSE,0,FALSE,FALSE,FALSE,FALSE,71,7.577,1453,2056,7.571,FALSE,3.792,3.785,0.008,FALSE,FALSE,NA,107.4,107.2,107.4,0,0,4,0,5,4419.9,1104.98,,Idle,0,20,FALSE,5,TRUE,6,Go Home,FALSE,FALSE,FALSE,FALSE,FALSE,FALSE,FALSE,FALSE,FALSE,FALSE,FALSE,FALSE,6.974218421,79.91415548,0.7,97.7,328,TRUE,1,1,FALSE,FALSE,FALSE,FALSE,,TRUE,FALSE,FALSE,Course Lock,49.2,,16.4,Calm,33,,1.12.8,Mavic Mini,1SDCH7G0169R0K,1SFLH6Q0AB03DJ,1SRCH7F014TAHX,1U5X071EXP6C9Y,81.4,0.2,3.2,6.023184,2.908022,0,22440,Mavic Mini,1SDCH7G0169R0K,1SFLH6Q0AB03DJ,1SRCH7F014TAHX,1U5X071EXP6C9Y,DJI Fly,,1.12.8,B60E5890-7D2B-9224-34CF-11D447E21797,1SDCH7G0169R0K,,,,,6.974227284,79.91417653,5,,
2/22/2024,21:43.4,7m 0.7s,420.7,6.974220212,79.91415516,4.2,4.2,5.5,54,1.5,0,0.316351,0,0.223694,0,0.223694,0,0,2,-2.1,-64.7,295.3,,Tripod,Drop Calibration,,16,5,TRUE,,Mavic Mini,TRUE,FALSE,,Smart,RC,FALSE,TRUE,FALSE,,,TRUE,,FALSE,FALSE,FALSE,FALSE,FALSE,FALSE,FALSE,FALSE,FALSE,FALSE,0,Follow Yaw,0,0,-47.8,312.2,FALSE,FALSE,FALSE,FALSE,FALSE,TRUE,,TRUE,Normal,,100,1024,1024,1024,867,2,FALSE,FALSE,FALSE,FALSE,FALSE,0,FALSE,FALSE,FALSE,FALSE,71,7.577,1453,2056,7.571,FALSE,3.792,3.785,0.008,FALSE,FALSE,NA,107.4,107.2,107.4,0,0,4,0,5,4419.9,1104.98,,Idle,0,20,FALSE,5,TRUE,6,Go Home,FALSE,FALSE,FALSE,FALSE,FALSE,FALSE,FALSE,FALSE,FALSE,FALSE,FALSE,FALSE,6.974218421,79.91415548,0.6,97.7,328,TRUE,1,1,FALSE,FALSE,FALSE,FALSE,,TRUE,FALSE,FALSE,Course Lock,49.2,,16.4,Calm,33,,1.12.8,Mavic Mini,1SDCH7G0169R0K,1SFLH6Q0AB03DJ,1SRCH7F014TAHX,1U5X071EXP6C9Y,81.4,0.2,3.2,6.023184,2.908022,0,22440,Mavic Mini,1SDCH7G0169R0K,1SFLH6Q0AB03DJ,1SRCH7F014TAHX,1U5X071EXP6C9Y,DJI Fly,,1.12.8,B60E5890-7D2B-9224-34CF-11D447E21797,1SDCH7G0169R0K,,,,,6.974227284,79.91417653,5,,
2/22/2024,21:43.5,7m 0.8s,420.8,6.974220112,79.91415514,4.2,4.2,5.5,54,1.6,0,0.316351,0,0.223694,0,0.223694,0,0,2.2,-1.9,-64.8,295.2,,Tripod,Drop Calibration,,16,5,TRUE,,Mavic Mini,TRUE,FALSE,,Smart,RC,FALSE,TRUE,FALSE,,,TRUE,,FALSE,FALSE,FALSE,FALSE,FALSE,FALSE,FALSE,FALSE,FALSE,FALSE,0,Follow Yaw,0,0,-47.8,312.2,FALSE,FALSE,FALSE,FALSE,FALSE,TRUE,,TRUE,Normal,,100,1024,1024,1024,832,2,FALSE,FALSE,FALSE,FALSE,FALSE,0,FALSE,FALSE,FALSE,FALSE,71,7.577,1453,2056,7.568,FALSE,3.792,3.785,0.008,FALSE,FALSE,NA,107.4,107.2,107.4,0,0,4,0,5,6184.6,1546.16,,Idle,0,20,FALSE,5,TRUE,6,Go Home,FALSE,FALSE,FALSE,FALSE,FALSE,FALSE,FALSE,FALSE,FALSE,FALSE,FALSE,FALSE,6.974218421,79.91415548,0.6,97.7,328,TRUE,1,1,FALSE,FALSE,FALSE,FALSE,,TRUE,FALSE,FALSE,Course Lock,49.2,,16.4,Calm,33,,1.12.8,Mavic Mini,1SDCH7G0169R0K,1SFLH6Q0AB03DJ,1SRCH7F014TAHX,1U5X071EXP6C9Y,81.4,0.2,3.2,6.023184,2.908022,0,22440,Mavic Mini,1SDCH7G0169R0K,1SFLH6Q0AB03DJ,1SRCH7F014TAHX,1U5X071EXP6C9Y,DJI Fly,,1.12.8,B60E5890-7D2B-9224-34CF-11D447E21797,1SDCH7G0169R0K,,,,,6.974227284,79.91417653,5,,
2/22/2024,21:43.6,7m 0.9s,420.9,6.974220014,79.91415513,4.2,4.2,5.5,54,1.6,0,0.316351,0,0.223694,0,0.223694,0,0,2.1,-1.8,-64.7,295.3,,Tripod,Drop Calibration,,16,5,TRUE,,Mavic Mini,TRUE,FALSE,,Smart,RC,FALSE,TRUE,FALSE,,,TRUE,,FALSE,FALSE,FALSE,FALSE,FALSE,FALSE,FALSE,FALSE,FALSE,FALSE,0,Follow Yaw,0,0,-47.9,312.1,FALSE,FALSE,FALSE,FALSE,FALSE,TRUE,,TRUE,Normal,,100,1024,1024,1024,832,2,FALSE,FALSE,FALSE,FALSE,FALSE,0,FALSE,FALSE,FALSE,FALSE,71,7.577,1453,2056,7.568,FALSE,3.792,3.785,0.008,FALSE,FALSE,NA,107.4,107.2,107.4,0,0,4,0,5,6184.6,1546.16,,Idle,0,20,FALSE,5,TRUE,6,Go Home,FALSE,FALSE,FALSE,FALSE,FALSE,FALSE,FALSE,FALSE,FALSE,FALSE,FALSE,FALSE,6.974218421,79.91415548,0.5,97.7,328,TRUE,1,1,FALSE,FALSE,FALSE,FALSE,,TRUE,FALSE,FALSE,Course Lock,49.2,,16.4,Calm,33,,1.12.8,Mavic Mini,1SDCH7G0169R0K,1SFLH6Q0AB03DJ,1SRCH7F014TAHX,1U5X071EXP6C9Y,81.4,0.2,3.2,6.023184,2.908022,0,22440,Mavic Mini,1SDCH7G0169R0K,1SFLH6Q0AB03DJ,1SRCH7F014TAHX,1U5X071EXP6C9Y,DJI Fly,,1.12.8,B60E5890-7D2B-9224-34CF-11D447E21797,1SDCH7G0169R0K,,,,,6.974227284,79.91417653,5,,
