CUSTOM.date [local],CUSTOM.updateTime [local],OSD.flyTime,OSD.flyTime [s],OSD.latitude,OSD.longitude,OSD.height [ft],OSD.heightMax [ft],OSD.vpsHeight [ft],OSD.altitude [ft],OSD.mileage [ft],OSD.hSpeed [MPH],OSD.hSpeedMax [MPH],OSD.xSpeed [MPH],OSD.xSpeedMax [MPH],OSD.ySpeed [MPH],OSD.ySpeedMax [MPH],OSD.zSpeed [MPH],OSD.zSpeedMax [MPH],OSD.pitch,OSD.roll,OSD.yaw,OSD.yaw [360],OSD.directionOfTravel,OSD.flycState,OSD.flycCommand,OSD.flightAction,OSD.gpsNum,OSD.gpsLevel,OSD.isGPSUsed,OSD.nonGPSCause,OSD.droneType,OSD.isSwaveWork,OSD.waveError,OSD.goHomeStatus,OSD.batteryType,OSD.ctrlDevice,OSD.isOnGround,OSD.isMotorOn,OSD.isMotorBlocked,OSD.motorStartFailedCause,OSD.motorFailReason,OSD.isImuPreheated,OSD.imuInitFailReason,OSD.isAcceletorOverRange,OSD.isBarometerDeadInAir,OSD.isCompassError,OSD.isGoHomeHeightModified,OSD.canIOCWork,OSD.isNotEnoughForce,OSD.isOutOfLimit,OSD.isPropellerCatapult,OSD.isVibrating,OSD.isVisionUsed,OSD.voltageWarning,GIMBAL.mode,GIMBAL.pitch,GIMBAL.roll,GIMBAL.yaw,GIMBAL.yaw [360],GIMBAL.isPitchAtLimit,GIMBAL.isRollAtLimit,GIMBAL.isYawAtLimit,GIMBAL.isStuck,CAMERA.isPhoto,CAMERA.isVideo,CAMERA.filename,CAMERA.sdCardIsInserted,CAMERA.sdCardState,RC.downlinkSignal,RC.uplinkSignal,RC.aileron,RC.elevator,RC.throttle,RC.rudder,RC.mode,RC.goHomeDepressed,RC.recordDepressed,RC.shutterDepressed,RC.playbackDepressed,RC.wheelDepressed,RC.wheelOffset,RC.custom1Depressed,RC.custom2Depressed,RC.custom3Depressed,RC.custom4Depressed,BATTERY.chargeLevel,BATTERY.currentPV [V],BATTERY.currentCapacity [mAh],BATTERY.fullCapacity [mAh],BATTERY.voltage [V],BATTERY.isCellVoltageEstimated,BATTERY.cellVoltage1 [V],BATTERY.cellVoltage2 [V],BATTERY.maxCellVoltageDeviation,BATTERY.isCellVoltageDeviationHigh,BATTERY.isVoltageLow,BATTERY.current [A],BATTERY.temperature [F],BATTERY.minTemperature [F],BATTERY.maxTemperature [F],BATTERY.usefulTime [s],BATTERY.goHomeTime [s],BATTERY.landTime [s],BATTERY.goHomeBattery,BATTERY.landBattery,BATTERY.safeFlyRadius,BATTERY.volumeConsume,BATTERY.status,BATTERY.goHomeStatus,BATTERY.goHomeCountdown,BATTERY.lowWarning,BATTERY.lowWarningGoHome,BATTERY.seriousLowWarning,BATTERY.seriousLowWarningLanding,BATTERY.timesCharged,MC.failSafeAction,MC.isObstacleAvoidanceEnabled,MC.isCollisionAvoidanceEnabled,MC.isRthObstacleAvoidanceEnabled,MC.isBraking,MC.isAvoidingObstacle,MC.isAvoidingActiveObstacle,MC.isAscentLimitedByObstacle,MC.isLandingConfirmationNeeded,MC.atLowAltitudeLimit,MC.atDistanceLimit,MC.atAirportAltitudeLimit,MC.atAirportBoundary,HOME.latitude,HOME.longitude,HOME.distance [ft],HOME.height [ft],HOME.heightLimit [ft],HOME.isHomeRecord,HOME.goHomeMode,HOME.aircraftHeadDirection,HOME.isDynamicHomePointEnabled,HOME.isReachedLimitDistance,HOME.isReachedLimitHeight,HOME.isCompassCalibrating,HOME.compassCalibrationState,HOME.isMultipleFlightModeEnabled,HOME.isBeginnerMode,HOME.isIOCEnabled,HOME.iocMode,HOME.goHomeHeight [ft],HOME.courseLockAngle,HOME.forceLandingHeight [ft],HOME.wind,HOME.dataRecorderFileIndex,RECOVER.appType,RECOVER.appVersion,RECOVER.aircraftName,RECOVER.aircraftSerial,RECOVER.cameraSerial,RECOVER.rcSerial,RECOVER.batterySerial,DETAILS.totalTime [s],DETAILS.totalDistance [ft],DETAILS.maxHeight [ft],DETAILS.maxHorizontalSpeed [MPH],DETAILS.maxVerticalSpeed [MPH],DETAILS.photoNum,DETAILS.videoTime [s],DETAILS.aircraftName,DETAILS.aircraftSerial,DETAILS.cameraSerial,DETAILS.rcSerial,DETAILS.batterySerial,DETAILS.appName,DETAILS.appType,DETAILS.appVersion,DETAILS.guid,SERIAL.flightController,SERIAL.camera,SERIAL.gimbal,SERIAL.rc,SERIAL.battery,APPGPS.latitude,APPGPS.longitude,APPGPS.accuracy,APP.tip,APP.warning
3/2/2019,51:58.9,7m 14.8s,434.8,6.974618359,79.91439829,0,0,,52,0,0,0,0,0,0,0,0,0,5.3,-1.2,21.5,21.5,,Starting Motors,Other,Takeoff (RC Assisted),15,5,TRUE,,Mavic Mini,FALSE,FALSE,,Smart,RC,TRUE,TRUE,FALSE,,,TRUE,,FALSE,FALSE,FALSE,FALSE,FALSE,FALSE,FALSE,FALSE,FALSE,FALSE,0,Follow Yaw,0,0,20.1,20.1,FALSE,FALSE,FALSE,FALSE,FALSE,FALSE,,TRUE,Normal,,,1024,1024,1024,1024,1,FALSE,FALSE,FALSE,FALSE,FALSE,0,FALSE,FALSE,FALSE,FALSE,69,7.721,1405,2063,7.721,FALSE,3.863,3.859,0.004,FALSE,FALSE,NA,110.7,110.6,110.6,,,,,,,,,Idle,,,TRUE,,FALSE,6,Go Home,FALSE,FALSE,FALSE,FALSE,FALSE,FALSE,FALSE,FALSE,FALSE,FALSE,FALSE,FALSE,,,,,,FALSE,,,FALSE,FALSE,FALSE,FALSE,,FALSE,FALSE,FALSE,,,,,Calm,,,1.12.8,Mavic Mini,1SDCH7G0169R0K,1SFLH6Q0AB03DJ,1SRCH7F014TAHX,1U5X071EXP6C9Y,69.1,0.2,9.8,14.881914,3.579104,0,184,Mavic Mini,1SDCH7G0169R0K,1SFLH6Q0AB03DJ,1SRCH7F014TAHX,1U5X071EXP6C9Y,DJI Fly,,1.12.8,86C4B78D-0FAB-18C7-F9BE-5245A6A5747D,1SDCH7G0169R0K,,,,,,,,Flight mode changed to Starting Motors.,
2/27/2024,10:13.4,7m 14.9s,434.9,6.974618368,79.91439826,0,0,,52,0,0,0,0,0,0,0,0,0,5.3,-1.2,21.5,21.5,,Starting Motors,Other,Takeoff (RC Assisted),15,5,TRUE,,Mavic Mini,FALSE,FALSE,,Smart,RC,TRUE,TRUE,FALSE,,,TRUE,,FALSE,FALSE,FALSE,FALSE,FALSE,FALSE,FALSE,FALSE,FALSE,FALSE,0,Follow Yaw,0,0,20.1,20.1,FALSE,FALSE,FALSE,FALSE,FALSE,FALSE,,TRUE,Normal,,,1024,1024,1024,1024,1,FALSE,FALSE,FALSE,FALSE,FALSE,0,FALSE,FALSE,FALSE,FALSE,69,7.721,1405,2063,7.721,FALSE,3.863,3.859,0.004,FALSE,FALSE,NA,110.7,110.6,110.6,,,,,,,,,Idle,,,TRUE,,FALSE,6,Go Home,FALSE,FALSE,FALSE,FALSE,FALSE,FALSE,FALSE,FALSE,FALSE,FALSE,FALSE,FALSE,,,,,,FALSE,,,FALSE,FALSE,FALSE,FALSE,,FALSE,FALSE,FALSE,,,,,Calm,,,1.12.8,Mavic Mini,1SDCH7G0169R0K,1SFLH6Q0AB03DJ,1SRCH7F014TAHX,1U5X071EXP6C9Y,69.1,0.2,9.8,14.881914,3.579104,0,184,Mavic Mini,1SDCH7G0169R0K,1SFLH6Q0AB03DJ,1SRCH7F014TAHX,1U5X071EXP6C9Y,DJI Fly,,1.12.8,86C4B78D-0FAB-18C7-F9BE-5245A6A5747D,1SDCH7G0169R0K,,,,,,,,,
2/27/2024,10:13.5,7m 15.0s,435,6.974618375,79.91439822,0,0,0.3,52,0,0,0,0,0,0,0,0,0,5.3,-1.2,21.5,21.5,,Starting Motors,Other,Takeoff (RC Assisted),14,5,TRUE,,Mavic Mini,TRUE,FALSE,,Smart,RC,TRUE,TRUE,FALSE,,,TRUE,,FALSE,FALSE,FALSE,FALSE,FALSE,FALSE,FALSE,FALSE,FALSE,FALSE,0,Follow Yaw,0,0,20.1,20.1,FALSE,FALSE,FALSE,FALSE,FALSE,FALSE,,TRUE,Normal,,,1024,1024,1024,1024,1,FALSE,FALSE,FALSE,FALSE,FALSE,0,FALSE,FALSE,FALSE,FALSE,69,7.721,1405,2063,7.721,FALSE,3.863,3.859,0.004,FALSE,FALSE,NA,110.7,110.6,110.6,,,,,,,,,Idle,,,TRUE,,FALSE,6,Go Home,FALSE,FALSE,FALSE,FALSE,FALSE,FALSE,FALSE,FALSE,FALSE,FALSE,FALSE,FALSE,,,,,,FALSE,,,FALSE,FALSE,FALSE,FALSE,,FALSE,FALSE,FALSE,,,,,Calm,,,1.12.8,Mavic Mini,1SDCH7G0169R0K,1SFLH6Q0AB03DJ,1SRCH7F014TAHX,1U5X071EXP6C9Y,69.1,0.2,9.8,14.881914,3.579104,0,184,Mavic Mini,1SDCH7G0169R0K,1SFLH6Q0AB03DJ,1SRCH7F014TAHX,1U5X071EXP6C9Y,DJI Fly,,1.12.8,86C4B78D-0FAB-18C7-F9BE-5245A6A5747D,1SDCH7G0169R0K,,,,,,,,,
2/27/2024,10:13.6,7m 15.1s,435.1,6.974618414,79.9143982,0,0,0.3,52,0,0,0,0,0,0,0,0,0,5.3,-1.2,21.5,21.5,,Starting Motors,Other,Takeoff (RC Assisted),14,5,TRUE,,Mavic Mini,TRUE,FALSE,,Smart,RC,TRUE,TRUE,FALSE,,,TRUE,,FALSE,FALSE,FALSE,FALSE,FALSE,FALSE,FALSE,FALSE,FALSE,FALSE,0,Follow Yaw,0,0,20.1,20.1,FALSE,FALSE,FALSE,FALSE,FALSE,FALSE,,TRUE,Normal,,,1024,1024,1024,1024,1,FALSE,FALSE,FALSE,FALSE,FALSE,0,FALSE,FALSE,FALSE,FALSE,69,7.721,1405,2063,7.721,FALSE,3.863,3.859,0.004,FALSE,FALSE,NA,110.7,110.6,110.6,,,,,,,,,Idle,,,TRUE,,FALSE,6,Go Home,FALSE,FALSE,FALSE,FALSE,FALSE,FALSE,FALSE,FALSE,FALSE,FALSE,FALSE,FALSE,,,,,,FALSE,,,FALSE,FALSE,FALSE,FALSE,,FALSE,FALSE,FALSE,,,,,Calm,,,1.12.8,Mavic Mini,1SDCH7G0169R0K,1SFLH6Q0AB03DJ,1SRCH7F014TAHX,1U5X071EXP6C9Y,69.1,0.2,9.8,14.881914,3.579104,0,184,Mavic Mini,1SDCH7G0169R0K,1SFLH6Q0AB03DJ,1SRCH7F014TAHX,1U5X071EXP6C9Y,DJI Fly,,1.12.8,86C4B78D-0FAB-18C7-F9BE-5245A6A5747D,1SDCH7G0169R0K,,,,,,,,,
2/27/2024,10:13.7,7m 15.2s,435.2,6.974618467,79.9143981,0,0,0.3,52,0,0,0,0,0,0,0,0,0,5.3,-1.1,21.6,21.6,,Starting Motors,Other,Takeoff (RC Assisted),14,5,TRUE,,Mavic Mini,TRUE,FALSE,,Smart,RC,TRUE,TRUE,FALSE,,,TRUE,,FALSE,FALSE,FALSE,FALSE,FALSE,FALSE,FALSE,FALSE,FALSE,FALSE,0,Follow Yaw,0,0,20.1,20.1,FALSE,FALSE,FALSE,FALSE,FALSE,FALSE,,TRUE,Normal,,,1024,1024,1024,1024,1,FALSE,FALSE,FALSE,FALSE,FALSE,0,FALSE,FALSE,FALSE,FALSE,69,7.721,1405,2063,7.721,FALSE,3.863,3.859,0.004,FALSE,FALSE,NA,110.7,110.6,110.6,,,,,,,,,Idle,,,TRUE,,FALSE,6,Go Home,FALSE,FALSE,FALSE,FALSE,FALSE,FALSE,FALSE,FALSE,FALSE,FALSE,FALSE,FALSE,,,,,,FALSE,,,FALSE,FALSE,FALSE,FALSE,,FALSE,FALSE,FALSE,,,,,Calm,,,1.12.8,Mavic Mini,1SDCH7G0169R0K,1SFLH6Q0AB03DJ,1SRCH7F014TAHX,1U5X071EXP6C9Y,69.1,0.2,9.8,14.881914,3.579104,0,184,Mavic Mini,1SDCH7G0169R0K,1SFLH6Q0AB03DJ,1SRCH7F014TAHX,1U5X071EXP6C9Y,DJI Fly,,1.12.8,86C4B78D-0FAB-18C7-F9BE-5245A6A5747D,1SDCH7G0169R0K,,,,,,,,,
2/27/2024,10:13.8,7m 15.3s,435.3,6.974618475,79.9143981,0,0,0.3,52,0,0,0,0,0,0,0,0,0,5.4,-1.3,21.6,21.6,,Starting Motors,Other,Takeoff (RC Assisted),14,5,TRUE,,Mavic Mini,TRUE,FALSE,,Smart,RC,TRUE,TRUE,FALSE,,,TRUE,,FALSE,FALSE,FALSE,FALSE,FALSE,FALSE,FALSE,FALSE,FALSE,FALSE,0,Follow Yaw,0,0,20.1,20.1,FALSE,FALSE,FALSE,FALSE,FALSE,FALSE,,TRUE,Normal,,100,1024,1024,1024,1024,1,FALSE,FALSE,FALSE,FALSE,FALSE,0,FALSE,FALSE,FALSE,FALSE,69,7.721,1405,2063,7.721,FALSE,3.863,3.859,0.004,FALSE,FALSE,NA,110.7,110.6,110.6,,,,,,,,,Idle,,,TRUE,,FALSE,6,Go Home,FALSE,FALSE,FALSE,FALSE,FALSE,FALSE,FALSE,FALSE,FALSE,FALSE,FALSE,FALSE,,,,,,FALSE,,,FALSE,FALSE,FALSE,FALSE,,FALSE,FALSE,FALSE,,,,,Calm,,,1.12.8,Mavic Mini,1SDCH7G0169R0K,1SFLH6Q0AB03DJ,1SRCH7F014TAHX,1U5X071EXP6C9Y,69.1,0.2,9.8,14.881914,3.579104,0,184,Mavic Mini,1SDCH7G0169R0K,1SFLH6Q0AB03DJ,1SRCH7F014TAHX,1U5X071EXP6C9Y,DJI Fly,,1.12.8,86C4B78D-0FAB-18C7-F9BE-5245A6A5747D,1SDCH7G0169R0K,,,,,,,,,
2/27/2024,10:13.9,7m 15.4s,435.4,6.974618481,79.9143981,0,0,0.3,52,0,0,0,0,0,0,0,0,0,5.3,-1.3,21.6,21.6,,Starting Motors,Other,Takeoff (RC Assisted),14,5,TRUE,,Mavic Mini,TRUE,FALSE,,Smart,RC,TRUE,TRUE,FALSE,,,TRUE,,FALSE,FALSE,FALSE,FALSE,FALSE,FALSE,FALSE,FALSE,FALSE,FALSE,0,Follow Yaw,0,0,20.1,20.1,FALSE,FALSE,FALSE,FALSE,FALSE,FALSE,,TRUE,Normal,,100,1024,1024,1024,1024,1,FALSE,FALSE,FALSE,FALSE,FALSE,0,FALSE,FALSE,FALSE,FALSE,69,7.721,1405,2063,7.721,FALSE,3.863,3.859,0.004,FALSE,FALSE,NA,110.7,110.6,110.6,,,,,,,,,Idle,,,TRUE,,FALSE,6,Go Home,FALSE,FALSE,FALSE,FALSE,FALSE,FALSE,FALSE,FALSE,FALSE,FALSE,FALSE,FALSE,,,,,,FALSE,,,FALSE,FALSE,FALSE,FALSE,,FALSE,FALSE,FALSE,,,,,Calm,,,1.12.8,Mavic Mini,1SDCH7G0169R0K,1SFLH6Q0AB03DJ,1SRCH7F014TAHX,1U5X071EXP6C9Y,69.1,0.2,9.8,14.881914,3.579104,0,184,Mavic Mini,1SDCH7G0169R0K,1SFLH6Q0AB03DJ,1SRCH7F014TAHX,1U5X071EXP6C9Y,DJI Fly,,1.12.8,86C4B78D-0FAB-18C7-F9BE-5245A6A5747D,1SDCH7G0169R0K,,,,,,,,,
2/27/2024,10:14.2,7m 15.5s,435.5,6.974618473,79.91439806,0,0,0.3,52,0,0,0,0,0,0,0,0,0,5.3,-1.3,21.6,21.6,,Starting Motors,Other,Takeoff (RC Assisted),14,5,TRUE,,Mavic Mini,TRUE,FALSE,,Smart,RC,TRUE,TRUE,FALSE,,,TRUE,,FALSE,FALSE,FALSE,FALSE,FALSE,FALSE,FALSE,FALSE,FALSE,FALSE,0,Follow Yaw,0,0,20.1,20.1,FALSE,FALSE,FALSE,FALSE,FALSE,FALSE,,TRUE,Normal,,100,1024,1024,1024,1024,1,FALSE,FALSE,FALSE,FALSE,FALSE,0,FALSE,FALSE,FALSE,FALSE,69,7.721,1405,2063,7.721,FALSE,3.863,3.859,0.004,FALSE,FALSE,NA,110.7,110.6,110.6,,,,,,,,,Idle,,,TRUE,,FALSE,6,Go Home,FALSE,FALSE,FALSE,FALSE,FALSE,FALSE,FALSE,FALSE,FALSE,FALSE,FALSE,FALSE,,,,,,FALSE,,,FALSE,FALSE,FALSE,FALSE,,FALSE,FALSE,FALSE,,,,,Calm,,,1.12.8,Mavic Mini,1SDCH7G0169R0K,1SFLH6Q0AB03DJ,1SRCH7F014TAHX,1U5X071EXP6C9Y,69.1,0.2,9.8,14.881914,3.579104,0,184,Mavic Mini,1SDCH7G0169R0K,1SFLH6Q0AB03DJ,1SRCH7F014TAHX,1U5X071EXP6C9Y,DJI Fly,,1.12.8,86C4B78D-0FAB-18C7-F9BE-5245A6A5747D,1SDCH7G0169R0K,,,,,,,,,
2/27/2024,10:14.2,7m 15.6s,435.6,6.974618465,79.91439801,0,0,0.3,52,0.1,0,0,0,0,0,0,0,0,5.3,-1.3,21.6,21.6,,Starting Motors,Other,Takeoff (RC Assisted),14,5,TRUE,,Mavic Mini,TRUE,FALSE,,Smart,RC,TRUE,TRUE,FALSE,,,TRUE,,FALSE,FALSE,FALSE,FALSE,FALSE,FALSE,FALSE,FALSE,FALSE,FALSE,0,Follow Yaw,0,0,20.1,20.1,FALSE,FALSE,FALSE,FALSE,FALSE,FALSE,,TRUE,Normal,,100,1024,1024,1024,1024,1,FALSE,FALSE,FALSE,FALSE,FALSE,0,FALSE,FALSE,FALSE,FALSE,69,7.721,1405,2063,7.71,FALSE,3.863,3.859,0.004,FALSE,FALSE,NA,110.7,110.6,110.6,0,0,0,0,5,2474.4,618.61,,Idle,0,20,FALSE,5,TRUE,6,Go Home,FALSE,FALSE,FALSE,FALSE,FALSE,FALSE,FALSE,FALSE,FALSE,FALSE,FALSE,FALSE,6.974615933,79.91439679,1,179.1,328,TRUE,1,1,FALSE,FALSE,FALSE,FALSE,,TRUE,FALSE,FALSE,Course Lock,49.2,254.5,16.4,Calm,39,,1.12.8,Mavic Mini,1SDCH7G0169R0K,1SFLH6Q0AB03DJ,1SRCH7F014TAHX,1U5X071EXP6C9Y,69.1,0.2,9.8,14.881914,3.579104,0,184,Mavic Mini,1SDCH7G0169R0K,1SFLH6Q0AB03DJ,1SRCH7F014TAHX,1U5X071EXP6C9Y,DJI Fly,,1.12.8,86C4B78D-0FAB-18C7-F9BE-5245A6A5747D,1SDCH7G0169R0K,,,,,,,,Data Recorder File Index is 39.; Set Return to Home (RTH) altitude to 15 m (49 ft).; Set maximum flight altitude to 100 m (328 ft).,
2/27/2024,10:14.2,7m 15.7s,435.7,6.974618473,79.91439795,0,0,0.3,52,0.1,0,0,0,0,0,0,0,0,5.2,-1.3,21.7,21.7,,Starting Motors,Other,Takeoff (RC Assisted),14,5,TRUE,,Mavic Mini,TRUE,FALSE,,Smart,RC,TRUE,TRUE,FALSE,,,TRUE,,FALSE,FALSE,FALSE,FALSE,FALSE,FALSE,FALSE,FALSE,FALSE,FALSE,0,Follow Yaw,0,0,20.1,20.1,FALSE,FALSE,FALSE,FALSE,FALSE,FALSE,,TRUE,Normal,,100,1024,1024,1024,1024,1,FALSE,FALSE,FALSE,FALSE,FALSE,0,FALSE,FALSE,FALSE,FALSE,69,7.721,1405,2063,7.71,FALSE,3.863,3.859,0.004,FALSE,FALSE,NA,110.7,110.6,110.6,0,0,0,0,5,2474.4,618.61,,Idle,0,20,FALSE,5,TRUE,6,Go Home,FALSE,FALSE,FALSE,FALSE,FALSE,FALSE,FALSE,FALSE,FALSE,FALSE,FALSE,FALSE,6.974615933,79.91439679,1,179.1,328,TRUE,1,1,FALSE,FALSE,FALSE,FALSE,,TRUE,FALSE,FALSE,Course Lock,49.2,254.5,16.4,Calm,39,,1.12.8,Mavic Mini,1SDCH7G0169R0K,1SFLH6Q0AB03DJ,1SRCH7F014TAHX,1U5X071EXP6C9Y,69.1,0.2,9.8,14.881914,3.579104,0,184,Mavic Mini,1SDCH7G0169R0K,1SFLH6Q0AB03DJ,1SRCH7F014TAHX,1U5X071EXP6C9Y,DJI Fly,,1.12.8,86C4B78D-0FAB-18C7-F9BE-5245A6A5747D,1SDCH7G0169R0K,,,,,,,,,
2/27/2024,10:14.4,7m 15.8s,435.8,6.974618514,79.91439794,0,0,0.3,52,0.1,0,0,0,0,0,0,0,0,5.2,-1.3,21.6,21.6,,Starting Motors,Other,Takeoff (RC Assisted),14,5,TRUE,,Mavic Mini,TRUE,FALSE,,Smart,RC,TRUE,TRUE,FALSE,,,TRUE,,FALSE,FALSE,FALSE,FALSE,FALSE,FALSE,FALSE,FALSE,FALSE,FALSE,0,Follow Yaw,0,0,20.1,20.1,FALSE,FALSE,FALSE,FALSE,FALSE,FALSE,,TRUE,Normal,,100,1024,1024,1024,1024,1,FALSE,FALSE,FALSE,FALSE,FALSE,0,FALSE,FALSE,FALSE,FALSE,69,7.696,1405,2063,7.71,FALSE,3.859,3.837,0.022,FALSE,FALSE,NA,110.7,110.6,110.6,0,0,0,0,5,2474.4,618.61,,Idle,0,20,FALSE,5,TRUE,6,Go Home,FALSE,FALSE,FALSE,FALSE,FALSE,FALSE,FALSE,FALSE,FALSE,FALSE,FALSE,FALSE,6.974615933,79.91439679,1,179.1,328,TRUE,1,1,FALSE,FALSE,FALSE,FALSE,,TRUE,FALSE,FALSE,Course Lock,49.2,254.5,16.4,Calm,39,,1.12.8,Mavic Mini,1SDCH7G0169R0K,1SFLH6Q0AB03DJ,1SRCH7F014TAHX,1U5X071EXP6C9Y,69.1,0.2,9.8,14.881914,3.579104,0,184,Mavic Mini,1SDCH7G0169R0K,1SFLH6Q0AB03DJ,1SRCH7F014TAHX,1U5X071EXP6C9Y,DJI Fly,,1.12.8,86C4B78D-0FAB-18C7-F9BE-5245A6A5747D,1SDCH7G0169R0K,,,,,,,,,
2/27/2024,10:14.5,7m 15.9s,435.9,6.974618524,79.91439795,0,0,0.3,52,0.1,0,0,0,0,0,0,0,0,5.3,-1.2,21.6,21.6,,Manual Takeoff,Other,Takeoff (RC Assisted),14,5,TRUE,,Mavic Mini,TRUE,FALSE,,Smart,RC,TRUE,TRUE,FALSE,,,TRUE,,FALSE,FALSE,FALSE,FALSE,FALSE,FALSE,FALSE,FALSE,FALSE,FALSE,0,Follow Yaw,0,0,20.1,20.1,FALSE,FALSE,FALSE,FALSE,FALSE,FALSE,,TRUE,Normal,,100,1024,1024,1024,1024,1,FALSE,FALSE,FALSE,FALSE,FALSE,0,FALSE,FALSE,FALSE,FALSE,69,7.696,1405,2063,7.71,FALSE,3.859,3.837,0.022,FALSE,FALSE,NA,110.7,110.6,110.6,0,0,0,0,5,2474.4,618.61,,Idle,0,20,FALSE,5,TRUE,6,Go Home,FALSE,FALSE,FALSE,FALSE,FALSE,FALSE,FALSE,FALSE,FALSE,FALSE,FALSE,FALSE,6.974615933,79.91439679,1,179.1,328,TRUE,1,1,FALSE,FALSE,FALSE,FALSE,,TRUE,FALSE,FALSE,Course Lock,49.2,254.5,16.4,Calm,39,,1.12.8,Mavic Mini,1SDCH7G0169R0K,1SFLH6Q0AB03DJ,1SRCH7F014TAHX,1U5X071EXP6C9Y,69.1,0.2,9.8,14.881914,3.579104,0,184,Mavic Mini,1SDCH7G0169R0K,1SFLH6Q0AB03DJ,1SRCH7F014TAHX,1U5X071EXP6C9Y,DJI Fly,,1.12.8,86C4B78D-0FAB-18C7-F9BE-5245A6A5747D,1SDCH7G0169R0K,,,,,,,,Flight mode changed to Manual Takeoff.,
2/27/2024,10:14.6,7m 16.0s,436,6.974618531,79.91439795,0,0,0.3,52,0.1,0,0,0,0,0,0,0,0,5.3,-1.3,21.6,21.6,,Manual Takeoff,Other,Takeoff (RC Assisted),14,5,TRUE,,Mavic Mini,TRUE,FALSE,,Smart,RC,TRUE,TRUE,FALSE,,,TRUE,,FALSE,FALSE,FALSE,FALSE,FALSE,FALSE,FALSE,FALSE,FALSE,FALSE,0,Follow Yaw,0,0,20.1,20.1,FALSE,FALSE,FALSE,FALSE,FALSE,FALSE,,TRUE,Normal,,100,1024,1024,1024,1024,1,FALSE,FALSE,FALSE,FALSE,FALSE,0,FALSE,FALSE,FALSE,FALSE,69,7.696,1405,2063,7.71,FALSE,3.859,3.837,0.022,FALSE,FALSE,NA,110.7,110.6,110.6,0,0,0,0,5,2474.4,618.61,,Idle,0,20,FALSE,5,TRUE,6,Go Home,FALSE,FALSE,FALSE,FALSE,FALSE,FALSE,FALSE,FALSE,FALSE,FALSE,FALSE,FALSE,6.974615933,79.91439679,1,179.1,328,TRUE,1,1,FALSE,FALSE,FALSE,FALSE,,TRUE,FALSE,FALSE,Course Lock,49.2,254.5,16.4,Calm,39,,1.12.8,Mavic Mini,1SDCH7G0169R0K,1SFLH6Q0AB03DJ,1SRCH7F014TAHX,1U5X071EXP6C9Y,69.1,0.2,9.8,14.881914,3.579104,0,184,Mavic Mini,1SDCH7G0169R0K,1SFLH6Q0AB03DJ,1SRCH7F014TAHX,1U5X071EXP6C9Y,DJI Fly,,1.12.8,86C4B78D-0FAB-18C7-F9BE-5245A6A5747D,1SDCH7G0169R0K,,,,,,,,,
2/27/2024,10:14.7,7m 16.1s,436.1,6.974618484,79.91439801,0,0,0.3,52,0.1,0,0,0,0,0,0,0,0,5.3,-1.2,21.6,21.6,,Manual Takeoff,Other,Takeoff (RC Assisted),14,5,TRUE,,Mavic Mini,TRUE,FALSE,,Smart,RC,TRUE,TRUE,FALSE,,,TRUE,,FALSE,FALSE,FALSE,FALSE,FALSE,FALSE,FALSE,FALSE,FALSE,FALSE,0,Follow Yaw,0,0,20.1,20.1,FALSE,FALSE,FALSE,FALSE,FALSE,FALSE,,TRUE,Normal,,100,1024,1024,1024,1024,1,FALSE,FALSE,FALSE,FALSE,FALSE,0,FALSE,FALSE,FALSE,FALSE,69,7.696,1405,2063,7.71,FALSE,3.859,3.837,0.022,FALSE,FALSE,NA,110.7,110.6,110.6,0,0,0,0,5,2474.4,618.61,,Idle,0,20,FALSE,5,TRUE,6,Go Home,FALSE,FALSE,FALSE,FALSE,FALSE,FALSE,FALSE,FALSE,FALSE,FALSE,FALSE,FALSE,6.974615933,79.91439679,1,179.1,328,TRUE,1,1,FALSE,FALSE,FALSE,FALSE,,TRUE,FALSE,FALSE,Course Lock,49.2,254.5,16.4,Calm,39,,1.12.8,Mavic Mini,1SDCH7G0169R0K,1SFLH6Q0AB03DJ,1SRCH7F014TAHX,1U5X071EXP6C9Y,69.1,0.2,9.8,14.881914,3.579104,0,184,Mavic Mini,1SDCH7G0169R0K,1SFLH6Q0AB03DJ,1SRCH7F014TAHX,1U5X071EXP6C9Y,DJI Fly,,1.12.8,86C4B78D-0FAB-18C7-F9BE-5245A6A5747D,1SDCH7G0169R0K,,,,,,,,,
2/27/2024,10:14.8,7m 16.2s,436.2,6.974618477,79.91439802,0,0,0.3,52,0.1,0,0,0,0,0,0,0,0,5.3,-1.2,21.6,21.6,,Manual Takeoff,Other,Takeoff (RC Assisted),14,5,TRUE,,Mavic Mini,TRUE,FALSE,,Smart,RC,TRUE,TRUE,FALSE,,,TRUE,,FALSE,FALSE,FALSE,FALSE,FALSE,FALSE,FALSE,FALSE,FALSE,FALSE,0,Follow Yaw,0,0,20.1,20.1,FALSE,FALSE,FALSE,FALSE,FALSE,FALSE,,TRUE,Normal,,100,1024,1024,1024,1024,1,FALSE,FALSE,FALSE,FALSE,FALSE,0,FALSE,FALSE,FALSE,FALSE,69,7.696,1405,2063,7.71,FALSE,3.859,3.837,0.022,FALSE,FALSE,NA,110.7,110.6,110.6,0,0,0,0,5,2474.4,618.61,,Idle,0,20,FALSE,5,TRUE,6,Go Home,FALSE,FALSE,FALSE,FALSE,FALSE,FALSE,FALSE,FALSE,FALSE,FALSE,FALSE,FALSE,6.974615933,79.91439679,1,179.1,328,TRUE,1,1,FALSE,FALSE,FALSE,FALSE,,TRUE,FALSE,FALSE,Course Lock,49.2,254.5,16.4,Calm,39,,1.12.8,Mavic Mini,1SDCH7G0169R0K,1SFLH6Q0AB03DJ,1SRCH7F014TAHX,1U5X071EXP6C9Y,69.1,0.2,9.8,14.881914,3.579104,0,184,Mavic Mini,1SDCH7G0169R0K,1SFLH6Q0AB03DJ,1SRCH7F014TAHX,1U5X071EXP6C9Y,DJI Fly,,1.12.8,86C4B78D-0FAB-18C7-F9BE-5245A6A5747D,1SDCH7G0169R0K,,,,,,,,,
2/27/2024,10:14.9,7m 16.3s,436.3,6.974618467,79.91439798,0,0,0.3,52,0.2,0,0,0,0,0,0,0,0,5.2,-1.2,21.6,21.6,,Manual Takeoff,Other,Takeoff (RC Assisted),14,5,TRUE,,Mavic Mini,TRUE,FALSE,,Smart,RC,TRUE,TRUE,FALSE,,,TRUE,,FALSE,FALSE,FALSE,FALSE,FALSE,FALSE,FALSE,FALSE,FALSE,FALSE,0,Follow Yaw,0,0,20.1,20.1,FALSE,FALSE,FALSE,FALSE,FALSE,FALSE,,TRUE,Normal,,100,1024,1024,1024,1024,1,FALSE,FALSE,FALSE,FALSE,FALSE,0,FALSE,FALSE,FALSE,FALSE,69,7.696,1405,2063,7.71,FALSE,3.859,3.837,0.022,FALSE,FALSE,NA,110.7,110.6,110.6,0,0,0,0,5,2474.4,618.61,,Idle,0,20,FALSE,5,TRUE,6,Go Home,FALSE,FALSE,FALSE,FALSE,FALSE,FALSE,FALSE,FALSE,FALSE,FALSE,FALSE,FALSE,6.974615933,79.91439679,1,179.1,328,TRUE,1,1,FALSE,FALSE,FALSE,FALSE,,TRUE,FALSE,FALSE,Course Lock,49.2,254.5,16.4,Calm,39,,1.12.8,Mavic Mini,1SDCH7G0169R0K,1SFLH6Q0AB03DJ,1SRCH7F014TAHX,1U5X071EXP6C9Y,69.1,0.2,9.8,14.881914,3.579104,0,184,Mavic Mini,1SDCH7G0169R0K,1SFLH6Q0AB03DJ,1SRCH7F014TAHX,1U5X071EXP6C9Y,DJI Fly,,1.12.8,86C4B78D-0FAB-18C7-F9BE-5245A6A5747D,1SDCH7G0169R0K,,,,,,,,,
2/27/2024,10:14.9,7m 16.4s,436.4,6.974618456,79.91439794,0,0,0.3,52,0.2,0,0,0,0,0,0,0,0,5.2,-1.3,21.6,21.6,,Manual Takeoff,Other,Takeoff (RC Assisted),14,5,TRUE,,Mavic Mini,TRUE,FALSE,,Smart,RC,TRUE,TRUE,FALSE,,,TRUE,,FALSE,FALSE,FALSE,FALSE,FALSE,FALSE,FALSE,FALSE,FALSE,FALSE,0,Follow Yaw,0,0,20.1,20.1,FALSE,FALSE,FALSE,FALSE,FALSE,FALSE,,TRUE,Normal,,100,1024,1024,1029,1024,1,FALSE,FALSE,FALSE,FALSE,FALSE,0,FALSE,FALSE,FALSE,FALSE,69,7.696,1405,2063,7.71,FALSE,3.859,3.837,0.022,FALSE,FALSE,NA,110.7,110.6,110.6,0,0,0,0,5,2474.4,618.61,,Idle,0,20,FALSE,5,TRUE,6,Go Home,FALSE,FALSE,FALSE,FALSE,FALSE,FALSE,FALSE,FALSE,FALSE,FALSE,FALSE,FALSE,6.974615933,79.91439679,1,179.1,328,TRUE,1,1,FALSE,FALSE,FALSE,FALSE,,TRUE,FALSE,FALSE,Course Lock,49.2,254.5,16.4,Calm,39,,1.12.8,Mavic Mini,1SDCH7G0169R0K,1SFLH6Q0AB03DJ,1SRCH7F014TAHX,1U5X071EXP6C9Y,69.1,0.2,9.8,14.881914,3.579104,0,184,Mavic Mini,1SDCH7G0169R0K,1SFLH6Q0AB03DJ,1SRCH7F014TAHX,1U5X071EXP6C9Y,DJI Fly,,1.12.8,86C4B78D-0FAB-18C7-F9BE-5245A6A5747D,1SDCH7G0169R0K,,,,,,,,,
2/27/2024,10:15.0,7m 16.5s,436.5,6.974618541,79.91439786,0,0,0.3,52,0.2,0,0,0,0,0,0,0,0,5.2,-1.2,21.6,21.6,,Manual Takeoff,Other,Takeoff (RC Assisted),14,5,TRUE,,Mavic Mini,TRUE,FALSE,,Smart,RC,TRUE,TRUE,FALSE,,,TRUE,,FALSE,FALSE,FALSE,FALSE,FALSE,FALSE,FALSE,FALSE,FALSE,FALSE,0,Follow Yaw,0,0,20.1,20.1,FALSE,FALSE,FALSE,FALSE,FALSE,FALSE,,TRUE,Normal,,100,1024,1024,1075,1024,1,FALSE,FALSE,FALSE,FALSE,FALSE,0,FALSE,FALSE,FALSE,FALSE,69,7.696,1405,2063,7.71,FALSE,3.859,3.837,0.022,FALSE,FALSE,NA,110.7,110.6,110.6,0,0,0,0,5,2474.4,618.61,,Idle,0,20,FALSE,5,TRUE,6,Go Home,FALSE,FALSE,FALSE,FALSE,FALSE,FALSE,FALSE,FALSE,FALSE,FALSE,FALSE,FALSE,6.974615933,79.91439679,1,179.1,328,TRUE,1,1,FALSE,FALSE,FALSE,FALSE,,TRUE,FALSE,FALSE,Course Lock,49.2,254.5,16.4,Calm,39,,1.12.8,Mavic Mini,1SDCH7G0169R0K,1SFLH6Q0AB03DJ,1SRCH7F014TAHX,1U5X071EXP6C9Y,69.1,0.2,9.8,14.881914,3.579104,0,184,Mavic Mini,1SDCH7G0169R0K,1SFLH6Q0AB03DJ,1SRCH7F014TAHX,1U5X071EXP6C9Y,DJI Fly,,1.12.8,86C4B78D-0FAB-18C7-F9BE-5245A6A5747D,1SDCH7G0169R0K,,,,,,,,,
2/27/2024,10:15.2,7m 16.6s,436.6,6.974618585,79.91439784,0,0,0.3,52,0.2,0,0,0,0,0,0,0,0,5.2,-1.2,21.6,21.6,,Manual Takeoff,Other,Takeoff (RC Assisted),14,5,TRUE,,Mavic Mini,TRUE,FALSE,,Smart,RC,TRUE,TRUE,FALSE,,,TRUE,,FALSE,FALSE,FALSE,FALSE,FALSE,FALSE,FALSE,FALSE,FALSE,FALSE,0,Follow Yaw,0,0,20.1,20.1,FALSE,FALSE,FALSE,FALSE,FALSE,FALSE,,TRUE,Normal,,100,1024,1024,1138,1024,1,FALSE,FALSE,FALSE,FALSE,FALSE,0,FALSE,FALSE,FALSE,FALSE,69,7.696,1405,2063,7.708,FALSE,3.859,3.837,0.022,FALSE,FALSE,NA,110.7,110.6,110.6,0,0,0,0,5,2553.7,638.43,,Idle,0,20,FALSE,5,TRUE,6,Go Home,FALSE,FALSE,FALSE,FALSE,FALSE,FALSE,FALSE,FALSE,FALSE,FALSE,FALSE,FALSE,6.974615933,79.91439679,1,179.1,328,TRUE,1,1,FALSE,FALSE,FALSE,FALSE,,TRUE,FALSE,FALSE,Course Lock,49.2,254.5,16.4,Calm,39,,1.12.8,Mavic Mini,1SDCH7G0169R0K,1SFLH6Q0AB03DJ,1SRCH7F014TAHX,1U5X071EXP6C9Y,69.1,0.2,9.8,14.881914,3.579104,0,184,Mavic Mini,1SDCH7G0169R0K,1SFLH6Q0AB03DJ,1SRCH7F014TAHX,1U5X071EXP6C9Y,DJI Fly,,1.12.8,86C4B78D-0FAB-18C7-F9BE-5245A6A5747D,1SDCH7G0169R0K,,,,,,,,,
2/27/2024,10:15.2,7m 16.7s,436.7,6.974618601,79.9143978,0,0,0.3,52,0.2,0,0,0,0,0,0,0,0,5.2,-1.2,21.6,21.6,,Manual Takeoff,Other,Takeoff (RC Assisted),14,5,TRUE,,Mavic Mini,TRUE,FALSE,,Smart,RC,TRUE,TRUE,FALSE,,,TRUE,,FALSE,FALSE,FALSE,FALSE,FALSE,FALSE,FALSE,FALSE,FALSE,FALSE,0,Follow Yaw,0,0,20.1,20.1,FALSE,FALSE,FALSE,FALSE,FALSE,FALSE,,TRUE,Normal,,100,1024,1024,1239,1024,1,FALSE,FALSE,FALSE,FALSE,FALSE,0,FALSE,FALSE,FALSE,FALSE,69,7.696,1405,2063,7.708,FALSE,3.859,3.837,0.022,FALSE,FALSE,NA,110.7,110.6,110.6,0,0,0,0,5,2553.7,638.43,,Idle,0,20,FALSE,5,TRUE,6,Go Home,FALSE,FALSE,FALSE,FALSE,FALSE,FALSE,FALSE,FALSE,FALSE,FALSE,FALSE,FALSE,6.974615933,79.91439679,1,179.1,328,TRUE,1,1,FALSE,FALSE,FALSE,FALSE,,TRUE,FALSE,FALSE,Course Lock,49.2,254.5,16.4,Calm,39,,1.12.8,Mavic Mini,1SDCH7G0169R0K,1SFLH6Q0AB03DJ,1SRCH7F014TAHX,1U5X071EXP6C9Y,69.1,0.2,9.8,14.881914,3.579104,0,184,Mavic Mini,1SDCH7G0169R0K,1SFLH6Q0AB03DJ,1SRCH7F014TAHX,1U5X071EXP6C9Y,DJI Fly,,1.12.8,86C4B78D-0FAB-18C7-F9BE-5245A6A5747D,1SDCH7G0169R0K,,,,,6.974721942,79.91445959,5,,
2/27/2024,10:15.3,7m 16.8s,436.8,6.974618615,79.91439775,0,0,0.3,52,0.3,0,0,0,0,0,0,0,0,5.2,-1.2,21.6,21.6,,Manual Takeoff,Other,Takeoff (RC Assisted),14,5,TRUE,,Mavic Mini,TRUE,FALSE,,Smart,RC,TRUE,TRUE,FALSE,,,TRUE,,FALSE,FALSE,FALSE,FALSE,FALSE,FALSE,FALSE,FALSE,FALSE,FALSE,0,Follow Yaw,0,0,20.1,20.1,FALSE,FALSE,FALSE,FALSE,FALSE,FALSE,,TRUE,Normal,,100,1024,1024,1239,1024,1,FALSE,FALSE,FALSE,FALSE,FALSE,0,FALSE,FALSE,FALSE,FALSE,69,7.696,1405,2063,7.708,FALSE,3.859,3.837,0.022,FALSE,FALSE,NA,110.7,110.6,110.6,0,0,0,0,5,2553.7,638.43,,Idle,0,20,FALSE,5,TRUE,6,Go Home,FALSE,FALSE,FALSE,FALSE,FALSE,FALSE,FALSE,FALSE,FALSE,FALSE,FALSE,FALSE,6.974615933,79.91439679,1,179.1,328,TRUE,1,1,FALSE,FALSE,FALSE,FALSE,,TRUE,FALSE,FALSE,Course Lock,49.2,254.5,16.4,Calm,39,,1.12.8,Mavic Mini,1SDCH7G0169R0K,1SFLH6Q0AB03DJ,1SRCH7F014TAHX,1U5X071EXP6C9Y,69.1,0.2,9.8,14.881914,3.579104,0,184,Mavic Mini,1SDCH7G0169R0K,1SFLH6Q0AB03DJ,1SRCH7F014TAHX,1U5X071EXP6C9Y,DJI Fly,,1.12.8,86C4B78D-0FAB-18C7-F9BE-5245A6A5747D,1SDCH7G0169R0K,,,,,6.974721942,79.91445959,5,,
2/27/2024,10:15.4,7m 16.9s,436.9,6.974618585,79.91439771,0,0,0.3,52,0.3,0,0,0,0,0,0,0,0,5.1,-1.2,21.6,21.6,,Manual Takeoff,Other,Takeoff (RC Assisted),14,5,TRUE,,Mavic Mini,TRUE,FALSE,,Smart,RC,TRUE,TRUE,FALSE,,,TRUE,,FALSE,FALSE,FALSE,FALSE,FALSE,FALSE,FALSE,FALSE,FALSE,FALSE,0,Follow Yaw,0,0,20.1,20.1,FALSE,FALSE,FALSE,FALSE,FALSE,FALSE,,TRUE,Normal,,100,1024,1024,1267,1024,1,FALSE,FALSE,FALSE,FALSE,FALSE,0,FALSE,FALSE,FALSE,FALSE,69,7.71,1405,2063,7.708,FALSE,3.857,3.853,0.022,FALSE,FALSE,NA,110.7,110.6,110.6,0,0,0,0,5,2553.7,638.43,,Idle,0,20,FALSE,5,TRUE,6,Go Home,FALSE,FALSE,FALSE,FALSE,FALSE,FALSE,FALSE,FALSE,FALSE,FALSE,FALSE,FALSE,6.974615933,79.91439679,1,179.1,328,TRUE,1,1,FALSE,FALSE,FALSE,FALSE,,TRUE,FALSE,FALSE,Course Lock,49.2,254.5,16.4,Calm,39,,1.12.8,Mavic Mini,1SDCH7G0169R0K,1SFLH6Q0AB03DJ,1SRCH7F014TAHX,1U5X071EXP6C9Y,69.1,0.2,9.8,14.881914,3.579104,0,184,Mavic Mini,1SDCH7G0169R0K,1SFLH6Q0AB03DJ,1SRCH7F014TAHX,1U5X071EXP6C9Y,DJI Fly,,1.12.8,86C4B78D-0FAB-18C7-F9BE-5245A6A5747D,1SDCH7G0169R0K,,,,,6.974721942,79.91445959,5,,
2/27/2024,10:15.5,7m 17.0s,437,6.974618584,79.9143977,0,0,0.3,52,0.3,0,0,0,0,0,0,0,0,4.9,-1.2,21.6,21.6,,Manual Takeoff,Other,Takeoff (RC Assisted),14,5,TRUE,,Mavic Mini,TRUE,FALSE,,Smart,RC,TRUE,TRUE,FALSE,,,TRUE,,FALSE,FALSE,FALSE,FALSE,FALSE,FALSE,FALSE,FALSE,FALSE,FALSE,0,Follow Yaw,0,0,20.1,20.1,FALSE,FALSE,FALSE,FALSE,FALSE,FALSE,,TRUE,Normal,,100,1024,1024,1288,1024,1,FALSE,FALSE,FALSE,FALSE,FALSE,0,FALSE,FALSE,FALSE,FALSE,69,7.71,1405,2063,7.708,FALSE,3.857,3.853,0.022,FALSE,FALSE,NA,110.7,110.6,110.6,0,0,0,0,5,2553.7,638.43,,Idle,0,20,FALSE,5,TRUE,6,Go Home,FALSE,FALSE,FALSE,FALSE,FALSE,FALSE,FALSE,FALSE,FALSE,FALSE,FALSE,FALSE,6.974615933,79.91439679,1,179.1,328,TRUE,1,1,FALSE,FALSE,FALSE,FALSE,,TRUE,FALSE,FALSE,Course Lock,49.2,254.5,16.4,Calm,39,,1.12.8,Mavic Mini,1SDCH7G0169R0K,1SFLH6Q0AB03DJ,1SRCH7F014TAHX,1U5X071EXP6C9Y,69.1,0.2,9.8,14.881914,3.579104,0,184,Mavic Mini,1SDCH7G0169R0K,1SFLH6Q0AB03DJ,1SRCH7F014TAHX,1U5X071EXP6C9Y,DJI Fly,,1.12.8,86C4B78D-0FAB-18C7-F9BE-5245A6A5747D,1SDCH7G0169R0K,,,,,6.974721942,79.91445959,5,,
2/27/2024,10:15.6,7m 17.1s,437.1,6.974618578,79.91439766,0,0,0.3,52,0.3,0,0,0,0,0,0,0,0,4.9,-1.2,21.6,21.6,,Manual Takeoff,Other,Takeoff (RC Assisted),14,5,TRUE,,Mavic Mini,TRUE,FALSE,,Smart,RC,TRUE,TRUE,FALSE,,,TRUE,,FALSE,FALSE,FALSE,FALSE,FALSE,FALSE,FALSE,FALSE,FALSE,FALSE,0,Follow Yaw,0,0,20.1,20.1,FALSE,FALSE,FALSE,FALSE,FALSE,FALSE,,TRUE,Normal,,100,1024,1024,1303,1024,1,FALSE,FALSE,FALSE,FALSE,FALSE,0,FALSE,FALSE,FALSE,FALSE,69,7.71,1405,2063,7.708,FALSE,3.857,3.853,0.022,FALSE,FALSE,NA,110.7,110.6,110.6,0,0,0,0,5,2553.7,638.43,,Idle,0,20,FALSE,5,TRUE,6,Go Home,FALSE,FALSE,FALSE,FALSE,FALSE,FALSE,FALSE,FALSE,FALSE,FALSE,FALSE,FALSE,6.974615933,79.91439679,1,179.1,328,TRUE,1,1,FALSE,FALSE,FALSE,FALSE,,TRUE,FALSE,FALSE,Course Lock,49.2,254.5,16.4,Calm,39,,1.12.8,Mavic Mini,1SDCH7G0169R0K,1SFLH6Q0AB03DJ,1SRCH7F014TAHX,1U5X071EXP6C9Y,69.1,0.2,9.8,14.881914,3.579104,0,184,Mavic Mini,1SDCH7G0169R0K,1SFLH6Q0AB03DJ,1SRCH7F014TAHX,1U5X071EXP6C9Y,DJI Fly,,1.12.8,86C4B78D-0FAB-18C7-F9BE-5245A6A5747D,1SDCH7G0169R0K,,,,,6.974721942,79.91445959,5,,
2/27/2024,10:15.8,7m 17.2s,437.2,6.974618573,79.91439761,0,0,0.3,52,0.3,0,0,0,0,0,0,0,0,4.9,-1.3,21.5,21.5,,Manual Takeoff,Other,Takeoff (RC Assisted),14,5,TRUE,,Mavic Mini,TRUE,FALSE,,Smart,RC,TRUE,TRUE,FALSE,,,TRUE,,FALSE,FALSE,FALSE,FALSE,FALSE,FALSE,FALSE,FALSE,FALSE,FALSE,0,Follow Yaw,0,0,20.1,20.1,FALSE,FALSE,FALSE,FALSE,FALSE,FALSE,,TRUE,Normal,,100,1024,1024,1307,1024,1,FALSE,FALSE,FALSE,FALSE,FALSE,0,FALSE,FALSE,FALSE,FALSE,69,7.71,1405,2063,7.708,FALSE,3.857,3.853,0.022,FALSE,FALSE,NA,110.7,110.6,110.6,0,0,0,0,5,2553.7,638.43,,Idle,0,20,FALSE,5,TRUE,6,Go Home,FALSE,FALSE,FALSE,FALSE,FALSE,FALSE,FALSE,FALSE,FALSE,FALSE,FALSE,FALSE,6.974615933,79.91439679,1,179.1,328,TRUE,1,1,FALSE,FALSE,FALSE,FALSE,,TRUE,FALSE,FALSE,Course Lock,49.2,254.5,16.4,Calm,39,,1.12.8,Mavic Mini,1SDCH7G0169R0K,1SFLH6Q0AB03DJ,1SRCH7F014TAHX,1U5X071EXP6C9Y,69.1,0.2,9.8,14.881914,3.579104,0,184,Mavic Mini,1SDCH7G0169R0K,1SFLH6Q0AB03DJ,1SRCH7F014TAHX,1U5X071EXP6C9Y,DJI Fly,,1.12.8,86C4B78D-0FAB-18C7-F9BE-5245A6A5747D,1SDCH7G0169R0K,,,,,6.974721942,79.91445959,5,,
2/27/2024,10:15.9,7m 17.3s,437.3,6.974618569,79.91439761,0,0,0.3,52,0.3,0,0,0,0,0,0,0,0,4,-0.9,21.1,21.1,,Manual Takeoff,Other,Takeoff (RC Assisted),14,5,TRUE,,Mavic Mini,TRUE,FALSE,,Smart,RC,TRUE,TRUE,FALSE,,,TRUE,,FALSE,FALSE,FALSE,FALSE,FALSE,FALSE,FALSE,FALSE,FALSE,FALSE,0,Follow Yaw,0,0,20,20,FALSE,FALSE,FALSE,FALSE,FALSE,FALSE,,TRUE,Normal,,100,1024,1024,1315,1024,1,FALSE,FALSE,FALSE,FALSE,FALSE,0,FALSE,FALSE,FALSE,FALSE,69,7.71,1405,2063,7.708,FALSE,3.857,3.853,0.022,FALSE,FALSE,NA,110.7,110.6,110.6,0,0,0,0,5,2553.7,638.43,,Idle,0,20,FALSE,5,TRUE,6,Go Home,FALSE,FALSE,FALSE,FALSE,FALSE,FALSE,FALSE,FALSE,FALSE,FALSE,FALSE,FALSE,6.974615933,79.91439679,1,179.1,328,TRUE,1,1,FALSE,FALSE,FALSE,FALSE,,TRUE,FALSE,FALSE,Course Lock,49.2,254.5,16.4,Calm,39,,1.12.8,Mavic Mini,1SDCH7G0169R0K,1SFLH6Q0AB03DJ,1SRCH7F014TAHX,1U5X071EXP6C9Y,69.1,0.2,9.8,14.881914,3.579104,0,184,Mavic Mini,1SDCH7G0169R0K,1SFLH6Q0AB03DJ,1SRCH7F014TAHX,1U5X071EXP6C9Y,DJI Fly,,1.12.8,86C4B78D-0FAB-18C7-F9BE-5245A6A5747D,1SDCH7G0169R0K,,,,,6.974721942,79.91445959,5,,
2/27/2024,10:16.0,7m 17.4s,437.4,6.97461853,79.9143976,0,0,0.3,52,0.3,0,0,0,0,0,0,0,0,3.7,-1,20.5,20.5,,Manual Takeoff,Other,Takeoff (RC Assisted),14,5,TRUE,,Mavic Mini,TRUE,FALSE,,Smart,RC,TRUE,TRUE,FALSE,,,TRUE,,FALSE,FALSE,FALSE,FALSE,FALSE,FALSE,FALSE,FALSE,FALSE,FALSE,0,Follow Yaw,0,0,19.6,19.6,FALSE,FALSE,FALSE,FALSE,FALSE,FALSE,,TRUE,Normal,,100,1024,1024,1317,1024,1,FALSE,FALSE,FALSE,FALSE,FALSE,0,FALSE,FALSE,FALSE,FALSE,69,7.71,1405,2063,7.708,FALSE,3.857,3.853,0.022,FALSE,FALSE,NA,110.7,110.6,110.6,0,0,0,0,5,2553.7,638.43,,Idle,0,20,FALSE,5,TRUE,6,Go Home,FALSE,FALSE,FALSE,FALSE,FALSE,FALSE,FALSE,FALSE,FALSE,FALSE,FALSE,FALSE,6.974615933,79.91439679,0.9,179.1,328,TRUE,1,1,FALSE,FALSE,FALSE,FALSE,,TRUE,FALSE,FALSE,Course Lock,49.2,254.5,16.4,Calm,39,,1.12.8,Mavic Mini,1SDCH7G0169R0K,1SFLH6Q0AB03DJ,1SRCH7F014TAHX,1U5X071EXP6C9Y,69.1,0.2,9.8,14.881914,3.579104,0,184,Mavic Mini,1SDCH7G0169R0K,1SFLH6Q0AB03DJ,1SRCH7F014TAHX,1U5X071EXP6C9Y,DJI Fly,,1.12.8,86C4B78D-0FAB-18C7-F9BE-5245A6A5747D,1SDCH7G0169R0K,,,,,6.974721942,79.91445959,5,,
2/27/2024,10:16.1,7m 17.5s,437.5,6.974618519,79.91439761,0,0,0.3,52,0.3,0,0,0,0,0,0,0,0,1.9,-0.6,20,20,,Manual Takeoff,Other,Takeoff (RC Assisted),14,5,TRUE,,Mavic Mini,TRUE,FALSE,,Smart,RC,TRUE,TRUE,FALSE,,,TRUE,,FALSE,FALSE,FALSE,FALSE,FALSE,FALSE,FALSE,FALSE,FALSE,FALSE,0,Follow Yaw,0,0,19.2,19.2,FALSE,FALSE,FALSE,FALSE,FALSE,FALSE,,TRUE,Normal,,100,1024,1024,1318,1024,1,FALSE,FALSE,FALSE,FALSE,FALSE,0,FALSE,FALSE,FALSE,FALSE,69,7.71,1405,2063,7.708,FALSE,3.857,3.853,0.022,FALSE,FALSE,NA,110.7,110.6,110.6,0,0,0,0,5,2553.7,638.43,,Idle,0,20,FALSE,5,TRUE,6,Go Home,FALSE,FALSE,FALSE,FALSE,FALSE,FALSE,FALSE,FALSE,FALSE,FALSE,FALSE,FALSE,6.974615933,79.91439679,0.9,179.1,328,TRUE,1,1,FALSE,FALSE,FALSE,FALSE,,TRUE,FALSE,FALSE,Course Lock,49.2,254.5,16.4,Calm,39,,1.12.8,Mavic Mini,1SDCH7G0169R0K,1SFLH6Q0AB03DJ,1SRCH7F014TAHX,1U5X071EXP6C9Y,69.1,0.2,9.8,14.881914,3.579104,0,184,Mavic Mini,1SDCH7G0169R0K,1SFLH6Q0AB03DJ,1SRCH7F014TAHX,1U5X071EXP6C9Y,DJI Fly,,1.12.8,86C4B78D-0FAB-18C7-F9BE-5245A6A5747D,1SDCH7G0169R0K,,,,,6.974721942,79.91445959,5,,
2/27/2024,10:16.2,7m 17.6s,437.6,6.974618494,79.91439761,0,0,0.3,52,0.3,0,0,0,0,0,0,0,0,0.9,-1.6,19.1,19.1,,Manual Takeoff,Other,Takeoff (RC Assisted),14,5,TRUE,,Mavic Mini,TRUE,FALSE,,Smart,RC,TRUE,TRUE,FALSE,,,TRUE,,FALSE,FALSE,FALSE,FALSE,FALSE,FALSE,FALSE,FALSE,FALSE,FALSE,0,Follow Yaw,0,0,18.5,18.5,FALSE,FALSE,FALSE,FALSE,FALSE,FALSE,,TRUE,Normal,,100,1024,1024,1318,1024,1,FALSE,FALSE,FALSE,FALSE,FALSE,0,FALSE,FALSE,FALSE,FALSE,69,7.71,1405,2063,7.675,FALSE,3.857,3.853,0.022,FALSE,FALSE,NA,110.7,110.6,110.6,0,0,0,0,5,2715.5,678.88,,Idle,0,20,FALSE,5,TRUE,6,Go Home,FALSE,FALSE,FALSE,FALSE,FALSE,FALSE,FALSE,FALSE,FALSE,FALSE,FALSE,FALSE,6.974615933,79.91439679,0.9,179.1,328,TRUE,1,1,FALSE,FALSE,FALSE,FALSE,,TRUE,FALSE,FALSE,Course Lock,49.2,254.5,16.4,Calm,39,,1.12.8,Mavic Mini,1SDCH7G0169R0K,1SFLH6Q0AB03DJ,1SRCH7F014TAHX,1U5X071EXP6C9Y,69.1,0.2,9.8,14.881914,3.579104,0,184,Mavic Mini,1SDCH7G0169R0K,1SFLH6Q0AB03DJ,1SRCH7F014TAHX,1U5X071EXP6C9Y,DJI Fly,,1.12.8,86C4B78D-0FAB-18C7-F9BE-5245A6A5747D,1SDCH7G0169R0K,,,,,6.974721942,79.91445959,5,,
2/27/2024,10:16.2,7m 17.7s,437.7,6.974618467,79.91439754,0,0,0.3,52,0.4,0,0,0,0,0,0,-0.223694,0,0.6,-2.3,17.8,17.8,,Manual Takeoff,Other,Takeoff (RC Assisted),14,5,TRUE,,Mavic Mini,TRUE,FALSE,,Smart,RC,FALSE,TRUE,FALSE,,,TRUE,,FALSE,FALSE,FALSE,FALSE,FALSE,FALSE,FALSE,FALSE,FALSE,FALSE,0,Follow Yaw,0,0,17.5,17.5,FALSE,FALSE,FALSE,FALSE,FALSE,FALSE,,TRUE,Normal,,100,1024,1024,1318,1024,1,FALSE,FALSE,FALSE,FALSE,FALSE,0,FALSE,FALSE,FALSE,FALSE,69,7.71,1405,2063,7.675,FALSE,3.857,3.853,0.022,FALSE,FALSE,NA,110.7,110.6,110.6,0,0,0,0,5,2715.5,678.88,,Idle,0,20,FALSE,5,TRUE,6,Go Home,FALSE,FALSE,FALSE,FALSE,FALSE,FALSE,FALSE,FALSE,FALSE,FALSE,FALSE,FALSE,6.974615933,79.91439679,0.9,179.1,328,TRUE,1,1,FALSE,FALSE,FALSE,FALSE,,TRUE,FALSE,FALSE,Course Lock,49.2,254.5,16.4,Calm,39,,1.12.8,Mavic Mini,1SDCH7G0169R0K,1SFLH6Q0AB03DJ,1SRCH7F014TAHX,1U5X071EXP6C9Y,69.1,0.2,9.8,14.881914,3.579104,0,184,Mavic Mini,1SDCH7G0169R0K,1SFLH6Q0AB03DJ,1SRCH7F014TAHX,1U5X071EXP6C9Y,DJI Fly,,1.12.8,86C4B78D-0FAB-18C7-F9BE-5245A6A5747D,1SDCH7G0169R0K,,,,,6.974721942,79.91445959,5,,
2/27/2024,10:16.3,7m 17.8s,437.8,6.974618441,79.91439741,0,0,0.3,52,0.4,0,0,0,0,0,0,-0.447388,0,0.3,-1,17.7,17.7,,P-GPS,Other,,14,5,TRUE,,Mavic Mini,TRUE,FALSE,,Smart,RC,FALSE,TRUE,FALSE,,,TRUE,,FALSE,FALSE,FALSE,FALSE,FALSE,FALSE,FALSE,FALSE,FALSE,FALSE,0,Follow Yaw,0,0,16.9,16.9,FALSE,FALSE,FALSE,FALSE,FALSE,FALSE,,TRUE,Normal,,100,1024,1024,1318,1024,1,FALSE,FALSE,FALSE,FALSE,FALSE,0,FALSE,FALSE,FALSE,FALSE,69,7.71,1405,2063,7.675,FALSE,3.857,3.853,0.022,FALSE,FALSE,NA,110.7,110.6,110.6,0,0,0,0,5,2715.5,678.88,,Idle,0,20,FALSE,5,TRUE,6,Go Home,FALSE,FALSE,FALSE,FALSE,FALSE,FALSE,FALSE,FALSE,FALSE,FALSE,FALSE,FALSE,6.974615933,79.91439679,0.9,179.1,328,TRUE,1,1,FALSE,FALSE,FALSE,FALSE,,TRUE,FALSE,FALSE,Course Lock,49.2,254.5,16.4,Calm,39,,1.12.8,Mavic Mini,1SDCH7G0169R0K,1SFLH6Q0AB03DJ,1SRCH7F014TAHX,1U5X071EXP6C9Y,69.1,0.2,9.8,14.881914,3.579104,0,184,Mavic Mini,1SDCH7G0169R0K,1SFLH6Q0AB03DJ,1SRCH7F014TAHX,1U5X071EXP6C9Y,DJI Fly,,1.12.8,86C4B78D-0FAB-18C7-F9BE-5245A6A5747D,1SDCH7G0169R0K,,,,,6.974721942,79.91445959,5,Flight mode changed to P-GPS.,
2/27/2024,10:16.4,7m 17.9s,437.9,6.974618441,79.91439732,0,0,0.3,52,0.5,0,0,0,0,0,0,-0.894776,0,-0.2,0.2,18,18,,P-GPS,Other,,14,5,TRUE,,Mavic Mini,TRUE,FALSE,,Smart,RC,FALSE,TRUE,FALSE,,,TRUE,,FALSE,FALSE,FALSE,FALSE,FALSE,FALSE,FALSE,FALSE,FALSE,FALSE,0,Follow Yaw,0,0,16.9,16.9,FALSE,FALSE,FALSE,FALSE,FALSE,FALSE,,TRUE,Normal,,100,1024,1024,1318,1024,1,FALSE,FALSE,FALSE,FALSE,FALSE,0,FALSE,FALSE,FALSE,FALSE,69,7.71,1405,2063,7.675,FALSE,3.857,3.853,0.022,FALSE,FALSE,NA,110.7,110.6,110.6,0,0,0,0,5,2715.5,678.88,,Idle,0,20,FALSE,5,TRUE,6,Go Home,FALSE,FALSE,FALSE,FALSE,FALSE,FALSE,FALSE,FALSE,FALSE,FALSE,FALSE,FALSE,6.974615933,79.91439679,0.9,179.1,328,TRUE,1,1,FALSE,FALSE,FALSE,FALSE,,TRUE,FALSE,FALSE,Course Lock,49.2,254.5,16.4,Calm,39,,1.12.8,Mavic Mini,1SDCH7G0169R0K,1SFLH6Q0AB03DJ,1SRCH7F014TAHX,1U5X071EXP6C9Y,69.1,0.2,9.8,14.881914,3.579104,0,184,Mavic Mini,1SDCH7G0169R0K,1SFLH6Q0AB03DJ,1SRCH7F014TAHX,1U5X071EXP6C9Y,DJI Fly,,1.12.8,86C4B78D-0FAB-18C7-F9BE-5245A6A5747D,1SDCH7G0169R0K,,,,,6.974721942,79.91445959,5,,
2/27/2024,10:16.5,7m 18.0s,438,6.974618456,79.91439724,0,0,0.6,52,0.5,0,0,0,0,0,0,-1.11847,0,0.1,0.1,18.2,18.2,,P-GPS,Other,,14,5,TRUE,,Mavic Mini,TRUE,FALSE,,Smart,RC,FALSE,TRUE,FALSE,,,TRUE,,FALSE,FALSE,FALSE,FALSE,FALSE,FALSE,FALSE,FALSE,FALSE,FALSE,0,Follow Yaw,0,0,16.9,16.9,FALSE,FALSE,FALSE,FALSE,FALSE,FALSE,,TRUE,Normal,,100,1024,1024,1308,1024,1,FALSE,FALSE,FALSE,FALSE,FALSE,0,FALSE,FALSE,FALSE,FALSE,69,7.71,1405,2063,7.675,FALSE,3.857,3.853,0.022,FALSE,FALSE,NA,110.7,110.6,110.6,0,0,0,0,5,2715.5,678.88,,Idle,0,20,FALSE,5,TRUE,6,Go Home,FALSE,FALSE,FALSE,FALSE,FALSE,FALSE,FALSE,FALSE,FALSE,FALSE,FALSE,FALSE,6.974615933,79.91439679,0.9,179.1,328,TRUE,1,1,FALSE,FALSE,FALSE,FALSE,,TRUE,FALSE,FALSE,Course Lock,49.2,254.5,16.4,Calm,39,,1.12.8,Mavic Mini,1SDCH7G0169R0K,1SFLH6Q0AB03DJ,1SRCH7F014TAHX,1U5X071EXP6C9Y,69.1,0.2,9.8,14.881914,3.579104,0,184,Mavic Mini,1SDCH7G0169R0K,1SFLH6Q0AB03DJ,1SRCH7F014TAHX,1U5X071EXP6C9Y,DJI Fly,,1.12.8,86C4B78D-0FAB-18C7-F9BE-5245A6A5747D,1SDCH7G0169R0K,,,,,6.974721942,79.91445959,5,,
2/27/2024,10:16.6,7m 18.1s,438.1,6.974618489,79.91439714,0.3,0.3,0.6,52,0.5,0,0,0,0,0,0,-1.11847,0,0.2,0.5,18.2,18.2,,P-GPS,Other,,14,5,TRUE,,Mavic Mini,TRUE,FALSE,,Smart,RC,FALSE,TRUE,FALSE,,,TRUE,,FALSE,FALSE,FALSE,FALSE,FALSE,FALSE,FALSE,FALSE,FALSE,FALSE,0,Follow Yaw,0,0,16.9,16.9,FALSE,FALSE,FALSE,FALSE,FALSE,FALSE,,TRUE,Normal,,100,1024,1024,1294,1024,1,FALSE,FALSE,FALSE,FALSE,FALSE,0,FALSE,FALSE,FALSE,FALSE,69,7.553,1404,2063,7.675,FALSE,3.78,3.773,0.022,FALSE,FALSE,NA,110.8,110.6,110.8,0,0,0,0,5,2715.5,678.88,,Idle,0,20,FALSE,5,TRUE,6,Go Home,FALSE,FALSE,FALSE,FALSE,FALSE,FALSE,FALSE,FALSE,FALSE,FALSE,FALSE,FALSE,6.974615933,79.91439679,0.9,179.1,328,TRUE,1,1,FALSE,FALSE,FALSE,FALSE,,TRUE,FALSE,FALSE,Course Lock,49.2,254.5,16.4,Calm,39,,1.12.8,Mavic Mini,1SDCH7G0169R0K,1SFLH6Q0AB03DJ,1SRCH7F014TAHX,1U5X071EXP6C9Y,69.1,0.2,9.8,14.881914,3.579104,0,184,Mavic Mini,1SDCH7G0169R0K,1SFLH6Q0AB03DJ,1SRCH7F014TAHX,1U5X071EXP6C9Y,DJI Fly,,1.12.8,86C4B78D-0FAB-18C7-F9BE-5245A6A5747D,1SDCH7G0169R0K,,,,,6.974721942,79.91445959,5,,
2/27/2024,10:16.7,7m 18.2s,438.2,6.974618536,79.91439703,0.3,0.3,0.9,52,0.6,0,0,0,0,0,0,-1.342164,0,0.9,0.3,18.2,18.2,,P-GPS,Other,,14,5,TRUE,,Mavic Mini,TRUE,FALSE,,Smart,RC,FALSE,TRUE,FALSE,,,TRUE,,FALSE,FALSE,FALSE,FALSE,FALSE,FALSE,FALSE,FALSE,FALSE,FALSE,0,Follow Yaw,0,0,16.9,16.9,FALSE,FALSE,FALSE,FALSE,FALSE,FALSE,,TRUE,Normal,,100,1024,1024,1299,1024,1,FALSE,FALSE,FALSE,FALSE,FALSE,0,FALSE,FALSE,FALSE,FALSE,69,7.553,1404,2063,7.675,FALSE,3.78,3.773,0.022,FALSE,FALSE,NA,110.8,110.6,110.8,0,0,0,0,5,2715.5,678.88,,Idle,0,20,FALSE,5,TRUE,6,Go Home,FALSE,FALSE,FALSE,FALSE,FALSE,FALSE,FALSE,FALSE,FALSE,FALSE,FALSE,FALSE,6.974615933,79.91439679,0.9,179.1,328,TRUE,1,1,FALSE,FALSE,FALSE,FALSE,,TRUE,FALSE,FALSE,Course Lock,49.2,254.5,16.4,Calm,39,,1.12.8,Mavic Mini,1SDCH7G0169R0K,1SFLH6Q0AB03DJ,1SRCH7F014TAHX,1U5X071EXP6C9Y,69.1,0.2,9.8,14.881914,3.579104,0,184,Mavic Mini,1SDCH7G0169R0K,1SFLH6Q0AB03DJ,1SRCH7F014TAHX,1U5X071EXP6C9Y,DJI Fly,,1.12.8,86C4B78D-0FAB-18C7-F9BE-5245A6A5747D,1SDCH7G0169R0K,,,,,6.974721942,79.91445959,5,,
2/27/2024,10:16.8,7m 18.3s,438.3,6.974618576,79.91439693,0.6,0.6,1.3,52,0.6,0,0,0,0,0,0,-1.342164,0,0.3,0.8,18.1,18.1,,P-GPS,Other,,14,5,TRUE,,Mavic Mini,TRUE,FALSE,,Smart,RC,FALSE,TRUE,FALSE,,,TRUE,,FALSE,FALSE,FALSE,FALSE,FALSE,FALSE,FALSE,FALSE,FALSE,FALSE,0,Follow Yaw,0,0,16.9,16.9,FALSE,FALSE,FALSE,FALSE,FALSE,FALSE,,TRUE,Normal,,100,1024,1024,1302,1024,1,FALSE,FALSE,FALSE,FALSE,FALSE,0,FALSE,FALSE,FALSE,FALSE,69,7.553,1404,2063,7.675,FALSE,3.78,3.773,0.022,FALSE,FALSE,NA,110.8,110.6,110.8,0,0,0,0,5,2715.5,678.88,,Idle,0,20,FALSE,5,TRUE,6,Go Home,FALSE,FALSE,FALSE,FALSE,FALSE,FALSE,FALSE,FALSE,FALSE,FALSE,FALSE,FALSE,6.974615933,79.91439679,0.9,179.1,328,TRUE,1,1,FALSE,FALSE,FALSE,FALSE,,TRUE,FALSE,FALSE,Course Lock,49.2,254.5,16.4,Calm,39,,1.12.8,Mavic Mini,1SDCH7G0169R0K,1SFLH6Q0AB03DJ,1SRCH7F014TAHX,1U5X071EXP6C9Y,69.1,0.2,9.8,14.881914,3.579104,0,184,Mavic Mini,1SDCH7G0169R0K,1SFLH6Q0AB03DJ,1SRCH7F014TAHX,1U5X071EXP6C9Y,DJI Fly,,1.12.8,86C4B78D-0FAB-18C7-F9BE-5245A6A5747D,1SDCH7G0169R0K,,,,,6.974721942,79.91445959,5,,
2/27/2024,10:16.9,7m 18.4s,438.4,6.97461861,79.91439683,0.9,0.9,1.3,53,0.6,0,0,0,0,0,0,-1.342164,0,0.1,0.9,18.1,18.1,,P-GPS,Other,,14,5,TRUE,,Mavic Mini,TRUE,FALSE,,Smart,RC,FALSE,TRUE,FALSE,,,TRUE,,FALSE,FALSE,FALSE,FALSE,FALSE,FALSE,FALSE,FALSE,FALSE,FALSE,0,Follow Yaw,0,0,16.9,16.9,FALSE,FALSE,FALSE,FALSE,FALSE,FALSE,,TRUE,Normal,,100,1024,1024,1307,1024,1,FALSE,FALSE,FALSE,FALSE,FALSE,0,FALSE,FALSE,FALSE,FALSE,69,7.553,1404,2063,7.675,FALSE,3.78,3.773,0.022,FALSE,FALSE,NA,110.8,110.6,110.8,0,0,0,0,5,2715.5,678.88,,Idle,0,20,FALSE,5,TRUE,6,Go Home,FALSE,FALSE,FALSE,FALSE,FALSE,FALSE,FALSE,FALSE,FALSE,FALSE,FALSE,FALSE,6.974615933,79.91439679,0.9,179.1,328,TRUE,1,1,FALSE,FALSE,FALSE,FALSE,,TRUE,FALSE,FALSE,Course Lock,49.2,254.5,16.4,Calm,39,,1.12.8,Mavic Mini,1SDCH7G0169R0K,1SFLH6Q0AB03DJ,1SRCH7F014TAHX,1U5X071EXP6C9Y,69.1,0.2,9.8,14.881914,3.579104,0,184,Mavic Mini,1SDCH7G0169R0K,1SFLH6Q0AB03DJ,1SRCH7F014TAHX,1U5X071EXP6C9Y,DJI Fly,,1.12.8,86C4B78D-0FAB-18C7-F9BE-5245A6A5747D,1SDCH7G0169R0K,,,,,6.974721942,79.91445959,5,,
2/27/2024,10:17.1,7m 18.5s,438.5,6.974618662,79.91439672,0.9,0.9,1.6,53,0.7,0,0,0,0,0,0,-1.342164,0,0.6,0.6,18.2,18.2,,P-GPS,Other,,14,5,TRUE,,Mavic Mini,TRUE,FALSE,,Smart,RC,FALSE,TRUE,FALSE,,,TRUE,,FALSE,FALSE,FALSE,FALSE,FALSE,FALSE,FALSE,FALSE,FALSE,FALSE,0,Follow Yaw,0,0,16.9,16.9,FALSE,FALSE,FALSE,FALSE,FALSE,FALSE,,TRUE,Normal,,100,1024,1024,1306,1024,1,FALSE,FALSE,FALSE,FALSE,FALSE,0,FALSE,FALSE,FALSE,FALSE,69,7.553,1404,2063,7.675,FALSE,3.78,3.773,0.022,FALSE,FALSE,NA,110.8,110.6,110.8,0,0,0,0,5,2715.5,678.88,,Idle,0,20,FALSE,5,TRUE,6,Go Home,FALSE,FALSE,FALSE,FALSE,FALSE,FALSE,FALSE,FALSE,FALSE,FALSE,FALSE,FALSE,6.974615933,79.91439679,0.9,179.1,328,TRUE,1,1,FALSE,FALSE,FALSE,FALSE,,TRUE,FALSE,FALSE,Course Lock,49.2,254.5,16.4,Calm,39,,1.12.8,Mavic Mini,1SDCH7G0169R0K,1SFLH6Q0AB03DJ,1SRCH7F014TAHX,1U5X071EXP6C9Y,69.1,0.2,9.8,14.881914,3.579104,0,184,Mavic Mini,1SDCH7G0169R0K,1SFLH6Q0AB03DJ,1SRCH7F014TAHX,1U5X071EXP6C9Y,DJI Fly,,1.12.8,86C4B78D-0FAB-18C7-F9BE-5245A6A5747D,1SDCH7G0169R0K,,,,,6.974721942,79.91445959,5,,
2/27/2024,10:17.2,7m 18.6s,438.6,6.9746188,79.91439649,1.3,1.3,1.9,53,0.8,0,0,0,0,0,0,-1.342164,0,0.2,0.4,18.3,18.3,,P-GPS,Other,,14,5,TRUE,,Mavic Mini,TRUE,FALSE,,Smart,RC,FALSE,TRUE,FALSE,,,TRUE,,FALSE,FALSE,FALSE,FALSE,FALSE,FALSE,FALSE,FALSE,FALSE,FALSE,0,Follow Yaw,0,0,16.9,16.9,FALSE,FALSE,FALSE,FALSE,FALSE,FALSE,,TRUE,Normal,,100,1024,1024,1306,1024,1,FALSE,FALSE,FALSE,FALSE,FALSE,0,FALSE,FALSE,FALSE,FALSE,69,7.553,1404,2063,7.587,FALSE,3.78,3.773,0.022,FALSE,FALSE,NA,110.8,110.6,110.8,0,0,0,0,5,3181.9,795.47,,Idle,0,20,FALSE,5,TRUE,6,Go Home,FALSE,FALSE,FALSE,FALSE,FALSE,FALSE,FALSE,FALSE,FALSE,FALSE,FALSE,FALSE,6.974618462,79.91439752,0.3,179.1,328,TRUE,1,1,FALSE,FALSE,FALSE,FALSE,,TRUE,FALSE,FALSE,Course Lock,49.2,254.5,16.4,Calm,39,,1.12.8,Mavic Mini,1SDCH7G0169R0K,1SFLH6Q0AB03DJ,1SRCH7F014TAHX,1U5X071EXP6C9Y,69.1,0.2,9.8,14.881914,3.579104,0,184,Mavic Mini,1SDCH7G0169R0K,1SFLH6Q0AB03DJ,1SRCH7F014TAHX,1U5X071EXP6C9Y,DJI Fly,,1.12.8,86C4B78D-0FAB-18C7-F9BE-5245A6A5747D,1SDCH7G0169R0K,,,,,6.974721942,79.91445959,5,Home Point Updated.,
2/27/2024,10:17.3,7m 18.7s,438.7,6.974618776,79.9143965,1.3,1.3,1.9,53,0.8,0,0,0,0,0,0,-1.342164,0,0.2,0.5,18.3,18.3,,P-GPS,Other,,14,5,TRUE,,Mavic Mini,TRUE,FALSE,,Smart,RC,FALSE,TRUE,FALSE,,,TRUE,,FALSE,FALSE,FALSE,FALSE,FALSE,FALSE,FALSE,FALSE,FALSE,FALSE,0,Follow Yaw,0,0,16.9,16.9,FALSE,FALSE,FALSE,FALSE,FALSE,FALSE,,TRUE,Normal,,100,1024,1024,1300,1024,1,FALSE,FALSE,FALSE,FALSE,FALSE,0,FALSE,FALSE,FALSE,FALSE,69,7.553,1404,2063,7.587,FALSE,3.78,3.773,0.022,FALSE,FALSE,NA,110.8,110.6,110.8,0,0,0,0,5,3181.9,795.47,,Idle,0,20,FALSE,5,TRUE,6,Go Home,FALSE,FALSE,FALSE,FALSE,FALSE,FALSE,FALSE,FALSE,FALSE,FALSE,FALSE,FALSE,6.974618462,79.91439752,0.3,179.1,328,TRUE,1,1,FALSE,FALSE,FALSE,FALSE,,TRUE,FALSE,FALSE,Course Lock,49.2,254.5,16.4,Calm,39,,1.12.8,Mavic Mini,1SDCH7G0169R0K,1SFLH6Q0AB03DJ,1SRCH7F014TAHX,1U5X071EXP6C9Y,69.1,0.2,9.8,14.881914,3.579104,0,184,Mavic Mini,1SDCH7G0169R0K,1SFLH6Q0AB03DJ,1SRCH7F014TAHX,1U5X071EXP6C9Y,DJI Fly,,1.12.8,86C4B78D-0FAB-18C7-F9BE-5245A6A5747D,1SDCH7G0169R0K,,,,,6.974721733,79.9144528,5,,
2/27/2024,10:17.3,7m 18.8s,438.8,6.974618747,79.91439653,1.6,1.6,2.2,53,0.8,0,0,0,0,0,0,-1.342164,0,0.1,0.8,18.3,18.3,,P-GPS,Other,,14,5,TRUE,,Mavic Mini,TRUE,FALSE,,Smart,RC,FALSE,TRUE,FALSE,,,TRUE,,FALSE,FALSE,FALSE,FALSE,FALSE,FALSE,FALSE,FALSE,FALSE,FALSE,0,Follow Yaw,0,0,16.9,16.9,FALSE,FALSE,FALSE,FALSE,FALSE,FALSE,,TRUE,Normal,,100,1024,1024,1293,1024,1,FALSE,FALSE,FALSE,FALSE,FALSE,0,FALSE,FALSE,FALSE,FALSE,69,7.553,1404,2063,7.587,FALSE,3.78,3.773,0.022,FALSE,FALSE,NA,110.8,110.6,110.8,0,0,0,0,5,3181.9,795.47,,Idle,0,20,FALSE,5,TRUE,6,Go Home,FALSE,FALSE,FALSE,FALSE,FALSE,FALSE,FALSE,FALSE,FALSE,FALSE,FALSE,FALSE,6.974618462,79.91439752,0.3,179.1,328,TRUE,1,1,FALSE,FALSE,FALSE,FALSE,,TRUE,FALSE,FALSE,Course Lock,49.2,254.5,16.4,Calm,39,,1.12.8,Mavic Mini,1SDCH7G0169R0K,1SFLH6Q0AB03DJ,1SRCH7F014TAHX,1U5X071EXP6C9Y,69.1,0.2,9.8,14.881914,3.579104,0,184,Mavic Mini,1SDCH7G0169R0K,1SFLH6Q0AB03DJ,1SRCH7F014TAHX,1U5X071EXP6C9Y,DJI Fly,,1.12.8,86C4B78D-0FAB-18C7-F9BE-5245A6A5747D,1SDCH7G0169R0K,,,,,6.974721733,79.9144528,5,,
2/27/2024,10:17.4,7m 18.9s,438.9,6.974618653,79.91439644,1.6,1.6,2.6,53,0.9,0,0,0,0,0,0,-1.11847,0,0.1,0.8,18.2,18.2,,P-GPS,Other,,14,5,TRUE,,Mavic Mini,TRUE,FALSE,,Smart,RC,FALSE,TRUE,FALSE,,,TRUE,,FALSE,FALSE,FALSE,FALSE,FALSE,FALSE,FALSE,FALSE,FALSE,FALSE,0,Follow Yaw,0,0,16.9,16.9,FALSE,FALSE,FALSE,FALSE,FALSE,FALSE,,TRUE,Normal,,100,1024,1024,1301,1024,1,FALSE,FALSE,FALSE,FALSE,FALSE,0,FALSE,FALSE,FALSE,FALSE,69,7.553,1404,2063,7.587,FALSE,3.78,3.773,0.022,FALSE,FALSE,NA,110.8,110.6,110.8,0,0,0,0,5,3181.9,795.47,,Idle,0,20,FALSE,5,TRUE,6,Go Home,FALSE,FALSE,FALSE,FALSE,FALSE,FALSE,FALSE,FALSE,FALSE,FALSE,FALSE,FALSE,6.974618462,79.91439752,0.3,179.1,328,TRUE,1,1,FALSE,FALSE,FALSE,FALSE,,TRUE,FALSE,FALSE,Course Lock,49.2,254.5,16.4,Calm,39,,1.12.8,Mavic Mini,1SDCH7G0169R0K,1SFLH6Q0AB03DJ,1SRCH7F014TAHX,1U5X071EXP6C9Y,69.1,0.2,9.8,14.881914,3.579104,0,184,Mavic Mini,1SDCH7G0169R0K,1SFLH6Q0AB03DJ,1SRCH7F014TAHX,1U5X071EXP6C9Y,DJI Fly,,1.12.8,86C4B78D-0FAB-18C7-F9BE-5245A6A5747D,1SDCH7G0169R0K,,,,,6.974721733,79.9144528,5,,
2/27/2024,10:17.5,7m 19.0s,439,6.974618553,79.91439636,1.9,1.9,2.6,54,0.9,0,0,0,0,0,0,-1.11847,0,-0.2,0.7,18.3,18.3,,P-GPS,Other,,13,5,TRUE,,Mavic Mini,TRUE,FALSE,,Smart,RC,FALSE,TRUE,FALSE,,,TRUE,,FALSE,FALSE,FALSE,FALSE,FALSE,FALSE,FALSE,FALSE,FALSE,FALSE,0,Follow Yaw,0,0,16.9,16.9,FALSE,FALSE,FALSE,FALSE,FALSE,FALSE,,TRUE,Normal,,100,1024,1024,1301,1024,1,FALSE,FALSE,FALSE,FALSE,FALSE,0,FALSE,FALSE,FALSE,FALSE,69,7.553,1404,2063,7.587,FALSE,3.78,3.773,0.022,FALSE,FALSE,NA,110.8,110.6,110.8,0,0,0,0,5,3181.9,795.47,,Idle,0,20,FALSE,5,TRUE,6,Go Home,FALSE,FALSE,FALSE,FALSE,FALSE,FALSE,FALSE,FALSE,FALSE,FALSE,FALSE,FALSE,6.974618462,79.91439752,0.4,179.1,328,TRUE,1,1,FALSE,FALSE,FALSE,FALSE,,TRUE,FALSE,FALSE,Course Lock,49.2,254.5,16.4,Calm,39,,1.12.8,Mavic Mini,1SDCH7G0169R0K,1SFLH6Q0AB03DJ,1SRCH7F014TAHX,1U5X071EXP6C9Y,69.1,0.2,9.8,14.881914,3.579104,0,184,Mavic Mini,1SDCH7G0169R0K,1SFLH6Q0AB03DJ,1SRCH7F014TAHX,1U5X071EXP6C9Y,DJI Fly,,1.12.8,86C4B78D-0FAB-18C7-F9BE-5245A6A5747D,1SDCH7G0169R0K,,,,,6.974721733,79.9144528,5,,
2/27/2024,10:17.6,7m 19.1s,439.1,6.974618308,79.9143965,1.9,1.9,2.9,54,1,0,0,0,0,0,0,-1.11847,0,0,0.5,18.3,18.3,,P-GPS,Other,,13,5,TRUE,,Mavic Mini,TRUE,FALSE,,Smart,RC,FALSE,TRUE,FALSE,,,TRUE,,FALSE,FALSE,FALSE,FALSE,FALSE,FALSE,FALSE,FALSE,FALSE,FALSE,0,Follow Yaw,0,0,16.9,16.9,FALSE,FALSE,FALSE,FALSE,FALSE,FALSE,,TRUE,Normal,,100,1024,1024,1316,1024,1,FALSE,FALSE,FALSE,FALSE,FALSE,0,FALSE,FALSE,FALSE,FALSE,69,7.553,1404,2063,7.587,FALSE,3.78,3.773,0.022,FALSE,FALSE,NA,110.8,110.6,110.8,0,0,0,0,5,3181.9,795.47,,Idle,0,20,FALSE,5,TRUE,6,Go Home,FALSE,FALSE,FALSE,FALSE,FALSE,FALSE,FALSE,FALSE,FALSE,FALSE,FALSE,FALSE,6.974618462,79.91439752,0.3,179.1,328,TRUE,1,1,FALSE,FALSE,FALSE,FALSE,,TRUE,FALSE,FALSE,Course Lock,49.2,254.5,16.4,Calm,39,,1.12.8,Mavic Mini,1SDCH7G0169R0K,1SFLH6Q0AB03DJ,1SRCH7F014TAHX,1U5X071EXP6C9Y,69.1,0.2,9.8,14.881914,3.579104,0,184,Mavic Mini,1SDCH7G0169R0K,1SFLH6Q0AB03DJ,1SRCH7F014TAHX,1U5X071EXP6C9Y,DJI Fly,,1.12.8,86C4B78D-0FAB-18C7-F9BE-5245A6A5747D,1SDCH7G0169R0K,,,,,6.974721733,79.9144528,5,,
2/27/2024,10:17.7,7m 19.2s,439.2,6.974618259,79.91439653,2.2,2.2,3.2,54,1,0,0,0,0,0,0,-1.11847,0,0,0.5,18.3,18.3,,P-GPS,Other,,14,5,TRUE,,Mavic Mini,TRUE,FALSE,,Smart,RC,FALSE,TRUE,FALSE,,,TRUE,,FALSE,FALSE,FALSE,FALSE,FALSE,FALSE,FALSE,FALSE,FALSE,FALSE,0,Follow Yaw,0,0,16.9,16.9,FALSE,FALSE,FALSE,FALSE,FALSE,FALSE,,TRUE,Normal,,100,1024,1024,1322,1024,1,FALSE,FALSE,FALSE,FALSE,FALSE,0,FALSE,FALSE,FALSE,FALSE,69,7.538,1402,2063,7.587,FALSE,3.772,3.766,0.022,FALSE,FALSE,NA,110.8,110.6,110.8,0,0,0,0,5,3181.9,795.47,,Idle,0,20,FALSE,5,TRUE,6,Go Home,FALSE,FALSE,FALSE,FALSE,FALSE,FALSE,FALSE,FALSE,FALSE,FALSE,FALSE,FALSE,6.974618462,79.91439752,0.3,179.1,328,TRUE,1,1,FALSE,FALSE,FALSE,FALSE,,TRUE,FALSE,FALSE,Course Lock,49.2,254.5,16.4,Calm,39,,1.12.8,Mavic Mini,1SDCH7G0169R0K,1SFLH6Q0AB03DJ,1SRCH7F014TAHX,1U5X071EXP6C9Y,69.1,0.2,9.8,14.881914,3.579104,0,184,Mavic Mini,1SDCH7G0169R0K,1SFLH6Q0AB03DJ,1SRCH7F014TAHX,1U5X071EXP6C9Y,DJI Fly,,1.12.8,86C4B78D-0FAB-18C7-F9BE-5245A6A5747D,1SDCH7G0169R0K,,,,,6.974721733,79.9144528,5,,
2/27/2024,10:17.8,7m 19.3s,439.3,6.974618198,79.91439656,2.2,2.2,3.2,54,1.1,0,0,0,0,0,0,-1.11847,0,0.1,0.2,18.3,18.3,,P-GPS,Other,,14,5,TRUE,,Mavic Mini,TRUE,FALSE,,Smart,RC,FALSE,TRUE,FALSE,,,TRUE,,FALSE,FALSE,FALSE,FALSE,FALSE,FALSE,FALSE,FALSE,FALSE,FALSE,0,Follow Yaw,0,0,16.9,16.9,FALSE,FALSE,FALSE,FALSE,FALSE,FALSE,,TRUE,Normal,,100,1024,1024,1322,1024,1,FALSE,FALSE,FALSE,FALSE,FALSE,0,FALSE,FALSE,FALSE,FALSE,69,7.538,1402,2063,7.587,FALSE,3.772,3.766,0.022,FALSE,FALSE,NA,110.8,110.6,110.8,0,0,0,0,5,3181.9,795.47,,Idle,0,20,FALSE,5,TRUE,6,Go Home,FALSE,FALSE,FALSE,FALSE,FALSE,FALSE,FALSE,FALSE,FALSE,FALSE,FALSE,FALSE,6.974618462,79.91439752,0.3,179.1,328,TRUE,1,1,FALSE,FALSE,FALSE,FALSE,,TRUE,FALSE,FALSE,Course Lock,49.2,254.5,16.4,Calm,39,,1.12.8,Mavic Mini,1SDCH7G0169R0K,1SFLH6Q0AB03DJ,1SRCH7F014TAHX,1U5X071EXP6C9Y,69.1,0.2,9.8,14.881914,3.579104,0,184,Mavic Mini,1SDCH7G0169R0K,1SFLH6Q0AB03DJ,1SRCH7F014TAHX,1U5X071EXP6C9Y,DJI Fly,,1.12.8,86C4B78D-0FAB-18C7-F9BE-5245A6A5747D,1SDCH7G0169R0K,,,,,6.974721733,79.9144528,5,,
2/27/2024,10:17.9,7m 19.4s,439.4,6.974618134,79.91439659,2.6,2.6,3.6,54,1.1,0,0,0,0,0,0,-1.11847,0,-0.5,0.3,18.3,18.3,,P-GPS,Other,,14,5,TRUE,,Mavic Mini,TRUE,FALSE,,Smart,RC,FALSE,TRUE,FALSE,,,TRUE,,FALSE,FALSE,FALSE,FALSE,FALSE,FALSE,FALSE,FALSE,FALSE,FALSE,0,Follow Yaw,0,0,16.9,16.9,FALSE,FALSE,FALSE,FALSE,FALSE,FALSE,,TRUE,Normal,,100,1024,1024,1323,1024,1,FALSE,FALSE,FALSE,FALSE,FALSE,0,FALSE,FALSE,FALSE,FALSE,69,7.538,1402,2063,7.587,FALSE,3.772,3.766,0.022,FALSE,FALSE,NA,110.8,110.6,110.8,0,0,0,0,5,3181.9,795.47,,Idle,0,20,FALSE,5,TRUE,6,Go Home,FALSE,FALSE,FALSE,FALSE,FALSE,FALSE,FALSE,FALSE,FALSE,FALSE,FALSE,FALSE,6.974618462,79.91439752,0.3,179.1,328,TRUE,1,1,FALSE,FALSE,FALSE,FALSE,,TRUE,FALSE,FALSE,Course Lock,49.2,254.5,16.4,Calm,39,,1.12.8,Mavic Mini,1SDCH7G0169R0K,1SFLH6Q0AB03DJ,1SRCH7F014TAHX,1U5X071EXP6C9Y,69.1,0.2,9.8,14.881914,3.579104,0,184,Mavic Mini,1SDCH7G0169R0K,1SFLH6Q0AB03DJ,1SRCH7F014TAHX,1U5X071EXP6C9Y,DJI Fly,,1.12.8,86C4B78D-0FAB-18C7-F9BE-5245A6A5747D,1SDCH7G0169R0K,,,,,6.974721733,79.9144528,5,,
2/27/2024,10:18.0,7m 19.5s,439.5,6.974618044,79.91439658,2.6,2.6,3.9,54,1.1,0,0,0,0,0,0,-1.342164,0,-0.3,0.3,18.3,18.3,,P-GPS,Other,,14,5,TRUE,,Mavic Mini,TRUE,FALSE,,Smart,RC,FALSE,TRUE,FALSE,,,TRUE,,FALSE,FALSE,FALSE,FALSE,FALSE,FALSE,FALSE,FALSE,FALSE,FALSE,0,Follow Yaw,0,0,16.9,16.9,FALSE,FALSE,FALSE,FALSE,FALSE,FALSE,,TRUE,Normal,,100,1024,1024,1322,1024,1,FALSE,FALSE,FALSE,FALSE,FALSE,0,FALSE,FALSE,FALSE,FALSE,69,7.538,1402,2063,7.587,FALSE,3.772,3.766,0.022,FALSE,FALSE,NA,110.8,110.6,110.8,0,0,0,0,5,3181.9,795.47,,Idle,0,20,FALSE,5,TRUE,6,Go Home,FALSE,FALSE,FALSE,FALSE,FALSE,FALSE,FALSE,FALSE,FALSE,FALSE,FALSE,FALSE,6.974618462,79.91439752,0.3,179.1,328,TRUE,1,1,FALSE,FALSE,FALSE,FALSE,,TRUE,FALSE,FALSE,Course Lock,49.2,254.5,16.4,Calm,39,,1.12.8,Mavic Mini,1SDCH7G0169R0K,1SFLH6Q0AB03DJ,1SRCH7F014TAHX,1U5X071EXP6C9Y,69.1,0.2,9.8,14.881914,3.579104,0,184,Mavic Mini,1SDCH7G0169R0K,1SFLH6Q0AB03DJ,1SRCH7F014TAHX,1U5X071EXP6C9Y,DJI Fly,,1.12.8,86C4B78D-0FAB-18C7-F9BE-5245A6A5747D,1SDCH7G0169R0K,,,,,6.974721733,79.9144528,5,,
2/27/2024,10:18.1,7m 19.6s,439.6,6.974617992,79.91439661,2.9,2.9,3.9,55,1.1,0,0,0,0,0,0,-1.342164,0,-0.1,-0.4,18.3,18.3,,P-GPS,Other,,14,5,TRUE,,Mavic Mini,TRUE,FALSE,,Smart,RC,FALSE,TRUE,FALSE,,,TRUE,,FALSE,FALSE,FALSE,FALSE,FALSE,FALSE,FALSE,FALSE,FALSE,FALSE,0,Follow Yaw,0,0,16.9,16.9,FALSE,FALSE,FALSE,FALSE,FALSE,FALSE,,TRUE,Normal,,100,1024,1024,1314,1024,1,FALSE,FALSE,FALSE,FALSE,FALSE,0,FALSE,FALSE,FALSE,FALSE,68,7.538,1402,2063,7.538,FALSE,3.772,3.766,0.022,FALSE,FALSE,NA,110.8,110.6,110.8,0,0,0,0,5,4360.9,1090.24,,Idle,0,20,FALSE,5,TRUE,6,Go Home,FALSE,FALSE,FALSE,FALSE,FALSE,FALSE,FALSE,FALSE,FALSE,FALSE,FALSE,FALSE,6.974618462,79.91439752,0.3,179.1,328,TRUE,1,1,FALSE,FALSE,FALSE,FALSE,,TRUE,FALSE,FALSE,Course Lock,49.2,254.5,16.4,Calm,39,,1.12.8,Mavic Mini,1SDCH7G0169R0K,1SFLH6Q0AB03DJ,1SRCH7F014TAHX,1U5X071EXP6C9Y,69.1,0.2,9.8,14.881914,3.579104,0,184,Mavic Mini,1SDCH7G0169R0K,1SFLH6Q0AB03DJ,1SRCH7F014TAHX,1U5X071EXP6C9Y,DJI Fly,,1.12.8,86C4B78D-0FAB-18C7-F9BE-5245A6A5747D,1SDCH7G0169R0K,,,,,6.974721733,79.9144528,5,,
2/27/2024,10:18.2,7m 19.7s,439.7,6.974617999,79.91439666,2.9,2.9,4.2,55,1.2,0,0,0,0,0,0,-1.342164,0,0.3,-0.8,18.3,18.3,,P-GPS,Other,,14,5,TRUE,,Mavic Mini,TRUE,FALSE,,Smart,RC,FALSE,TRUE,FALSE,,,TRUE,,FALSE,FALSE,FALSE,FALSE,FALSE,FALSE,FALSE,FALSE,FALSE,FALSE,0,Follow Yaw,0,0,16.9,16.9,FALSE,FALSE,FALSE,FALSE,FALSE,FALSE,,TRUE,Normal,,100,1024,1024,1261,1024,1,FALSE,FALSE,FALSE,FALSE,FALSE,0,FALSE,FALSE,FALSE,FALSE,68,7.538,1402,2063,7.538,FALSE,3.772,3.766,0.022,FALSE,FALSE,NA,110.8,110.6,110.8,0,0,0,0,5,4360.9,1090.24,,Idle,0,20,FALSE,5,TRUE,6,Go Home,FALSE,FALSE,FALSE,FALSE,FALSE,FALSE,FALSE,FALSE,FALSE,FALSE,FALSE,FALSE,6.974618462,79.91439752,0.3,179.1,328,TRUE,1,1,FALSE,FALSE,FALSE,FALSE,,TRUE,FALSE,FALSE,Course Lock,49.2,254.5,16.4,Calm,39,,1.12.8,Mavic Mini,1SDCH7G0169R0K,1SFLH6Q0AB03DJ,1SRCH7F014TAHX,1U5X071EXP6C9Y,69.1,0.2,9.8,14.881914,3.579104,0,184,Mavic Mini,1SDCH7G0169R0K,1SFLH6Q0AB03DJ,1SRCH7F014TAHX,1U5X071EXP6C9Y,DJI Fly,,1.12.8,86C4B78D-0FAB-18C7-F9BE-5245A6A5747D,1SDCH7G0169R0K,,,,,6.974721733,79.9144528,5,Home Point updated. RTH altitude adjusted to 15 m! (Code: 120852).,
2/27/2024,10:18.3,7m 19.8s,439.8,6.974618012,79.9143967,3.2,3.2,4.5,55,1.2,0,0,0,0,0,0,-1.342164,0,0.5,-0.5,18.3,18.3,,P-GPS,Other,,14,5,TRUE,,Mavic Mini,TRUE,FALSE,,Smart,RC,FALSE,TRUE,FALSE,,,TRUE,,FALSE,FALSE,FALSE,FALSE,FALSE,FALSE,FALSE,FALSE,FALSE,FALSE,0,Follow Yaw,0,0,16.9,16.9,FALSE,FALSE,FALSE,FALSE,FALSE,FALSE,,TRUE,Normal,,100,1024,1024,1236,1024,1,FALSE,FALSE,FALSE,FALSE,FALSE,0,FALSE,FALSE,FALSE,FALSE,68,7.538,1402,2063,7.538,FALSE,3.772,3.766,0.022,FALSE,FALSE,NA,110.8,110.6,110.8,0,0,0,0,5,4360.9,1090.24,,Idle,0,20,FALSE,5,TRUE,6,Go Home,FALSE,FALSE,FALSE,FALSE,FALSE,FALSE,FALSE,FALSE,FALSE,FALSE,FALSE,FALSE,6.974618462,79.91439752,0.3,179.1,328,TRUE,1,1,FALSE,FALSE,FALSE,FALSE,,TRUE,FALSE,FALSE,Course Lock,49.2,254.5,16.4,Calm,39,,1.12.8,Mavic Mini,1SDCH7G0169R0K,1SFLH6Q0AB03DJ,1SRCH7F014TAHX,1U5X071EXP6C9Y,69.1,0.2,9.8,14.881914,3.579104,0,184,Mavic Mini,1SDCH7G0169R0K,1SFLH6Q0AB03DJ,1SRCH7F014TAHX,1U5X071EXP6C9Y,DJI Fly,,1.12.8,86C4B78D-0FAB-18C7-F9BE-5245A6A5747D,1SDCH7G0169R0K,,,,,6.974721733,79.9144528,5,,
2/27/2024,10:18.5,7m 19.9s,439.9,6.974618208,79.91439687,3.6,3.6,4.9,55,1.3,0,0,0,0,0,0,-1.342164,0,0.7,-0.4,18.3,18.3,,P-GPS,Other,,14,5,TRUE,,Mavic Mini,TRUE,FALSE,,Smart,RC,FALSE,TRUE,FALSE,,,TRUE,,FALSE,FALSE,FALSE,FALSE,FALSE,FALSE,FALSE,FALSE,FALSE,FALSE,0,Follow Yaw,0,0,16.9,16.9,FALSE,FALSE,FALSE,FALSE,FALSE,FALSE,,TRUE,Normal,,100,1024,1024,1278,1024,1,FALSE,FALSE,FALSE,FALSE,FALSE,0,FALSE,FALSE,FALSE,FALSE,68,7.538,1402,2063,7.538,FALSE,3.772,3.766,0.022,FALSE,FALSE,NA,110.8,110.6,110.8,0,0,0,0,5,4360.9,1090.24,,Idle,0,20,FALSE,5,TRUE,6,Go Home,FALSE,FALSE,FALSE,FALSE,FALSE,FALSE,FALSE,FALSE,FALSE,FALSE,FALSE,FALSE,6.974618462,79.91439752,0.2,179.1,328,TRUE,1,1,FALSE,FALSE,FALSE,FALSE,,TRUE,FALSE,FALSE,Course Lock,49.2,254.5,16.4,Calm,39,,1.12.8,Mavic Mini,1SDCH7G0169R0K,1SFLH6Q0AB03DJ,1SRCH7F014TAHX,1U5X071EXP6C9Y,69.1,0.2,9.8,14.881914,3.579104,0,184,Mavic Mini,1SDCH7G0169R0K,1SFLH6Q0AB03DJ,1SRCH7F014TAHX,1U5X071EXP6C9Y,DJI Fly,,1.12.8,86C4B78D-0FAB-18C7-F9BE-5245A6A5747D,1SDCH7G0169R0K,,,,,6.974721733,79.9144528,5,,
2/27/2024,10:18.6,7m 20.0s,440,6.97461824,79.91439692,3.6,3.6,4.9,55,1.3,0,0,0,0,0,0,-1.11847,0,0.8,-0.3,18.4,18.4,,P-GPS,Other,,13,5,TRUE,,Mavic Mini,TRUE,FALSE,,Smart,RC,FALSE,TRUE,FALSE,,,TRUE,,FALSE,FALSE,FALSE,FALSE,FALSE,FALSE,FALSE,FALSE,FALSE,FALSE,0,Follow Yaw,0,0,16.9,16.9,FALSE,FALSE,FALSE,FALSE,FALSE,FALSE,,TRUE,Normal,,100,1024,1024,1319,1024,1,FALSE,FALSE,FALSE,FALSE,FALSE,0,FALSE,FALSE,FALSE,FALSE,68,7.538,1402,2063,7.538,FALSE,3.772,3.766,0.022,FALSE,FALSE,NA,110.8,110.6,110.8,0,0,0,0,5,4360.9,1090.24,,Idle,0,20,FALSE,5,TRUE,6,Go Home,FALSE,FALSE,FALSE,FALSE,FALSE,FALSE,FALSE,FALSE,FALSE,FALSE,FALSE,FALSE,6.974618462,79.91439752,0.2,179.1,328,TRUE,1,1,FALSE,FALSE,FALSE,FALSE,,TRUE,FALSE,FALSE,Course Lock,49.2,254.5,16.4,Calm,39,,1.12.8,Mavic Mini,1SDCH7G0169R0K,1SFLH6Q0AB03DJ,1SRCH7F014TAHX,1U5X071EXP6C9Y,69.1,0.2,9.8,14.881914,3.579104,0,184,Mavic Mini,1SDCH7G0169R0K,1SFLH6Q0AB03DJ,1SRCH7F014TAHX,1U5X071EXP6C9Y,DJI Fly,,1.12.8,86C4B78D-0FAB-18C7-F9BE-5245A6A5747D,1SDCH7G0169R0K,,,,,6.974721733,79.9144528,5,,
2/27/2024,10:18.7,7m 20.1s,440.1,6.974618217,79.91439693,3.9,3.9,5.2,56,1.3,0,0,0,0,0,0,-1.11847,0,0.5,0,18.4,18.4,,P-GPS,Other,,13,5,TRUE,,Mavic Mini,TRUE,FALSE,,Smart,RC,FALSE,TRUE,FALSE,,,TRUE,,FALSE,FALSE,FALSE,FALSE,FALSE,FALSE,FALSE,FALSE,FALSE,FALSE,0,Follow Yaw,0,0,16.9,16.9,FALSE,FALSE,FALSE,FALSE,FALSE,FALSE,,TRUE,Normal,,100,1024,1024,1324,1024,1,FALSE,FALSE,FALSE,FALSE,FALSE,0,FALSE,FALSE,FALSE,FALSE,68,7.538,1402,2063,7.538,FALSE,3.772,3.766,0.022,FALSE,FALSE,NA,110.8,110.6,110.8,0,0,0,0,5,4360.9,1090.24,,Idle,0,20,FALSE,5,TRUE,6,Go Home,FALSE,FALSE,FALSE,FALSE,FALSE,FALSE,FALSE,FALSE,FALSE,FALSE,FALSE,FALSE,6.974618462,79.91439752,0.2,179.1,328,TRUE,1,1,FALSE,FALSE,FALSE,FALSE,,TRUE,FALSE,FALSE,Course Lock,49.2,254.5,16.4,Calm,39,,1.12.8,Mavic Mini,1SDCH7G0169R0K,1SFLH6Q0AB03DJ,1SRCH7F014TAHX,1U5X071EXP6C9Y,69.1,0.2,9.8,14.881914,3.579104,0,184,Mavic Mini,1SDCH7G0169R0K,1SFLH6Q0AB03DJ,1SRCH7F014TAHX,1U5X071EXP6C9Y,DJI Fly,,1.12.8,86C4B78D-0FAB-18C7-F9BE-5245A6A5747D,1SDCH7G0169R0K,,,,,6.974721733,79.9144528,5,,
