CUSTOM.date [local],CUSTOM.updateTime [local],OSD.flyTime,OSD.flyTime [s],OSD.latitude,OSD.longitude,OSD.height [ft],OSD.heightMax [ft],OSD.vpsHeight [ft],OSD.altitude [ft],OSD.mileage [ft],OSD.hSpeed [MPH],OSD.hSpeedMax [MPH],OSD.xSpeed [MPH],OSD.xSpeedMax [MPH],OSD.ySpeed [MPH],OSD.ySpeedMax [MPH],OSD.zSpeed [MPH],OSD.zSpeedMax [MPH],OSD.pitch,OSD.roll,OSD.yaw,OSD.yaw [360],OSD.directionOfTravel,OSD.flycState,OSD.flycCommand,OSD.flightAction,OSD.gpsNum,OSD.gpsLevel,OSD.isGPSUsed,OSD.nonGPSCause,OSD.droneType,OSD.isSwaveWork,OSD.waveError,OSD.goHomeStatus,OSD.batteryType,OSD.ctrlDevice,OSD.isOnGround,OSD.isMotorOn,OSD.isMotorBlocked,OSD.motorStartFailedCause,OSD.motorFailReason,OSD.isImuPreheated,OSD.imuInitFailReason,OSD.isAcceletorOverRange,OSD.isBarometerDeadInAir,OSD.isCompassError,OSD.isGoHomeHeightModified,OSD.canIOCWork,OSD.isNotEnoughForce,OSD.isOutOfLimit,OSD.isPropellerCatapult,OSD.isVibrating,OSD.isVisionUsed,OSD.voltageWarning,GIMBAL.mode,GIMBAL.pitch,GIMBAL.roll,GIMBAL.yaw,GIMBAL.yaw [360],GIMBAL.isPitchAtLimit,GIMBAL.isRollAtLimit,GIMBAL.isYawAtLimit,GIMBAL.isStuck,CAMERA.isPhoto,CAMERA.isVideo,CAMERA.filename,CAMERA.sdCardIsInserted,CAMERA.sdCardState,RC.downlinkSignal,RC.uplinkSignal,RC.aileron,RC.elevator,RC.throttle,RC.rudder,RC.mode,RC.goHomeDepressed,RC.recordDepressed,RC.shutterDepressed,RC.playbackDepressed,RC.wheelDepressed,RC.wheelOffset,RC.custom1Depressed,RC.custom2Depressed,RC.custom3Depressed,RC.custom4Depressed,BATTERY.chargeLevel,BATTERY.currentPV [V],BATTERY.currentCapacity [mAh],BATTERY.fullCapacity [mAh],BATTERY.voltage [V],BATTERY.isCellVoltageEstimated,BATTERY.cellVoltage1 [V],BATTERY.cellVoltage2 [V],BATTERY.maxCellVoltageDeviation,BATTERY.isCellVoltageDeviationHigh,BATTERY.isVoltageLow,BATTERY.current [A],BATTERY.temperature [F],BATTERY.minTemperature [F],BATTERY.maxTemperature [F],BATTERY.usefulTime [s],BATTERY.goHomeTime [s],BATTERY.landTime [s],BATTERY.goHomeBattery,BATTERY.landBattery,BATTERY.safeFlyRadius,BATTERY.volumeConsume,BATTERY.status,BATTERY.goHomeStatus,BATTERY.goHomeCountdown,BATTERY.lowWarning,BATTERY.lowWarningGoHome,BATTERY.seriousLowWarning,BATTERY.seriousLowWarningLanding,BATTERY.timesCharged,MC.failSafeAction,MC.isObstacleAvoidanceEnabled,MC.isCollisionAvoidanceEnabled,MC.isRthObstacleAvoidanceEnabled,MC.isBraking,MC.isAvoidingObstacle,MC.isAvoidingActiveObstacle,MC.isAscentLimitedByObstacle,MC.isLandingConfirmationNeeded,MC.atLowAltitudeLimit,MC.atDistanceLimit,MC.atAirportAltitudeLimit,MC.atAirportBoundary,HOME.latitude,HOME.longitude,HOME.distance [ft],HOME.height [ft],HOME.heightLimit [ft],HOME.isHomeRecord,HOME.goHomeMode,HOME.aircraftHeadDirection,HOME.isDynamicHomePointEnabled,HOME.isReachedLimitDistance,HOME.isReachedLimitHeight,HOME.isCompassCalibrating,HOME.compassCalibrationState,HOME.isMultipleFlightModeEnabled,HOME.isBeginnerMode,HOME.isIOCEnabled,HOME.iocMode,HOME.goHomeHeight [ft],HOME.courseLockAngle,HOME.forceLandingHeight [ft],HOME.wind,HOME.dataRecorderFileIndex,RECOVER.appType,RECOVER.appVersion,RECOVER.aircraftName,RECOVER.aircraftSerial,RECOVER.cameraSerial,RECOVER.rcSerial,RECOVER.batterySerial,DETAILS.totalTime [s],DETAILS.totalDistance [ft],DETAILS.maxHeight [ft],DETAILS.maxHorizontalSpeed [MPH],DETAILS.maxVerticalSpeed [MPH],DETAILS.photoNum,DETAILS.videoTime [s],DETAILS.aircraftName,DETAILS.aircraftSerial,DETAILS.cameraSerial,DETAILS.rcSerial,DETAILS.batterySerial,DETAILS.appName,DETAILS.appType,DETAILS.appVersion,DETAILS.guid,SERIAL.flightController,SERIAL.camera,SERIAL.gimbal,SERIAL.rc,SERIAL.battery,APPGPS.latitude,APPGPS.longitude,APPGPS.accuracy,APP.tip,APP.warning
3/2/2024,00:38.3,0m 0.0s,0,6.972891883,79.91594705,0,0,0.3,56,0,0,0,0,0,0,0,0,0,2.7,2.8,-35.9,324.1,,Starting Motors,Other,Takeoff (RC Assisted),8,4,TRUE,,Mavic Mini,FALSE,FALSE,,Smart,RC,TRUE,TRUE,FALSE,,,TRUE,,FALSE,FALSE,FALSE,FALSE,FALSE,FALSE,FALSE,FALSE,FALSE,FALSE,0,Follow Yaw,0,0,-33.9,326.1,FALSE,FALSE,FALSE,FALSE,FALSE,FALSE,,TRUE,Normal,,,1024,1024,1024,1024,2,FALSE,FALSE,FALSE,FALSE,FALSE,0,FALSE,FALSE,FALSE,FALSE,96,8.173,1984,2065,8.173,TRUE,4.087,4.087,,FALSE,FALSE,NA,87.4,87.4,87.4,,,,,,,,,Idle,,,TRUE,,FALSE,11,Go Home,FALSE,FALSE,FALSE,FALSE,FALSE,FALSE,FALSE,FALSE,FALSE,FALSE,FALSE,FALSE,,,,,,FALSE,,,FALSE,FALSE,FALSE,FALSE,,FALSE,FALSE,FALSE,,,,,Calm,,,1.12.8,Mavic Mini,1SDCH7G0169R0K,1SFLH6Q0AB03DJ,1SRCH7F014TAHX,1U5X071EXP5ZJG,133.2,0.5,3.2,8.300836,1.342164,0,0,Mavic Mini,1SDCH7G0169R0K,1SFLH6Q0AB03DJ,1SRCH7F014TAHX,1U5X071EXP5ZJG,DJI Fly,,1.12.8,2D744C23-D1D4-88F1-5EE1-E1E2802FB7EB,1SDCH7G0169R0K,,,,,6.97286271,79.91589507,5,Flight mode changed to Starting Motors.,
3/2/2024,00:38.3,0m 0.1s,0.1,6.972891937,79.91594711,0,0,0.3,56,0,0,0,0,0,0,0,0,0,2.7,2.8,-35.9,324.1,,Starting Motors,Other,Takeoff (RC Assisted),8,4,TRUE,,Mavic Mini,FALSE,FALSE,,Smart,RC,TRUE,TRUE,FALSE,,,TRUE,,FALSE,FALSE,FALSE,FALSE,FALSE,FALSE,FALSE,FALSE,FALSE,FALSE,0,Follow Yaw,0,0,-33.9,326.1,FALSE,FALSE,FALSE,FALSE,FALSE,FALSE,,TRUE,Normal,,,1024,1024,1024,1024,2,FALSE,FALSE,FALSE,FALSE,FALSE,0,FALSE,FALSE,FALSE,FALSE,96,8.173,1984,2065,8.173,TRUE,4.087,4.087,,FALSE,FALSE,NA,87.4,87.4,87.4,,,,,,,,,Idle,,,TRUE,,FALSE,11,Go Home,FALSE,FALSE,FALSE,FALSE,FALSE,FALSE,FALSE,FALSE,FALSE,FALSE,FALSE,FALSE,,,,,,FALSE,,,FALSE,FALSE,FALSE,FALSE,,FALSE,FALSE,FALSE,,,,,Calm,,,1.12.8,Mavic Mini,1SDCH7G0169R0K,1SFLH6Q0AB03DJ,1SRCH7F014TAHX,1U5X071EXP5ZJG,133.2,0.5,3.2,8.300836,1.342164,0,0,Mavic Mini,1SDCH7G0169R0K,1SFLH6Q0AB03DJ,1SRCH7F014TAHX,1U5X071EXP5ZJG,DJI Fly,,1.12.8,2D744C23-D1D4-88F1-5EE1-E1E2802FB7EB,1SDCH7G0169R0K,,,,,6.97286271,79.91589507,5,,
3/2/2024,00:38.4,0m 0.2s,0.2,6.972891991,79.91594715,0,0,0.3,56,0,0,0,0,0,0,0,0,0,2.7,2.8,-35.9,324.1,,Starting Motors,Other,Takeoff (RC Assisted),8,4,TRUE,,Mavic Mini,TRUE,FALSE,,Smart,RC,TRUE,TRUE,FALSE,,,TRUE,,FALSE,FALSE,FALSE,FALSE,FALSE,FALSE,FALSE,FALSE,FALSE,FALSE,0,Follow Yaw,0,0,-33.9,326.1,FALSE,FALSE,FALSE,FALSE,FALSE,FALSE,,TRUE,Normal,,,1024,1024,1024,1024,2,FALSE,FALSE,FALSE,FALSE,FALSE,0,FALSE,FALSE,FALSE,FALSE,96,8.173,1984,2065,8.173,FALSE,4.088,4.086,0.002,FALSE,FALSE,NA,87.6,87.4,87.6,,,,,,,,,Idle,,,TRUE,,FALSE,11,Go Home,FALSE,FALSE,FALSE,FALSE,FALSE,FALSE,FALSE,FALSE,FALSE,FALSE,FALSE,FALSE,,,,,,FALSE,,,FALSE,FALSE,FALSE,FALSE,,FALSE,FALSE,FALSE,,,,,Calm,,,1.12.8,Mavic Mini,1SDCH7G0169R0K,1SFLH6Q0AB03DJ,1SRCH7F014TAHX,1U5X071EXP5ZJG,133.2,0.5,3.2,8.300836,1.342164,0,0,Mavic Mini,1SDCH7G0169R0K,1SFLH6Q0AB03DJ,1SRCH7F014TAHX,1U5X071EXP5ZJG,DJI Fly,,1.12.8,2D744C23-D1D4-88F1-5EE1-E1E2802FB7EB,1SDCH7G0169R0K,,,,,6.97286271,79.91589507,5,Home Point updated. RTH altitude adjusted to 15 m! (Code: 120852).,
3/2/2024,00:38.4,0m 0.3s,0.3,6.97289205,79.91594716,0,0,0.3,56,0,0,0,0,0,0,0,0,0,2.7,2.8,-35.9,324.1,,Starting Motors,Other,Takeoff (RC Assisted),8,4,TRUE,,Mavic Mini,TRUE,FALSE,,Smart,RC,TRUE,TRUE,FALSE,,,TRUE,,FALSE,FALSE,FALSE,FALSE,FALSE,FALSE,FALSE,FALSE,FALSE,FALSE,0,Follow Yaw,0,0,-33.9,326.1,FALSE,FALSE,FALSE,FALSE,FALSE,FALSE,,TRUE,Normal,,,1024,1024,1024,1024,2,FALSE,FALSE,FALSE,FALSE,FALSE,0,FALSE,FALSE,FALSE,FALSE,96,8.173,1984,2065,8.173,FALSE,4.088,4.086,0.002,FALSE,FALSE,NA,87.6,87.4,87.6,,,,,,,,,Idle,,,TRUE,,FALSE,11,Go Home,FALSE,FALSE,FALSE,FALSE,FALSE,FALSE,FALSE,FALSE,FALSE,FALSE,FALSE,FALSE,,,,,,FALSE,,,FALSE,FALSE,FALSE,FALSE,,FALSE,FALSE,FALSE,,,,,Calm,,,1.12.8,Mavic Mini,1SDCH7G0169R0K,1SFLH6Q0AB03DJ,1SRCH7F014TAHX,1U5X071EXP5ZJG,133.2,0.5,3.2,8.300836,1.342164,0,0,Mavic Mini,1SDCH7G0169R0K,1SFLH6Q0AB03DJ,1SRCH7F014TAHX,1U5X071EXP5ZJG,DJI Fly,,1.12.8,2D744C23-D1D4-88F1-5EE1-E1E2802FB7EB,1SDCH7G0169R0K,,,,,6.97286271,79.91589507,5,,
3/2/2024,00:38.5,0m 0.4s,0.4,6.972892138,79.91594711,0,0,0.3,56,0,0,0,0,0,0,0,0,0,2.8,2.8,-35.9,324.1,,Starting Motors,Other,Takeoff (RC Assisted),8,4,TRUE,,Mavic Mini,TRUE,FALSE,,Smart,RC,TRUE,TRUE,FALSE,,,TRUE,,FALSE,FALSE,FALSE,FALSE,FALSE,FALSE,FALSE,FALSE,FALSE,FALSE,0,Follow Yaw,0,0,-33.9,326.1,FALSE,FALSE,FALSE,FALSE,FALSE,FALSE,,TRUE,Normal,,,1024,1024,1024,1024,2,FALSE,FALSE,FALSE,FALSE,FALSE,0,FALSE,FALSE,FALSE,FALSE,96,8.173,1984,2065,8.173,FALSE,4.088,4.086,0.002,FALSE,FALSE,NA,87.6,87.4,87.6,,,,,,,,,Idle,,,TRUE,,FALSE,11,Go Home,FALSE,FALSE,FALSE,FALSE,FALSE,FALSE,FALSE,FALSE,FALSE,FALSE,FALSE,FALSE,,,,,,FALSE,,,FALSE,FALSE,FALSE,FALSE,,FALSE,FALSE,FALSE,,,,,Calm,,,1.12.8,Mavic Mini,1SDCH7G0169R0K,1SFLH6Q0AB03DJ,1SRCH7F014TAHX,1U5X071EXP5ZJG,133.2,0.5,3.2,8.300836,1.342164,0,0,Mavic Mini,1SDCH7G0169R0K,1SFLH6Q0AB03DJ,1SRCH7F014TAHX,1U5X071EXP5ZJG,DJI Fly,,1.12.8,2D744C23-D1D4-88F1-5EE1-E1E2802FB7EB,1SDCH7G0169R0K,,,,,6.97286271,79.91589507,5,,
3/2/2024,00:38.6,0m 0.5s,0.5,6.972892194,79.9159471,0,0,0.3,56,0.1,0,0,0,0,0,0,0,0,2.7,2.8,-35.9,324.1,,Starting Motors,Other,Takeoff (RC Assisted),8,4,TRUE,,Mavic Mini,TRUE,FALSE,,Smart,RC,TRUE,TRUE,FALSE,,,TRUE,,FALSE,FALSE,FALSE,FALSE,FALSE,FALSE,FALSE,FALSE,FALSE,FALSE,0,Follow Yaw,0,0,-33.9,326.1,FALSE,FALSE,FALSE,FALSE,FALSE,FALSE,,TRUE,Normal,,100,1024,1024,1024,1024,2,FALSE,FALSE,FALSE,FALSE,FALSE,0,FALSE,FALSE,FALSE,FALSE,96,8.173,1984,2065,8.173,FALSE,4.088,4.086,0.002,FALSE,FALSE,NA,87.6,87.4,87.6,,,,,,,,,Idle,,,TRUE,,FALSE,11,Go Home,FALSE,FALSE,FALSE,FALSE,FALSE,FALSE,FALSE,FALSE,FALSE,FALSE,FALSE,FALSE,,,,,,FALSE,,,FALSE,FALSE,FALSE,FALSE,,FALSE,FALSE,FALSE,,,,,Calm,,,1.12.8,Mavic Mini,1SDCH7G0169R0K,1SFLH6Q0AB03DJ,1SRCH7F014TAHX,1U5X071EXP5ZJG,133.2,0.5,3.2,8.300836,1.342164,0,0,Mavic Mini,1SDCH7G0169R0K,1SFLH6Q0AB03DJ,1SRCH7F014TAHX,1U5X071EXP5ZJG,DJI Fly,,1.12.8,2D744C23-D1D4-88F1-5EE1-E1E2802FB7EB,1SDCH7G0169R0K,,,,,6.97286271,79.91589507,5,,
3/2/2024,00:38.7,0m 0.6s,0.6,6.972892245,79.91594709,0,0,0.3,56,0.1,0,0,0,0,0,0,0,0,2.7,2.8,-36.1,323.9,,Starting Motors,Other,Takeoff (RC Assisted),8,4,TRUE,,Mavic Mini,TRUE,FALSE,,Smart,RC,TRUE,TRUE,FALSE,,,TRUE,,FALSE,FALSE,FALSE,FALSE,FALSE,FALSE,FALSE,FALSE,FALSE,FALSE,0,Follow Yaw,0,0,-33.9,326.1,FALSE,FALSE,FALSE,FALSE,FALSE,FALSE,,TRUE,Normal,,100,1024,1024,1024,1024,2,FALSE,FALSE,FALSE,FALSE,FALSE,0,FALSE,FALSE,FALSE,FALSE,96,8.173,1984,2065,8.173,FALSE,4.088,4.086,0.002,FALSE,FALSE,NA,87.6,87.4,87.6,,,,,,,,,Idle,,,TRUE,,FALSE,11,Go Home,FALSE,FALSE,FALSE,FALSE,FALSE,FALSE,FALSE,FALSE,FALSE,FALSE,FALSE,FALSE,,,,,,FALSE,,,FALSE,FALSE,FALSE,FALSE,,FALSE,FALSE,FALSE,,,,,Calm,,,1.12.8,Mavic Mini,1SDCH7G0169R0K,1SFLH6Q0AB03DJ,1SRCH7F014TAHX,1U5X071EXP5ZJG,133.2,0.5,3.2,8.300836,1.342164,0,0,Mavic Mini,1SDCH7G0169R0K,1SFLH6Q0AB03DJ,1SRCH7F014TAHX,1U5X071EXP5ZJG,DJI Fly,,1.12.8,2D744C23-D1D4-88F1-5EE1-E1E2802FB7EB,1SDCH7G0169R0K,,,,,6.97286271,79.91589507,5,,
3/2/2024,00:38.8,0m 0.7s,0.7,6.972892295,79.91594708,0,0,0.3,56,0.1,0,0,0,0,0,0,0,0,2.8,2.7,-36.1,323.9,,Starting Motors,Other,Takeoff (RC Assisted),8,4,TRUE,,Mavic Mini,TRUE,FALSE,,Smart,RC,TRUE,TRUE,FALSE,,,TRUE,,FALSE,FALSE,FALSE,FALSE,FALSE,FALSE,FALSE,FALSE,FALSE,FALSE,0,Follow Yaw,0,0,-34,326,FALSE,FALSE,FALSE,FALSE,FALSE,FALSE,,TRUE,Normal,,100,1024,1024,1024,1024,2,FALSE,FALSE,FALSE,FALSE,FALSE,0,FALSE,FALSE,FALSE,FALSE,96,8.173,1984,2065,8.173,FALSE,4.088,4.086,0.002,FALSE,FALSE,NA,87.6,87.4,87.6,,,,,,,,,Idle,,,TRUE,,FALSE,11,Go Home,FALSE,FALSE,FALSE,FALSE,FALSE,FALSE,FALSE,FALSE,FALSE,FALSE,FALSE,FALSE,,,,,,FALSE,,,FALSE,FALSE,FALSE,FALSE,,FALSE,FALSE,FALSE,,,,,Calm,,,1.12.8,Mavic Mini,1SDCH7G0169R0K,1SFLH6Q0AB03DJ,1SRCH7F014TAHX,1U5X071EXP5ZJG,133.2,0.5,3.2,8.300836,1.342164,0,0,Mavic Mini,1SDCH7G0169R0K,1SFLH6Q0AB03DJ,1SRCH7F014TAHX,1U5X071EXP5ZJG,DJI Fly,,1.12.8,2D744C23-D1D4-88F1-5EE1-E1E2802FB7EB,1SDCH7G0169R0K,,,,,6.97286271,79.91589507,5,,
3/2/2024,00:38.9,0m 0.8s,0.8,6.972892344,79.91594707,0,0,0.3,56,0.1,0,0,0,0,0,0,0,0,2.7,2.7,-36.1,323.9,,Starting Motors,Other,Takeoff (RC Assisted),8,4,TRUE,,Mavic Mini,TRUE,FALSE,,Smart,RC,TRUE,TRUE,FALSE,,,TRUE,,FALSE,FALSE,FALSE,FALSE,FALSE,FALSE,FALSE,FALSE,FALSE,FALSE,0,Follow Yaw,0,0,-34,326,FALSE,FALSE,FALSE,FALSE,FALSE,FALSE,,TRUE,Normal,,100,1024,1024,1024,1024,2,FALSE,FALSE,FALSE,FALSE,FALSE,0,FALSE,FALSE,FALSE,FALSE,96,8.173,1984,2065,8.157,FALSE,4.088,4.086,0.002,FALSE,FALSE,NA,87.6,87.4,87.6,0,0,0,0,5,2475.2,618.8,,Idle,0,20,FALSE,5,TRUE,11,Go Home,FALSE,FALSE,FALSE,FALSE,FALSE,FALSE,FALSE,FALSE,FALSE,FALSE,FALSE,FALSE,6.972890955,79.91594714,0.5,122,328,TRUE,1,1,FALSE,FALSE,FALSE,FALSE,,TRUE,FALSE,FALSE,Course Lock,49.2,,16.4,Calm,41,,1.12.8,Mavic Mini,1SDCH7G0169R0K,1SFLH6Q0AB03DJ,1SRCH7F014TAHX,1U5X071EXP5ZJG,133.2,0.5,3.2,8.300836,1.342164,0,0,Mavic Mini,1SDCH7G0169R0K,1SFLH6Q0AB03DJ,1SRCH7F014TAHX,1U5X071EXP5ZJG,DJI Fly,,1.12.8,2D744C23-D1D4-88F1-5EE1-E1E2802FB7EB,1SDCH7G0169R0K,,,,,6.97286271,79.91589507,5,Data Recorder File Index is 41.; Set Return to Home (RTH) altitude to 15 m (49 ft).; Set maximum flight altitude to 100 m (328 ft).,
3/2/2024,00:39.1,0m 0.9s,0.9,6.972892411,79.91594702,0,0,0.3,56,0.1,0,0,0,0,0,0,0,0,2.8,2.7,-36.1,323.9,,Starting Motors,Other,Takeoff (RC Assisted),8,4,TRUE,,Mavic Mini,TRUE,FALSE,,Smart,RC,TRUE,TRUE,FALSE,,,TRUE,,FALSE,FALSE,FALSE,FALSE,FALSE,FALSE,FALSE,FALSE,FALSE,FALSE,0,Follow Yaw,0,0,-34,326,FALSE,FALSE,FALSE,FALSE,FALSE,FALSE,,TRUE,Normal,,100,1024,1024,1024,1024,2,FALSE,FALSE,FALSE,FALSE,FALSE,0,FALSE,FALSE,FALSE,FALSE,96,8.173,1984,2065,8.157,FALSE,4.088,4.086,0.002,FALSE,FALSE,NA,87.6,87.4,87.6,0,0,0,0,5,2475.2,618.8,,Idle,0,20,FALSE,5,TRUE,11,Go Home,FALSE,FALSE,FALSE,FALSE,FALSE,FALSE,FALSE,FALSE,FALSE,FALSE,FALSE,FALSE,6.972890955,79.91594714,0.5,122,328,TRUE,1,1,FALSE,FALSE,FALSE,FALSE,,TRUE,FALSE,FALSE,Course Lock,49.2,,16.4,Calm,41,,1.12.8,Mavic Mini,1SDCH7G0169R0K,1SFLH6Q0AB03DJ,1SRCH7F014TAHX,1U5X071EXP5ZJG,133.2,0.5,3.2,8.300836,1.342164,0,0,Mavic Mini,1SDCH7G0169R0K,1SFLH6Q0AB03DJ,1SRCH7F014TAHX,1U5X071EXP5ZJG,DJI Fly,,1.12.8,2D744C23-D1D4-88F1-5EE1-E1E2802FB7EB,1SDCH7G0169R0K,,,,,6.97286271,79.91589507,5,,
3/2/2024,00:39.2,0m 1.0s,1,6.97289246,79.91594702,0,0,0.3,56,0.2,0,0,0,0,0,0,0,0,2.7,2.6,-36.1,323.9,,Starting Motors,Other,Takeoff (RC Assisted),8,4,TRUE,,Mavic Mini,TRUE,FALSE,,Smart,RC,TRUE,TRUE,FALSE,,,TRUE,,FALSE,FALSE,FALSE,FALSE,FALSE,FALSE,FALSE,FALSE,FALSE,FALSE,0,Follow Yaw,0,0,-34,326,FALSE,FALSE,FALSE,FALSE,FALSE,FALSE,,TRUE,Normal,,100,1024,1024,1024,1024,2,FALSE,FALSE,FALSE,FALSE,FALSE,0,FALSE,FALSE,FALSE,FALSE,96,8.173,1984,2065,8.157,FALSE,4.088,4.086,0.002,FALSE,FALSE,NA,87.6,87.4,87.6,0,0,0,0,5,2475.2,618.8,,Idle,0,20,FALSE,5,TRUE,11,Go Home,FALSE,FALSE,FALSE,FALSE,FALSE,FALSE,FALSE,FALSE,FALSE,FALSE,FALSE,FALSE,6.972890955,79.91594714,0.5,122,328,TRUE,1,1,FALSE,FALSE,FALSE,FALSE,,TRUE,FALSE,FALSE,Course Lock,49.2,,16.4,Calm,41,,1.12.8,Mavic Mini,1SDCH7G0169R0K,1SFLH6Q0AB03DJ,1SRCH7F014TAHX,1U5X071EXP5ZJG,133.2,0.5,3.2,8.300836,1.342164,0,0,Mavic Mini,1SDCH7G0169R0K,1SFLH6Q0AB03DJ,1SRCH7F014TAHX,1U5X071EXP5ZJG,DJI Fly,,1.12.8,2D744C23-D1D4-88F1-5EE1-E1E2802FB7EB,1SDCH7G0169R0K,,,,,6.97286271,79.91589507,5,,
3/2/2024,00:39.3,0m 1.1s,1.1,6.972892513,79.91594707,0,0,0.3,56,0.2,0,0,0,0,0,0,0,0,2.8,2.6,-36.1,323.9,,Manual Takeoff,Other,Takeoff (RC Assisted),8,4,TRUE,,Mavic Mini,TRUE,FALSE,,Smart,RC,TRUE,TRUE,FALSE,,,TRUE,,FALSE,FALSE,FALSE,FALSE,FALSE,FALSE,FALSE,FALSE,FALSE,FALSE,0,Follow Yaw,0,0,-34.1,325.9,FALSE,FALSE,FALSE,FALSE,FALSE,FALSE,,TRUE,Normal,,100,1024,1024,1115,1024,2,FALSE,FALSE,FALSE,FALSE,FALSE,0,FALSE,FALSE,FALSE,FALSE,96,8.173,1984,2065,8.157,FALSE,4.088,4.086,0.002,FALSE,FALSE,NA,87.6,87.4,87.6,0,0,0,0,5,2475.2,618.8,,Idle,0,20,FALSE,5,TRUE,11,Go Home,FALSE,FALSE,FALSE,FALSE,FALSE,FALSE,FALSE,FALSE,FALSE,FALSE,FALSE,FALSE,6.972890955,79.91594714,0.5,122,328,TRUE,1,1,FALSE,FALSE,FALSE,FALSE,,TRUE,FALSE,FALSE,Course Lock,49.2,,16.4,Calm,41,,1.12.8,Mavic Mini,1SDCH7G0169R0K,1SFLH6Q0AB03DJ,1SRCH7F014TAHX,1U5X071EXP5ZJG,133.2,0.5,3.2,8.300836,1.342164,0,0,Mavic Mini,1SDCH7G0169R0K,1SFLH6Q0AB03DJ,1SRCH7F014TAHX,1U5X071EXP5ZJG,DJI Fly,,1.12.8,2D744C23-D1D4-88F1-5EE1-E1E2802FB7EB,1SDCH7G0169R0K,,,,,6.97286271,79.91589507,5,Flight mode changed to Manual Takeoff.,
3/2/2024,00:39.4,0m 1.2s,1.2,6.972892578,79.91594711,0,0,0.3,56,0.2,0,0,0,0,0,0,0,0,2.7,2.7,-36.2,323.8,,Manual Takeoff,Other,Takeoff (RC Assisted),8,4,TRUE,,Mavic Mini,TRUE,FALSE,,Smart,RC,TRUE,TRUE,FALSE,,,TRUE,,FALSE,FALSE,FALSE,FALSE,FALSE,FALSE,FALSE,FALSE,FALSE,FALSE,0,Follow Yaw,0,0,-34.1,325.9,FALSE,FALSE,FALSE,FALSE,FALSE,FALSE,,TRUE,Normal,,100,1024,1024,1247,1024,2,FALSE,FALSE,FALSE,FALSE,FALSE,0,FALSE,FALSE,FALSE,FALSE,96,8.173,1984,2065,8.157,FALSE,4.088,4.086,0.002,FALSE,FALSE,NA,87.6,87.4,87.6,0,0,0,0,5,2475.2,618.8,,Idle,0,20,FALSE,5,TRUE,11,Go Home,FALSE,FALSE,FALSE,FALSE,FALSE,FALSE,FALSE,FALSE,FALSE,FALSE,FALSE,FALSE,6.972890955,79.91594714,0.5,122,328,TRUE,1,1,FALSE,FALSE,FALSE,FALSE,,TRUE,FALSE,FALSE,Course Lock,49.2,,16.4,Calm,41,,1.12.8,Mavic Mini,1SDCH7G0169R0K,1SFLH6Q0AB03DJ,1SRCH7F014TAHX,1U5X071EXP5ZJG,133.2,0.5,3.2,8.300836,1.342164,0,0,Mavic Mini,1SDCH7G0169R0K,1SFLH6Q0AB03DJ,1SRCH7F014TAHX,1U5X071EXP5ZJG,DJI Fly,,1.12.8,2D744C23-D1D4-88F1-5EE1-E1E2802FB7EB,1SDCH7G0169R0K,,,,,6.97286271,79.91589507,5,,
3/2/2024,00:39.5,0m 1.3s,1.3,6.972892759,79.91594718,0,0,0.3,56,0.3,0,0,0,0,0,0,0,0,2.7,2.7,-36.1,323.9,,Manual Takeoff,Other,Takeoff (RC Assisted),8,4,TRUE,,Mavic Mini,TRUE,FALSE,,Smart,RC,TRUE,TRUE,FALSE,,,TRUE,,FALSE,FALSE,FALSE,FALSE,FALSE,FALSE,FALSE,FALSE,FALSE,FALSE,0,Follow Yaw,0,0,-34.1,325.9,FALSE,FALSE,FALSE,FALSE,FALSE,FALSE,,TRUE,Normal,,100,1024,1024,1329,1024,2,FALSE,FALSE,FALSE,FALSE,FALSE,0,FALSE,FALSE,FALSE,FALSE,96,8.173,1984,2065,8.157,FALSE,4.088,4.086,0.002,FALSE,FALSE,NA,87.6,87.4,87.6,0,0,0,0,5,2475.2,618.8,,Idle,0,20,FALSE,5,TRUE,11,Go Home,FALSE,FALSE,FALSE,FALSE,FALSE,FALSE,FALSE,FALSE,FALSE,FALSE,FALSE,FALSE,6.972890955,79.91594714,0.6,122,328,TRUE,1,1,FALSE,FALSE,FALSE,FALSE,,TRUE,FALSE,FALSE,Course Lock,49.2,,16.4,Calm,41,,1.12.8,Mavic Mini,1SDCH7G0169R0K,1SFLH6Q0AB03DJ,1SRCH7F014TAHX,1U5X071EXP5ZJG,133.2,0.5,3.2,8.300836,1.342164,0,0,Mavic Mini,1SDCH7G0169R0K,1SFLH6Q0AB03DJ,1SRCH7F014TAHX,1U5X071EXP5ZJG,DJI Fly,,1.12.8,2D744C23-D1D4-88F1-5EE1-E1E2802FB7EB,1SDCH7G0169R0K,,,,,6.97286271,79.91589507,5,,
3/2/2024,00:39.6,0m 1.4s,1.4,6.972892849,79.91594719,0,0,0.3,56,0.3,0,0,0,0,0,0,0,0,2.7,2.4,-36.2,323.8,,Manual Takeoff,Other,Takeoff (RC Assisted),8,4,TRUE,,Mavic Mini,TRUE,FALSE,,Smart,RC,TRUE,TRUE,FALSE,,,TRUE,,FALSE,FALSE,FALSE,FALSE,FALSE,FALSE,FALSE,FALSE,FALSE,FALSE,0,Follow Yaw,0,0,-34.1,325.9,FALSE,FALSE,FALSE,FALSE,FALSE,FALSE,,TRUE,Normal,,100,1024,1024,1329,1024,2,FALSE,FALSE,FALSE,FALSE,FALSE,0,FALSE,FALSE,FALSE,FALSE,96,8.16,1984,2065,8.157,FALSE,4.081,4.079,0.002,FALSE,FALSE,NA,87.6,87.4,87.6,0,0,0,0,5,2475.2,618.8,,Idle,0,20,FALSE,5,TRUE,11,Go Home,FALSE,FALSE,FALSE,FALSE,FALSE,FALSE,FALSE,FALSE,FALSE,FALSE,FALSE,FALSE,6.972890955,79.91594714,0.6,122,328,TRUE,1,1,FALSE,FALSE,FALSE,FALSE,,TRUE,FALSE,FALSE,Course Lock,49.2,,16.4,Calm,41,,1.12.8,Mavic Mini,1SDCH7G0169R0K,1SFLH6Q0AB03DJ,1SRCH7F014TAHX,1U5X071EXP5ZJG,133.2,0.5,3.2,8.300836,1.342164,0,0,Mavic Mini,1SDCH7G0169R0K,1SFLH6Q0AB03DJ,1SRCH7F014TAHX,1U5X071EXP5ZJG,DJI Fly,,1.12.8,2D744C23-D1D4-88F1-5EE1-E1E2802FB7EB,1SDCH7G0169R0K,,,,,6.97286271,79.91589507,5,,
3/2/2024,00:39.7,0m 1.5s,1.5,6.972892915,79.91594718,0,0,0.3,56,0.3,0,0,0,0,0,0,0,0,2.1,0.9,-36.3,323.7,,Manual Takeoff,Other,Takeoff (RC Assisted),8,4,TRUE,,Mavic Mini,TRUE,FALSE,,Smart,RC,TRUE,TRUE,FALSE,,,TRUE,,FALSE,FALSE,FALSE,FALSE,FALSE,FALSE,FALSE,FALSE,FALSE,FALSE,0,Follow Yaw,0,0,-34.1,325.9,FALSE,FALSE,FALSE,FALSE,FALSE,FALSE,,TRUE,Normal,,100,1024,1024,1333,1024,2,FALSE,FALSE,FALSE,FALSE,FALSE,0,FALSE,FALSE,FALSE,FALSE,96,8.16,1984,2065,8.157,FALSE,4.081,4.079,0.002,FALSE,FALSE,NA,87.6,87.4,87.6,0,0,0,0,5,2475.2,618.8,,Idle,0,20,FALSE,5,TRUE,11,Go Home,FALSE,FALSE,FALSE,FALSE,FALSE,FALSE,FALSE,FALSE,FALSE,FALSE,FALSE,FALSE,6.972890955,79.91594714,0.7,122,328,TRUE,1,1,FALSE,FALSE,FALSE,FALSE,,TRUE,FALSE,FALSE,Course Lock,49.2,,16.4,Calm,41,,1.12.8,Mavic Mini,1SDCH7G0169R0K,1SFLH6Q0AB03DJ,1SRCH7F014TAHX,1U5X071EXP5ZJG,133.2,0.5,3.2,8.300836,1.342164,0,0,Mavic Mini,1SDCH7G0169R0K,1SFLH6Q0AB03DJ,1SRCH7F014TAHX,1U5X071EXP5ZJG,DJI Fly,,1.12.8,2D744C23-D1D4-88F1-5EE1-E1E2802FB7EB,1SDCH7G0169R0K,,,,,6.97286271,79.91589507,5,,
3/2/2024,00:39.7,0m 1.6s,1.6,6.972892971,79.91594718,0,0,0.3,56,0.4,0,0,0,0,0,0,0,0,2.1,0.5,-36.3,323.7,,Manual Takeoff,Other,Takeoff (RC Assisted),8,4,TRUE,,Mavic Mini,TRUE,FALSE,,Smart,RC,TRUE,TRUE,FALSE,,,TRUE,,FALSE,FALSE,FALSE,FALSE,FALSE,FALSE,FALSE,FALSE,FALSE,FALSE,0,Follow Yaw,0,0,-34.1,325.9,FALSE,FALSE,FALSE,FALSE,FALSE,FALSE,,TRUE,Normal,,100,1024,1024,1322,1024,2,FALSE,FALSE,FALSE,FALSE,FALSE,0,FALSE,FALSE,FALSE,FALSE,96,8.16,1984,2065,8.157,FALSE,4.081,4.079,0.002,FALSE,FALSE,NA,87.6,87.4,87.6,0,0,0,0,5,2475.2,618.8,,Idle,0,20,FALSE,5,TRUE,11,Go Home,FALSE,FALSE,FALSE,FALSE,FALSE,FALSE,FALSE,FALSE,FALSE,FALSE,FALSE,FALSE,6.972890955,79.91594714,0.7,122,328,TRUE,1,1,FALSE,FALSE,FALSE,FALSE,,TRUE,FALSE,FALSE,Course Lock,49.2,,16.4,Calm,41,,1.12.8,Mavic Mini,1SDCH7G0169R0K,1SFLH6Q0AB03DJ,1SRCH7F014TAHX,1U5X071EXP5ZJG,133.2,0.5,3.2,8.300836,1.342164,0,0,Mavic Mini,1SDCH7G0169R0K,1SFLH6Q0AB03DJ,1SRCH7F014TAHX,1U5X071EXP5ZJG,DJI Fly,,1.12.8,2D744C23-D1D4-88F1-5EE1-E1E2802FB7EB,1SDCH7G0169R0K,,,,,6.97286271,79.91589507,5,,
3/2/2024,00:39.8,0m 1.7s,1.7,6.972892984,79.91594726,0,0,0.3,56,0.4,0,0,0,0,0,0,0,0,2.3,0.2,-36.3,323.7,,Manual Takeoff,Other,Takeoff (RC Assisted),8,4,TRUE,,Mavic Mini,TRUE,FALSE,,Smart,RC,TRUE,TRUE,FALSE,,,TRUE,,FALSE,FALSE,FALSE,FALSE,FALSE,FALSE,FALSE,FALSE,FALSE,FALSE,0,Follow Yaw,0,0,-34.1,325.9,FALSE,FALSE,FALSE,FALSE,FALSE,FALSE,,TRUE,Normal,,100,1024,1024,1291,1024,2,FALSE,FALSE,FALSE,FALSE,FALSE,0,FALSE,FALSE,FALSE,FALSE,96,8.16,1984,2065,8.157,FALSE,4.081,4.079,0.002,FALSE,FALSE,NA,87.6,87.4,87.6,0,0,0,0,5,2475.2,618.8,,Idle,0,20,FALSE,5,TRUE,11,Go Home,FALSE,FALSE,FALSE,FALSE,FALSE,FALSE,FALSE,FALSE,FALSE,FALSE,FALSE,FALSE,6.972890955,79.91594714,0.7,122,328,TRUE,1,1,FALSE,FALSE,FALSE,FALSE,,TRUE,FALSE,FALSE,Course Lock,49.2,,16.4,Calm,41,,1.12.8,Mavic Mini,1SDCH7G0169R0K,1SFLH6Q0AB03DJ,1SRCH7F014TAHX,1U5X071EXP5ZJG,133.2,0.5,3.2,8.300836,1.342164,0,0,Mavic Mini,1SDCH7G0169R0K,1SFLH6Q0AB03DJ,1SRCH7F014TAHX,1U5X071EXP5ZJG,DJI Fly,,1.12.8,2D744C23-D1D4-88F1-5EE1-E1E2802FB7EB,1SDCH7G0169R0K,,,,,6.97286271,79.91589507,5,,
3/2/2024,00:39.9,0m 1.8s,1.8,6.972893041,79.91594727,0,0,0.3,56,0.4,0,0,0,0,0,0,0,0,2.1,-0.1,-36.8,323.2,,Manual Takeoff,Other,Takeoff (RC Assisted),8,4,TRUE,,Mavic Mini,TRUE,FALSE,,Smart,RC,TRUE,TRUE,FALSE,,,TRUE,,FALSE,FALSE,FALSE,FALSE,FALSE,FALSE,FALSE,FALSE,FALSE,FALSE,0,Follow Yaw,0,0,-34.2,325.8,FALSE,FALSE,FALSE,FALSE,FALSE,FALSE,,TRUE,Normal,,100,1024,1024,1273,1024,2,FALSE,FALSE,FALSE,FALSE,FALSE,0,FALSE,FALSE,FALSE,FALSE,96,8.16,1984,2065,8.131,FALSE,4.081,4.079,0.002,FALSE,FALSE,NA,87.6,87.4,87.6,0,0,0,0,5,2527.7,631.94,,Idle,0,20,FALSE,5,TRUE,11,Go Home,FALSE,FALSE,FALSE,FALSE,FALSE,FALSE,FALSE,FALSE,FALSE,FALSE,FALSE,FALSE,6.972890955,79.91594714,0.7,122,328,TRUE,1,1,FALSE,FALSE,FALSE,FALSE,,TRUE,FALSE,FALSE,Course Lock,49.2,,16.4,Calm,41,,1.12.8,Mavic Mini,1SDCH7G0169R0K,1SFLH6Q0AB03DJ,1SRCH7F014TAHX,1U5X071EXP5ZJG,133.2,0.5,3.2,8.300836,1.342164,0,0,Mavic Mini,1SDCH7G0169R0K,1SFLH6Q0AB03DJ,1SRCH7F014TAHX,1U5X071EXP5ZJG,DJI Fly,,1.12.8,2D744C23-D1D4-88F1-5EE1-E1E2802FB7EB,1SDCH7G0169R0K,,,,,6.97286271,79.91589507,5,,
3/2/2024,00:40.1,0m 1.9s,1.9,6.972893129,79.91594721,0,0,0.3,56,0.4,0,0,0,0,0,0,0,0,2.1,-1,-37.2,322.8,,Manual Takeoff,Other,Takeoff (RC Assisted),8,4,TRUE,,Mavic Mini,TRUE,FALSE,,Smart,RC,TRUE,TRUE,FALSE,,,TRUE,,FALSE,FALSE,FALSE,FALSE,FALSE,FALSE,FALSE,FALSE,FALSE,FALSE,0,Follow Yaw,0,0,-34.5,325.5,FALSE,FALSE,FALSE,FALSE,FALSE,FALSE,,TRUE,Normal,,100,1024,1024,1259,1024,2,FALSE,FALSE,FALSE,FALSE,FALSE,0,FALSE,FALSE,FALSE,FALSE,96,8.16,1984,2065,8.131,FALSE,4.081,4.079,0.002,FALSE,FALSE,NA,87.6,87.4,87.6,0,0,0,0,5,2527.7,631.94,,Idle,0,20,FALSE,5,TRUE,11,Go Home,FALSE,FALSE,FALSE,FALSE,FALSE,FALSE,FALSE,FALSE,FALSE,FALSE,FALSE,FALSE,6.972890955,79.91594714,0.7,122,328,TRUE,1,1,FALSE,FALSE,FALSE,FALSE,,TRUE,FALSE,FALSE,Course Lock,49.2,,16.4,Calm,41,,1.12.8,Mavic Mini,1SDCH7G0169R0K,1SFLH6Q0AB03DJ,1SRCH7F014TAHX,1U5X071EXP5ZJG,133.2,0.5,3.2,8.300836,1.342164,0,0,Mavic Mini,1SDCH7G0169R0K,1SFLH6Q0AB03DJ,1SRCH7F014TAHX,1U5X071EXP5ZJG,DJI Fly,,1.12.8,2D744C23-D1D4-88F1-5EE1-E1E2802FB7EB,1SDCH7G0169R0K,,,,,6.97286271,79.91589507,5,,
3/2/2024,00:40.1,0m 2.0s,2,6.972893196,79.91594716,0,0,0.3,56,0.5,0,0,0,0,0,0,0,0,1.7,-2.2,-37.5,322.5,,Manual Takeoff,Other,Takeoff (RC Assisted),8,4,TRUE,,Mavic Mini,TRUE,FALSE,,Smart,RC,TRUE,TRUE,FALSE,,,TRUE,,FALSE,FALSE,FALSE,FALSE,FALSE,FALSE,FALSE,FALSE,FALSE,FALSE,0,Follow Yaw,0,0,-34.8,325.2,FALSE,FALSE,FALSE,FALSE,FALSE,FALSE,,TRUE,Normal,,100,1024,1024,1225,1024,2,FALSE,FALSE,FALSE,FALSE,FALSE,0,FALSE,FALSE,FALSE,FALSE,96,8.16,1984,2065,8.131,FALSE,4.081,4.079,0.002,FALSE,FALSE,NA,87.6,87.4,87.6,0,0,0,0,5,2527.7,631.94,,Idle,0,20,FALSE,5,TRUE,11,Go Home,FALSE,FALSE,FALSE,FALSE,FALSE,FALSE,FALSE,FALSE,FALSE,FALSE,FALSE,FALSE,6.972890955,79.91594714,0.8,122,328,TRUE,1,1,FALSE,FALSE,FALSE,FALSE,,TRUE,FALSE,FALSE,Course Lock,49.2,,16.4,Calm,41,,1.12.8,Mavic Mini,1SDCH7G0169R0K,1SFLH6Q0AB03DJ,1SRCH7F014TAHX,1U5X071EXP5ZJG,133.2,0.5,3.2,8.300836,1.342164,0,0,Mavic Mini,1SDCH7G0169R0K,1SFLH6Q0AB03DJ,1SRCH7F014TAHX,1U5X071EXP5ZJG,DJI Fly,,1.12.8,2D744C23-D1D4-88F1-5EE1-E1E2802FB7EB,1SDCH7G0169R0K,,,,,6.97286271,79.91589507,5,,
3/2/2024,00:40.2,0m 2.1s,2.1,6.972893258,79.91594701,0,0,0.3,56,0.5,0,0,0,0,0,0,0,0,0.6,-2.7,-38.4,321.6,,Manual Takeoff,Other,Takeoff (RC Assisted),8,4,TRUE,,Mavic Mini,TRUE,FALSE,,Smart,RC,TRUE,TRUE,FALSE,,,TRUE,,FALSE,FALSE,FALSE,FALSE,FALSE,FALSE,FALSE,FALSE,FALSE,FALSE,0,Follow Yaw,0,0,-35.4,324.6,FALSE,FALSE,FALSE,FALSE,FALSE,FALSE,,TRUE,Normal,,100,1024,1024,1210,1024,2,FALSE,FALSE,FALSE,FALSE,FALSE,0,FALSE,FALSE,FALSE,FALSE,96,8.16,1984,2065,8.131,FALSE,4.081,4.079,0.002,FALSE,FALSE,NA,87.6,87.4,87.6,0,0,0,0,5,2527.7,631.94,,Idle,0,20,FALSE,5,TRUE,11,Go Home,FALSE,FALSE,FALSE,FALSE,FALSE,FALSE,FALSE,FALSE,FALSE,FALSE,FALSE,FALSE,6.972890955,79.91594714,0.8,122,328,TRUE,1,1,FALSE,FALSE,FALSE,FALSE,,TRUE,FALSE,FALSE,Course Lock,49.2,,16.4,Calm,41,,1.12.8,Mavic Mini,1SDCH7G0169R0K,1SFLH6Q0AB03DJ,1SRCH7F014TAHX,1U5X071EXP5ZJG,133.2,0.5,3.2,8.300836,1.342164,0,0,Mavic Mini,1SDCH7G0169R0K,1SFLH6Q0AB03DJ,1SRCH7F014TAHX,1U5X071EXP5ZJG,DJI Fly,,1.12.8,2D744C23-D1D4-88F1-5EE1-E1E2802FB7EB,1SDCH7G0169R0K,,,,,6.972862878,79.9159374,5,,
3/2/2024,00:40.3,0m 2.2s,2.2,6.972893258,79.91594691,0,0,0.3,56,0.6,0.316351,0.316351,-0.223694,0,-0.223694,0,-0.223694,0,0.3,-3.4,-39.8,320.2,269.8,Manual Takeoff,Other,Takeoff (RC Assisted),8,4,TRUE,,Mavic Mini,TRUE,FALSE,,Smart,RC,FALSE,TRUE,FALSE,,,TRUE,,FALSE,FALSE,FALSE,FALSE,FALSE,FALSE,FALSE,FALSE,FALSE,FALSE,0,Follow Yaw,0,0,-36.5,323.5,FALSE,FALSE,FALSE,FALSE,FALSE,FALSE,,TRUE,Normal,,100,1024,1024,1191,1024,2,FALSE,FALSE,FALSE,FALSE,FALSE,0,FALSE,FALSE,FALSE,FALSE,96,8.16,1984,2065,8.131,FALSE,4.081,4.079,0.002,FALSE,FALSE,NA,87.6,87.4,87.6,0,0,0,0,5,2527.7,631.94,,Idle,0,20,FALSE,5,TRUE,11,Go Home,FALSE,FALSE,FALSE,FALSE,FALSE,FALSE,FALSE,FALSE,FALSE,FALSE,FALSE,FALSE,6.972890955,79.91594714,0.8,122,328,TRUE,1,1,FALSE,FALSE,FALSE,FALSE,,TRUE,FALSE,FALSE,Course Lock,49.2,,16.4,Calm,41,,1.12.8,Mavic Mini,1SDCH7G0169R0K,1SFLH6Q0AB03DJ,1SRCH7F014TAHX,1U5X071EXP5ZJG,133.2,0.5,3.2,8.300836,1.342164,0,0,Mavic Mini,1SDCH7G0169R0K,1SFLH6Q0AB03DJ,1SRCH7F014TAHX,1U5X071EXP5ZJG,DJI Fly,,1.12.8,2D744C23-D1D4-88F1-5EE1-E1E2802FB7EB,1SDCH7G0169R0K,,,,,6.972862878,79.9159374,5,,
3/2/2024,00:40.5,0m 2.3s,2.3,6.972893242,79.91594676,0,0,0.3,56,0.6,0.316351,0.316351,-0.223694,0,-0.223694,0,-0.447388,0,-0.1,-0.6,-39.9,320.1,262.3,Tripod,Other,,8,4,TRUE,,Mavic Mini,TRUE,FALSE,,Smart,RC,FALSE,TRUE,FALSE,,,TRUE,,FALSE,FALSE,FALSE,FALSE,FALSE,FALSE,FALSE,FALSE,FALSE,FALSE,0,Follow Yaw,0,0,-37,323,FALSE,FALSE,FALSE,FALSE,FALSE,FALSE,,TRUE,Normal,,100,1024,1024,1191,1024,2,FALSE,FALSE,FALSE,FALSE,FALSE,0,FALSE,FALSE,FALSE,FALSE,96,8.16,1984,2065,8.131,FALSE,4.081,4.079,0.002,FALSE,FALSE,NA,87.6,87.4,87.6,0,0,0,0,5,2527.7,631.94,,Idle,0,20,FALSE,5,TRUE,11,Go Home,FALSE,FALSE,FALSE,FALSE,FALSE,FALSE,FALSE,FALSE,FALSE,FALSE,FALSE,FALSE,6.972890955,79.91594714,0.8,122,328,TRUE,1,1,FALSE,FALSE,FALSE,FALSE,,TRUE,FALSE,FALSE,Course Lock,49.2,,16.4,Calm,41,,1.12.8,Mavic Mini,1SDCH7G0169R0K,1SFLH6Q0AB03DJ,1SRCH7F014TAHX,1U5X071EXP5ZJG,133.2,0.5,3.2,8.300836,1.342164,0,0,Mavic Mini,1SDCH7G0169R0K,1SFLH6Q0AB03DJ,1SRCH7F014TAHX,1U5X071EXP5ZJG,DJI Fly,,1.12.8,2D744C23-D1D4-88F1-5EE1-E1E2802FB7EB,1SDCH7G0169R0K,,,,,6.972862878,79.9159374,5,Flight mode changed to Tripod.,
3/2/2024,00:40.6,0m 2.4s,2.4,6.972893211,79.91594655,0,0,0.3,56,0.7,0.500194,0.500194,-0.223694,0,-0.447388,0,-0.671082,0,1.1,1.5,-39.7,320.3,259,Tripod,Other,,11,4,TRUE,,Mavic Mini,TRUE,FALSE,,Smart,RC,FALSE,TRUE,FALSE,,,TRUE,,FALSE,FALSE,FALSE,FALSE,FALSE,FALSE,FALSE,FALSE,FALSE,FALSE,0,Follow Yaw,0,0,-37,323,FALSE,FALSE,FALSE,FALSE,FALSE,FALSE,,TRUE,Normal,,100,1024,1024,1187,1024,2,FALSE,FALSE,FALSE,FALSE,FALSE,0,FALSE,FALSE,FALSE,FALSE,96,8.16,1984,2065,8.131,FALSE,4.081,4.079,0.002,FALSE,FALSE,NA,87.6,87.4,87.6,0,0,0,0,5,2527.7,631.94,,Idle,0,20,FALSE,5,TRUE,11,Go Home,FALSE,FALSE,FALSE,FALSE,FALSE,FALSE,FALSE,FALSE,FALSE,FALSE,FALSE,FALSE,6.972890955,79.91594714,0.8,122,328,TRUE,1,1,FALSE,FALSE,FALSE,FALSE,,TRUE,FALSE,FALSE,Course Lock,49.2,,16.4,Calm,41,,1.12.8,Mavic Mini,1SDCH7G0169R0K,1SFLH6Q0AB03DJ,1SRCH7F014TAHX,1U5X071EXP5ZJG,133.2,0.5,3.2,8.300836,1.342164,0,0,Mavic Mini,1SDCH7G0169R0K,1SFLH6Q0AB03DJ,1SRCH7F014TAHX,1U5X071EXP5ZJG,DJI Fly,,1.12.8,2D744C23-D1D4-88F1-5EE1-E1E2802FB7EB,1SDCH7G0169R0K,,,,,6.972862878,79.9159374,5,,
3/2/2024,00:40.7,0m 2.5s,2.5,6.972893163,79.91594628,0.3,0.3,0.6,57,0.8,0.316351,0.500194,-0.223694,0,-0.223694,0,-1.11847,0,1.2,2.3,-39.6,320.4,257.2,Tripod,Other,,11,4,TRUE,,Mavic Mini,TRUE,FALSE,,Smart,RC,FALSE,TRUE,FALSE,,,TRUE,,FALSE,FALSE,FALSE,FALSE,FALSE,FALSE,FALSE,FALSE,FALSE,FALSE,0,Follow Yaw,0,0,-37,323,FALSE,FALSE,FALSE,FALSE,FALSE,FALSE,,TRUE,Normal,,100,1024,1024,1186,1024,2,FALSE,FALSE,FALSE,FALSE,FALSE,0,FALSE,FALSE,FALSE,FALSE,96,7.945,1982,2065,8.131,FALSE,3.991,3.954,0.037,FALSE,FALSE,NA,87.8,87.4,87.8,0,0,0,0,5,2527.7,631.94,,Idle,0,20,FALSE,5,TRUE,11,Go Home,FALSE,FALSE,FALSE,FALSE,FALSE,FALSE,FALSE,FALSE,FALSE,FALSE,FALSE,FALSE,6.972890955,79.91594714,0.8,122,328,TRUE,1,1,FALSE,FALSE,FALSE,FALSE,,TRUE,FALSE,FALSE,Course Lock,49.2,,16.4,Calm,41,,1.12.8,Mavic Mini,1SDCH7G0169R0K,1SFLH6Q0AB03DJ,1SRCH7F014TAHX,1U5X071EXP5ZJG,133.2,0.5,3.2,8.300836,1.342164,0,0,Mavic Mini,1SDCH7G0169R0K,1SFLH6Q0AB03DJ,1SRCH7F014TAHX,1U5X071EXP5ZJG,DJI Fly,,1.12.8,2D744C23-D1D4-88F1-5EE1-E1E2802FB7EB,1SDCH7G0169R0K,,,,,6.972862878,79.9159374,5,,
3/2/2024,00:40.8,0m 2.6s,2.6,6.972893129,79.91594595,0.3,0.3,0.9,57,0.9,0.316351,0.500194,-0.223694,0,-0.223694,0,-1.342164,0,0.5,2.1,-39.5,320.5,262.2,Tripod,Other,,11,4,TRUE,,Mavic Mini,TRUE,FALSE,,Smart,RC,FALSE,TRUE,FALSE,,,TRUE,,FALSE,FALSE,FALSE,FALSE,FALSE,FALSE,FALSE,FALSE,FALSE,FALSE,0,Follow Yaw,0,0,-37,323,FALSE,FALSE,FALSE,FALSE,FALSE,FALSE,,TRUE,Normal,,100,1024,1024,1185,1024,2,FALSE,FALSE,FALSE,FALSE,FALSE,0,FALSE,FALSE,FALSE,FALSE,96,7.945,1982,2065,8.131,FALSE,3.991,3.954,0.037,FALSE,FALSE,NA,87.8,87.4,87.8,0,0,0,0,5,2527.7,631.94,,Idle,0,20,FALSE,5,TRUE,11,Go Home,FALSE,FALSE,FALSE,FALSE,FALSE,FALSE,FALSE,FALSE,FALSE,FALSE,FALSE,FALSE,6.972890955,79.91594714,0.9,122,328,TRUE,1,1,FALSE,FALSE,FALSE,FALSE,,TRUE,FALSE,FALSE,Course Lock,49.2,,16.4,Calm,41,,1.12.8,Mavic Mini,1SDCH7G0169R0K,1SFLH6Q0AB03DJ,1SRCH7F014TAHX,1U5X071EXP5ZJG,133.2,0.5,3.2,8.300836,1.342164,0,0,Mavic Mini,1SDCH7G0169R0K,1SFLH6Q0AB03DJ,1SRCH7F014TAHX,1U5X071EXP5ZJG,DJI Fly,,1.12.8,2D744C23-D1D4-88F1-5EE1-E1E2802FB7EB,1SDCH7G0169R0K,,,,,6.972862878,79.9159374,5,,
3/2/2024,00:41.0,0m 2.7s,2.7,6.972893021,79.91594581,0.6,0.6,0.9,57,1,0.223694,0.500194,0,0,-0.223694,0,-1.342164,0,0.3,1.9,-39.4,320.6,224.7,Tripod,Other,,11,4,TRUE,,Mavic Mini,TRUE,FALSE,,Smart,RC,FALSE,TRUE,FALSE,,,TRUE,,FALSE,FALSE,FALSE,FALSE,FALSE,FALSE,FALSE,FALSE,FALSE,FALSE,0,Follow Yaw,0,0,-37,323,FALSE,FALSE,FALSE,FALSE,FALSE,FALSE,,TRUE,Normal,,100,1024,1024,1156,1024,2,FALSE,FALSE,FALSE,FALSE,FALSE,0,FALSE,FALSE,FALSE,FALSE,96,7.945,1982,2065,8.131,FALSE,3.991,3.954,0.037,FALSE,FALSE,NA,87.8,87.4,87.8,0,0,0,0,5,2527.7,631.94,,Idle,0,20,FALSE,5,TRUE,11,Go Home,FALSE,FALSE,FALSE,FALSE,FALSE,FALSE,FALSE,FALSE,FALSE,FALSE,FALSE,FALSE,6.972890955,79.91594714,0.8,122,328,TRUE,1,1,FALSE,FALSE,FALSE,FALSE,,TRUE,FALSE,FALSE,Course Lock,49.2,,16.4,Calm,41,,1.12.8,Mavic Mini,1SDCH7G0169R0K,1SFLH6Q0AB03DJ,1SRCH7F014TAHX,1U5X071EXP5ZJG,133.2,0.5,3.2,8.300836,1.342164,0,0,Mavic Mini,1SDCH7G0169R0K,1SFLH6Q0AB03DJ,1SRCH7F014TAHX,1U5X071EXP5ZJG,DJI Fly,,1.12.8,2D744C23-D1D4-88F1-5EE1-E1E2802FB7EB,1SDCH7G0169R0K,,,,,6.972862878,79.9159374,5,,
3/2/2024,00:41.1,0m 2.8s,2.8,6.972892924,79.91594571,0.6,0.6,1.3,57,1,0,0.500194,0,0,0,0,-1.342164,0,0.2,2.2,-39.4,320.6,,Tripod,Other,,11,4,TRUE,,Mavic Mini,TRUE,FALSE,,Smart,RC,FALSE,TRUE,FALSE,,,TRUE,,FALSE,FALSE,FALSE,FALSE,FALSE,FALSE,FALSE,FALSE,FALSE,FALSE,0,Follow Yaw,0,0,-37,323,FALSE,FALSE,FALSE,FALSE,FALSE,FALSE,,TRUE,Normal,,100,1024,1024,1124,1024,2,FALSE,FALSE,FALSE,FALSE,FALSE,0,FALSE,FALSE,FALSE,FALSE,96,7.945,1982,2065,8.067,FALSE,3.991,3.954,0.037,FALSE,FALSE,NA,87.8,87.4,87.8,0,0,0,0,5,2874.8,718.71,,Idle,0,20,FALSE,5,TRUE,11,Go Home,FALSE,FALSE,FALSE,FALSE,FALSE,FALSE,FALSE,FALSE,FALSE,FALSE,FALSE,FALSE,6.972893258,79.91594689,0.4,122,328,TRUE,1,1,FALSE,FALSE,FALSE,FALSE,,TRUE,FALSE,FALSE,Course Lock,49.2,,16.4,Calm,41,,1.12.8,Mavic Mini,1SDCH7G0169R0K,1SFLH6Q0AB03DJ,1SRCH7F014TAHX,1U5X071EXP5ZJG,133.2,0.5,3.2,8.300836,1.342164,0,0,Mavic Mini,1SDCH7G0169R0K,1SFLH6Q0AB03DJ,1SRCH7F014TAHX,1U5X071EXP5ZJG,DJI Fly,,1.12.8,2D744C23-D1D4-88F1-5EE1-E1E2802FB7EB,1SDCH7G0169R0K,,,,,6.972862878,79.9159374,5,Home Point updated. RTH altitude adjusted to 15 m!_v (Code: 120852).,
3/2/2024,00:41.2,0m 2.9s,2.9,6.972892843,79.91594565,0.9,0.9,1.3,57,1.1,0,0.500194,0,0,0,0,-1.11847,0,0.2,1.7,-39.4,320.6,,Tripod,Other,,11,4,TRUE,,Mavic Mini,TRUE,FALSE,,Smart,RC,FALSE,TRUE,FALSE,,,TRUE,,FALSE,FALSE,FALSE,FALSE,FALSE,FALSE,FALSE,FALSE,FALSE,FALSE,0,Follow Yaw,0,0,-37,323,FALSE,FALSE,FALSE,FALSE,FALSE,FALSE,,TRUE,Normal,,100,1024,1024,1119,1024,2,FALSE,FALSE,FALSE,FALSE,FALSE,0,FALSE,FALSE,FALSE,FALSE,96,7.945,1982,2065,8.067,FALSE,3.991,3.954,0.037,FALSE,FALSE,NA,87.8,87.4,87.8,0,0,0,0,5,2874.8,718.71,,Idle,0,20,FALSE,5,TRUE,11,Go Home,FALSE,FALSE,FALSE,FALSE,FALSE,FALSE,FALSE,FALSE,FALSE,FALSE,FALSE,FALSE,6.972893258,79.91594689,0.4,122,328,TRUE,1,1,FALSE,FALSE,FALSE,FALSE,,TRUE,FALSE,FALSE,Course Lock,49.2,,16.4,Calm,41,,1.12.8,Mavic Mini,1SDCH7G0169R0K,1SFLH6Q0AB03DJ,1SRCH7F014TAHX,1U5X071EXP5ZJG,133.2,0.5,3.2,8.300836,1.342164,0,0,Mavic Mini,1SDCH7G0169R0K,1SFLH6Q0AB03DJ,1SRCH7F014TAHX,1U5X071EXP5ZJG,DJI Fly,,1.12.8,2D744C23-D1D4-88F1-5EE1-E1E2802FB7EB,1SDCH7G0169R0K,,,,,6.972862878,79.9159374,5,,
3/2/2024,00:41.2,0m 3.0s,3,6.972892554,79.91594568,0.9,0.9,1.6,57,1.2,0,0.500194,0,0,0,0,-0.671082,0,0.5,1.4,-39.3,320.7,,Tripod,Other,,11,4,TRUE,,Mavic Mini,TRUE,FALSE,,Smart,RC,FALSE,TRUE,FALSE,,,TRUE,,FALSE,FALSE,FALSE,FALSE,FALSE,FALSE,FALSE,FALSE,FALSE,FALSE,0,Follow Yaw,0,0,-37,323,FALSE,FALSE,FALSE,FALSE,FALSE,FALSE,,TRUE,Normal,,100,1024,1024,1113,1024,2,FALSE,FALSE,FALSE,FALSE,FALSE,0,FALSE,FALSE,FALSE,FALSE,96,7.945,1982,2065,8.067,FALSE,3.991,3.954,0.037,FALSE,FALSE,NA,87.8,87.4,87.8,0,0,0,0,5,2874.8,718.71,,Idle,0,20,FALSE,5,TRUE,11,Go Home,FALSE,FALSE,FALSE,FALSE,FALSE,FALSE,FALSE,FALSE,FALSE,FALSE,FALSE,FALSE,6.972893258,79.91594689,0.5,122,328,TRUE,1,1,FALSE,FALSE,FALSE,FALSE,,TRUE,FALSE,FALSE,Course Lock,49.2,,16.4,Calm,41,,1.12.8,Mavic Mini,1SDCH7G0169R0K,1SFLH6Q0AB03DJ,1SRCH7F014TAHX,1U5X071EXP5ZJG,133.2,0.5,3.2,8.300836,1.342164,0,0,Mavic Mini,1SDCH7G0169R0K,1SFLH6Q0AB03DJ,1SRCH7F014TAHX,1U5X071EXP5ZJG,DJI Fly,,1.12.8,2D744C23-D1D4-88F1-5EE1-E1E2802FB7EB,1SDCH7G0169R0K,,,,,6.972862878,79.9159374,5,,
3/2/2024,00:41.3,0m 3.1s,3.1,6.972892513,79.9159457,0.9,0.9,1.6,57,1.2,0,0.500194,0,0,0,0,-0.447388,0,0.6,1.1,-39.3,320.7,,Tripod,Other,,11,4,TRUE,,Mavic Mini,TRUE,FALSE,,Smart,RC,FALSE,TRUE,FALSE,,,TRUE,,FALSE,FALSE,FALSE,FALSE,FALSE,FALSE,FALSE,FALSE,FALSE,FALSE,0,Follow Yaw,0,0,-37,323,FALSE,FALSE,FALSE,FALSE,FALSE,FALSE,,TRUE,Normal,,100,1024,1024,1114,1024,2,FALSE,FALSE,FALSE,FALSE,FALSE,0,FALSE,FALSE,FALSE,FALSE,96,7.945,1982,2065,8.067,FALSE,3.991,3.954,0.037,FALSE,FALSE,NA,87.8,87.4,87.8,0,0,0,0,5,2874.8,718.71,,Idle,0,20,FALSE,5,TRUE,11,Go Home,FALSE,FALSE,FALSE,FALSE,FALSE,FALSE,FALSE,FALSE,FALSE,FALSE,FALSE,FALSE,6.972893258,79.91594689,0.5,122,328,TRUE,1,1,FALSE,FALSE,FALSE,FALSE,,TRUE,FALSE,FALSE,Course Lock,49.2,,16.4,Calm,41,,1.12.8,Mavic Mini,1SDCH7G0169R0K,1SFLH6Q0AB03DJ,1SRCH7F014TAHX,1U5X071EXP5ZJG,133.2,0.5,3.2,8.300836,1.342164,0,0,Mavic Mini,1SDCH7G0169R0K,1SFLH6Q0AB03DJ,1SRCH7F014TAHX,1U5X071EXP5ZJG,DJI Fly,,1.12.8,2D744C23-D1D4-88F1-5EE1-E1E2802FB7EB,1SDCH7G0169R0K,,,,,6.972862878,79.9159374,5,,
3/2/2024,00:41.4,0m 3.2s,3.2,6.972892491,79.91594575,1.3,1.3,1.9,58,1.2,0,0.500194,0,0,0,0,-0.223694,0,0.4,1.2,-39.4,320.6,,Tripod,Other,,11,4,TRUE,,Mavic Mini,TRUE,FALSE,,Smart,RC,FALSE,TRUE,FALSE,,,TRUE,,FALSE,FALSE,FALSE,FALSE,FALSE,FALSE,FALSE,FALSE,FALSE,FALSE,0,Follow Yaw,0,0,-37,323,FALSE,FALSE,FALSE,FALSE,FALSE,FALSE,,TRUE,Normal,,100,1024,1024,1114,1024,2,FALSE,FALSE,FALSE,FALSE,FALSE,0,FALSE,FALSE,FALSE,FALSE,96,7.945,1982,2065,8.067,FALSE,3.991,3.954,0.037,FALSE,FALSE,NA,87.8,87.4,87.8,0,0,0,0,5,2874.8,718.71,,Idle,0,20,FALSE,5,TRUE,11,Go Home,FALSE,FALSE,FALSE,FALSE,FALSE,FALSE,FALSE,FALSE,FALSE,FALSE,FALSE,FALSE,6.972893258,79.91594689,0.4,122,328,TRUE,1,1,FALSE,FALSE,FALSE,FALSE,,TRUE,FALSE,FALSE,Course Lock,49.2,,16.4,Calm,41,,1.12.8,Mavic Mini,1SDCH7G0169R0K,1SFLH6Q0AB03DJ,1SRCH7F014TAHX,1U5X071EXP5ZJG,133.2,0.5,3.2,8.300836,1.342164,0,0,Mavic Mini,1SDCH7G0169R0K,1SFLH6Q0AB03DJ,1SRCH7F014TAHX,1U5X071EXP5ZJG,DJI Fly,,1.12.8,2D744C23-D1D4-88F1-5EE1-E1E2802FB7EB,1SDCH7G0169R0K,,,,,6.972862878,79.9159374,5,,
3/2/2024,00:41.5,0m 3.3s,3.3,6.972892505,79.91594584,1.3,1.3,1.9,58,1.3,0,0.500194,0,0,0,0,-0.223694,0,0.1,0.9,-39.4,320.6,,Tripod,Other,,11,4,TRUE,,Mavic Mini,TRUE,FALSE,,Smart,RC,FALSE,TRUE,FALSE,,,TRUE,,FALSE,FALSE,FALSE,FALSE,FALSE,FALSE,FALSE,FALSE,FALSE,FALSE,0,Follow Yaw,0,0,-37,323,FALSE,FALSE,FALSE,FALSE,FALSE,FALSE,,TRUE,Normal,,100,1024,1024,1147,1024,2,FALSE,FALSE,FALSE,FALSE,FALSE,0,FALSE,FALSE,FALSE,FALSE,96,7.945,1982,2065,8.067,FALSE,3.991,3.954,0.037,FALSE,FALSE,NA,87.8,87.4,87.8,0,0,0,0,5,2874.8,718.71,,Idle,0,20,FALSE,5,TRUE,11,Go Home,FALSE,FALSE,FALSE,FALSE,FALSE,FALSE,FALSE,FALSE,FALSE,FALSE,FALSE,FALSE,6.972893258,79.91594689,0.4,122,328,TRUE,1,1,FALSE,FALSE,FALSE,FALSE,,TRUE,FALSE,FALSE,Course Lock,49.2,,16.4,Calm,41,,1.12.8,Mavic Mini,1SDCH7G0169R0K,1SFLH6Q0AB03DJ,1SRCH7F014TAHX,1U5X071EXP5ZJG,133.2,0.5,3.2,8.300836,1.342164,0,0,Mavic Mini,1SDCH7G0169R0K,1SFLH6Q0AB03DJ,1SRCH7F014TAHX,1U5X071EXP5ZJG,DJI Fly,,1.12.8,2D744C23-D1D4-88F1-5EE1-E1E2802FB7EB,1SDCH7G0169R0K,,,,,6.972862878,79.9159374,5,,
3/2/2024,00:41.6,0m 3.4s,3.4,6.972892496,79.91594596,1.3,1.3,1.9,58,1.3,0,0.500194,0,0,0,0,0,0,-0.2,0.6,-39.4,320.6,,Tripod,Other,,11,4,TRUE,,Mavic Mini,TRUE,FALSE,,Smart,RC,FALSE,TRUE,FALSE,,,TRUE,,FALSE,FALSE,FALSE,FALSE,FALSE,FALSE,FALSE,FALSE,FALSE,FALSE,0,Follow Yaw,0,0,-37,323,FALSE,FALSE,FALSE,FALSE,FALSE,FALSE,,TRUE,Normal,,100,1024,1024,1204,1024,2,FALSE,FALSE,FALSE,FALSE,FALSE,0,FALSE,FALSE,FALSE,FALSE,96,7.945,1982,2065,8.067,FALSE,3.991,3.954,0.037,FALSE,FALSE,NA,87.8,87.4,87.8,0,0,0,0,5,2874.8,718.71,,Idle,0,20,FALSE,5,TRUE,11,Go Home,FALSE,FALSE,FALSE,FALSE,FALSE,FALSE,FALSE,FALSE,FALSE,FALSE,FALSE,FALSE,6.972893258,79.91594689,0.4,122,328,TRUE,1,1,FALSE,FALSE,FALSE,FALSE,,TRUE,FALSE,FALSE,Course Lock,49.2,,16.4,Calm,41,,1.12.8,Mavic Mini,1SDCH7G0169R0K,1SFLH6Q0AB03DJ,1SRCH7F014TAHX,1U5X071EXP5ZJG,133.2,0.5,3.2,8.300836,1.342164,0,0,Mavic Mini,1SDCH7G0169R0K,1SFLH6Q0AB03DJ,1SRCH7F014TAHX,1U5X071EXP5ZJG,DJI Fly,,1.12.8,2D744C23-D1D4-88F1-5EE1-E1E2802FB7EB,1SDCH7G0169R0K,,,,,6.972862878,79.9159374,5,,
3/2/2024,00:41.7,0m 3.5s,3.5,6.972892423,79.91594613,1.3,1.3,1.9,58,1.4,0,0.500194,0,0,0,0,0,0,-0.3,0.4,-39.5,320.5,,Tripod,Other,,11,4,TRUE,,Mavic Mini,TRUE,FALSE,,Smart,RC,FALSE,TRUE,FALSE,,,TRUE,,FALSE,FALSE,FALSE,FALSE,FALSE,FALSE,FALSE,FALSE,FALSE,FALSE,0,Follow Yaw,0,0,-37,323,FALSE,FALSE,FALSE,FALSE,FALSE,FALSE,,TRUE,Normal,,100,1024,1024,1217,1024,2,FALSE,FALSE,FALSE,FALSE,FALSE,0,FALSE,FALSE,FALSE,FALSE,96,7.945,1982,2065,8.067,FALSE,3.991,3.954,0.037,FALSE,FALSE,NA,87.8,87.4,87.8,0,0,0,0,5,2874.8,718.71,,Idle,0,20,FALSE,5,TRUE,11,Go Home,FALSE,FALSE,FALSE,FALSE,FALSE,FALSE,FALSE,FALSE,FALSE,FALSE,FALSE,FALSE,6.972893258,79.91594689,0.4,122,328,TRUE,1,1,FALSE,FALSE,FALSE,FALSE,,TRUE,FALSE,FALSE,Course Lock,49.2,,16.4,Calm,41,,1.12.8,Mavic Mini,1SDCH7G0169R0K,1SFLH6Q0AB03DJ,1SRCH7F014TAHX,1U5X071EXP5ZJG,133.2,0.5,3.2,8.300836,1.342164,0,0,Mavic Mini,1SDCH7G0169R0K,1SFLH6Q0AB03DJ,1SRCH7F014TAHX,1U5X071EXP5ZJG,DJI Fly,,1.12.8,2D744C23-D1D4-88F1-5EE1-E1E2802FB7EB,1SDCH7G0169R0K,,,,,6.972862878,79.9159374,5,,
3/2/2024,00:41.7,0m 3.6s,3.6,6.972892423,79.91594629,1.3,1.3,1.9,58,1.4,0,0.500194,0,0,0,0,0,0,-0.4,0.4,-39.4,320.6,,Tripod,Other,,11,4,TRUE,,Mavic Mini,TRUE,FALSE,,Smart,RC,FALSE,TRUE,FALSE,,,TRUE,,FALSE,FALSE,FALSE,FALSE,FALSE,FALSE,FALSE,FALSE,FALSE,FALSE,0,Follow Yaw,0,0,-37,323,FALSE,FALSE,FALSE,FALSE,FALSE,FALSE,,TRUE,Normal,,100,1024,1024,1223,1024,2,FALSE,FALSE,FALSE,FALSE,FALSE,0,FALSE,FALSE,FALSE,FALSE,96,7.946,1982,2065,8.067,FALSE,3.974,3.972,0.037,FALSE,FALSE,NA,87.8,87.4,87.8,0,0,0,0,5,2874.8,718.71,,Idle,0,20,FALSE,5,TRUE,11,Go Home,FALSE,FALSE,FALSE,FALSE,FALSE,FALSE,FALSE,FALSE,FALSE,FALSE,FALSE,FALSE,6.972893258,79.91594689,0.3,122,328,TRUE,1,1,FALSE,FALSE,FALSE,FALSE,,TRUE,FALSE,FALSE,Course Lock,49.2,,16.4,Calm,41,,1.12.8,Mavic Mini,1SDCH7G0169R0K,1SFLH6Q0AB03DJ,1SRCH7F014TAHX,1U5X071EXP5ZJG,133.2,0.5,3.2,8.300836,1.342164,0,0,Mavic Mini,1SDCH7G0169R0K,1SFLH6Q0AB03DJ,1SRCH7F014TAHX,1U5X071EXP5ZJG,DJI Fly,,1.12.8,2D744C23-D1D4-88F1-5EE1-E1E2802FB7EB,1SDCH7G0169R0K,,,,,6.972862878,79.9159374,5,,
3/2/2024,00:41.9,0m 3.7s,3.7,6.972892578,79.91594642,1.3,1.3,1.9,58,1.5,0,0.500194,0,0,0,0,-0.223694,0,-0.2,0.2,-39.3,320.7,,Tripod,Other,,11,4,TRUE,,Mavic Mini,TRUE,FALSE,,Smart,RC,FALSE,TRUE,FALSE,,,TRUE,,FALSE,FALSE,FALSE,FALSE,FALSE,FALSE,FALSE,FALSE,FALSE,FALSE,0,Follow Yaw,0,0,-37,323,FALSE,FALSE,FALSE,FALSE,FALSE,FALSE,,TRUE,Normal,,100,1024,1024,1214,1024,2,FALSE,FALSE,FALSE,FALSE,FALSE,0,FALSE,FALSE,FALSE,FALSE,96,7.946,1981,2065,8.067,FALSE,3.974,3.972,0.037,FALSE,FALSE,NA,87.8,87.4,87.8,0,0,0,0,5,2874.8,718.71,,Idle,0,20,FALSE,5,TRUE,11,Go Home,FALSE,FALSE,FALSE,FALSE,FALSE,FALSE,FALSE,FALSE,FALSE,FALSE,FALSE,FALSE,6.972893258,79.91594689,0.2,122,328,TRUE,1,1,FALSE,FALSE,FALSE,FALSE,,TRUE,FALSE,FALSE,Course Lock,49.2,,16.4,Calm,41,,1.12.8,Mavic Mini,1SDCH7G0169R0K,1SFLH6Q0AB03DJ,1SRCH7F014TAHX,1U5X071EXP5ZJG,133.2,0.5,3.2,8.300836,1.342164,0,0,Mavic Mini,1SDCH7G0169R0K,1SFLH6Q0AB03DJ,1SRCH7F014TAHX,1U5X071EXP5ZJG,DJI Fly,,1.12.8,2D744C23-D1D4-88F1-5EE1-E1E2802FB7EB,1SDCH7G0169R0K,,,,,6.972862878,79.9159374,5,,
3/2/2024,00:42.0,0m 3.8s,3.8,6.972893017,79.91594677,1.3,1.3,2.2,58,1.7,0,0.500194,0,0,0,0,-0.223694,0,0.1,0.3,-39.3,320.7,,Tripod,Other,,11,4,TRUE,,Mavic Mini,TRUE,FALSE,,Smart,RC,FALSE,TRUE,FALSE,,,TRUE,,FALSE,FALSE,FALSE,FALSE,FALSE,FALSE,FALSE,FALSE,FALSE,FALSE,0,Follow Yaw,0,0,-37,323,FALSE,FALSE,FALSE,FALSE,FALSE,FALSE,,TRUE,Normal,,100,1024,1024,1184,1024,2,FALSE,FALSE,FALSE,FALSE,FALSE,0,FALSE,FALSE,FALSE,FALSE,96,7.946,1981,2065,7.955,FALSE,3.974,3.972,0.037,FALSE,FALSE,NA,87.8,87.4,87.8,0,0,0,0,5,3860.4,965.12,,Idle,0,20,FALSE,5,TRUE,11,Go Home,FALSE,FALSE,FALSE,FALSE,FALSE,FALSE,FALSE,FALSE,FALSE,FALSE,FALSE,FALSE,6.972893258,79.91594689,0,122,328,TRUE,1,1,FALSE,FALSE,FALSE,FALSE,,TRUE,FALSE,FALSE,Course Lock,49.2,,16.4,Calm,41,,1.12.8,Mavic Mini,1SDCH7G0169R0K,1SFLH6Q0AB03DJ,1SRCH7F014TAHX,1U5X071EXP5ZJG,133.2,0.5,3.2,8.300836,1.342164,0,0,Mavic Mini,1SDCH7G0169R0K,1SFLH6Q0AB03DJ,1SRCH7F014TAHX,1U5X071EXP5ZJG,DJI Fly,,1.12.8,2D744C23-D1D4-88F1-5EE1-E1E2802FB7EB,1SDCH7G0169R0K,,,,,6.972862878,79.9159374,5,,
3/2/2024,00:42.0,0m 3.9s,3.9,6.972893173,79.9159469,1.3,1.3,2.2,58,1.8,0,0.500194,0,0,0,0,-0.447388,0,0.6,0.1,-39.3,320.7,,Tripod,Other,,11,4,TRUE,,Mavic Mini,TRUE,FALSE,,Smart,RC,FALSE,TRUE,FALSE,,,TRUE,,FALSE,FALSE,FALSE,FALSE,FALSE,FALSE,FALSE,FALSE,FALSE,FALSE,0,Follow Yaw,0,0,-37,323,FALSE,FALSE,FALSE,FALSE,FALSE,FALSE,,TRUE,Normal,,100,1024,1024,1138,1024,2,FALSE,FALSE,FALSE,FALSE,FALSE,0,FALSE,FALSE,FALSE,FALSE,96,7.946,1981,2065,7.955,FALSE,3.974,3.972,0.037,FALSE,FALSE,NA,87.8,87.4,87.8,0,0,0,0,5,3860.4,965.12,,Idle,0,20,FALSE,5,TRUE,11,Go Home,FALSE,FALSE,FALSE,FALSE,FALSE,FALSE,FALSE,FALSE,FALSE,FALSE,FALSE,FALSE,6.972893258,79.91594689,0,122,328,TRUE,1,1,FALSE,FALSE,FALSE,FALSE,,TRUE,FALSE,FALSE,Course Lock,49.2,,16.4,Calm,41,,1.12.8,Mavic Mini,1SDCH7G0169R0K,1SFLH6Q0AB03DJ,1SRCH7F014TAHX,1U5X071EXP5ZJG,133.2,0.5,3.2,8.300836,1.342164,0,0,Mavic Mini,1SDCH7G0169R0K,1SFLH6Q0AB03DJ,1SRCH7F014TAHX,1U5X071EXP5ZJG,DJI Fly,,1.12.8,2D744C23-D1D4-88F1-5EE1-E1E2802FB7EB,1SDCH7G0169R0K,,,,,6.972862878,79.9159374,5,,
3/2/2024,00:42.1,0m 4.0s,4,6.972893304,79.915947,1.6,1.6,2.2,58,1.8,0,0.500194,0,0,0,0,-0.447388,0,0.5,0.1,-39.3,320.7,,Tripod,Other,,11,4,TRUE,,Mavic Mini,TRUE,FALSE,,Smart,RC,FALSE,TRUE,FALSE,,,TRUE,,FALSE,FALSE,FALSE,FALSE,FALSE,FALSE,FALSE,FALSE,FALSE,FALSE,0,Follow Yaw,0,0,-37,323,FALSE,FALSE,FALSE,FALSE,FALSE,FALSE,,TRUE,Normal,,100,1024,1024,1068,1024,2,FALSE,FALSE,FALSE,FALSE,FALSE,0,FALSE,FALSE,FALSE,FALSE,96,7.946,1981,2065,7.955,FALSE,3.974,3.972,0.037,FALSE,FALSE,NA,87.8,87.4,87.8,0,0,0,0,5,3860.4,965.12,,Idle,0,20,FALSE,5,TRUE,11,Go Home,FALSE,FALSE,FALSE,FALSE,FALSE,FALSE,FALSE,FALSE,FALSE,FALSE,FALSE,FALSE,6.972893258,79.91594689,0,122,328,TRUE,1,1,FALSE,FALSE,FALSE,FALSE,,TRUE,FALSE,FALSE,Course Lock,49.2,,16.4,Calm,41,,1.12.8,Mavic Mini,1SDCH7G0169R0K,1SFLH6Q0AB03DJ,1SRCH7F014TAHX,1U5X071EXP5ZJG,133.2,0.5,3.2,8.300836,1.342164,0,0,Mavic Mini,1SDCH7G0169R0K,1SFLH6Q0AB03DJ,1SRCH7F014TAHX,1U5X071EXP5ZJG,DJI Fly,,1.12.8,2D744C23-D1D4-88F1-5EE1-E1E2802FB7EB,1SDCH7G0169R0K,,,,,6.972862878,79.9159374,5,,
3/2/2024,00:42.2,0m 4.1s,4.1,6.972893406,79.91594705,1.6,1.6,2.2,58,1.9,0,0.500194,0,0,0,0,-0.447388,0,0.5,0.2,-39.3,320.7,,Tripod,Other,,11,4,TRUE,,Mavic Mini,TRUE,FALSE,,Smart,RC,FALSE,TRUE,FALSE,,,TRUE,,FALSE,FALSE,FALSE,FALSE,FALSE,FALSE,FALSE,FALSE,FALSE,FALSE,0,Follow Yaw,0,0,-37,323,FALSE,FALSE,FALSE,FALSE,FALSE,FALSE,,TRUE,Normal,,100,1024,1024,1068,1024,2,FALSE,FALSE,FALSE,FALSE,FALSE,0,FALSE,FALSE,FALSE,FALSE,96,7.946,1981,2065,7.955,FALSE,3.974,3.972,0.037,FALSE,FALSE,NA,87.8,87.4,87.8,0,0,0,0,5,3860.4,965.12,,Idle,0,20,FALSE,5,TRUE,11,Go Home,FALSE,FALSE,FALSE,FALSE,FALSE,FALSE,FALSE,FALSE,FALSE,FALSE,FALSE,FALSE,6.972893258,79.91594689,0,122,328,TRUE,1,1,FALSE,FALSE,FALSE,FALSE,,TRUE,FALSE,FALSE,Course Lock,49.2,,16.4,Calm,41,,1.12.8,Mavic Mini,1SDCH7G0169R0K,1SFLH6Q0AB03DJ,1SRCH7F014TAHX,1U5X071EXP5ZJG,133.2,0.5,3.2,8.300836,1.342164,0,0,Mavic Mini,1SDCH7G0169R0K,1SFLH6Q0AB03DJ,1SRCH7F014TAHX,1U5X071EXP5ZJG,DJI Fly,,1.12.8,2D744C23-D1D4-88F1-5EE1-E1E2802FB7EB,1SDCH7G0169R0K,,,,,6.972862878,79.9159374,5,,
3/2/2024,00:42.3,0m 4.2s,4.2,6.972893485,79.91594709,1.6,1.6,2.6,58,1.9,0,0.500194,0,0,0,0,-0.447388,0,0.7,0,-39.2,320.8,,Tripod,Other,,11,4,TRUE,,Mavic Mini,TRUE,FALSE,,Smart,RC,FALSE,TRUE,FALSE,,,TRUE,,FALSE,FALSE,FALSE,FALSE,FALSE,FALSE,FALSE,FALSE,FALSE,FALSE,0,Follow Yaw,0,0,-37,323,FALSE,FALSE,FALSE,FALSE,FALSE,FALSE,,TRUE,Normal,,100,1024,1024,1024,1024,2,FALSE,FALSE,FALSE,FALSE,FALSE,0,FALSE,FALSE,FALSE,FALSE,96,7.946,1981,2065,7.955,FALSE,3.974,3.972,0.037,FALSE,FALSE,NA,87.8,87.4,87.8,0,0,0,0,5,3860.4,965.12,,Idle,0,20,FALSE,5,TRUE,11,Go Home,FALSE,FALSE,FALSE,FALSE,FALSE,FALSE,FALSE,FALSE,FALSE,FALSE,FALSE,FALSE,6.972893258,79.91594689,0.1,122,328,TRUE,1,1,FALSE,FALSE,FALSE,FALSE,,TRUE,FALSE,FALSE,Course Lock,49.2,,16.4,Calm,41,,1.12.8,Mavic Mini,1SDCH7G0169R0K,1SFLH6Q0AB03DJ,1SRCH7F014TAHX,1U5X071EXP5ZJG,133.2,0.5,3.2,8.300836,1.342164,0,0,Mavic Mini,1SDCH7G0169R0K,1SFLH6Q0AB03DJ,1SRCH7F014TAHX,1U5X071EXP5ZJG,DJI Fly,,1.12.8,2D744C23-D1D4-88F1-5EE1-E1E2802FB7EB,1SDCH7G0169R0K,,,,,6.972862878,79.9159374,5,,
3/2/2024,00:42.4,0m 4.3s,4.3,6.972893462,79.91594699,1.6,1.6,2.6,58,1.9,0,0.500194,0,0,0,0,-0.223694,0,0.9,0,-39,321,,Tripod,Other,,11,4,TRUE,,Mavic Mini,TRUE,FALSE,,Smart,RC,FALSE,TRUE,FALSE,,,TRUE,,FALSE,FALSE,FALSE,FALSE,FALSE,FALSE,FALSE,FALSE,FALSE,FALSE,0,Follow Yaw,0,0,-37,323,FALSE,FALSE,FALSE,FALSE,FALSE,FALSE,,TRUE,Normal,,100,1024,1024,1037,1024,2,FALSE,FALSE,FALSE,FALSE,FALSE,0,FALSE,FALSE,FALSE,FALSE,96,7.946,1981,2065,7.955,FALSE,3.974,3.972,0.037,FALSE,FALSE,NA,87.8,87.4,87.8,0,0,0,0,5,3860.4,965.12,,Idle,0,20,FALSE,5,TRUE,11,Go Home,FALSE,FALSE,FALSE,FALSE,FALSE,FALSE,FALSE,FALSE,FALSE,FALSE,FALSE,FALSE,6.972893258,79.91594689,0,122,328,TRUE,1,1,FALSE,FALSE,FALSE,FALSE,,TRUE,FALSE,FALSE,Course Lock,49.2,,16.4,Calm,41,,1.12.8,Mavic Mini,1SDCH7G0169R0K,1SFLH6Q0AB03DJ,1SRCH7F014TAHX,1U5X071EXP5ZJG,133.2,0.5,3.2,8.300836,1.342164,0,0,Mavic Mini,1SDCH7G0169R0K,1SFLH6Q0AB03DJ,1SRCH7F014TAHX,1U5X071EXP5ZJG,DJI Fly,,1.12.8,2D744C23-D1D4-88F1-5EE1-E1E2802FB7EB,1SDCH7G0169R0K,,,,,6.972862878,79.9159374,5,,
3/2/2024,00:42.6,0m 4.4s,4.4,6.972893491,79.91594699,1.6,1.6,2.6,58,2,0,0.500194,0,0,0,0,-0.223694,0,0.9,0.1,-38.9,321.1,,Tripod,Other,,10,4,TRUE,,Mavic Mini,TRUE,FALSE,,Smart,RC,FALSE,TRUE,FALSE,,,TRUE,,FALSE,FALSE,FALSE,FALSE,FALSE,FALSE,FALSE,FALSE,FALSE,FALSE,0,Follow Yaw,0,0,-37,323,FALSE,FALSE,FALSE,FALSE,FALSE,FALSE,,TRUE,Normal,,100,1024,1024,1138,1024,2,FALSE,FALSE,FALSE,FALSE,FALSE,0,FALSE,FALSE,FALSE,FALSE,96,7.946,1981,2065,7.955,FALSE,3.974,3.972,0.037,FALSE,FALSE,NA,87.8,87.4,87.8,0,0,0,0,5,3860.4,965.12,,Idle,0,20,FALSE,5,TRUE,11,Go Home,FALSE,FALSE,FALSE,FALSE,FALSE,FALSE,FALSE,FALSE,FALSE,FALSE,FALSE,FALSE,6.972893258,79.91594689,0,122,328,TRUE,1,1,FALSE,FALSE,FALSE,FALSE,,TRUE,FALSE,FALSE,Course Lock,49.2,,16.4,Calm,41,,1.12.8,Mavic Mini,1SDCH7G0169R0K,1SFLH6Q0AB03DJ,1SRCH7F014TAHX,1U5X071EXP5ZJG,133.2,0.5,3.2,8.300836,1.342164,0,0,Mavic Mini,1SDCH7G0169R0K,1SFLH6Q0AB03DJ,1SRCH7F014TAHX,1U5X071EXP5ZJG,DJI Fly,,1.12.8,2D744C23-D1D4-88F1-5EE1-E1E2802FB7EB,1SDCH7G0169R0K,,,,,6.972862878,79.9159374,5,,
3/2/2024,00:42.7,0m 4.5s,4.5,6.972893497,79.91594692,1.6,1.6,2.6,58,2,0,0.500194,0,0,0,0,0,0,0.8,0.1,-38.7,321.3,,Tripod,Other,,10,4,TRUE,,Mavic Mini,TRUE,FALSE,,Smart,RC,FALSE,TRUE,FALSE,,,TRUE,,FALSE,FALSE,FALSE,FALSE,FALSE,FALSE,FALSE,FALSE,FALSE,FALSE,0,Follow Yaw,0,0,-37,323,FALSE,FALSE,FALSE,FALSE,FALSE,FALSE,,TRUE,Normal,,100,1024,1024,1217,1024,2,FALSE,FALSE,FALSE,FALSE,FALSE,0,FALSE,FALSE,FALSE,FALSE,96,7.946,1981,2065,7.955,FALSE,3.974,3.972,0.037,FALSE,FALSE,NA,87.8,87.4,87.8,0,0,0,0,5,3860.4,965.12,,Idle,0,20,FALSE,5,TRUE,11,Go Home,FALSE,FALSE,FALSE,FALSE,FALSE,FALSE,FALSE,FALSE,FALSE,FALSE,FALSE,FALSE,6.972893258,79.91594689,0,122,328,TRUE,1,1,FALSE,FALSE,FALSE,FALSE,,TRUE,FALSE,FALSE,Course Lock,49.2,,16.4,Calm,41,,1.12.8,Mavic Mini,1SDCH7G0169R0K,1SFLH6Q0AB03DJ,1SRCH7F014TAHX,1U5X071EXP5ZJG,133.2,0.5,3.2,8.300836,1.342164,0,0,Mavic Mini,1SDCH7G0169R0K,1SFLH6Q0AB03DJ,1SRCH7F014TAHX,1U5X071EXP5ZJG,DJI Fly,,1.12.8,2D744C23-D1D4-88F1-5EE1-E1E2802FB7EB,1SDCH7G0169R0K,,,,,6.972862878,79.9159374,5,,
3/2/2024,00:42.8,0m 4.6s,4.6,6.9728935,79.91594686,1.6,1.6,2.6,58,2,0,0.500194,0,0,0,0,0,0,0.7,0.1,-38.6,321.4,,Tripod,Other,,10,4,TRUE,,Mavic Mini,TRUE,FALSE,,Smart,RC,FALSE,TRUE,FALSE,,,TRUE,,FALSE,FALSE,FALSE,FALSE,FALSE,FALSE,FALSE,FALSE,FALSE,FALSE,0,Follow Yaw,0,0,-37,323,FALSE,FALSE,FALSE,FALSE,FALSE,FALSE,,TRUE,Normal,,100,1024,1024,1258,1024,2,FALSE,FALSE,FALSE,FALSE,FALSE,0,FALSE,FALSE,FALSE,FALSE,96,7.946,1981,2065,7.955,FALSE,3.974,3.972,0.037,FALSE,FALSE,NA,87.8,87.4,87.8,0,0,0,0,5,3860.4,965.12,,Idle,0,20,FALSE,5,TRUE,11,Go Home,FALSE,FALSE,FALSE,FALSE,FALSE,FALSE,FALSE,FALSE,FALSE,FALSE,FALSE,FALSE,6.972893258,79.91594689,0,122,328,TRUE,1,1,FALSE,FALSE,FALSE,FALSE,,TRUE,FALSE,FALSE,Course Lock,49.2,,16.4,Calm,41,,1.12.8,Mavic Mini,1SDCH7G0169R0K,1SFLH6Q0AB03DJ,1SRCH7F014TAHX,1U5X071EXP5ZJG,133.2,0.5,3.2,8.300836,1.342164,0,0,Mavic Mini,1SDCH7G0169R0K,1SFLH6Q0AB03DJ,1SRCH7F014TAHX,1U5X071EXP5ZJG,DJI Fly,,1.12.8,2D744C23-D1D4-88F1-5EE1-E1E2802FB7EB,1SDCH7G0169R0K,,,,,6.972862878,79.9159374,5,,
3/2/2024,00:42.8,0m 4.7s,4.7,6.972893363,79.91594641,1.6,1.6,2.6,58,2.2,0,0.500194,0,0,0,0,0,0,0.2,0.4,-38.4,321.6,,Tripod,Other,,10,4,TRUE,,Mavic Mini,TRUE,FALSE,,Smart,RC,FALSE,TRUE,FALSE,,,TRUE,,FALSE,FALSE,FALSE,FALSE,FALSE,FALSE,FALSE,FALSE,FALSE,FALSE,0,Follow Yaw,0,0,-37,323,FALSE,FALSE,FALSE,FALSE,FALSE,FALSE,,TRUE,Normal,,100,1024,1024,1289,1024,2,FALSE,FALSE,FALSE,FALSE,FALSE,0,FALSE,FALSE,FALSE,FALSE,96,7.946,1981,2065,7.955,FALSE,3.974,3.972,0.037,FALSE,FALSE,NA,87.8,87.4,87.8,0,0,0,0,5,3860.4,965.12,,Idle,0,20,FALSE,5,TRUE,11,Go Home,FALSE,FALSE,FALSE,FALSE,FALSE,FALSE,FALSE,FALSE,FALSE,FALSE,FALSE,FALSE,6.972893258,79.91594689,0.1,122,328,TRUE,1,1,FALSE,FALSE,FALSE,FALSE,,TRUE,FALSE,FALSE,Course Lock,49.2,,16.4,Calm,41,,1.12.8,Mavic Mini,1SDCH7G0169R0K,1SFLH6Q0AB03DJ,1SRCH7F014TAHX,1U5X071EXP5ZJG,133.2,0.5,3.2,8.300836,1.342164,0,0,Mavic Mini,1SDCH7G0169R0K,1SFLH6Q0AB03DJ,1SRCH7F014TAHX,1U5X071EXP5ZJG,DJI Fly,,1.12.8,2D744C23-D1D4-88F1-5EE1-E1E2802FB7EB,1SDCH7G0169R0K,,,,,6.972862878,79.9159374,5,,
3/2/2024,00:43.0,0m 4.8s,4.8,6.972893382,79.91594632,1.6,1.6,2.6,58,2.2,0,0.500194,0,0,0,0,-0.223694,0,0.3,0.2,-38.3,321.7,,Tripod,Other,,10,4,TRUE,,Mavic Mini,TRUE,FALSE,,Smart,RC,FALSE,TRUE,FALSE,,,TRUE,,FALSE,FALSE,FALSE,FALSE,FALSE,FALSE,FALSE,FALSE,FALSE,FALSE,0,Follow Yaw,0,0,-37,323,FALSE,FALSE,FALSE,FALSE,FALSE,FALSE,,TRUE,Normal,,100,1024,1024,1317,1024,2,FALSE,FALSE,FALSE,FALSE,FALSE,0,FALSE,FALSE,FALSE,FALSE,96,7.946,1981,2065,7.934,FALSE,3.974,3.972,0.037,FALSE,FALSE,NA,87.8,87.4,87.8,0,0,0,0,5,3860.4,965.12,,Idle,0,20,FALSE,5,TRUE,11,Go Home,FALSE,FALSE,FALSE,FALSE,FALSE,FALSE,FALSE,FALSE,FALSE,FALSE,FALSE,FALSE,6.972893258,79.91594689,0.2,122,328,TRUE,1,1,FALSE,FALSE,FALSE,FALSE,,TRUE,FALSE,FALSE,Course Lock,49.2,,16.4,Calm,41,,1.12.8,Mavic Mini,1SDCH7G0169R0K,1SFLH6Q0AB03DJ,1SRCH7F014TAHX,1U5X071EXP5ZJG,133.2,0.5,3.2,8.300836,1.342164,0,0,Mavic Mini,1SDCH7G0169R0K,1SFLH6Q0AB03DJ,1SRCH7F014TAHX,1U5X071EXP5ZJG,DJI Fly,,1.12.8,2D744C23-D1D4-88F1-5EE1-E1E2802FB7EB,1SDCH7G0169R0K,,,,,6.972862878,79.9159374,5,,
3/2/2024,00:43.0,0m 4.9s,4.9,6.972893427,79.91594624,1.6,1.6,2.6,58,2.2,0,0.500194,0,0,0,0,-0.447388,0,0.5,0,-38.2,321.8,,Tripod,Other,,10,4,TRUE,,Mavic Mini,TRUE,FALSE,,Smart,RC,FALSE,TRUE,FALSE,,,TRUE,,FALSE,FALSE,FALSE,FALSE,FALSE,FALSE,FALSE,FALSE,FALSE,FALSE,0,Follow Yaw,0,0,-37,323,FALSE,FALSE,FALSE,FALSE,FALSE,FALSE,,TRUE,Normal,,100,1024,1024,1322,1024,2,FALSE,FALSE,FALSE,FALSE,FALSE,0,FALSE,FALSE,FALSE,FALSE,96,7.906,1980,2065,7.934,FALSE,3.956,3.95,0.037,FALSE,FALSE,NA,87.8,87.4,87.8,0,0,0,0,5,3860.4,965.12,,Idle,0,20,FALSE,5,TRUE,11,Go Home,FALSE,FALSE,FALSE,FALSE,FALSE,FALSE,FALSE,FALSE,FALSE,FALSE,FALSE,FALSE,6.972893258,79.91594689,0.2,122,328,TRUE,1,1,FALSE,FALSE,FALSE,FALSE,,TRUE,FALSE,FALSE,Course Lock,49.2,,16.4,Calm,41,,1.12.8,Mavic Mini,1SDCH7G0169R0K,1SFLH6Q0AB03DJ,1SRCH7F014TAHX,1U5X071EXP5ZJG,133.2,0.5,3.2,8.300836,1.342164,0,0,Mavic Mini,1SDCH7G0169R0K,1SFLH6Q0AB03DJ,1SRCH7F014TAHX,1U5X071EXP5ZJG,DJI Fly,,1.12.8,2D744C23-D1D4-88F1-5EE1-E1E2802FB7EB,1SDCH7G0169R0K,,,,,6.972862878,79.9159374,5,,
3/2/2024,00:43.2,0m 5.0s,5,6.972893473,79.91594615,1.9,1.9,2.9,58,2.3,0,0.500194,0,0,0,0,-0.447388,0,0.7,0,-38,322,,Tripod,Other,,10,4,TRUE,,Mavic Mini,TRUE,FALSE,,Smart,RC,FALSE,TRUE,FALSE,,,TRUE,,FALSE,FALSE,FALSE,FALSE,FALSE,FALSE,FALSE,FALSE,FALSE,FALSE,0,Follow Yaw,0,0,-37,323,FALSE,FALSE,FALSE,FALSE,FALSE,FALSE,,TRUE,Normal,,100,1024,1024,1322,1024,2,FALSE,FALSE,FALSE,FALSE,FALSE,0,FALSE,FALSE,FALSE,FALSE,96,7.906,1980,2065,7.934,FALSE,3.956,3.95,0.037,FALSE,FALSE,NA,87.8,87.4,87.8,0,0,0,0,5,3860.4,965.12,,Idle,0,20,FALSE,5,TRUE,11,Go Home,FALSE,FALSE,FALSE,FALSE,FALSE,FALSE,FALSE,FALSE,FALSE,FALSE,FALSE,FALSE,6.972893258,79.91594689,0.2,122,328,TRUE,1,1,FALSE,FALSE,FALSE,FALSE,,TRUE,FALSE,FALSE,Course Lock,49.2,,16.4,Calm,41,,1.12.8,Mavic Mini,1SDCH7G0169R0K,1SFLH6Q0AB03DJ,1SRCH7F014TAHX,1U5X071EXP5ZJG,133.2,0.5,3.2,8.300836,1.342164,0,0,Mavic Mini,1SDCH7G0169R0K,1SFLH6Q0AB03DJ,1SRCH7F014TAHX,1U5X071EXP5ZJG,DJI Fly,,1.12.8,2D744C23-D1D4-88F1-5EE1-E1E2802FB7EB,1SDCH7G0169R0K,,,,,6.972862878,79.9159374,5,,
3/2/2024,00:43.3,0m 5.1s,5.1,6.972893556,79.91594594,1.9,1.9,2.9,58,2.4,0,0.500194,0,0,0,0,-0.671082,0,0.9,0,-37.8,322.2,,Tripod,Other,,10,4,TRUE,,Mavic Mini,TRUE,FALSE,,Smart,RC,FALSE,TRUE,FALSE,,,TRUE,,FALSE,FALSE,FALSE,FALSE,FALSE,FALSE,FALSE,FALSE,FALSE,FALSE,0,Follow Yaw,0,0,-37,323,FALSE,FALSE,FALSE,FALSE,FALSE,FALSE,,TRUE,Normal,,100,1024,1024,1259,1024,2,FALSE,FALSE,FALSE,FALSE,FALSE,0,FALSE,FALSE,FALSE,FALSE,96,7.906,1980,2065,7.934,FALSE,3.956,3.95,0.037,FALSE,FALSE,NA,87.8,87.4,87.8,0,0,0,0,5,3860.4,965.12,,Idle,0,20,FALSE,5,TRUE,11,Go Home,FALSE,FALSE,FALSE,FALSE,FALSE,FALSE,FALSE,FALSE,FALSE,FALSE,FALSE,FALSE,6.972893258,79.91594689,0.3,122,328,TRUE,1,1,FALSE,FALSE,FALSE,FALSE,,TRUE,FALSE,FALSE,Course Lock,49.2,,16.4,Calm,41,,1.12.8,Mavic Mini,1SDCH7G0169R0K,1SFLH6Q0AB03DJ,1SRCH7F014TAHX,1U5X071EXP5ZJG,133.2,0.5,3.2,8.300836,1.342164,0,0,Mavic Mini,1SDCH7G0169R0K,1SFLH6Q0AB03DJ,1SRCH7F014TAHX,1U5X071EXP5ZJG,DJI Fly,,1.12.8,2D744C23-D1D4-88F1-5EE1-E1E2802FB7EB,1SDCH7G0169R0K,,,,,6.972862878,79.9159374,5,,
3/2/2024,00:43.4,0m 5.2s,5.2,6.97289361,79.91594587,1.9,1.9,3.2,58,2.4,0,0.500194,0,0,0,0,-0.894776,0,1.1,0.3,-37.6,322.4,,Tripod,Other,,11,4,TRUE,,Mavic Mini,TRUE,FALSE,,Smart,RC,FALSE,TRUE,FALSE,,,TRUE,,FALSE,FALSE,FALSE,FALSE,FALSE,FALSE,FALSE,FALSE,FALSE,FALSE,0,Follow Yaw,0,0,-37,323,FALSE,FALSE,FALSE,FALSE,FALSE,FALSE,,TRUE,Normal,,100,1024,1024,1211,1024,2,FALSE,FALSE,FALSE,FALSE,FALSE,0,FALSE,FALSE,FALSE,FALSE,96,7.906,1980,2065,7.934,FALSE,3.956,3.95,0.037,FALSE,FALSE,NA,87.8,87.4,87.8,0,0,0,0,5,3860.4,965.12,,Idle,0,20,FALSE,5,TRUE,11,Go Home,FALSE,FALSE,FALSE,FALSE,FALSE,FALSE,FALSE,FALSE,FALSE,FALSE,FALSE,FALSE,6.972893258,79.91594689,0.3,122,328,TRUE,1,1,FALSE,FALSE,FALSE,FALSE,,TRUE,FALSE,FALSE,Course Lock,49.2,,16.4,Calm,41,,1.12.8,Mavic Mini,1SDCH7G0169R0K,1SFLH6Q0AB03DJ,1SRCH7F014TAHX,1U5X071EXP5ZJG,133.2,0.5,3.2,8.300836,1.342164,0,0,Mavic Mini,1SDCH7G0169R0K,1SFLH6Q0AB03DJ,1SRCH7F014TAHX,1U5X071EXP5ZJG,DJI Fly,,1.12.8,2D744C23-D1D4-88F1-5EE1-E1E2802FB7EB,1SDCH7G0169R0K,,,,,6.972862878,79.9159374,5,,
3/2/2024,00:43.5,0m 5.3s,5.3,6.972893668,79.91594583,2.2,2.2,3.2,59,2.4,0,0.500194,0,0,0,0,-0.894776,0,1.3,0.4,-37.5,322.5,,Tripod,Other,,11,4,TRUE,,Mavic Mini,TRUE,FALSE,,Smart,RC,FALSE,TRUE,FALSE,,,TRUE,,FALSE,FALSE,FALSE,FALSE,FALSE,FALSE,FALSE,FALSE,FALSE,FALSE,0,Follow Yaw,0,0,-37,323,FALSE,FALSE,FALSE,FALSE,FALSE,FALSE,,TRUE,Normal,,100,1024,1024,1142,1024,2,FALSE,FALSE,FALSE,FALSE,FALSE,0,FALSE,FALSE,FALSE,FALSE,96,7.906,1980,2065,7.934,FALSE,3.956,3.95,0.037,FALSE,FALSE,NA,87.8,87.4,87.8,0,0,0,0,5,3860.4,965.12,,Idle,0,20,FALSE,5,TRUE,11,Go Home,FALSE,FALSE,FALSE,FALSE,FALSE,FALSE,FALSE,FALSE,FALSE,FALSE,FALSE,FALSE,6.972893258,79.91594689,0.4,122,328,TRUE,1,1,FALSE,FALSE,FALSE,FALSE,,TRUE,FALSE,FALSE,Course Lock,49.2,,16.4,Calm,41,,1.12.8,Mavic Mini,1SDCH7G0169R0K,1SFLH6Q0AB03DJ,1SRCH7F014TAHX,1U5X071EXP5ZJG,133.2,0.5,3.2,8.300836,1.342164,0,0,Mavic Mini,1SDCH7G0169R0K,1SFLH6Q0AB03DJ,1SRCH7F014TAHX,1U5X071EXP5ZJG,DJI Fly,,1.12.8,2D744C23-D1D4-88F1-5EE1-E1E2802FB7EB,1SDCH7G0169R0K,,,,,6.972862878,79.9159374,5,,
