CUSTOM.date [local],CUSTOM.updateTime [local],OSD.flyTime,OSD.flyTime [s],OSD.latitude,OSD.longitude,OSD.height [ft],OSD.heightMax [ft],OSD.vpsHeight [ft],OSD.altitude [ft],OSD.mileage [ft],OSD.hSpeed [MPH],OSD.hSpeedMax [MPH],OSD.xSpeed [MPH],OSD.xSpeedMax [MPH],OSD.ySpeed [MPH],OSD.ySpeedMax [MPH],OSD.zSpeed [MPH],OSD.zSpeedMax [MPH],OSD.pitch,OSD.roll,OSD.yaw,OSD.yaw [360],OSD.directionOfTravel,OSD.flycState,OSD.flycCommand,OSD.flightAction,OSD.gpsNum,OSD.gpsLevel,OSD.isGPSUsed,OSD.nonGPSCause,OSD.droneType,OSD.isSwaveWork,OSD.waveError,OSD.goHomeStatus,OSD.batteryType,OSD.ctrlDevice,OSD.isOnGround,OSD.isMotorOn,OSD.isMotorBlocked,OSD.motorStartFailedCause,OSD.motorFailReason,OSD.isImuPreheated,OSD.imuInitFailReason,OSD.isAcceletorOverRange,OSD.isBarometerDeadInAir,OSD.isCompassError,OSD.isGoHomeHeightModified,OSD.canIOCWork,OSD.isNotEnoughForce,OSD.isOutOfLimit,OSD.isPropellerCatapult,OSD.isVibrating,OSD.isVisionUsed,OSD.voltageWarning,GIMBAL.mode,GIMBAL.pitch,GIMBAL.roll,GIMBAL.yaw,GIMBAL.yaw [360],GIMBAL.isPitchAtLimit,GIMBAL.isRollAtLimit,GIMBAL.isYawAtLimit,GIMBAL.isStuck,CAMERA.isPhoto,CAMERA.isVideo,CAMERA.filename,CAMERA.sdCardIsInserted,CAMERA.sdCardState,RC.downlinkSignal,RC.uplinkSignal,RC.aileron,RC.elevator,RC.throttle,RC.rudder,RC.mode,RC.goHomeDepressed,RC.recordDepressed,RC.shutterDepressed,RC.playbackDepressed,RC.wheelDepressed,RC.wheelOffset,RC.custom1Depressed,RC.custom2Depressed,RC.custom3Depressed,RC.custom4Depressed,BATTERY.chargeLevel,BATTERY.currentPV [V],BATTERY.currentCapacity [mAh],BATTERY.fullCapacity [mAh],BATTERY.voltage [V],BATTERY.isCellVoltageEstimated,BATTERY.cellVoltage1 [V],BATTERY.cellVoltage2 [V],BATTERY.maxCellVoltageDeviation,BATTERY.isCellVoltageDeviationHigh,BATTERY.isVoltageLow,BATTERY.current [A],BATTERY.temperature [F],BATTERY.minTemperature [F],BATTERY.maxTemperature [F],BATTERY.usefulTime [s],BATTERY.goHomeTime [s],BATTERY.landTime [s],BATTERY.goHomeBattery,BATTERY.landBattery,BATTERY.safeFlyRadius,BATTERY.volumeConsume,BATTERY.status,BATTERY.goHomeStatus,BATTERY.goHomeCountdown,BATTERY.lowWarning,BATTERY.lowWarningGoHome,BATTERY.seriousLowWarning,BATTERY.seriousLowWarningLanding,BATTERY.timesCharged,MC.failSafeAction,MC.isObstacleAvoidanceEnabled,MC.isCollisionAvoidanceEnabled,MC.isRthObstacleAvoidanceEnabled,MC.isBraking,MC.isAvoidingObstacle,MC.isAvoidingActiveObstacle,MC.isAscentLimitedByObstacle,MC.isLandingConfirmationNeeded,MC.atLowAltitudeLimit,MC.atDistanceLimit,MC.atAirportAltitudeLimit,MC.atAirportBoundary,HOME.latitude,HOME.longitude,HOME.distance [ft],HOME.height [ft],HOME.heightLimit [ft],HOME.isHomeRecord,HOME.goHomeMode,HOME.aircraftHeadDirection,HOME.isDynamicHomePointEnabled,HOME.isReachedLimitDistance,HOME.isReachedLimitHeight,HOME.isCompassCalibrating,HOME.compassCalibrationState,HOME.isMultipleFlightModeEnabled,HOME.isBeginnerMode,HOME.isIOCEnabled,HOME.iocMode,HOME.goHomeHeight [ft],HOME.courseLockAngle,HOME.forceLandingHeight [ft],HOME.wind,HOME.dataRecorderFileIndex,RECOVER.appType,RECOVER.appVersion,RECOVER.aircraftName,RECOVER.aircraftSerial,RECOVER.cameraSerial,RECOVER.rcSerial,RECOVER.batterySerial,DETAILS.totalTime [s],DETAILS.totalDistance [ft],DETAILS.maxHeight [ft],DETAILS.maxHorizontalSpeed [MPH],DETAILS.maxVerticalSpeed [MPH],DETAILS.photoNum,DETAILS.videoTime [s],DETAILS.aircraftName,DETAILS.aircraftSerial,DETAILS.cameraSerial,DETAILS.rcSerial,DETAILS.batterySerial,DETAILS.appName,DETAILS.appType,DETAILS.appVersion,DETAILS.guid,SERIAL.flightController,SERIAL.camera,SERIAL.gimbal,SERIAL.rc,SERIAL.battery,APPGPS.latitude,APPGPS.longitude,APPGPS.accuracy,APP.tip,APP.warning
2/14/2024,29:45.6,7m 31.1s,451.1,6.974259576,79.91402602,0,0,,50,0,0,0,0,0,0,0,0,0,-2.5,0.1,-50.5,309.5,,Starting Motors,Other,Takeoff (RC Assisted),16,5,TRUE,,Mavic Mini,FALSE,FALSE,,Smart,RC,TRUE,TRUE,FALSE,,,TRUE,,FALSE,FALSE,FALSE,FALSE,FALSE,FALSE,FALSE,FALSE,FALSE,FALSE,0,Follow Yaw,0,0,-39.4,320.6,FALSE,FALSE,FALSE,FALSE,FALSE,FALSE,,TRUE,Normal,,,1024,1024,1024,1024,2,FALSE,FALSE,FALSE,FALSE,FALSE,0,FALSE,FALSE,FALSE,FALSE,64,7.714,1382,2138,7.714,FALSE,3.859,3.855,0.004,FALSE,FALSE,NA,115.3,115.3,115.3,,,,,,,,,Idle,,,TRUE,,FALSE,5,Go Home,FALSE,FALSE,FALSE,FALSE,FALSE,FALSE,FALSE,FALSE,FALSE,FALSE,FALSE,FALSE,,,,,,FALSE,,,FALSE,FALSE,FALSE,FALSE,,FALSE,FALSE,FALSE,,,,,Calm,,,1.12.8,Mavic Mini,1SDCH7G0169R0K,1SFLH6Q0AB03DJ,1SRCH7F014TAHX,1U5X071EXP6C9Y,108.4,0.2,19.6,10.551645,3.579104,0,341,Mavic Mini,1SDCH7G0169R0K,1SFLH6Q0AB03DJ,1SRCH7F014TAHX,1U5X071EXP6C9Y,DJI Fly,,1.12.8,0819B16F-C69B-A5C4-2D4C-D4FC3A1FC05C,1SDCH7G0169R0K,,,,,,,,Flight mode changed to Starting Motors.,
2/14/2024,22:14.6,7m 31.2s,451.2,6.974259588,79.91402598,0,0,,50,0,0,0,0,0,0,0,0,0,-2.5,0.2,-50.5,309.5,,Starting Motors,Other,Takeoff (RC Assisted),16,5,TRUE,,Mavic Mini,FALSE,FALSE,,Smart,RC,TRUE,TRUE,FALSE,,,TRUE,,FALSE,FALSE,FALSE,FALSE,FALSE,FALSE,FALSE,FALSE,FALSE,FALSE,0,Follow Yaw,0,0,-39.4,320.6,FALSE,FALSE,FALSE,FALSE,FALSE,FALSE,,TRUE,Normal,,,1024,1024,1024,1024,2,FALSE,FALSE,FALSE,FALSE,FALSE,0,FALSE,FALSE,FALSE,FALSE,64,7.714,1382,2138,7.714,FALSE,3.859,3.855,0.004,FALSE,FALSE,NA,115.3,115.3,115.3,,,,,,,,,Idle,,,TRUE,,FALSE,5,Go Home,FALSE,FALSE,FALSE,FALSE,FALSE,FALSE,FALSE,FALSE,FALSE,FALSE,FALSE,FALSE,,,,,,FALSE,,,FALSE,FALSE,FALSE,FALSE,,FALSE,FALSE,FALSE,,,,,Calm,,,1.12.8,Mavic Mini,1SDCH7G0169R0K,1SFLH6Q0AB03DJ,1SRCH7F014TAHX,1U5X071EXP6C9Y,108.4,0.2,19.6,10.551645,3.579104,0,341,Mavic Mini,1SDCH7G0169R0K,1SFLH6Q0AB03DJ,1SRCH7F014TAHX,1U5X071EXP6C9Y,DJI Fly,,1.12.8,0819B16F-C69B-A5C4-2D4C-D4FC3A1FC05C,1SDCH7G0169R0K,,,,,,,,,
2/14/2024,22:14.7,7m 31.3s,451.3,6.9742596,79.91402592,0,0,0.3,50,0,0,0,0,0,0,0,0,0,-2.5,0.2,-50.5,309.5,,Starting Motors,Other,Takeoff (RC Assisted),16,5,TRUE,,Mavic Mini,TRUE,FALSE,,Smart,RC,TRUE,TRUE,FALSE,,,TRUE,,FALSE,FALSE,FALSE,FALSE,FALSE,FALSE,FALSE,FALSE,FALSE,FALSE,0,Follow Yaw,0,0,-39.4,320.6,FALSE,FALSE,FALSE,FALSE,FALSE,FALSE,,TRUE,Normal,,,1024,1024,1024,1024,2,FALSE,FALSE,FALSE,FALSE,FALSE,0,FALSE,FALSE,FALSE,FALSE,64,7.714,1382,2138,7.714,FALSE,3.859,3.855,0.004,FALSE,FALSE,NA,115.3,115.3,115.3,,,,,,,,,Idle,,,TRUE,,FALSE,5,Go Home,FALSE,FALSE,FALSE,FALSE,FALSE,FALSE,FALSE,FALSE,FALSE,FALSE,FALSE,FALSE,,,,,,FALSE,,,FALSE,FALSE,FALSE,FALSE,,FALSE,FALSE,FALSE,,,,,Calm,,,1.12.8,Mavic Mini,1SDCH7G0169R0K,1SFLH6Q0AB03DJ,1SRCH7F014TAHX,1U5X071EXP6C9Y,108.4,0.2,19.6,10.551645,3.579104,0,341,Mavic Mini,1SDCH7G0169R0K,1SFLH6Q0AB03DJ,1SRCH7F014TAHX,1U5X071EXP6C9Y,DJI Fly,,1.12.8,0819B16F-C69B-A5C4-2D4C-D4FC3A1FC05C,1SDCH7G0169R0K,,,,,,,,,
2/14/2024,22:14.8,7m 31.4s,451.4,6.974259602,79.91402586,0,0,0.3,50,0,0,0,0,0,0,0,0,0,-2.5,0.1,-50.5,309.5,,Starting Motors,Other,Takeoff (RC Assisted),16,5,TRUE,,Mavic Mini,TRUE,FALSE,,Smart,RC,TRUE,TRUE,FALSE,,,TRUE,,FALSE,FALSE,FALSE,FALSE,FALSE,FALSE,FALSE,FALSE,FALSE,FALSE,0,Follow Yaw,0,0,-39.4,320.6,FALSE,FALSE,FALSE,FALSE,FALSE,FALSE,,TRUE,Normal,,,1024,1024,1024,1024,2,FALSE,FALSE,FALSE,FALSE,FALSE,0,FALSE,FALSE,FALSE,FALSE,64,7.714,1382,2138,7.714,FALSE,3.859,3.855,0.004,FALSE,FALSE,NA,115.3,115.3,115.3,,,,,,,,,Idle,,,TRUE,,FALSE,5,Go Home,FALSE,FALSE,FALSE,FALSE,FALSE,FALSE,FALSE,FALSE,FALSE,FALSE,FALSE,FALSE,,,,,,FALSE,,,FALSE,FALSE,FALSE,FALSE,,FALSE,FALSE,FALSE,,,,,Calm,,,1.12.8,Mavic Mini,1SDCH7G0169R0K,1SFLH6Q0AB03DJ,1SRCH7F014TAHX,1U5X071EXP6C9Y,108.4,0.2,19.6,10.551645,3.579104,0,341,Mavic Mini,1SDCH7G0169R0K,1SFLH6Q0AB03DJ,1SRCH7F014TAHX,1U5X071EXP6C9Y,DJI Fly,,1.12.8,0819B16F-C69B-A5C4-2D4C-D4FC3A1FC05C,1SDCH7G0169R0K,,,,,,,,,
2/14/2024,22:14.9,7m 31.5s,451.5,6.974259591,79.9140258,0,0,0.3,50,0,0,0,0,0,0,0,0,0,-2.5,0.2,-50.5,309.5,,Starting Motors,Other,Takeoff (RC Assisted),16,5,TRUE,,Mavic Mini,TRUE,FALSE,,Smart,RC,TRUE,TRUE,FALSE,,,TRUE,,FALSE,FALSE,FALSE,FALSE,FALSE,FALSE,FALSE,FALSE,FALSE,FALSE,0,Follow Yaw,0,0,-39.4,320.6,FALSE,FALSE,FALSE,FALSE,FALSE,FALSE,,TRUE,Normal,,100,1024,1024,1024,1024,2,FALSE,FALSE,FALSE,FALSE,FALSE,0,FALSE,FALSE,FALSE,FALSE,64,7.714,1382,2138,7.714,FALSE,3.859,3.855,0.004,FALSE,FALSE,NA,115.3,115.3,115.3,,,,,,,,,Idle,,,TRUE,,FALSE,5,Go Home,FALSE,FALSE,FALSE,FALSE,FALSE,FALSE,FALSE,FALSE,FALSE,FALSE,FALSE,FALSE,,,,,,FALSE,,,FALSE,FALSE,FALSE,FALSE,,FALSE,FALSE,FALSE,,,,,Calm,,,1.12.8,Mavic Mini,1SDCH7G0169R0K,1SFLH6Q0AB03DJ,1SRCH7F014TAHX,1U5X071EXP6C9Y,108.4,0.2,19.6,10.551645,3.579104,0,341,Mavic Mini,1SDCH7G0169R0K,1SFLH6Q0AB03DJ,1SRCH7F014TAHX,1U5X071EXP6C9Y,DJI Fly,,1.12.8,0819B16F-C69B-A5C4-2D4C-D4FC3A1FC05C,1SDCH7G0169R0K,,,,,,,,,
2/14/2024,22:15.0,7m 31.6s,451.6,6.974259656,79.91402568,0,0,0.3,50,0.1,0,0,0,0,0,0,0,0,-2.6,0.2,-50.5,309.5,,Starting Motors,Other,Takeoff (RC Assisted),16,5,TRUE,,Mavic Mini,TRUE,FALSE,,Smart,RC,TRUE,TRUE,FALSE,,,TRUE,,FALSE,FALSE,FALSE,FALSE,FALSE,FALSE,FALSE,FALSE,FALSE,FALSE,0,Follow Yaw,0,0,-39.4,320.6,FALSE,FALSE,FALSE,FALSE,FALSE,FALSE,,TRUE,Normal,,100,1024,1024,1024,1024,2,FALSE,FALSE,FALSE,FALSE,FALSE,0,FALSE,FALSE,FALSE,FALSE,64,7.714,1382,2138,7.714,FALSE,3.859,3.855,0.004,FALSE,FALSE,NA,115.3,115.3,115.3,,,,,,,,,Idle,,,TRUE,,FALSE,5,Go Home,FALSE,FALSE,FALSE,FALSE,FALSE,FALSE,FALSE,FALSE,FALSE,FALSE,FALSE,FALSE,,,,,,FALSE,,,FALSE,FALSE,FALSE,FALSE,,FALSE,FALSE,FALSE,,,,,Calm,,,1.12.8,Mavic Mini,1SDCH7G0169R0K,1SFLH6Q0AB03DJ,1SRCH7F014TAHX,1U5X071EXP6C9Y,108.4,0.2,19.6,10.551645,3.579104,0,341,Mavic Mini,1SDCH7G0169R0K,1SFLH6Q0AB03DJ,1SRCH7F014TAHX,1U5X071EXP6C9Y,DJI Fly,,1.12.8,0819B16F-C69B-A5C4-2D4C-D4FC3A1FC05C,1SDCH7G0169R0K,,,,,,,,,
2/14/2024,22:15.1,7m 31.7s,451.7,6.974259659,79.91402562,0,0,0.3,50,0.1,0,0,0,0,0,0,0,0,-2.5,0.1,-50.3,309.7,,Starting Motors,Other,Takeoff (RC Assisted),16,5,TRUE,,Mavic Mini,TRUE,FALSE,,Smart,RC,TRUE,TRUE,FALSE,,,TRUE,,FALSE,FALSE,FALSE,FALSE,FALSE,FALSE,FALSE,FALSE,FALSE,FALSE,0,Follow Yaw,0,0,-39.4,320.6,FALSE,FALSE,FALSE,FALSE,FALSE,FALSE,,TRUE,Normal,,100,1024,1024,1024,1024,2,FALSE,FALSE,FALSE,FALSE,FALSE,0,FALSE,FALSE,FALSE,FALSE,64,7.714,1382,2138,7.714,FALSE,3.859,3.855,0.004,FALSE,FALSE,NA,115.3,115.3,115.3,,,,,,,,,Idle,,,TRUE,,FALSE,5,Go Home,FALSE,FALSE,FALSE,FALSE,FALSE,FALSE,FALSE,FALSE,FALSE,FALSE,FALSE,FALSE,,,,,,FALSE,,,FALSE,FALSE,FALSE,FALSE,,FALSE,FALSE,FALSE,,,,,Calm,,,1.12.8,Mavic Mini,1SDCH7G0169R0K,1SFLH6Q0AB03DJ,1SRCH7F014TAHX,1U5X071EXP6C9Y,108.4,0.2,19.6,10.551645,3.579104,0,341,Mavic Mini,1SDCH7G0169R0K,1SFLH6Q0AB03DJ,1SRCH7F014TAHX,1U5X071EXP6C9Y,DJI Fly,,1.12.8,0819B16F-C69B-A5C4-2D4C-D4FC3A1FC05C,1SDCH7G0169R0K,,,,,,,,,
2/14/2024,22:15.2,7m 31.8s,451.8,6.974259638,79.9140256,0,0,0.3,50,0.1,0,0,0,0,0,0,0,0,-2.5,0.1,-50.3,309.7,,Starting Motors,Other,Takeoff (RC Assisted),16,5,TRUE,,Mavic Mini,TRUE,FALSE,,Smart,RC,TRUE,TRUE,FALSE,,,TRUE,,FALSE,FALSE,FALSE,FALSE,FALSE,FALSE,FALSE,FALSE,FALSE,FALSE,0,Follow Yaw,0,0,-39.3,320.7,FALSE,FALSE,FALSE,FALSE,FALSE,FALSE,,TRUE,Normal,,100,1024,1024,1024,1024,2,FALSE,FALSE,FALSE,FALSE,FALSE,0,FALSE,FALSE,FALSE,FALSE,64,7.714,1382,2138,7.701,FALSE,3.859,3.855,0.004,FALSE,FALSE,NA,115.3,115.3,115.3,0,0,0,0,5,2928,732.01,,Idle,0,20,FALSE,5,TRUE,5,Go Home,FALSE,FALSE,FALSE,FALSE,FALSE,FALSE,FALSE,FALSE,FALSE,FALSE,FALSE,FALSE,6.97426065,79.91402563,0.3,135.6,328,TRUE,1,1,FALSE,FALSE,FALSE,FALSE,,TRUE,FALSE,FALSE,Course Lock,246,,16.4,Calm,25,,1.12.8,Mavic Mini,1SDCH7G0169R0K,1SFLH6Q0AB03DJ,1SRCH7F014TAHX,1U5X071EXP6C9Y,108.4,0.2,19.6,10.551645,3.579104,0,341,Mavic Mini,1SDCH7G0169R0K,1SFLH6Q0AB03DJ,1SRCH7F014TAHX,1U5X071EXP6C9Y,DJI Fly,,1.12.8,0819B16F-C69B-A5C4-2D4C-D4FC3A1FC05C,1SDCH7G0169R0K,,,,,,,,Data Recorder File Index is 25.; Set Return to Home (RTH) altitude to 75 m (246 ft).; Set maximum flight altitude to 100 m (328 ft).,
2/14/2024,22:15.3,7m 31.9s,451.9,6.974259588,79.91402559,0,0,0.3,50,0.1,0,0,0,0,0,0,0,0,-2.4,0.1,-50.4,309.6,,Starting Motors,Other,Takeoff (RC Assisted),16,5,TRUE,,Mavic Mini,TRUE,FALSE,,Smart,RC,TRUE,TRUE,FALSE,,,TRUE,,FALSE,FALSE,FALSE,FALSE,FALSE,FALSE,FALSE,FALSE,FALSE,FALSE,0,Follow Yaw,0,0,-39.3,320.7,FALSE,FALSE,FALSE,FALSE,FALSE,FALSE,,TRUE,Normal,,100,1024,1024,1024,1024,2,FALSE,FALSE,FALSE,FALSE,FALSE,0,FALSE,FALSE,FALSE,FALSE,64,7.714,1382,2138,7.701,FALSE,3.859,3.855,0.004,FALSE,FALSE,NA,115.3,115.3,115.3,0,0,0,0,5,2928,732.01,,Idle,0,20,FALSE,5,TRUE,5,Go Home,FALSE,FALSE,FALSE,FALSE,FALSE,FALSE,FALSE,FALSE,FALSE,FALSE,FALSE,FALSE,6.97426065,79.91402563,0.3,135.6,328,TRUE,1,1,FALSE,FALSE,FALSE,FALSE,,TRUE,FALSE,FALSE,Course Lock,246,,16.4,Calm,25,,1.12.8,Mavic Mini,1SDCH7G0169R0K,1SFLH6Q0AB03DJ,1SRCH7F014TAHX,1U5X071EXP6C9Y,108.4,0.2,19.6,10.551645,3.579104,0,341,Mavic Mini,1SDCH7G0169R0K,1SFLH6Q0AB03DJ,1SRCH7F014TAHX,1U5X071EXP6C9Y,DJI Fly,,1.12.8,0819B16F-C69B-A5C4-2D4C-D4FC3A1FC05C,1SDCH7G0169R0K,,,,,,,,,
2/14/2024,22:15.3,7m 32.0s,452,6.974259544,79.91402562,0,0,0.3,50,0.1,0,0,0,0,0,0,0,0,-2.5,0.1,-50.3,309.7,,Starting Motors,Other,Takeoff (RC Assisted),16,5,TRUE,,Mavic Mini,TRUE,FALSE,,Smart,RC,TRUE,TRUE,FALSE,,,TRUE,,FALSE,FALSE,FALSE,FALSE,FALSE,FALSE,FALSE,FALSE,FALSE,FALSE,0,Follow Yaw,0,0,-39.3,320.7,FALSE,FALSE,FALSE,FALSE,FALSE,FALSE,,TRUE,Normal,,100,1024,1024,1024,1024,2,FALSE,FALSE,FALSE,FALSE,FALSE,0,FALSE,FALSE,FALSE,FALSE,64,7.714,1382,2138,7.701,FALSE,3.859,3.855,0.004,FALSE,FALSE,NA,115.3,115.3,115.3,0,0,0,0,5,2928,732.01,,Idle,0,20,FALSE,5,TRUE,5,Go Home,FALSE,FALSE,FALSE,FALSE,FALSE,FALSE,FALSE,FALSE,FALSE,FALSE,FALSE,FALSE,6.97426065,79.91402563,0.4,135.6,328,TRUE,1,1,FALSE,FALSE,FALSE,FALSE,,TRUE,FALSE,FALSE,Course Lock,246,,16.4,Calm,25,,1.12.8,Mavic Mini,1SDCH7G0169R0K,1SFLH6Q0AB03DJ,1SRCH7F014TAHX,1U5X071EXP6C9Y,108.4,0.2,19.6,10.551645,3.579104,0,341,Mavic Mini,1SDCH7G0169R0K,1SFLH6Q0AB03DJ,1SRCH7F014TAHX,1U5X071EXP6C9Y,DJI Fly,,1.12.8,0819B16F-C69B-A5C4-2D4C-D4FC3A1FC05C,1SDCH7G0169R0K,,,,,,,,,
2/14/2024,22:15.4,7m 32.1s,452.1,6.974259531,79.91402558,0,0,0.3,50,0.2,0,0,0,0,0,0,0,0,-2.6,0.1,-50.4,309.6,,Starting Motors,Other,Takeoff (RC Assisted),16,5,TRUE,,Mavic Mini,TRUE,FALSE,,Smart,RC,TRUE,TRUE,FALSE,,,TRUE,,FALSE,FALSE,FALSE,FALSE,FALSE,FALSE,FALSE,FALSE,FALSE,FALSE,0,Follow Yaw,0,0,-39.3,320.7,FALSE,FALSE,FALSE,FALSE,FALSE,FALSE,,TRUE,Normal,,100,1024,1024,1024,1024,2,FALSE,FALSE,FALSE,FALSE,FALSE,0,FALSE,FALSE,FALSE,FALSE,64,7.714,1382,2138,7.701,FALSE,3.859,3.855,0.004,FALSE,FALSE,NA,115.3,115.3,115.3,0,0,0,0,5,2928,732.01,,Idle,0,20,FALSE,5,TRUE,5,Go Home,FALSE,FALSE,FALSE,FALSE,FALSE,FALSE,FALSE,FALSE,FALSE,FALSE,FALSE,FALSE,6.97426065,79.91402563,0.4,135.6,328,TRUE,1,1,FALSE,FALSE,FALSE,FALSE,,TRUE,FALSE,FALSE,Course Lock,246,,16.4,Calm,25,,1.12.8,Mavic Mini,1SDCH7G0169R0K,1SFLH6Q0AB03DJ,1SRCH7F014TAHX,1U5X071EXP6C9Y,108.4,0.2,19.6,10.551645,3.579104,0,341,Mavic Mini,1SDCH7G0169R0K,1SFLH6Q0AB03DJ,1SRCH7F014TAHX,1U5X071EXP6C9Y,DJI Fly,,1.12.8,0819B16F-C69B-A5C4-2D4C-D4FC3A1FC05C,1SDCH7G0169R0K,,,,,,,,,
2/14/2024,22:15.6,7m 32.2s,452.2,6.974259526,79.91402554,0,0,0.3,50,0.2,0,0,0,0,0,0,0,0,-2.5,0.1,-50.4,309.6,,Manual Takeoff,Other,Takeoff (RC Assisted),16,5,TRUE,,Mavic Mini,TRUE,FALSE,,Smart,RC,TRUE,TRUE,FALSE,,,TRUE,,FALSE,FALSE,FALSE,FALSE,FALSE,FALSE,FALSE,FALSE,FALSE,FALSE,0,Follow Yaw,0,0,-39.3,320.7,FALSE,FALSE,FALSE,FALSE,FALSE,FALSE,,TRUE,Normal,,100,1024,1024,1024,1024,2,FALSE,FALSE,FALSE,FALSE,FALSE,0,FALSE,FALSE,FALSE,FALSE,64,7.696,1382,2138,7.701,FALSE,3.848,3.848,0.004,FALSE,FALSE,NA,115.3,115.3,115.3,0,0,0,0,5,2928,732.01,,Idle,0,20,FALSE,5,TRUE,5,Go Home,FALSE,FALSE,FALSE,FALSE,FALSE,FALSE,FALSE,FALSE,FALSE,FALSE,FALSE,FALSE,6.97426065,79.91402563,0.4,135.6,328,TRUE,1,1,FALSE,FALSE,FALSE,FALSE,,TRUE,FALSE,FALSE,Course Lock,246,,16.4,Calm,25,,1.12.8,Mavic Mini,1SDCH7G0169R0K,1SFLH6Q0AB03DJ,1SRCH7F014TAHX,1U5X071EXP6C9Y,108.4,0.2,19.6,10.551645,3.579104,0,341,Mavic Mini,1SDCH7G0169R0K,1SFLH6Q0AB03DJ,1SRCH7F014TAHX,1U5X071EXP6C9Y,DJI Fly,,1.12.8,0819B16F-C69B-A5C4-2D4C-D4FC3A1FC05C,1SDCH7G0169R0K,,,,,,,,Flight mode changed to Manual Takeoff.,
2/14/2024,22:15.7,7m 32.3s,452.3,6.974259526,79.91402548,0,0,0.3,50,0.2,0,0,0,0,0,0,0,0,-2.5,0.1,-50.3,309.7,,Manual Takeoff,Other,Takeoff (RC Assisted),16,5,TRUE,,Mavic Mini,TRUE,FALSE,,Smart,RC,TRUE,TRUE,FALSE,,,TRUE,,FALSE,FALSE,FALSE,FALSE,FALSE,FALSE,FALSE,FALSE,FALSE,FALSE,0,Follow Yaw,0,0,-39.3,320.7,FALSE,FALSE,FALSE,FALSE,FALSE,FALSE,,TRUE,Normal,,100,1024,1024,1024,1024,2,FALSE,FALSE,FALSE,FALSE,FALSE,0,FALSE,FALSE,FALSE,FALSE,64,7.696,1382,2138,7.701,FALSE,3.848,3.848,0.004,FALSE,FALSE,NA,115.3,115.3,115.3,0,0,0,0,5,2928,732.01,,Idle,0,20,FALSE,5,TRUE,5,Go Home,FALSE,FALSE,FALSE,FALSE,FALSE,FALSE,FALSE,FALSE,FALSE,FALSE,FALSE,FALSE,6.97426065,79.91402563,0.4,135.6,328,TRUE,1,1,FALSE,FALSE,FALSE,FALSE,,TRUE,FALSE,FALSE,Course Lock,246,,16.4,Calm,25,,1.12.8,Mavic Mini,1SDCH7G0169R0K,1SFLH6Q0AB03DJ,1SRCH7F014TAHX,1U5X071EXP6C9Y,108.4,0.2,19.6,10.551645,3.579104,0,341,Mavic Mini,1SDCH7G0169R0K,1SFLH6Q0AB03DJ,1SRCH7F014TAHX,1U5X071EXP6C9Y,DJI Fly,,1.12.8,0819B16F-C69B-A5C4-2D4C-D4FC3A1FC05C,1SDCH7G0169R0K,,,,,,,,,
2/14/2024,22:15.8,7m 32.4s,452.4,6.974259529,79.91402545,0,0,0.3,50,0.2,0,0,0,0,0,0,0,0,-2.5,0.1,-50.3,309.7,,Manual Takeoff,Other,Takeoff (RC Assisted),16,5,TRUE,,Mavic Mini,TRUE,FALSE,,Smart,RC,TRUE,TRUE,FALSE,,,TRUE,,FALSE,FALSE,FALSE,FALSE,FALSE,FALSE,FALSE,FALSE,FALSE,FALSE,0,Follow Yaw,0,0,-39.3,320.7,FALSE,FALSE,FALSE,FALSE,FALSE,FALSE,,TRUE,Normal,,100,1024,1024,1024,1024,2,FALSE,FALSE,FALSE,FALSE,FALSE,0,FALSE,FALSE,FALSE,FALSE,64,7.696,1382,2138,7.701,FALSE,3.848,3.848,0.004,FALSE,FALSE,NA,115.3,115.3,115.3,0,0,0,0,5,2928,732.01,,Idle,0,20,FALSE,5,TRUE,5,Go Home,FALSE,FALSE,FALSE,FALSE,FALSE,FALSE,FALSE,FALSE,FALSE,FALSE,FALSE,FALSE,6.97426065,79.91402563,0.4,135.6,328,TRUE,1,1,FALSE,FALSE,FALSE,FALSE,,TRUE,FALSE,FALSE,Course Lock,246,,16.4,Calm,25,,1.12.8,Mavic Mini,1SDCH7G0169R0K,1SFLH6Q0AB03DJ,1SRCH7F014TAHX,1U5X071EXP6C9Y,108.4,0.2,19.6,10.551645,3.579104,0,341,Mavic Mini,1SDCH7G0169R0K,1SFLH6Q0AB03DJ,1SRCH7F014TAHX,1U5X071EXP6C9Y,DJI Fly,,1.12.8,0819B16F-C69B-A5C4-2D4C-D4FC3A1FC05C,1SDCH7G0169R0K,,,,,,,,,
2/14/2024,22:16.0,7m 32.5s,452.5,6.974259599,79.91402548,0,0,0.3,50,0.2,0,0,0,0,0,0,0,0,-2.5,0.1,-50.4,309.6,,Manual Takeoff,Other,Takeoff (RC Assisted),16,5,TRUE,,Mavic Mini,TRUE,FALSE,,Smart,RC,TRUE,TRUE,FALSE,,,TRUE,,FALSE,FALSE,FALSE,FALSE,FALSE,FALSE,FALSE,FALSE,FALSE,FALSE,0,Follow Yaw,0,0,-39.3,320.7,FALSE,FALSE,FALSE,FALSE,FALSE,FALSE,,TRUE,Normal,,100,1024,1024,1039,1024,2,FALSE,FALSE,FALSE,FALSE,FALSE,0,FALSE,FALSE,FALSE,FALSE,64,7.696,1382,2138,7.701,FALSE,3.848,3.848,0.004,FALSE,FALSE,NA,115.3,115.3,115.3,0,0,0,0,5,2928,732.01,,Idle,0,20,FALSE,5,TRUE,5,Go Home,FALSE,FALSE,FALSE,FALSE,FALSE,FALSE,FALSE,FALSE,FALSE,FALSE,FALSE,FALSE,6.97426065,79.91402563,0.3,135.6,328,TRUE,1,1,FALSE,FALSE,FALSE,FALSE,,TRUE,FALSE,FALSE,Course Lock,246,,16.4,Calm,25,,1.12.8,Mavic Mini,1SDCH7G0169R0K,1SFLH6Q0AB03DJ,1SRCH7F014TAHX,1U5X071EXP6C9Y,108.4,0.2,19.6,10.551645,3.579104,0,341,Mavic Mini,1SDCH7G0169R0K,1SFLH6Q0AB03DJ,1SRCH7F014TAHX,1U5X071EXP6C9Y,DJI Fly,,1.12.8,0819B16F-C69B-A5C4-2D4C-D4FC3A1FC05C,1SDCH7G0169R0K,,,,,,,,,
2/14/2024,22:16.0,7m 32.6s,452.6,6.974259602,79.91402546,0,0,0.3,50,0.2,0,0,0,0,0,0,0,0,-2.5,0.1,-50.4,309.6,,Manual Takeoff,Other,Takeoff (RC Assisted),16,5,TRUE,,Mavic Mini,TRUE,FALSE,,Smart,RC,TRUE,TRUE,FALSE,,,TRUE,,FALSE,FALSE,FALSE,FALSE,FALSE,FALSE,FALSE,FALSE,FALSE,FALSE,0,Follow Yaw,0,0,-39.3,320.7,FALSE,FALSE,FALSE,FALSE,FALSE,FALSE,,TRUE,Normal,,100,1024,1024,1039,1024,2,FALSE,FALSE,FALSE,FALSE,FALSE,0,FALSE,FALSE,FALSE,FALSE,64,7.696,1382,2138,7.701,FALSE,3.848,3.848,0.004,FALSE,FALSE,NA,115.3,115.3,115.3,0,0,0,0,5,2928,732.01,,Idle,0,20,FALSE,5,TRUE,5,Go Home,FALSE,FALSE,FALSE,FALSE,FALSE,FALSE,FALSE,FALSE,FALSE,FALSE,FALSE,FALSE,6.97426065,79.91402563,0.3,135.6,328,TRUE,1,1,FALSE,FALSE,FALSE,FALSE,,TRUE,FALSE,FALSE,Course Lock,246,,16.4,Calm,25,,1.12.8,Mavic Mini,1SDCH7G0169R0K,1SFLH6Q0AB03DJ,1SRCH7F014TAHX,1U5X071EXP6C9Y,108.4,0.2,19.6,10.551645,3.579104,0,341,Mavic Mini,1SDCH7G0169R0K,1SFLH6Q0AB03DJ,1SRCH7F014TAHX,1U5X071EXP6C9Y,DJI Fly,,1.12.8,0819B16F-C69B-A5C4-2D4C-D4FC3A1FC05C,1SDCH7G0169R0K,,,,,,,,,
2/14/2024,22:16.1,7m 32.7s,452.7,6.974259603,79.91402542,0,0,0.3,50,0.2,0,0,0,0,0,0,0,0,-2.5,0.1,-50.3,309.7,,Manual Takeoff,Other,Takeoff (RC Assisted),16,5,TRUE,,Mavic Mini,TRUE,FALSE,,Smart,RC,TRUE,TRUE,FALSE,,,TRUE,,FALSE,FALSE,FALSE,FALSE,FALSE,FALSE,FALSE,FALSE,FALSE,FALSE,0,Follow Yaw,0,0,-39.3,320.7,FALSE,FALSE,FALSE,FALSE,FALSE,FALSE,,TRUE,Normal,,100,1024,1024,1064,1024,2,FALSE,FALSE,FALSE,FALSE,FALSE,0,FALSE,FALSE,FALSE,FALSE,64,7.696,1382,2138,7.701,FALSE,3.848,3.848,0.004,FALSE,FALSE,NA,115.3,115.3,115.3,0,0,0,0,5,2928,732.01,,Idle,0,20,FALSE,5,TRUE,5,Go Home,FALSE,FALSE,FALSE,FALSE,FALSE,FALSE,FALSE,FALSE,FALSE,FALSE,FALSE,FALSE,6.97426065,79.91402563,0.3,135.6,328,TRUE,1,1,FALSE,FALSE,FALSE,FALSE,,TRUE,FALSE,FALSE,Course Lock,246,,16.4,Calm,25,,1.12.8,Mavic Mini,1SDCH7G0169R0K,1SFLH6Q0AB03DJ,1SRCH7F014TAHX,1U5X071EXP6C9Y,108.4,0.2,19.6,10.551645,3.579104,0,341,Mavic Mini,1SDCH7G0169R0K,1SFLH6Q0AB03DJ,1SRCH7F014TAHX,1U5X071EXP6C9Y,DJI Fly,,1.12.8,0819B16F-C69B-A5C4-2D4C-D4FC3A1FC05C,1SDCH7G0169R0K,,,,,,,,,
2/14/2024,22:16.2,7m 32.8s,452.8,6.974259604,79.91402538,0,0,0.3,50,0.3,0,0,0,0,0,0,0,0,-2.5,0.1,-50.3,309.7,,Manual Takeoff,Other,Takeoff (RC Assisted),16,5,TRUE,,Mavic Mini,TRUE,FALSE,,Smart,RC,TRUE,TRUE,FALSE,,,TRUE,,FALSE,FALSE,FALSE,FALSE,FALSE,FALSE,FALSE,FALSE,FALSE,FALSE,0,Follow Yaw,0,0,-39.3,320.7,FALSE,FALSE,FALSE,FALSE,FALSE,FALSE,,TRUE,Normal,,100,1024,1024,1297,1024,2,FALSE,FALSE,FALSE,FALSE,FALSE,0,FALSE,FALSE,FALSE,FALSE,64,7.696,1382,2138,7.701,FALSE,3.848,3.848,0.004,FALSE,FALSE,NA,115.3,115.3,115.3,0,0,0,0,5,2931.5,732.89,,Idle,0,20,FALSE,5,TRUE,5,Go Home,FALSE,FALSE,FALSE,FALSE,FALSE,FALSE,FALSE,FALSE,FALSE,FALSE,FALSE,FALSE,6.97426065,79.91402563,0.3,135.6,328,TRUE,1,1,FALSE,FALSE,FALSE,FALSE,,TRUE,FALSE,FALSE,Course Lock,246,,16.4,Calm,25,,1.12.8,Mavic Mini,1SDCH7G0169R0K,1SFLH6Q0AB03DJ,1SRCH7F014TAHX,1U5X071EXP6C9Y,108.4,0.2,19.6,10.551645,3.579104,0,341,Mavic Mini,1SDCH7G0169R0K,1SFLH6Q0AB03DJ,1SRCH7F014TAHX,1U5X071EXP6C9Y,DJI Fly,,1.12.8,0819B16F-C69B-A5C4-2D4C-D4FC3A1FC05C,1SDCH7G0169R0K,,,,,,,,,
2/14/2024,22:16.3,7m 32.9s,452.9,6.974259634,79.91402527,0,0,0.3,50,0.3,0,0,0,0,0,0,0,0,-2.5,0.1,-50.3,309.7,,Manual Takeoff,Other,Takeoff (RC Assisted),16,5,TRUE,,Mavic Mini,TRUE,FALSE,,Smart,RC,TRUE,TRUE,FALSE,,,TRUE,,FALSE,FALSE,FALSE,FALSE,FALSE,FALSE,FALSE,FALSE,FALSE,FALSE,0,Follow Yaw,0,0,-39.3,320.7,FALSE,FALSE,FALSE,FALSE,FALSE,FALSE,,TRUE,Normal,,100,1024,1024,1362,1024,2,FALSE,FALSE,FALSE,FALSE,FALSE,0,FALSE,FALSE,FALSE,FALSE,64,7.696,1382,2138,7.701,FALSE,3.848,3.848,0.004,FALSE,FALSE,NA,115.3,115.3,115.3,0,0,0,0,5,2931.5,732.89,,Idle,0,20,FALSE,5,TRUE,5,Go Home,FALSE,FALSE,FALSE,FALSE,FALSE,FALSE,FALSE,FALSE,FALSE,FALSE,FALSE,FALSE,6.97426065,79.91402563,0.3,135.6,328,TRUE,1,1,FALSE,FALSE,FALSE,FALSE,,TRUE,FALSE,FALSE,Course Lock,246,,16.4,Calm,25,,1.12.8,Mavic Mini,1SDCH7G0169R0K,1SFLH6Q0AB03DJ,1SRCH7F014TAHX,1U5X071EXP6C9Y,108.4,0.2,19.6,10.551645,3.579104,0,341,Mavic Mini,1SDCH7G0169R0K,1SFLH6Q0AB03DJ,1SRCH7F014TAHX,1U5X071EXP6C9Y,DJI Fly,,1.12.8,0819B16F-C69B-A5C4-2D4C-D4FC3A1FC05C,1SDCH7G0169R0K,,,,,,,,,
2/14/2024,22:16.4,7m 33.0s,453,6.974259606,79.91402524,0,0,0.3,50,0.3,0,0,0,0,0,0,0,0,-2.5,0,-50.3,309.7,,Manual Takeoff,Other,Takeoff (RC Assisted),16,5,TRUE,,Mavic Mini,TRUE,FALSE,,Smart,RC,TRUE,TRUE,FALSE,,,TRUE,,FALSE,FALSE,FALSE,FALSE,FALSE,FALSE,FALSE,FALSE,FALSE,FALSE,0,Follow Yaw,0,0,-39.3,320.7,FALSE,FALSE,FALSE,FALSE,FALSE,FALSE,,TRUE,Normal,,100,1024,1024,1362,1024,2,FALSE,FALSE,FALSE,FALSE,FALSE,0,FALSE,FALSE,FALSE,FALSE,64,7.696,1382,2138,7.701,FALSE,3.848,3.848,0.004,FALSE,FALSE,NA,115.3,115.3,115.3,0,0,0,0,5,2931.5,732.89,,Idle,0,20,FALSE,5,TRUE,5,Go Home,FALSE,FALSE,FALSE,FALSE,FALSE,FALSE,FALSE,FALSE,FALSE,FALSE,FALSE,FALSE,6.97426065,79.91402563,0.4,135.6,328,TRUE,1,1,FALSE,FALSE,FALSE,FALSE,,TRUE,FALSE,FALSE,Course Lock,246,,16.4,Calm,25,,1.12.8,Mavic Mini,1SDCH7G0169R0K,1SFLH6Q0AB03DJ,1SRCH7F014TAHX,1U5X071EXP6C9Y,108.4,0.2,19.6,10.551645,3.579104,0,341,Mavic Mini,1SDCH7G0169R0K,1SFLH6Q0AB03DJ,1SRCH7F014TAHX,1U5X071EXP6C9Y,DJI Fly,,1.12.8,0819B16F-C69B-A5C4-2D4C-D4FC3A1FC05C,1SDCH7G0169R0K,,,,,,,,,
2/14/2024,22:16.5,7m 33.1s,453.1,6.97425955,79.91402523,0,0,0.3,50,0.3,0,0,0,0,0,0,0,0,-2.4,0,-50.3,309.7,,Manual Takeoff,Other,Takeoff (RC Assisted),16,5,TRUE,,Mavic Mini,TRUE,FALSE,,Smart,RC,TRUE,TRUE,FALSE,,,TRUE,,FALSE,FALSE,FALSE,FALSE,FALSE,FALSE,FALSE,FALSE,FALSE,FALSE,0,Follow Yaw,0,0,-39.3,320.7,FALSE,FALSE,FALSE,FALSE,FALSE,FALSE,,TRUE,Normal,,100,1024,1024,1362,1024,2,FALSE,FALSE,FALSE,FALSE,FALSE,0,FALSE,FALSE,FALSE,FALSE,64,7.696,1382,2138,7.701,FALSE,3.848,3.848,0.004,FALSE,FALSE,NA,115.3,115.3,115.3,0,0,0,0,5,2931.5,732.89,,Idle,0,20,FALSE,5,TRUE,5,Go Home,FALSE,FALSE,FALSE,FALSE,FALSE,FALSE,FALSE,FALSE,FALSE,FALSE,FALSE,FALSE,6.97426065,79.91402563,0.4,135.6,328,TRUE,1,1,FALSE,FALSE,FALSE,FALSE,,TRUE,FALSE,FALSE,Course Lock,246,,16.4,Calm,25,,1.12.8,Mavic Mini,1SDCH7G0169R0K,1SFLH6Q0AB03DJ,1SRCH7F014TAHX,1U5X071EXP6C9Y,108.4,0.2,19.6,10.551645,3.579104,0,341,Mavic Mini,1SDCH7G0169R0K,1SFLH6Q0AB03DJ,1SRCH7F014TAHX,1U5X071EXP6C9Y,DJI Fly,,1.12.8,0819B16F-C69B-A5C4-2D4C-D4FC3A1FC05C,1SDCH7G0169R0K,,,,,6.974277743,79.91401048,5,,
2/14/2024,22:16.5,7m 33.2s,453.2,6.974259512,79.91402521,0,0,0.3,50,0.4,0,0,0,0,0,0,0,0,-2.2,-0.1,-50.5,309.5,,Manual Takeoff,Other,Takeoff (RC Assisted),16,5,TRUE,,Mavic Mini,TRUE,FALSE,,Smart,RC,TRUE,TRUE,FALSE,,,TRUE,,FALSE,FALSE,FALSE,FALSE,FALSE,FALSE,FALSE,FALSE,FALSE,FALSE,0,Follow Yaw,0,0,-39.2,320.8,FALSE,FALSE,FALSE,FALSE,FALSE,FALSE,,TRUE,Normal,,100,1024,1024,1361,1024,2,FALSE,FALSE,FALSE,FALSE,FALSE,0,FALSE,FALSE,FALSE,FALSE,64,7.696,1382,2138,7.701,FALSE,3.848,3.848,0.004,FALSE,FALSE,NA,115.3,115.3,115.3,0,0,0,0,5,2931.5,732.89,,Idle,0,20,FALSE,5,TRUE,5,Go Home,FALSE,FALSE,FALSE,FALSE,FALSE,FALSE,FALSE,FALSE,FALSE,FALSE,FALSE,FALSE,6.97426065,79.91402563,0.4,135.6,328,TRUE,1,1,FALSE,FALSE,FALSE,FALSE,,TRUE,FALSE,FALSE,Course Lock,246,,16.4,Calm,25,,1.12.8,Mavic Mini,1SDCH7G0169R0K,1SFLH6Q0AB03DJ,1SRCH7F014TAHX,1U5X071EXP6C9Y,108.4,0.2,19.6,10.551645,3.579104,0,341,Mavic Mini,1SDCH7G0169R0K,1SFLH6Q0AB03DJ,1SRCH7F014TAHX,1U5X071EXP6C9Y,DJI Fly,,1.12.8,0819B16F-C69B-A5C4-2D4C-D4FC3A1FC05C,1SDCH7G0169R0K,,,,,6.974277743,79.91401048,5,,
2/14/2024,22:16.7,7m 33.3s,453.3,6.974259437,79.9140252,0,0,0.3,50,0.4,0,0,0,0,0,0,0,0,-2.4,-0.2,-50.5,309.5,,Manual Takeoff,Other,Takeoff (RC Assisted),16,5,TRUE,,Mavic Mini,TRUE,FALSE,,Smart,RC,TRUE,TRUE,FALSE,,,TRUE,,FALSE,FALSE,FALSE,FALSE,FALSE,FALSE,FALSE,FALSE,FALSE,FALSE,0,Follow Yaw,0,0,-39.3,320.7,FALSE,FALSE,FALSE,FALSE,FALSE,FALSE,,TRUE,Normal,,100,1024,1024,1359,1024,2,FALSE,FALSE,FALSE,FALSE,FALSE,0,FALSE,FALSE,FALSE,FALSE,64,7.672,1381,2138,7.701,FALSE,3.839,3.833,0.006,FALSE,FALSE,NA,115.3,115.3,115.3,0,0,0,0,5,2931.5,732.89,,Idle,0,20,FALSE,5,TRUE,5,Go Home,FALSE,FALSE,FALSE,FALSE,FALSE,FALSE,FALSE,FALSE,FALSE,FALSE,FALSE,FALSE,6.97426065,79.91402563,0.4,135.6,328,TRUE,1,1,FALSE,FALSE,FALSE,FALSE,,TRUE,FALSE,FALSE,Course Lock,246,,16.4,Calm,25,,1.12.8,Mavic Mini,1SDCH7G0169R0K,1SFLH6Q0AB03DJ,1SRCH7F014TAHX,1U5X071EXP6C9Y,108.4,0.2,19.6,10.551645,3.579104,0,341,Mavic Mini,1SDCH7G0169R0K,1SFLH6Q0AB03DJ,1SRCH7F014TAHX,1U5X071EXP6C9Y,DJI Fly,,1.12.8,0819B16F-C69B-A5C4-2D4C-D4FC3A1FC05C,1SDCH7G0169R0K,,,,,6.974277743,79.91401048,5,,
2/14/2024,22:16.8,7m 33.4s,453.4,6.974259425,79.91402518,0,0,0.3,50,0.4,0,0,0,0,0,0,0,0,-2.4,-0.2,-50.7,309.3,,Manual Takeoff,Other,Takeoff (RC Assisted),16,5,TRUE,,Mavic Mini,TRUE,FALSE,,Smart,RC,TRUE,TRUE,FALSE,,,TRUE,,FALSE,FALSE,FALSE,FALSE,FALSE,FALSE,FALSE,FALSE,FALSE,FALSE,0,Follow Yaw,0,0,-39.3,320.7,FALSE,FALSE,FALSE,FALSE,FALSE,FALSE,,TRUE,Normal,,100,1024,1024,1359,1024,2,FALSE,FALSE,FALSE,FALSE,FALSE,0,FALSE,FALSE,FALSE,FALSE,64,7.672,1381,2138,7.701,FALSE,3.839,3.833,0.006,FALSE,FALSE,NA,115.3,115.3,115.3,0,0,0,0,5,2931.5,732.89,,Idle,0,20,FALSE,5,TRUE,5,Go Home,FALSE,FALSE,FALSE,FALSE,FALSE,FALSE,FALSE,FALSE,FALSE,FALSE,FALSE,FALSE,6.97426065,79.91402563,0.4,135.6,328,TRUE,1,1,FALSE,FALSE,FALSE,FALSE,,TRUE,FALSE,FALSE,Course Lock,246,,16.4,Calm,25,,1.12.8,Mavic Mini,1SDCH7G0169R0K,1SFLH6Q0AB03DJ,1SRCH7F014TAHX,1U5X071EXP6C9Y,108.4,0.2,19.6,10.551645,3.579104,0,341,Mavic Mini,1SDCH7G0169R0K,1SFLH6Q0AB03DJ,1SRCH7F014TAHX,1U5X071EXP6C9Y,DJI Fly,,1.12.8,0819B16F-C69B-A5C4-2D4C-D4FC3A1FC05C,1SDCH7G0169R0K,,,,,6.974277743,79.91401048,5,,
2/14/2024,22:16.9,7m 33.5s,453.5,6.974259423,79.91402517,0,0,0.3,50,0.4,0,0,0,0,0,0,0,0,-2.5,0,-51,309,,Manual Takeoff,Other,Takeoff (RC Assisted),16,5,TRUE,,Mavic Mini,TRUE,FALSE,,Smart,RC,TRUE,TRUE,FALSE,,,TRUE,,FALSE,FALSE,FALSE,FALSE,FALSE,FALSE,FALSE,FALSE,FALSE,FALSE,0,Follow Yaw,0,0,-39.5,320.5,FALSE,FALSE,FALSE,FALSE,FALSE,FALSE,,TRUE,Normal,,100,1024,1024,1351,1024,2,FALSE,FALSE,FALSE,FALSE,FALSE,0,FALSE,FALSE,FALSE,FALSE,64,7.672,1381,2138,7.701,FALSE,3.839,3.833,0.006,FALSE,FALSE,NA,115.3,115.3,115.3,0,0,0,0,5,2931.5,732.89,,Idle,0,20,FALSE,5,TRUE,5,Go Home,FALSE,FALSE,FALSE,FALSE,FALSE,FALSE,FALSE,FALSE,FALSE,FALSE,FALSE,FALSE,6.97426065,79.91402563,0.4,135.6,328,TRUE,1,1,FALSE,FALSE,FALSE,FALSE,,TRUE,FALSE,FALSE,Course Lock,246,,16.4,Calm,25,,1.12.8,Mavic Mini,1SDCH7G0169R0K,1SFLH6Q0AB03DJ,1SRCH7F014TAHX,1U5X071EXP6C9Y,108.4,0.2,19.6,10.551645,3.579104,0,341,Mavic Mini,1SDCH7G0169R0K,1SFLH6Q0AB03DJ,1SRCH7F014TAHX,1U5X071EXP6C9Y,DJI Fly,,1.12.8,0819B16F-C69B-A5C4-2D4C-D4FC3A1FC05C,1SDCH7G0169R0K,,,,,6.974277743,79.91401048,5,,
2/14/2024,22:17.0,7m 33.6s,453.6,6.974259445,79.91402514,0,0,0.3,50,0.4,0,0,0,0,0,0,0,0,-2.3,-0.3,-51.2,308.8,,Manual Takeoff,Other,Takeoff (RC Assisted),16,5,TRUE,,Mavic Mini,TRUE,FALSE,,Smart,RC,TRUE,TRUE,FALSE,,,TRUE,,FALSE,FALSE,FALSE,FALSE,FALSE,FALSE,FALSE,FALSE,FALSE,FALSE,0,Follow Yaw,0,0,-39.7,320.3,FALSE,FALSE,FALSE,FALSE,FALSE,FALSE,,TRUE,Normal,,100,1024,1024,1351,1024,2,FALSE,FALSE,FALSE,FALSE,FALSE,0,FALSE,FALSE,FALSE,FALSE,64,7.672,1381,2138,7.701,FALSE,3.839,3.833,0.006,FALSE,FALSE,NA,115.3,115.3,115.3,0,0,0,0,5,2931.5,732.89,,Idle,0,20,FALSE,5,TRUE,5,Go Home,FALSE,FALSE,FALSE,FALSE,FALSE,FALSE,FALSE,FALSE,FALSE,FALSE,FALSE,FALSE,6.97426065,79.91402563,0.4,135.6,328,TRUE,1,1,FALSE,FALSE,FALSE,FALSE,,TRUE,FALSE,FALSE,Course Lock,246,,16.4,Calm,25,,1.12.8,Mavic Mini,1SDCH7G0169R0K,1SFLH6Q0AB03DJ,1SRCH7F014TAHX,1U5X071EXP6C9Y,108.4,0.2,19.6,10.551645,3.579104,0,341,Mavic Mini,1SDCH7G0169R0K,1SFLH6Q0AB03DJ,1SRCH7F014TAHX,1U5X071EXP6C9Y,DJI Fly,,1.12.8,0819B16F-C69B-A5C4-2D4C-D4FC3A1FC05C,1SDCH7G0169R0K,,,,,6.974277743,79.91401048,5,,
2/14/2024,22:17.1,7m 33.7s,453.7,6.974259577,79.91402507,0,0,0.3,50,0.5,0.223694,0.223694,0.223694,0.223694,0,0,0,0,-2.3,0.1,-51.5,308.5,339.1,Manual Takeoff,Other,Takeoff (RC Assisted),16,5,TRUE,,Mavic Mini,TRUE,FALSE,,Smart,RC,TRUE,TRUE,FALSE,,,TRUE,,FALSE,FALSE,FALSE,FALSE,FALSE,FALSE,FALSE,FALSE,FALSE,FALSE,0,Follow Yaw,0,0,-39.9,320.1,FALSE,FALSE,FALSE,FALSE,FALSE,FALSE,,TRUE,Normal,,100,1024,1024,1298,1024,2,FALSE,FALSE,FALSE,FALSE,FALSE,0,FALSE,FALSE,FALSE,FALSE,64,7.672,1381,2138,7.701,FALSE,3.839,3.833,0.006,FALSE,FALSE,NA,115.3,115.3,115.3,0,0,0,0,5,2931.5,732.89,,Idle,0,20,FALSE,5,TRUE,5,Go Home,FALSE,FALSE,FALSE,FALSE,FALSE,FALSE,FALSE,FALSE,FALSE,FALSE,FALSE,FALSE,6.97426065,79.91402563,0.4,135.6,328,TRUE,1,1,FALSE,FALSE,FALSE,FALSE,,TRUE,FALSE,FALSE,Course Lock,246,,16.4,Calm,25,,1.12.8,Mavic Mini,1SDCH7G0169R0K,1SFLH6Q0AB03DJ,1SRCH7F014TAHX,1U5X071EXP6C9Y,108.4,0.2,19.6,10.551645,3.579104,0,341,Mavic Mini,1SDCH7G0169R0K,1SFLH6Q0AB03DJ,1SRCH7F014TAHX,1U5X071EXP6C9Y,DJI Fly,,1.12.8,0819B16F-C69B-A5C4-2D4C-D4FC3A1FC05C,1SDCH7G0169R0K,,,,,6.974277743,79.91401048,5,,
2/14/2024,22:17.2,7m 33.8s,453.8,6.974259705,79.91402498,0,0,0.3,50,0.5,0.316351,0.316351,0.223694,0.223694,-0.223694,0,-0.223694,0,-2.2,-0.6,-52.3,307.7,330.2,Manual Takeoff,Other,Takeoff (RC Assisted),16,5,TRUE,,Mavic Mini,TRUE,FALSE,,Smart,RC,FALSE,TRUE,FALSE,,,TRUE,,FALSE,FALSE,FALSE,FALSE,FALSE,FALSE,FALSE,FALSE,FALSE,FALSE,0,Follow Yaw,0,0,-40.4,319.6,FALSE,FALSE,FALSE,FALSE,FALSE,FALSE,,TRUE,Normal,,100,1024,1024,1024,1024,2,FALSE,FALSE,FALSE,FALSE,FALSE,0,FALSE,FALSE,FALSE,FALSE,64,7.672,1381,2138,7.659,FALSE,3.839,3.833,0.006,FALSE,FALSE,NA,115.3,115.3,115.3,0,0,2,0,5,3029.3,757.34,,Idle,0,20,FALSE,5,TRUE,5,Go Home,FALSE,FALSE,FALSE,FALSE,FALSE,FALSE,FALSE,FALSE,FALSE,FALSE,FALSE,FALSE,6.974259739,79.91402496,0,135.6,328,TRUE,1,1,FALSE,FALSE,FALSE,FALSE,,TRUE,FALSE,FALSE,Course Lock,246,,16.4,Calm,25,,1.12.8,Mavic Mini,1SDCH7G0169R0K,1SFLH6Q0AB03DJ,1SRCH7F014TAHX,1U5X071EXP6C9Y,108.4,0.2,19.6,10.551645,3.579104,0,341,Mavic Mini,1SDCH7G0169R0K,1SFLH6Q0AB03DJ,1SRCH7F014TAHX,1U5X071EXP6C9Y,DJI Fly,,1.12.8,0819B16F-C69B-A5C4-2D4C-D4FC3A1FC05C,1SDCH7G0169R0K,,,,,6.974277743,79.91401048,5,Home Point updated. RTH altitude adjusted to 75 m! (Code: 120852).,
2/14/2024,22:17.3,7m 33.9s,453.9,6.974259897,79.91402484,0,0,0.3,50,0.6,0.500194,0.500194,0.447388,0.447388,-0.223694,0,-0.447388,0,0.2,-2.3,-52.6,307.4,331.8,Tripod,Other,,16,5,TRUE,,Mavic Mini,TRUE,FALSE,,Smart,RC,FALSE,TRUE,FALSE,,,TRUE,,FALSE,FALSE,FALSE,FALSE,FALSE,FALSE,FALSE,FALSE,FALSE,FALSE,0,Follow Yaw,0,0,-40.6,319.4,FALSE,FALSE,FALSE,FALSE,FALSE,FALSE,,TRUE,Normal,,100,1024,1024,1024,1024,2,FALSE,FALSE,FALSE,FALSE,FALSE,0,FALSE,FALSE,FALSE,FALSE,64,7.672,1381,2138,7.659,FALSE,3.839,3.833,0.006,FALSE,FALSE,NA,115.3,115.3,115.3,0,0,2,0,5,3029.3,757.34,,Idle,0,20,FALSE,5,TRUE,5,Go Home,FALSE,FALSE,FALSE,FALSE,FALSE,FALSE,FALSE,FALSE,FALSE,FALSE,FALSE,FALSE,6.974259739,79.91402496,0,135.6,328,TRUE,1,1,FALSE,FALSE,FALSE,FALSE,,TRUE,FALSE,FALSE,Course Lock,246,,16.4,Calm,25,,1.12.8,Mavic Mini,1SDCH7G0169R0K,1SFLH6Q0AB03DJ,1SRCH7F014TAHX,1U5X071EXP6C9Y,108.4,0.2,19.6,10.551645,3.579104,0,341,Mavic Mini,1SDCH7G0169R0K,1SFLH6Q0AB03DJ,1SRCH7F014TAHX,1U5X071EXP6C9Y,DJI Fly,,1.12.8,0819B16F-C69B-A5C4-2D4C-D4FC3A1FC05C,1SDCH7G0169R0K,,,,,6.974277743,79.91401048,5,Flight mode changed to Tripod.,
2/14/2024,22:17.4,7m 34.0s,454,6.974260099,79.91402467,0,0,0.3,50,0.7,0.500194,0.500194,0.447388,0.447388,-0.223694,0,-0.671082,0,2.4,-1.4,-52.3,307.7,326.1,Tripod,Other,,16,5,TRUE,,Mavic Mini,TRUE,FALSE,,Smart,RC,FALSE,TRUE,FALSE,,,TRUE,,FALSE,FALSE,FALSE,FALSE,FALSE,FALSE,FALSE,FALSE,FALSE,FALSE,0,Follow Yaw,0,0,-40.6,319.4,FALSE,FALSE,FALSE,FALSE,FALSE,FALSE,,TRUE,Normal,,100,1024,1024,1024,1024,2,FALSE,FALSE,FALSE,FALSE,FALSE,0,FALSE,FALSE,FALSE,FALSE,64,7.672,1381,2138,7.659,FALSE,3.839,3.833,0.006,FALSE,FALSE,NA,115.3,115.3,115.3,0,0,2,0,5,3029.3,757.34,,Idle,0,20,FALSE,5,TRUE,5,Go Home,FALSE,FALSE,FALSE,FALSE,FALSE,FALSE,FALSE,FALSE,FALSE,FALSE,FALSE,FALSE,6.974259739,79.91402496,0.1,135.6,328,TRUE,1,1,FALSE,FALSE,FALSE,FALSE,,TRUE,FALSE,FALSE,Course Lock,246,,16.4,Calm,25,,1.12.8,Mavic Mini,1SDCH7G0169R0K,1SFLH6Q0AB03DJ,1SRCH7F014TAHX,1U5X071EXP6C9Y,108.4,0.2,19.6,10.551645,3.579104,0,341,Mavic Mini,1SDCH7G0169R0K,1SFLH6Q0AB03DJ,1SRCH7F014TAHX,1U5X071EXP6C9Y,DJI Fly,,1.12.8,0819B16F-C69B-A5C4-2D4C-D4FC3A1FC05C,1SDCH7G0169R0K,,,,,6.974277743,79.91401048,5,,
2/14/2024,22:17.5,7m 34.1s,454.1,6.974260294,79.91402446,0.3,0.3,0.6,50,0.8,0.500194,0.500194,0.447388,0.447388,-0.223694,0,-0.894776,0,3.7,-0.9,-52,308,320.5,Tripod,Other,,16,5,TRUE,,Mavic Mini,TRUE,FALSE,,Smart,RC,FALSE,TRUE,FALSE,,,TRUE,,FALSE,FALSE,FALSE,FALSE,FALSE,FALSE,FALSE,FALSE,FALSE,FALSE,0,Follow Yaw,0,0,-40.6,319.4,FALSE,FALSE,FALSE,FALSE,FALSE,FALSE,,TRUE,Normal,,100,1024,1024,1024,1024,2,FALSE,FALSE,FALSE,FALSE,FALSE,0,FALSE,FALSE,FALSE,FALSE,64,7.672,1381,2138,7.659,FALSE,3.839,3.833,0.006,FALSE,FALSE,NA,115.3,115.3,115.3,0,0,2,0,5,3029.3,757.34,,Idle,0,20,FALSE,5,TRUE,5,Go Home,FALSE,FALSE,FALSE,FALSE,FALSE,FALSE,FALSE,FALSE,FALSE,FALSE,FALSE,FALSE,6.974259739,79.91402496,0.2,135.6,328,TRUE,1,1,FALSE,FALSE,FALSE,FALSE,,TRUE,FALSE,FALSE,Course Lock,246,,16.4,Calm,25,,1.12.8,Mavic Mini,1SDCH7G0169R0K,1SFLH6Q0AB03DJ,1SRCH7F014TAHX,1U5X071EXP6C9Y,108.4,0.2,19.6,10.551645,3.579104,0,341,Mavic Mini,1SDCH7G0169R0K,1SFLH6Q0AB03DJ,1SRCH7F014TAHX,1U5X071EXP6C9Y,DJI Fly,,1.12.8,0819B16F-C69B-A5C4-2D4C-D4FC3A1FC05C,1SDCH7G0169R0K,,,,,6.974277743,79.91401048,5,,
2/14/2024,22:17.6,7m 34.2s,454.2,6.974260536,79.91402424,0.3,0.3,0.6,50,0.9,0.316351,0.500194,0.223694,0.447388,-0.223694,0,-1.11847,0,3.4,-0.8,-52,308,324.5,Tripod,Other,,16,5,TRUE,,Mavic Mini,TRUE,FALSE,,Smart,RC,FALSE,TRUE,FALSE,,,TRUE,,FALSE,FALSE,FALSE,FALSE,FALSE,FALSE,FALSE,FALSE,FALSE,FALSE,0,Follow Yaw,0,0,-40.6,319.4,FALSE,FALSE,FALSE,FALSE,FALSE,FALSE,,TRUE,Normal,,100,1024,1024,1228,1024,2,FALSE,FALSE,FALSE,FALSE,FALSE,0,FALSE,FALSE,FALSE,FALSE,64,7.672,1381,2138,7.659,FALSE,3.839,3.833,0.006,FALSE,FALSE,NA,115.3,115.3,115.3,0,0,2,0,5,3029.3,757.34,,Idle,0,20,FALSE,5,TRUE,5,Go Home,FALSE,FALSE,FALSE,FALSE,FALSE,FALSE,FALSE,FALSE,FALSE,FALSE,FALSE,FALSE,6.974259739,79.91402496,0.3,135.6,328,TRUE,1,1,FALSE,FALSE,FALSE,FALSE,,TRUE,FALSE,FALSE,Course Lock,246,,16.4,Calm,25,,1.12.8,Mavic Mini,1SDCH7G0169R0K,1SFLH6Q0AB03DJ,1SRCH7F014TAHX,1U5X071EXP6C9Y,108.4,0.2,19.6,10.551645,3.579104,0,341,Mavic Mini,1SDCH7G0169R0K,1SFLH6Q0AB03DJ,1SRCH7F014TAHX,1U5X071EXP6C9Y,DJI Fly,,1.12.8,0819B16F-C69B-A5C4-2D4C-D4FC3A1FC05C,1SDCH7G0169R0K,,,,,6.974277743,79.91401048,5,,
2/14/2024,22:17.7,7m 34.3s,454.3,6.974260743,79.91402399,0.6,0.6,0.9,50,1,0.316351,0.500194,0.223694,0.447388,-0.223694,0,-1.342164,0,3.6,-1,-52,308,317.4,Tripod,Other,,16,5,TRUE,,Mavic Mini,TRUE,FALSE,,Smart,RC,FALSE,TRUE,FALSE,,,TRUE,,FALSE,FALSE,FALSE,FALSE,FALSE,FALSE,FALSE,FALSE,FALSE,FALSE,0,Follow Yaw,0,0,-40.6,319.4,FALSE,FALSE,FALSE,FALSE,FALSE,FALSE,,TRUE,Normal,,100,1024,1024,1306,1024,2,FALSE,FALSE,FALSE,FALSE,FALSE,0,FALSE,FALSE,FALSE,FALSE,64,7.672,1381,2138,7.659,FALSE,3.839,3.833,0.006,FALSE,FALSE,NA,115.3,115.3,115.3,0,0,2,0,5,3029.3,757.34,,Idle,0,20,FALSE,5,TRUE,5,Go Home,FALSE,FALSE,FALSE,FALSE,FALSE,FALSE,FALSE,FALSE,FALSE,FALSE,FALSE,FALSE,6.974259739,79.91402496,0.5,135.6,328,TRUE,1,1,FALSE,FALSE,FALSE,FALSE,,TRUE,FALSE,FALSE,Course Lock,246,,16.4,Calm,25,,1.12.8,Mavic Mini,1SDCH7G0169R0K,1SFLH6Q0AB03DJ,1SRCH7F014TAHX,1U5X071EXP6C9Y,108.4,0.2,19.6,10.551645,3.579104,0,341,Mavic Mini,1SDCH7G0169R0K,1SFLH6Q0AB03DJ,1SRCH7F014TAHX,1U5X071EXP6C9Y,DJI Fly,,1.12.8,0819B16F-C69B-A5C4-2D4C-D4FC3A1FC05C,1SDCH7G0169R0K,,,,,6.974277743,79.91401048,5,,
2/14/2024,22:17.8,7m 34.4s,454.4,6.974260925,79.91402381,0.6,0.6,1.3,50,1.1,0.316351,0.500194,0.223694,0.447388,-0.223694,0,-1.342164,0,4.3,-1.2,-51.9,308.1,322.5,Tripod,Other,,16,5,TRUE,,Mavic Mini,TRUE,FALSE,,Smart,RC,FALSE,TRUE,FALSE,,,TRUE,,FALSE,FALSE,FALSE,FALSE,FALSE,FALSE,FALSE,FALSE,FALSE,FALSE,0,Follow Yaw,0,0,-40.6,319.4,FALSE,FALSE,FALSE,FALSE,FALSE,FALSE,,TRUE,Normal,,100,1024,1024,1328,1024,2,FALSE,FALSE,FALSE,FALSE,FALSE,0,FALSE,FALSE,FALSE,FALSE,64,7.672,1381,2138,7.659,FALSE,3.839,3.833,0.006,FALSE,FALSE,NA,115.3,115.3,115.3,0,0,2,0,5,3029.3,757.34,,Idle,0,20,FALSE,5,TRUE,5,Go Home,FALSE,FALSE,FALSE,FALSE,FALSE,FALSE,FALSE,FALSE,FALSE,FALSE,FALSE,FALSE,6.974259739,79.91402496,0.5,135.6,328,TRUE,1,1,FALSE,FALSE,FALSE,FALSE,,TRUE,FALSE,FALSE,Course Lock,246,,16.4,Calm,25,,1.12.8,Mavic Mini,1SDCH7G0169R0K,1SFLH6Q0AB03DJ,1SRCH7F014TAHX,1U5X071EXP6C9Y,108.4,0.2,19.6,10.551645,3.579104,0,341,Mavic Mini,1SDCH7G0169R0K,1SFLH6Q0AB03DJ,1SRCH7F014TAHX,1U5X071EXP6C9Y,DJI Fly,,1.12.8,0819B16F-C69B-A5C4-2D4C-D4FC3A1FC05C,1SDCH7G0169R0K,,,,,6.974277743,79.91401048,5,,
2/14/2024,22:17.9,7m 34.5s,454.5,6.974261089,79.91402368,0.9,0.9,1.3,51,1.2,0,0.500194,0,0.447388,0,0,-1.11847,0,3.6,-1.2,-51.9,308.1,,Tripod,Other,,15,5,TRUE,,Mavic Mini,TRUE,FALSE,,Smart,RC,FALSE,TRUE,FALSE,,,TRUE,,FALSE,FALSE,FALSE,FALSE,FALSE,FALSE,FALSE,FALSE,FALSE,FALSE,0,Follow Yaw,0,0,-40.6,319.4,FALSE,FALSE,FALSE,FALSE,FALSE,FALSE,,TRUE,Normal,,100,1024,1024,1328,1024,2,FALSE,FALSE,FALSE,FALSE,FALSE,0,FALSE,FALSE,FALSE,FALSE,64,7.52,1380,2138,7.659,FALSE,3.761,3.759,0.006,FALSE,FALSE,NA,115.3,115.3,115.3,0,0,2,0,5,3029.3,757.34,,Idle,0,20,FALSE,5,TRUE,5,Go Home,FALSE,FALSE,FALSE,FALSE,FALSE,FALSE,FALSE,FALSE,FALSE,FALSE,FALSE,FALSE,6.974259739,79.91402496,0.6,135.6,328,TRUE,1,1,FALSE,FALSE,FALSE,FALSE,,TRUE,FALSE,FALSE,Course Lock,246,,16.4,Calm,25,,1.12.8,Mavic Mini,1SDCH7G0169R0K,1SFLH6Q0AB03DJ,1SRCH7F014TAHX,1U5X071EXP6C9Y,108.4,0.2,19.6,10.551645,3.579104,0,341,Mavic Mini,1SDCH7G0169R0K,1SFLH6Q0AB03DJ,1SRCH7F014TAHX,1U5X071EXP6C9Y,DJI Fly,,1.12.8,0819B16F-C69B-A5C4-2D4C-D4FC3A1FC05C,1SDCH7G0169R0K,,,,,6.974277743,79.91401048,5,,
2/14/2024,22:17.9,7m 34.6s,454.6,6.97426119,79.91402356,0.9,0.9,1.6,51,1.3,0,0.500194,0,0.447388,0,0,-1.11847,0,3.1,-0.5,-51.9,308.1,,Tripod,Other,,15,5,TRUE,,Mavic Mini,TRUE,FALSE,,Smart,RC,FALSE,TRUE,FALSE,,,TRUE,,FALSE,FALSE,FALSE,FALSE,FALSE,FALSE,FALSE,FALSE,FALSE,FALSE,0,Follow Yaw,0,0,-40.6,319.4,FALSE,FALSE,FALSE,FALSE,FALSE,FALSE,,TRUE,Normal,,100,1024,1024,1336,1024,2,FALSE,FALSE,FALSE,FALSE,FALSE,0,FALSE,FALSE,FALSE,FALSE,64,7.52,1380,2138,7.659,FALSE,3.761,3.759,0.006,FALSE,FALSE,NA,115.3,115.3,115.3,0,0,2,0,5,3029.3,757.34,,Idle,0,20,FALSE,5,TRUE,5,Go Home,FALSE,FALSE,FALSE,FALSE,FALSE,FALSE,FALSE,FALSE,FALSE,FALSE,FALSE,FALSE,6.974259739,79.91402496,0.7,135.6,328,TRUE,1,1,FALSE,FALSE,FALSE,FALSE,,TRUE,FALSE,FALSE,Course Lock,246,,16.4,Calm,25,,1.12.8,Mavic Mini,1SDCH7G0169R0K,1SFLH6Q0AB03DJ,1SRCH7F014TAHX,1U5X071EXP6C9Y,108.4,0.2,19.6,10.551645,3.579104,0,341,Mavic Mini,1SDCH7G0169R0K,1SFLH6Q0AB03DJ,1SRCH7F014TAHX,1U5X071EXP6C9Y,DJI Fly,,1.12.8,0819B16F-C69B-A5C4-2D4C-D4FC3A1FC05C,1SDCH7G0169R0K,,,,,6.974277743,79.91401048,5,,
2/14/2024,22:18.0,7m 34.7s,454.7,6.974261247,79.91402344,1.3,1.3,1.6,51,1.3,0,0.500194,0,0.447388,0,0,-0.894776,0,2.6,-0.8,-51.9,308.1,,Tripod,Other,,15,5,TRUE,,Mavic Mini,TRUE,FALSE,,Smart,RC,FALSE,TRUE,FALSE,,,TRUE,,FALSE,FALSE,FALSE,FALSE,FALSE,FALSE,FALSE,FALSE,FALSE,FALSE,0,Follow Yaw,0,0,-40.6,319.4,FALSE,FALSE,FALSE,FALSE,FALSE,FALSE,,TRUE,Normal,,100,1024,1024,1348,1024,2,FALSE,FALSE,FALSE,FALSE,FALSE,0,FALSE,FALSE,FALSE,FALSE,64,7.52,1380,2138,7.659,FALSE,3.761,3.759,0.006,FALSE,FALSE,NA,115.3,115.3,115.3,0,0,2,0,5,3029.3,757.34,,Idle,0,20,FALSE,5,TRUE,5,Go Home,FALSE,FALSE,FALSE,FALSE,FALSE,FALSE,FALSE,FALSE,FALSE,FALSE,FALSE,FALSE,6.974259739,79.91402496,0.7,135.6,328,TRUE,1,1,FALSE,FALSE,FALSE,FALSE,,TRUE,FALSE,FALSE,Course Lock,246,,16.4,Calm,25,,1.12.8,Mavic Mini,1SDCH7G0169R0K,1SFLH6Q0AB03DJ,1SRCH7F014TAHX,1U5X071EXP6C9Y,108.4,0.2,19.6,10.551645,3.579104,0,341,Mavic Mini,1SDCH7G0169R0K,1SFLH6Q0AB03DJ,1SRCH7F014TAHX,1U5X071EXP6C9Y,DJI Fly,,1.12.8,0819B16F-C69B-A5C4-2D4C-D4FC3A1FC05C,1SDCH7G0169R0K,,,,,6.974277743,79.91401048,5,,
2/14/2024,22:18.2,7m 34.8s,454.8,6.974261287,79.91402338,1.3,1.3,1.9,51,1.3,0,0.500194,0,0.447388,0,0,-0.894776,0,2.6,-0.4,-51.9,308.1,,Tripod,Other,,15,5,TRUE,,Mavic Mini,TRUE,FALSE,,Smart,RC,FALSE,TRUE,FALSE,,,TRUE,,FALSE,FALSE,FALSE,FALSE,FALSE,FALSE,FALSE,FALSE,FALSE,FALSE,0,Follow Yaw,0,0,-40.6,319.4,FALSE,FALSE,FALSE,FALSE,FALSE,FALSE,,TRUE,Normal,,100,1024,1024,1348,1024,2,FALSE,FALSE,FALSE,FALSE,FALSE,0,FALSE,FALSE,FALSE,FALSE,64,7.52,1380,2138,7.608,FALSE,3.761,3.759,0.006,FALSE,FALSE,NA,115.3,115.3,115.3,0,0,2,0,5,3521.2,880.3,,Idle,0,20,FALSE,5,TRUE,5,Go Home,FALSE,FALSE,FALSE,FALSE,FALSE,FALSE,FALSE,FALSE,FALSE,FALSE,FALSE,FALSE,6.974259739,79.91402496,0.8,135.6,328,TRUE,1,1,FALSE,FALSE,FALSE,FALSE,,TRUE,FALSE,FALSE,Course Lock,246,,16.4,Calm,25,,1.12.8,Mavic Mini,1SDCH7G0169R0K,1SFLH6Q0AB03DJ,1SRCH7F014TAHX,1U5X071EXP6C9Y,108.4,0.2,19.6,10.551645,3.579104,0,341,Mavic Mini,1SDCH7G0169R0K,1SFLH6Q0AB03DJ,1SRCH7F014TAHX,1U5X071EXP6C9Y,DJI Fly,,1.12.8,0819B16F-C69B-A5C4-2D4C-D4FC3A1FC05C,1SDCH7G0169R0K,,,,,6.974277743,79.91401048,5,,
2/14/2024,22:18.3,7m 34.9s,454.9,6.974261318,79.91402337,1.3,1.3,1.9,51,1.4,0,0.500194,0,0.447388,0,0,-0.894776,0,2.5,-0.4,-52,308,,Tripod,Other,,15,5,TRUE,,Mavic Mini,TRUE,FALSE,,Smart,RC,FALSE,TRUE,FALSE,,,TRUE,,FALSE,FALSE,FALSE,FALSE,FALSE,FALSE,FALSE,FALSE,FALSE,FALSE,0,Follow Yaw,0,0,-40.6,319.4,FALSE,FALSE,FALSE,FALSE,FALSE,FALSE,,TRUE,Normal,,100,1024,1024,1357,1024,2,FALSE,FALSE,FALSE,FALSE,FALSE,0,FALSE,FALSE,FALSE,FALSE,64,7.52,1380,2138,7.608,FALSE,3.761,3.759,0.006,FALSE,FALSE,NA,115.3,115.3,115.3,0,0,2,0,5,3521.2,880.3,,Idle,0,20,FALSE,5,TRUE,5,Go Home,FALSE,FALSE,FALSE,FALSE,FALSE,FALSE,FALSE,FALSE,FALSE,FALSE,FALSE,FALSE,6.974259739,79.91402496,0.8,135.6,328,TRUE,1,1,FALSE,FALSE,FALSE,FALSE,,TRUE,FALSE,FALSE,Course Lock,246,,16.4,Calm,25,,1.12.8,Mavic Mini,1SDCH7G0169R0K,1SFLH6Q0AB03DJ,1SRCH7F014TAHX,1U5X071EXP6C9Y,108.4,0.2,19.6,10.551645,3.579104,0,341,Mavic Mini,1SDCH7G0169R0K,1SFLH6Q0AB03DJ,1SRCH7F014TAHX,1U5X071EXP6C9Y,DJI Fly,,1.12.8,0819B16F-C69B-A5C4-2D4C-D4FC3A1FC05C,1SDCH7G0169R0K,,,,,6.974277743,79.91401048,5,,
2/14/2024,22:18.3,7m 35.0s,455,6.97426126,79.91402346,1.6,1.6,2.2,51,1.4,0,0.500194,0,0.447388,0,0,-0.894776,0,2.8,0,-52,308,,Tripod,Other,,15,5,TRUE,,Mavic Mini,TRUE,FALSE,,Smart,RC,FALSE,TRUE,FALSE,,,TRUE,,FALSE,FALSE,FALSE,FALSE,FALSE,FALSE,FALSE,FALSE,FALSE,FALSE,0,Follow Yaw,0,0,-40.6,319.4,FALSE,FALSE,FALSE,FALSE,FALSE,FALSE,,TRUE,Normal,,100,1024,1024,1363,1024,2,FALSE,FALSE,FALSE,FALSE,FALSE,0,FALSE,FALSE,FALSE,FALSE,64,7.52,1380,2138,7.608,FALSE,3.761,3.759,0.006,FALSE,FALSE,NA,115.3,115.3,115.3,0,0,2,0,5,3521.2,880.3,,Idle,0,20,FALSE,5,TRUE,5,Go Home,FALSE,FALSE,FALSE,FALSE,FALSE,FALSE,FALSE,FALSE,FALSE,FALSE,FALSE,FALSE,6.974259739,79.91402496,0.7,135.6,328,TRUE,1,1,FALSE,FALSE,FALSE,FALSE,,TRUE,FALSE,FALSE,Course Lock,246,,16.4,Calm,25,,1.12.8,Mavic Mini,1SDCH7G0169R0K,1SFLH6Q0AB03DJ,1SRCH7F014TAHX,1U5X071EXP6C9Y,108.4,0.2,19.6,10.551645,3.579104,0,341,Mavic Mini,1SDCH7G0169R0K,1SFLH6Q0AB03DJ,1SRCH7F014TAHX,1U5X071EXP6C9Y,DJI Fly,,1.12.8,0819B16F-C69B-A5C4-2D4C-D4FC3A1FC05C,1SDCH7G0169R0K,,,,,6.974277743,79.91401048,5,,
2/14/2024,22:18.6,7m 35.1s,455.1,6.974261285,79.91402348,1.6,1.6,2.2,51,1.4,0,0.500194,0,0.447388,0,0,-0.894776,0,2.6,0,-51.9,308.1,,Tripod,Other,,15,5,TRUE,,Mavic Mini,TRUE,FALSE,,Smart,RC,FALSE,TRUE,FALSE,,,TRUE,,FALSE,FALSE,FALSE,FALSE,FALSE,FALSE,FALSE,FALSE,FALSE,FALSE,0,Follow Yaw,0,0,-40.6,319.4,FALSE,FALSE,FALSE,FALSE,FALSE,FALSE,,TRUE,Normal,,100,1024,1024,1378,1024,2,FALSE,FALSE,FALSE,FALSE,FALSE,0,FALSE,FALSE,FALSE,FALSE,64,7.52,1380,2138,7.608,FALSE,3.761,3.759,0.006,FALSE,FALSE,NA,115.3,115.3,115.3,0,0,2,0,5,3521.2,880.3,,Idle,0,20,FALSE,5,TRUE,5,Go Home,FALSE,FALSE,FALSE,FALSE,FALSE,FALSE,FALSE,FALSE,FALSE,FALSE,FALSE,FALSE,6.974259739,79.91402496,0.7,135.6,328,TRUE,1,1,FALSE,FALSE,FALSE,FALSE,,TRUE,FALSE,FALSE,Course Lock,246,,16.4,Calm,25,,1.12.8,Mavic Mini,1SDCH7G0169R0K,1SFLH6Q0AB03DJ,1SRCH7F014TAHX,1U5X071EXP6C9Y,108.4,0.2,19.6,10.551645,3.579104,0,341,Mavic Mini,1SDCH7G0169R0K,1SFLH6Q0AB03DJ,1SRCH7F014TAHX,1U5X071EXP6C9Y,DJI Fly,,1.12.8,0819B16F-C69B-A5C4-2D4C-D4FC3A1FC05C,1SDCH7G0169R0K,,,,,6.974277743,79.91401048,5,,
2/14/2024,22:18.6,7m 35.2s,455.2,6.974261327,79.91402355,1.9,1.9,2.6,52,1.4,0,0.500194,0,0.447388,0,0,-1.11847,0,2.8,0,-51.9,308.1,,Tripod,Other,,15,5,TRUE,,Mavic Mini,TRUE,FALSE,,Smart,RC,FALSE,TRUE,FALSE,,,TRUE,,FALSE,FALSE,FALSE,FALSE,FALSE,FALSE,FALSE,FALSE,FALSE,FALSE,0,Follow Yaw,0,0,-40.6,319.4,FALSE,FALSE,FALSE,FALSE,FALSE,FALSE,,TRUE,Normal,,100,1024,1024,1384,1024,2,FALSE,FALSE,FALSE,FALSE,FALSE,0,FALSE,FALSE,FALSE,FALSE,64,7.52,1380,2138,7.608,FALSE,3.761,3.759,0.006,FALSE,FALSE,NA,115.3,115.3,115.3,0,0,2,0,5,3521.2,880.3,,Idle,0,20,FALSE,5,TRUE,5,Go Home,FALSE,FALSE,FALSE,FALSE,FALSE,FALSE,FALSE,FALSE,FALSE,FALSE,FALSE,FALSE,6.974259739,79.91402496,0.7,135.6,328,TRUE,1,1,FALSE,FALSE,FALSE,FALSE,,TRUE,FALSE,FALSE,Course Lock,246,,16.4,Calm,25,,1.12.8,Mavic Mini,1SDCH7G0169R0K,1SFLH6Q0AB03DJ,1SRCH7F014TAHX,1U5X071EXP6C9Y,108.4,0.2,19.6,10.551645,3.579104,0,341,Mavic Mini,1SDCH7G0169R0K,1SFLH6Q0AB03DJ,1SRCH7F014TAHX,1U5X071EXP6C9Y,DJI Fly,,1.12.8,0819B16F-C69B-A5C4-2D4C-D4FC3A1FC05C,1SDCH7G0169R0K,,,,,6.974277743,79.91401048,5,,
2/14/2024,22:18.7,7m 35.3s,455.3,6.974261391,79.91402365,1.9,1.9,2.6,52,1.5,0,0.500194,0,0.447388,0,0,-1.11847,0,2.6,-0.3,-51.8,308.2,,Tripod,Other,,15,5,TRUE,,Mavic Mini,TRUE,FALSE,,Smart,RC,FALSE,TRUE,FALSE,,,TRUE,,FALSE,FALSE,FALSE,FALSE,FALSE,FALSE,FALSE,FALSE,FALSE,FALSE,0,Follow Yaw,0,0,-40.6,319.4,FALSE,FALSE,FALSE,FALSE,FALSE,FALSE,,TRUE,Normal,,100,1024,1024,1384,1024,2,FALSE,FALSE,FALSE,FALSE,FALSE,0,FALSE,FALSE,FALSE,FALSE,64,7.52,1380,2138,7.608,FALSE,3.761,3.759,0.006,FALSE,FALSE,NA,115.3,115.3,115.3,0,0,2,0,5,3521.2,880.3,,Idle,0,20,FALSE,5,TRUE,5,Go Home,FALSE,FALSE,FALSE,FALSE,FALSE,FALSE,FALSE,FALSE,FALSE,FALSE,FALSE,FALSE,6.974259739,79.91402496,0.7,135.6,328,TRUE,1,1,FALSE,FALSE,FALSE,FALSE,,TRUE,FALSE,FALSE,Course Lock,246,,16.4,Calm,25,,1.12.8,Mavic Mini,1SDCH7G0169R0K,1SFLH6Q0AB03DJ,1SRCH7F014TAHX,1U5X071EXP6C9Y,108.4,0.2,19.6,10.551645,3.579104,0,341,Mavic Mini,1SDCH7G0169R0K,1SFLH6Q0AB03DJ,1SRCH7F014TAHX,1U5X071EXP6C9Y,DJI Fly,,1.12.8,0819B16F-C69B-A5C4-2D4C-D4FC3A1FC05C,1SDCH7G0169R0K,,,,,6.974277743,79.91401048,5,,
2/14/2024,22:18.8,7m 35.4s,455.4,6.974261491,79.91402367,1.9,1.9,2.9,52,1.5,0,0.500194,0,0.447388,0,0,-1.11847,0,2.7,0,-51.8,308.2,,Tripod,Other,,15,5,TRUE,,Mavic Mini,TRUE,FALSE,,Smart,RC,FALSE,TRUE,FALSE,,,TRUE,,FALSE,FALSE,FALSE,FALSE,FALSE,FALSE,FALSE,FALSE,FALSE,FALSE,0,Follow Yaw,0,0,-40.6,319.4,FALSE,FALSE,FALSE,FALSE,FALSE,FALSE,,TRUE,Normal,,100,1024,1024,1374,1024,2,FALSE,FALSE,FALSE,FALSE,FALSE,0,FALSE,FALSE,FALSE,FALSE,64,7.52,1380,2138,7.608,FALSE,3.761,3.759,0.006,FALSE,FALSE,NA,115.3,115.3,115.3,0,0,2,0,5,3521.2,880.3,,Idle,0,20,FALSE,5,TRUE,5,Go Home,FALSE,FALSE,FALSE,FALSE,FALSE,FALSE,FALSE,FALSE,FALSE,FALSE,FALSE,FALSE,6.974259739,79.91402496,0.7,135.6,328,TRUE,1,1,FALSE,FALSE,FALSE,FALSE,,TRUE,FALSE,FALSE,Course Lock,246,,16.4,Calm,25,,1.12.8,Mavic Mini,1SDCH7G0169R0K,1SFLH6Q0AB03DJ,1SRCH7F014TAHX,1U5X071EXP6C9Y,108.4,0.2,19.6,10.551645,3.579104,0,341,Mavic Mini,1SDCH7G0169R0K,1SFLH6Q0AB03DJ,1SRCH7F014TAHX,1U5X071EXP6C9Y,DJI Fly,,1.12.8,0819B16F-C69B-A5C4-2D4C-D4FC3A1FC05C,1SDCH7G0169R0K,,,,,6.974277743,79.91401048,5,,
2/14/2024,22:18.9,7m 35.5s,455.5,6.974261533,79.91402368,2.2,2.2,2.9,52,1.5,0,0.500194,0,0.447388,0,0,-1.342164,0,2.6,0,-51.8,308.2,,Tripod,Other,,15,5,TRUE,,Mavic Mini,TRUE,FALSE,,Smart,RC,FALSE,TRUE,FALSE,,,TRUE,,FALSE,FALSE,FALSE,FALSE,FALSE,FALSE,FALSE,FALSE,FALSE,FALSE,0,Follow Yaw,0,0,-40.6,319.4,FALSE,FALSE,FALSE,FALSE,FALSE,FALSE,,TRUE,Normal,,100,1024,1024,1389,1024,2,FALSE,FALSE,FALSE,FALSE,FALSE,0,FALSE,FALSE,FALSE,FALSE,64,7.52,1380,2138,7.608,FALSE,3.761,3.759,0.006,FALSE,FALSE,NA,115.3,115.3,115.3,0,0,2,0,5,3521.2,880.3,,Idle,0,20,FALSE,5,TRUE,5,Go Home,FALSE,FALSE,FALSE,FALSE,FALSE,FALSE,FALSE,FALSE,FALSE,FALSE,FALSE,FALSE,6.974259739,79.91402496,0.8,135.6,328,TRUE,1,1,FALSE,FALSE,FALSE,FALSE,,TRUE,FALSE,FALSE,Course Lock,246,,16.4,Calm,25,,1.12.8,Mavic Mini,1SDCH7G0169R0K,1SFLH6Q0AB03DJ,1SRCH7F014TAHX,1U5X071EXP6C9Y,108.4,0.2,19.6,10.551645,3.579104,0,341,Mavic Mini,1SDCH7G0169R0K,1SFLH6Q0AB03DJ,1SRCH7F014TAHX,1U5X071EXP6C9Y,DJI Fly,,1.12.8,0819B16F-C69B-A5C4-2D4C-D4FC3A1FC05C,1SDCH7G0169R0K,,,,,6.974277743,79.91401048,5,,
2/14/2024,22:19.1,7m 35.6s,455.6,6.974261545,79.91402371,2.6,2.6,3.2,52,1.5,0,0.500194,0,0.447388,0,0,-1.342164,0,2.7,0.2,-51.8,308.2,,Tripod,Other,,15,5,TRUE,,Mavic Mini,TRUE,FALSE,,Smart,RC,FALSE,TRUE,FALSE,,,TRUE,,FALSE,FALSE,FALSE,FALSE,FALSE,FALSE,FALSE,FALSE,FALSE,FALSE,0,Follow Yaw,0,0,-40.6,319.4,FALSE,FALSE,FALSE,FALSE,FALSE,FALSE,,TRUE,Normal,,100,1024,1024,1394,1024,2,FALSE,FALSE,FALSE,FALSE,FALSE,0,FALSE,FALSE,FALSE,FALSE,64,7.523,1379,2138,7.608,FALSE,3.763,3.76,0.006,FALSE,FALSE,NA,115.3,115.3,115.3,0,0,2,0,5,3521.2,880.3,,Idle,0,20,FALSE,5,TRUE,5,Go Home,FALSE,FALSE,FALSE,FALSE,FALSE,FALSE,FALSE,FALSE,FALSE,FALSE,FALSE,FALSE,6.974259739,79.91402496,0.7,135.6,328,TRUE,1,1,FALSE,FALSE,FALSE,FALSE,,TRUE,FALSE,FALSE,Course Lock,246,,16.4,Calm,25,,1.12.8,Mavic Mini,1SDCH7G0169R0K,1SFLH6Q0AB03DJ,1SRCH7F014TAHX,1U5X071EXP6C9Y,108.4,0.2,19.6,10.551645,3.579104,0,341,Mavic Mini,1SDCH7G0169R0K,1SFLH6Q0AB03DJ,1SRCH7F014TAHX,1U5X071EXP6C9Y,DJI Fly,,1.12.8,0819B16F-C69B-A5C4-2D4C-D4FC3A1FC05C,1SDCH7G0169R0K,,,,,6.974277743,79.91401048,5,,
2/14/2024,22:19.1,7m 35.7s,455.7,6.974261533,79.91402377,2.6,2.6,3.6,52,1.6,0.223694,0.500194,0,0.447388,0.223694,0.223694,-1.342164,0,2.5,-0.1,-51.8,308.2,104,Tripod,Other,,15,5,TRUE,,Mavic Mini,TRUE,FALSE,,Smart,RC,FALSE,TRUE,FALSE,,,TRUE,,FALSE,FALSE,FALSE,FALSE,FALSE,FALSE,FALSE,FALSE,FALSE,FALSE,0,Follow Yaw,0,0,-40.6,319.4,FALSE,FALSE,FALSE,FALSE,FALSE,FALSE,,TRUE,Normal,,100,1024,1024,1405,1024,2,FALSE,FALSE,FALSE,FALSE,FALSE,0,FALSE,FALSE,FALSE,FALSE,64,7.523,1379,2138,7.608,FALSE,3.763,3.76,0.006,FALSE,FALSE,NA,115.3,115.3,115.3,0,0,2,0,5,3521.2,880.3,,Idle,0,20,FALSE,5,TRUE,5,Go Home,FALSE,FALSE,FALSE,FALSE,FALSE,FALSE,FALSE,FALSE,FALSE,FALSE,FALSE,FALSE,6.974259739,79.91402496,0.7,135.6,328,TRUE,1,1,FALSE,FALSE,FALSE,FALSE,,TRUE,FALSE,FALSE,Course Lock,246,,16.4,Calm,25,,1.12.8,Mavic Mini,1SDCH7G0169R0K,1SFLH6Q0AB03DJ,1SRCH7F014TAHX,1U5X071EXP6C9Y,108.4,0.2,19.6,10.551645,3.579104,0,341,Mavic Mini,1SDCH7G0169R0K,1SFLH6Q0AB03DJ,1SRCH7F014TAHX,1U5X071EXP6C9Y,DJI Fly,,1.12.8,0819B16F-C69B-A5C4-2D4C-D4FC3A1FC05C,1SDCH7G0169R0K,,,,,6.974277743,79.91401048,5,,
2/14/2024,22:19.2,7m 35.8s,455.8,6.974261542,79.9140239,2.9,2.9,3.6,53,1.6,0.223694,0.500194,0,0.447388,0.223694,0.223694,-1.342164,0,1.9,-1,-51.7,308.3,85.4,Tripod,Other,,15,5,TRUE,,Mavic Mini,TRUE,FALSE,,Smart,RC,FALSE,TRUE,FALSE,,,TRUE,,FALSE,FALSE,FALSE,FALSE,FALSE,FALSE,FALSE,FALSE,FALSE,FALSE,0,Follow Yaw,0,0,-40.6,319.4,FALSE,FALSE,FALSE,FALSE,FALSE,FALSE,,TRUE,Normal,,100,1024,1024,1405,1024,2,FALSE,FALSE,FALSE,FALSE,FALSE,0,FALSE,FALSE,FALSE,FALSE,64,7.523,1379,2138,7.52,FALSE,3.763,3.76,0.006,FALSE,FALSE,NA,115.3,115.3,115.3,0,0,3,0,5,4863.7,1215.92,,Idle,0,20,FALSE,5,TRUE,5,Go Home,FALSE,FALSE,FALSE,FALSE,FALSE,FALSE,FALSE,FALSE,FALSE,FALSE,FALSE,FALSE,6.974259739,79.91402496,0.7,135.6,328,TRUE,1,1,FALSE,FALSE,FALSE,FALSE,,TRUE,FALSE,FALSE,Course Lock,246,,16.4,Calm,25,,1.12.8,Mavic Mini,1SDCH7G0169R0K,1SFLH6Q0AB03DJ,1SRCH7F014TAHX,1U5X071EXP6C9Y,108.4,0.2,19.6,10.551645,3.579104,0,341,Mavic Mini,1SDCH7G0169R0K,1SFLH6Q0AB03DJ,1SRCH7F014TAHX,1U5X071EXP6C9Y,DJI Fly,,1.12.8,0819B16F-C69B-A5C4-2D4C-D4FC3A1FC05C,1SDCH7G0169R0K,,,,,6.974277743,79.91401048,5,,
2/14/2024,22:19.3,7m 35.9s,455.9,6.974261522,79.91402429,2.9,2.9,3.9,53,1.8,0,0.500194,0,0.447388,0,0.223694,-1.342164,0,1.6,-1.8,-51.7,308.3,,Tripod,Other,,15,5,TRUE,,Mavic Mini,TRUE,FALSE,,Smart,RC,FALSE,TRUE,FALSE,,,TRUE,,FALSE,FALSE,FALSE,FALSE,FALSE,FALSE,FALSE,FALSE,FALSE,FALSE,0,Follow Yaw,0,0,-40.6,319.4,FALSE,FALSE,FALSE,FALSE,FALSE,FALSE,,TRUE,Normal,,100,1024,1024,1398,1024,2,FALSE,FALSE,FALSE,FALSE,FALSE,0,FALSE,FALSE,FALSE,FALSE,64,7.523,1379,2138,7.52,FALSE,3.763,3.76,0.006,FALSE,FALSE,NA,115.3,115.3,115.3,0,0,3,0,5,4863.7,1215.92,,Idle,0,20,FALSE,5,TRUE,5,Go Home,FALSE,FALSE,FALSE,FALSE,FALSE,FALSE,FALSE,FALSE,FALSE,FALSE,FALSE,FALSE,6.974259739,79.91402496,0.6,135.6,328,TRUE,1,1,FALSE,FALSE,FALSE,FALSE,,TRUE,FALSE,FALSE,Course Lock,246,,16.4,Calm,25,,1.12.8,Mavic Mini,1SDCH7G0169R0K,1SFLH6Q0AB03DJ,1SRCH7F014TAHX,1U5X071EXP6C9Y,108.4,0.2,19.6,10.551645,3.579104,0,341,Mavic Mini,1SDCH7G0169R0K,1SFLH6Q0AB03DJ,1SRCH7F014TAHX,1U5X071EXP6C9Y,DJI Fly,,1.12.8,0819B16F-C69B-A5C4-2D4C-D4FC3A1FC05C,1SDCH7G0169R0K,,,,,6.974277743,79.91401048,5,,
2/14/2024,22:19.4,7m 36.0s,456,6.974261549,79.91402439,3.2,3.2,4.2,53,1.8,0,0.500194,0,0.447388,0,0.223694,-1.342164,0,2.1,-1,-51.8,308.2,,Tripod,Other,,15,5,TRUE,,Mavic Mini,TRUE,FALSE,,Smart,RC,FALSE,TRUE,FALSE,,,TRUE,,FALSE,FALSE,FALSE,FALSE,FALSE,FALSE,FALSE,FALSE,FALSE,FALSE,0,Follow Yaw,0,0,-40.6,319.4,FALSE,FALSE,FALSE,FALSE,FALSE,FALSE,,TRUE,Normal,,100,1024,1024,1408,1024,2,FALSE,FALSE,FALSE,FALSE,FALSE,0,FALSE,FALSE,FALSE,FALSE,64,7.523,1379,2138,7.52,FALSE,3.763,3.76,0.006,FALSE,FALSE,NA,115.3,115.3,115.3,0,0,3,0,5,4863.7,1215.92,,Idle,0,20,FALSE,5,TRUE,5,Go Home,FALSE,FALSE,FALSE,FALSE,FALSE,FALSE,FALSE,FALSE,FALSE,FALSE,FALSE,FALSE,6.974259739,79.91402496,0.6,135.6,328,TRUE,1,1,FALSE,FALSE,FALSE,FALSE,,TRUE,FALSE,FALSE,Course Lock,246,,16.4,Calm,25,,1.12.8,Mavic Mini,1SDCH7G0169R0K,1SFLH6Q0AB03DJ,1SRCH7F014TAHX,1U5X071EXP6C9Y,108.4,0.2,19.6,10.551645,3.579104,0,341,Mavic Mini,1SDCH7G0169R0K,1SFLH6Q0AB03DJ,1SRCH7F014TAHX,1U5X071EXP6C9Y,DJI Fly,,1.12.8,0819B16F-C69B-A5C4-2D4C-D4FC3A1FC05C,1SDCH7G0169R0K,,,,,6.974277743,79.91401048,5,,
2/14/2024,22:19.5,7m 36.1s,456.1,6.974261582,79.91402443,3.2,3.2,4.2,53,1.8,0,0.500194,0,0.447388,0,0.223694,-1.342164,0,2.3,-1,-51.8,308.2,,Tripod,Other,,15,5,TRUE,,Mavic Mini,TRUE,FALSE,,Smart,RC,FALSE,TRUE,FALSE,,,TRUE,,FALSE,FALSE,FALSE,FALSE,FALSE,FALSE,FALSE,FALSE,FALSE,FALSE,0,Follow Yaw,0,0,-40.6,319.4,FALSE,FALSE,FALSE,FALSE,FALSE,FALSE,,TRUE,Normal,,100,1024,1024,1429,1024,2,FALSE,FALSE,FALSE,FALSE,FALSE,0,FALSE,FALSE,FALSE,FALSE,64,7.523,1379,2138,7.52,FALSE,3.763,3.76,0.006,FALSE,FALSE,NA,115.3,115.3,115.3,0,0,3,0,5,4863.7,1215.92,,Idle,0,20,FALSE,5,TRUE,5,Go Home,FALSE,FALSE,FALSE,FALSE,FALSE,FALSE,FALSE,FALSE,FALSE,FALSE,FALSE,FALSE,6.974259739,79.91402496,0.6,135.6,328,TRUE,1,1,FALSE,FALSE,FALSE,FALSE,,TRUE,FALSE,FALSE,Course Lock,246,,16.4,Calm,25,,1.12.8,Mavic Mini,1SDCH7G0169R0K,1SFLH6Q0AB03DJ,1SRCH7F014TAHX,1U5X071EXP6C9Y,108.4,0.2,19.6,10.551645,3.579104,0,341,Mavic Mini,1SDCH7G0169R0K,1SFLH6Q0AB03DJ,1SRCH7F014TAHX,1U5X071EXP6C9Y,DJI Fly,,1.12.8,0819B16F-C69B-A5C4-2D4C-D4FC3A1FC05C,1SDCH7G0169R0K,,,,,6.974277743,79.91401048,5,,
2/14/2024,22:19.6,7m 36.2s,456.2,6.974261637,79.91402443,3.6,3.6,4.5,53,1.8,0,0.500194,0,0.447388,0,0.223694,-1.342164,0,2.4,-1.1,-51.8,308.2,,Tripod,Other,,15,5,TRUE,,Mavic Mini,TRUE,FALSE,,Smart,RC,FALSE,TRUE,FALSE,,,TRUE,,FALSE,FALSE,FALSE,FALSE,FALSE,FALSE,FALSE,FALSE,FALSE,FALSE,0,Follow Yaw,0,0,-40.6,319.4,FALSE,FALSE,FALSE,FALSE,FALSE,FALSE,,TRUE,Normal,,100,1024,1024,1429,1024,2,FALSE,FALSE,FALSE,FALSE,FALSE,0,FALSE,FALSE,FALSE,FALSE,64,7.523,1379,2138,7.52,FALSE,3.763,3.76,0.006,FALSE,FALSE,NA,115.3,115.3,115.3,0,0,3,0,5,4863.7,1215.92,,Idle,0,20,FALSE,5,TRUE,5,Go Home,FALSE,FALSE,FALSE,FALSE,FALSE,FALSE,FALSE,FALSE,FALSE,FALSE,FALSE,FALSE,6.974259739,79.91402496,0.7,135.6,328,TRUE,1,1,FALSE,FALSE,FALSE,FALSE,,TRUE,FALSE,FALSE,Course Lock,246,,16.4,Calm,25,,1.12.8,Mavic Mini,1SDCH7G0169R0K,1SFLH6Q0AB03DJ,1SRCH7F014TAHX,1U5X071EXP6C9Y,108.4,0.2,19.6,10.551645,3.579104,0,341,Mavic Mini,1SDCH7G0169R0K,1SFLH6Q0AB03DJ,1SRCH7F014TAHX,1U5X071EXP6C9Y,DJI Fly,,1.12.8,0819B16F-C69B-A5C4-2D4C-D4FC3A1FC05C,1SDCH7G0169R0K,,,,,6.974277743,79.91401048,5,,
2/14/2024,22:19.6,7m 36.3s,456.3,6.974261882,79.91402415,3.6,3.6,4.9,53,2,0,0.500194,0,0.447388,0,0.223694,-1.342164,0,2.6,-0.9,-51.8,308.2,,Tripod,Other,,15,5,TRUE,,Mavic Mini,TRUE,FALSE,,Smart,RC,FALSE,TRUE,FALSE,,,TRUE,,FALSE,FALSE,FALSE,FALSE,FALSE,FALSE,FALSE,FALSE,FALSE,FALSE,0,Follow Yaw,0,0,-40.6,319.4,FALSE,FALSE,FALSE,FALSE,FALSE,FALSE,,TRUE,Normal,,100,1024,1024,1428,1024,2,FALSE,FALSE,FALSE,FALSE,FALSE,0,FALSE,FALSE,FALSE,FALSE,64,7.523,1379,2138,7.52,FALSE,3.763,3.76,0.006,FALSE,FALSE,NA,115.3,115.3,115.3,0,0,3,0,5,4863.7,1215.92,,Idle,0,20,FALSE,5,TRUE,5,Go Home,FALSE,FALSE,FALSE,FALSE,FALSE,FALSE,FALSE,FALSE,FALSE,FALSE,FALSE,FALSE,6.974259739,79.91402496,0.8,135.6,328,TRUE,1,1,FALSE,FALSE,FALSE,FALSE,,TRUE,FALSE,FALSE,Course Lock,246,,16.4,Calm,25,,1.12.8,Mavic Mini,1SDCH7G0169R0K,1SFLH6Q0AB03DJ,1SRCH7F014TAHX,1U5X071EXP6C9Y,108.4,0.2,19.6,10.551645,3.579104,0,341,Mavic Mini,1SDCH7G0169R0K,1SFLH6Q0AB03DJ,1SRCH7F014TAHX,1U5X071EXP6C9Y,DJI Fly,,1.12.8,0819B16F-C69B-A5C4-2D4C-D4FC3A1FC05C,1SDCH7G0169R0K,,,,,6.974277743,79.91401048,5,,
