CUSTOM.date [local],CUSTOM.updateTime [local],OSD.flyTime,OSD.flyTime [s],OSD.latitude,OSD.longitude,OSD.height [ft],OSD.heightMax [ft],OSD.vpsHeight [ft],OSD.altitude [ft],OSD.mileage [ft],OSD.hSpeed [MPH],OSD.hSpeedMax [MPH],OSD.xSpeed [MPH],OSD.xSpeedMax [MPH],OSD.ySpeed [MPH],OSD.ySpeedMax [MPH],OSD.zSpeed [MPH],OSD.zSpeedMax [MPH],OSD.pitch,OSD.roll,OSD.yaw,OSD.yaw [360],OSD.directionOfTravel,OSD.flycState,OSD.flycCommand,OSD.flightAction,OSD.gpsNum,OSD.gpsLevel,OSD.isGPSUsed,OSD.nonGPSCause,OSD.droneType,OSD.isSwaveWork,OSD.waveError,OSD.goHomeStatus,OSD.batteryType,OSD.ctrlDevice,OSD.isOnGround,OSD.isMotorOn,OSD.isMotorBlocked,OSD.motorStartFailedCause,OSD.motorFailReason,OSD.isImuPreheated,OSD.imuInitFailReason,OSD.isAcceletorOverRange,OSD.isBarometerDeadInAir,OSD.isCompassError,OSD.isGoHomeHeightModified,OSD.canIOCWork,OSD.isNotEnoughForce,OSD.isOutOfLimit,OSD.isPropellerCatapult,OSD.isVibrating,OSD.isVisionUsed,OSD.voltageWarning,GIMBAL.mode,GIMBAL.pitch,GIMBAL.roll,GIMBAL.yaw,GIMBAL.yaw [360],GIMBAL.isPitchAtLimit,GIMBAL.isRollAtLimit,GIMBAL.isYawAtLimit,GIMBAL.isStuck,CAMERA.isPhoto,CAMERA.isVideo,CAMERA.filename,CAMERA.sdCardIsInserted,CAMERA.sdCardState,RC.downlinkSignal,RC.uplinkSignal,RC.aileron,RC.elevator,RC.throttle,RC.rudder,RC.mode,RC.goHomeDepressed,RC.recordDepressed,RC.shutterDepressed,RC.playbackDepressed,RC.wheelDepressed,RC.wheelOffset,RC.custom1Depressed,RC.custom2Depressed,RC.custom3Depressed,RC.custom4Depressed,BATTERY.chargeLevel,BATTERY.currentPV [V],BATTERY.currentCapacity [mAh],BATTERY.fullCapacity [mAh],BATTERY.voltage [V],BATTERY.isCellVoltageEstimated,BATTERY.cellVoltage1 [V],BATTERY.cellVoltage2 [V],BATTERY.maxCellVoltageDeviation,BATTERY.isCellVoltageDeviationHigh,BATTERY.isVoltageLow,BATTERY.current [A],BATTERY.temperature [F],BATTERY.minTemperature [F],BATTERY.maxTemperature [F],BATTERY.usefulTime [s],BATTERY.goHomeTime [s],BATTERY.landTime [s],BATTERY.goHomeBattery,BATTERY.landBattery,BATTERY.safeFlyRadius,BATTERY.volumeConsume,BATTERY.status,BATTERY.goHomeStatus,BATTERY.goHomeCountdown,BATTERY.lowWarning,BATTERY.lowWarningGoHome,BATTERY.seriousLowWarning,BATTERY.seriousLowWarningLanding,BATTERY.timesCharged,MC.failSafeAction,MC.isObstacleAvoidanceEnabled,MC.isCollisionAvoidanceEnabled,MC.isRthObstacleAvoidanceEnabled,MC.isBraking,MC.isAvoidingObstacle,MC.isAvoidingActiveObstacle,MC.isAscentLimitedByObstacle,MC.isLandingConfirmationNeeded,MC.atLowAltitudeLimit,MC.atDistanceLimit,MC.atAirportAltitudeLimit,MC.atAirportBoundary,HOME.latitude,HOME.longitude,HOME.distance [ft],HOME.height [ft],HOME.heightLimit [ft],HOME.isHomeRecord,HOME.goHomeMode,HOME.aircraftHeadDirection,HOME.isDynamicHomePointEnabled,HOME.isReachedLimitDistance,HOME.isReachedLimitHeight,HOME.isCompassCalibrating,HOME.compassCalibrationState,HOME.isMultipleFlightModeEnabled,HOME.isBeginnerMode,HOME.isIOCEnabled,HOME.iocMode,HOME.goHomeHeight [ft],HOME.courseLockAngle,HOME.forceLandingHeight [ft],HOME.wind,HOME.dataRecorderFileIndex,RECOVER.appType,RECOVER.appVersion,RECOVER.aircraftName,RECOVER.aircraftSerial,RECOVER.cameraSerial,RECOVER.rcSerial,RECOVER.batterySerial,DETAILS.totalTime [s],DETAILS.totalDistance [ft],DETAILS.maxHeight [ft],DETAILS.maxHorizontalSpeed [MPH],DETAILS.maxVerticalSpeed [MPH],DETAILS.photoNum,DETAILS.videoTime [s],DETAILS.aircraftName,DETAILS.aircraftSerial,DETAILS.cameraSerial,DETAILS.rcSerial,DETAILS.batterySerial,DETAILS.appName,DETAILS.appType,DETAILS.appVersion,DETAILS.guid,SERIAL.flightController,SERIAL.camera,SERIAL.gimbal,SERIAL.rc,SERIAL.battery,APPGPS.latitude,APPGPS.longitude,APPGPS.accuracy,APP.tip,APP.warning
1/30/2024,43:18.5,0m 0.0s,0,6.974831971,79.91476172,0,0,0.3,64,0,0,0,0,0,0,0,0,0,3.9,0.3,169.2,169.2,,Starting Motors,Auto Fly,Takeoff (App Auto),8,4,TRUE,,Mavic Mini,FALSE,FALSE,,Smart,RC,TRUE,TRUE,FALSE,,,TRUE,,FALSE,FALSE,FALSE,FALSE,FALSE,FALSE,FALSE,FALSE,FALSE,FALSE,0,Follow Yaw,0,0,171.3,171.3,FALSE,FALSE,FALSE,FALSE,FALSE,FALSE,,TRUE,Normal,,,1024,1024,1024,1024,1,FALSE,FALSE,FALSE,FALSE,FALSE,0,FALSE,FALSE,FALSE,FALSE,97,8.191,1995,2055,8.191,TRUE,4.096,4.096,,FALSE,FALSE,NA,79.5,79.5,79.5,,,,,,,,,Idle,,,TRUE,,FALSE,8,Go Home,FALSE,FALSE,FALSE,FALSE,FALSE,FALSE,FALSE,FALSE,FALSE,FALSE,FALSE,FALSE,,,,,,FALSE,,,FALSE,FALSE,FALSE,FALSE,,FALSE,FALSE,FALSE,,,,,Calm,,,1.12.6,Mavic Mini,1SDCH7G0169R0K,1SFLH6Q0AB03DJ,1SRCH7F014TAHX,1U5X071EXP5ZJG,119.8,0.1,98.4,3.607065,4.47388,0,0,Mavic Mini,1SDCH7G0169R0K,1SFLH6Q0AB03DJ,1SRCH7F014TAHX,1U5X071EXP5ZJG,DJI Fly,,1.12.6,90A4C2A7-88E9-8536-1624-051FA4A3955C,1SDCH7G0169R0K,,,,,,,,Flight mode changed to Starting Motors.,
1/30/2024,43:18.6,0m 0.1s,0.1,6.974831931,79.91476169,0,0,0.3,64,0,0,0,0,0,0,0,0,0,4,0.3,169.2,169.2,,Starting Motors,Auto Fly,Takeoff (App Auto),8,4,TRUE,,Mavic Mini,FALSE,FALSE,,Smart,RC,TRUE,TRUE,FALSE,,,TRUE,,FALSE,FALSE,FALSE,FALSE,FALSE,FALSE,FALSE,FALSE,FALSE,FALSE,0,Follow Yaw,0,0,171.3,171.3,FALSE,FALSE,FALSE,FALSE,FALSE,FALSE,,TRUE,Normal,,100,1024,1024,1024,1024,1,FALSE,FALSE,FALSE,FALSE,FALSE,0,FALSE,FALSE,FALSE,FALSE,97,8.191,1995,2055,8.191,TRUE,4.096,4.096,,FALSE,FALSE,NA,79.5,79.5,79.5,,,,,,,,,Idle,,,TRUE,,FALSE,8,Go Home,FALSE,FALSE,FALSE,FALSE,FALSE,FALSE,FALSE,FALSE,FALSE,FALSE,FALSE,FALSE,,,,,,FALSE,,,FALSE,FALSE,FALSE,FALSE,,FALSE,FALSE,FALSE,,,,,Calm,,,1.12.6,Mavic Mini,1SDCH7G0169R0K,1SFLH6Q0AB03DJ,1SRCH7F014TAHX,1U5X071EXP5ZJG,119.8,0.1,98.4,3.607065,4.47388,0,0,Mavic Mini,1SDCH7G0169R0K,1SFLH6Q0AB03DJ,1SRCH7F014TAHX,1U5X071EXP5ZJG,DJI Fly,,1.12.6,90A4C2A7-88E9-8536-1624-051FA4A3955C,1SDCH7G0169R0K,,,,,,,,,
1/30/2024,43:18.7,0m 0.2s,0.2,6.974831914,79.91476165,0,0,0.3,64,0,0,0,0,0,0,0,0,0,4,0.3,169.2,169.2,,Starting Motors,Auto Fly,Takeoff (App Auto),8,4,TRUE,,Mavic Mini,TRUE,FALSE,,Smart,RC,TRUE,TRUE,FALSE,,,TRUE,,FALSE,FALSE,FALSE,FALSE,FALSE,FALSE,FALSE,FALSE,FALSE,FALSE,0,Follow Yaw,0,0,171.3,171.3,FALSE,FALSE,FALSE,FALSE,FALSE,FALSE,,TRUE,Normal,,100,1024,1024,1024,1024,1,FALSE,FALSE,FALSE,FALSE,FALSE,0,FALSE,FALSE,FALSE,FALSE,97,8.191,1995,2055,8.191,TRUE,4.096,4.096,,FALSE,FALSE,NA,79.5,79.5,79.5,,,,,,,,,Idle,,,TRUE,,FALSE,8,Go Home,FALSE,FALSE,FALSE,FALSE,FALSE,FALSE,FALSE,FALSE,FALSE,FALSE,FALSE,FALSE,,,,,,FALSE,,,FALSE,FALSE,FALSE,FALSE,,FALSE,FALSE,FALSE,,,,,Calm,,,1.12.6,Mavic Mini,1SDCH7G0169R0K,1SFLH6Q0AB03DJ,1SRCH7F014TAHX,1U5X071EXP5ZJG,119.8,0.1,98.4,3.607065,4.47388,0,0,Mavic Mini,1SDCH7G0169R0K,1SFLH6Q0AB03DJ,1SRCH7F014TAHX,1U5X071EXP5ZJG,DJI Fly,,1.12.6,90A4C2A7-88E9-8536-1624-051FA4A3955C,1SDCH7G0169R0K,,,,,,,,,
1/30/2024,43:18.7,0m 0.3s,0.3,6.974831935,79.91476158,0,0,0.3,64,0,0,0,0,0,0,0,0,0,3.9,0.3,169.2,169.2,,Starting Motors,Auto Fly,Takeoff (App Auto),8,4,TRUE,,Mavic Mini,TRUE,FALSE,,Smart,RC,TRUE,TRUE,FALSE,,,TRUE,,FALSE,FALSE,FALSE,FALSE,FALSE,FALSE,FALSE,FALSE,FALSE,FALSE,0,Follow Yaw,0,0,171.3,171.3,FALSE,FALSE,FALSE,FALSE,FALSE,FALSE,,TRUE,Normal,,100,1024,1024,1024,1024,1,FALSE,FALSE,FALSE,FALSE,FALSE,0,FALSE,FALSE,FALSE,FALSE,97,8.189,1995,2055,8.189,FALSE,4.097,4.092,0.005,FALSE,FALSE,NA,79.5,79.5,79.5,,,,,,,,,Idle,,,TRUE,,FALSE,8,Go Home,FALSE,FALSE,FALSE,FALSE,FALSE,FALSE,FALSE,FALSE,FALSE,FALSE,FALSE,FALSE,,,,,,FALSE,,,FALSE,FALSE,FALSE,FALSE,,FALSE,FALSE,FALSE,,,,,Calm,,,1.12.6,Mavic Mini,1SDCH7G0169R0K,1SFLH6Q0AB03DJ,1SRCH7F014TAHX,1U5X071EXP5ZJG,119.8,0.1,98.4,3.607065,4.47388,0,0,Mavic Mini,1SDCH7G0169R0K,1SFLH6Q0AB03DJ,1SRCH7F014TAHX,1U5X071EXP5ZJG,DJI Fly,,1.12.6,90A4C2A7-88E9-8536-1624-051FA4A3955C,1SDCH7G0169R0K,,,,,,,,Home Point updated. RTH altitude adjusted to 40 m! (Code: 120852).,
1/30/2024,43:18.8,0m 0.4s,0.4,6.9748319,79.91476152,0,0,0.3,64,0,0,0,0,0,0,0,0,0,4,0.3,169.2,169.2,,Starting Motors,Auto Fly,Takeoff (App Auto),8,4,TRUE,,Mavic Mini,TRUE,FALSE,,Smart,RC,TRUE,TRUE,FALSE,,,TRUE,,FALSE,FALSE,FALSE,FALSE,FALSE,FALSE,FALSE,FALSE,FALSE,FALSE,0,Follow Yaw,0,0,171.3,171.3,FALSE,FALSE,FALSE,FALSE,FALSE,FALSE,,TRUE,Normal,,100,1024,1024,1024,1024,1,FALSE,FALSE,FALSE,FALSE,FALSE,0,FALSE,FALSE,FALSE,FALSE,97,8.189,1995,2055,8.189,FALSE,4.097,4.092,0.005,FALSE,FALSE,NA,79.5,79.5,79.5,,,,,,,,,Idle,,,TRUE,,FALSE,8,Go Home,FALSE,FALSE,FALSE,FALSE,FALSE,FALSE,FALSE,FALSE,FALSE,FALSE,FALSE,FALSE,,,,,,FALSE,,,FALSE,FALSE,FALSE,FALSE,,FALSE,FALSE,FALSE,,,,,Calm,,,1.12.6,Mavic Mini,1SDCH7G0169R0K,1SFLH6Q0AB03DJ,1SRCH7F014TAHX,1U5X071EXP5ZJG,119.8,0.1,98.4,3.607065,4.47388,0,0,Mavic Mini,1SDCH7G0169R0K,1SFLH6Q0AB03DJ,1SRCH7F014TAHX,1U5X071EXP5ZJG,DJI Fly,,1.12.6,90A4C2A7-88E9-8536-1624-051FA4A3955C,1SDCH7G0169R0K,,,,,,,,,
1/30/2024,43:18.9,0m 0.5s,0.5,6.974831858,79.9147615,0,0,0.3,64,0,0,0,0,0,0,0,0,0,3.9,0.3,169.2,169.2,,Starting Motors,Auto Fly,Takeoff (App Auto),8,4,TRUE,,Mavic Mini,TRUE,FALSE,,Smart,RC,TRUE,TRUE,FALSE,,,TRUE,,FALSE,FALSE,FALSE,FALSE,FALSE,FALSE,FALSE,FALSE,FALSE,FALSE,0,Follow Yaw,0,0,171.3,171.3,FALSE,FALSE,FALSE,FALSE,FALSE,FALSE,,TRUE,Normal,,100,1024,1024,1024,1024,1,FALSE,FALSE,FALSE,FALSE,FALSE,0,FALSE,FALSE,FALSE,FALSE,97,8.189,1995,2055,8.189,FALSE,4.097,4.092,0.005,FALSE,FALSE,NA,79.5,79.5,79.5,,,,,,,,,Idle,,,TRUE,,FALSE,8,Go Home,FALSE,FALSE,FALSE,FALSE,FALSE,FALSE,FALSE,FALSE,FALSE,FALSE,FALSE,FALSE,,,,,,FALSE,,,FALSE,FALSE,FALSE,FALSE,,FALSE,FALSE,FALSE,,,,,Calm,,,1.12.6,Mavic Mini,1SDCH7G0169R0K,1SFLH6Q0AB03DJ,1SRCH7F014TAHX,1U5X071EXP5ZJG,119.8,0.1,98.4,3.607065,4.47388,0,0,Mavic Mini,1SDCH7G0169R0K,1SFLH6Q0AB03DJ,1SRCH7F014TAHX,1U5X071EXP5ZJG,DJI Fly,,1.12.6,90A4C2A7-88E9-8536-1624-051FA4A3955C,1SDCH7G0169R0K,,,,,,,,,
1/30/2024,43:19.0,0m 0.6s,0.6,6.97483181,79.91476149,0,0,0.3,64,0.1,0,0,0,0,0,0,0,0,4.2,0.2,169.1,169.1,,Starting Motors,Auto Fly,Takeoff (App Auto),8,4,TRUE,,Mavic Mini,TRUE,FALSE,,Smart,RC,TRUE,TRUE,FALSE,,,TRUE,,FALSE,FALSE,FALSE,FALSE,FALSE,FALSE,FALSE,FALSE,FALSE,FALSE,0,Follow Yaw,0,0,171.3,171.3,FALSE,FALSE,FALSE,FALSE,FALSE,FALSE,,TRUE,Normal,,100,1024,1024,1024,1024,1,FALSE,FALSE,FALSE,FALSE,FALSE,0,FALSE,FALSE,FALSE,FALSE,97,8.189,1995,2055,8.173,FALSE,4.097,4.092,0.005,FALSE,FALSE,NA,79.5,79.5,79.5,0,0,0,0,5,2353.6,588.4,,Idle,0,20,FALSE,5,TRUE,8,Go Home,FALSE,FALSE,FALSE,FALSE,FALSE,FALSE,FALSE,FALSE,FALSE,FALSE,FALSE,FALSE,6.974832624,79.91476298,0.6,95.2,459.3,TRUE,1,1,FALSE,FALSE,FALSE,FALSE,,TRUE,FALSE,FALSE,Course Lock,131.2,295.4,16.4,Calm,88,,1.12.6,Mavic Mini,1SDCH7G0169R0K,1SFLH6Q0AB03DJ,1SRCH7F014TAHX,1U5X071EXP5ZJG,119.8,0.1,98.4,3.607065,4.47388,0,0,Mavic Mini,1SDCH7G0169R0K,1SFLH6Q0AB03DJ,1SRCH7F014TAHX,1U5X071EXP5ZJG,DJI Fly,,1.12.6,90A4C2A7-88E9-8536-1624-051FA4A3955C,1SDCH7G0169R0K,,,,,,,,Data Recorder File Index is 88.; Set Return to Home (RTH) altitude to 40 m (131 ft).; Set maximum flight altitude to 140 m (459 ft).,
1/30/2024,43:19.2,0m 0.7s,0.7,6.97483176,79.91476146,0,0,0.3,64,0.1,0,0,0,0,0,0,0,0,4.1,0.2,168.9,168.9,,Starting Motors,Auto Fly,Takeoff (App Auto),8,4,TRUE,,Mavic Mini,TRUE,FALSE,,Smart,RC,TRUE,TRUE,FALSE,,,TRUE,,FALSE,FALSE,FALSE,FALSE,FALSE,FALSE,FALSE,FALSE,FALSE,FALSE,0,Follow Yaw,0,0,171.3,171.3,FALSE,FALSE,FALSE,FALSE,FALSE,FALSE,,TRUE,Normal,,100,1024,1024,1024,1024,1,FALSE,FALSE,FALSE,FALSE,FALSE,0,FALSE,FALSE,FALSE,FALSE,97,8.189,1995,2055,8.173,FALSE,4.097,4.092,0.005,FALSE,FALSE,NA,79.5,79.5,79.5,0,0,0,0,5,2353.6,588.4,,Idle,0,20,FALSE,5,TRUE,8,Go Home,FALSE,FALSE,FALSE,FALSE,FALSE,FALSE,FALSE,FALSE,FALSE,FALSE,FALSE,FALSE,6.974832624,79.91476298,0.6,95.2,459.3,TRUE,1,1,FALSE,FALSE,FALSE,FALSE,,TRUE,FALSE,FALSE,Course Lock,131.2,295.4,16.4,Calm,88,,1.12.6,Mavic Mini,1SDCH7G0169R0K,1SFLH6Q0AB03DJ,1SRCH7F014TAHX,1U5X071EXP5ZJG,119.8,0.1,98.4,3.607065,4.47388,0,0,Mavic Mini,1SDCH7G0169R0K,1SFLH6Q0AB03DJ,1SRCH7F014TAHX,1U5X071EXP5ZJG,DJI Fly,,1.12.6,90A4C2A7-88E9-8536-1624-051FA4A3955C,1SDCH7G0169R0K,,,,,,,,,
1/30/2024,43:19.3,0m 0.8s,0.8,6.974831672,79.91476146,0,0,0.3,64,0.1,0,0,0,0,0,0,0,0,4.1,0.2,168.9,168.9,,Starting Motors,Auto Fly,Takeoff (App Auto),8,4,TRUE,,Mavic Mini,TRUE,FALSE,,Smart,RC,TRUE,TRUE,FALSE,,,TRUE,,FALSE,FALSE,FALSE,FALSE,FALSE,FALSE,FALSE,FALSE,FALSE,FALSE,0,Follow Yaw,0,0,171.3,171.3,FALSE,FALSE,FALSE,FALSE,FALSE,FALSE,,TRUE,Normal,,100,1024,1024,1024,1024,1,FALSE,FALSE,FALSE,FALSE,FALSE,0,FALSE,FALSE,FALSE,FALSE,97,8.189,1995,2055,8.173,FALSE,4.097,4.092,0.005,FALSE,FALSE,NA,79.5,79.5,79.5,0,0,0,0,5,2353.6,588.4,,Idle,0,20,FALSE,5,TRUE,8,Go Home,FALSE,FALSE,FALSE,FALSE,FALSE,FALSE,FALSE,FALSE,FALSE,FALSE,FALSE,FALSE,6.974832624,79.91476298,0.6,95.2,459.3,TRUE,1,1,FALSE,FALSE,FALSE,FALSE,,TRUE,FALSE,FALSE,Course Lock,131.2,295.4,16.4,Calm,88,,1.12.6,Mavic Mini,1SDCH7G0169R0K,1SFLH6Q0AB03DJ,1SRCH7F014TAHX,1U5X071EXP5ZJG,119.8,0.1,98.4,3.607065,4.47388,0,0,Mavic Mini,1SDCH7G0169R0K,1SFLH6Q0AB03DJ,1SRCH7F014TAHX,1U5X071EXP5ZJG,DJI Fly,,1.12.6,90A4C2A7-88E9-8536-1624-051FA4A3955C,1SDCH7G0169R0K,,,,,,,,,
1/30/2024,43:19.4,0m 0.9s,0.9,6.97483166,79.91476141,0,0,0.3,64,0.1,0,0,0,0,0,0,0,0,4.1,0.2,169,169,,Starting Motors,Auto Fly,Takeoff (App Auto),8,4,TRUE,,Mavic Mini,TRUE,FALSE,,Smart,RC,TRUE,TRUE,FALSE,,,TRUE,,FALSE,FALSE,FALSE,FALSE,FALSE,FALSE,FALSE,FALSE,FALSE,FALSE,0,Follow Yaw,0,0,171.3,171.3,FALSE,FALSE,FALSE,FALSE,FALSE,FALSE,,TRUE,Normal,,100,1024,1024,1024,1024,1,FALSE,FALSE,FALSE,FALSE,FALSE,0,FALSE,FALSE,FALSE,FALSE,97,8.189,1995,2055,8.173,FALSE,4.097,4.092,0.005,FALSE,FALSE,NA,79.5,79.5,79.5,0,0,0,0,5,2353.6,588.4,,Idle,0,20,FALSE,5,TRUE,8,Go Home,FALSE,FALSE,FALSE,FALSE,FALSE,FALSE,FALSE,FALSE,FALSE,FALSE,FALSE,FALSE,6.974832624,79.91476298,0.6,95.2,459.3,TRUE,1,1,FALSE,FALSE,FALSE,FALSE,,TRUE,FALSE,FALSE,Course Lock,131.2,295.4,16.4,Calm,88,,1.12.6,Mavic Mini,1SDCH7G0169R0K,1SFLH6Q0AB03DJ,1SRCH7F014TAHX,1U5X071EXP5ZJG,119.8,0.1,98.4,3.607065,4.47388,0,0,Mavic Mini,1SDCH7G0169R0K,1SFLH6Q0AB03DJ,1SRCH7F014TAHX,1U5X071EXP5ZJG,DJI Fly,,1.12.6,90A4C2A7-88E9-8536-1624-051FA4A3955C,1SDCH7G0169R0K,,,,,,,,,
1/30/2024,43:19.5,0m 1.0s,1,6.974831664,79.91476135,0,0,0.3,64,0.1,0,0,0,0,0,0,0,0,4.1,0.2,168.9,168.9,,Starting Motors,Auto Fly,Takeoff (App Auto),8,4,TRUE,,Mavic Mini,TRUE,FALSE,,Smart,RC,TRUE,TRUE,FALSE,,,TRUE,,FALSE,FALSE,FALSE,FALSE,FALSE,FALSE,FALSE,FALSE,FALSE,FALSE,0,Follow Yaw,0,0,171.3,171.3,FALSE,FALSE,FALSE,FALSE,FALSE,FALSE,,TRUE,Normal,,100,1024,1024,1024,1024,1,FALSE,FALSE,FALSE,FALSE,FALSE,0,FALSE,FALSE,FALSE,FALSE,97,8.189,1995,2055,8.173,FALSE,4.097,4.092,0.005,FALSE,FALSE,NA,79.5,79.5,79.5,0,0,0,0,5,2353.6,588.4,,Idle,0,20,FALSE,5,TRUE,8,Go Home,FALSE,FALSE,FALSE,FALSE,FALSE,FALSE,FALSE,FALSE,FALSE,FALSE,FALSE,FALSE,6.974832624,79.91476298,0.6,95.2,459.3,TRUE,1,1,FALSE,FALSE,FALSE,FALSE,,TRUE,FALSE,FALSE,Course Lock,131.2,295.4,16.4,Calm,88,,1.12.6,Mavic Mini,1SDCH7G0169R0K,1SFLH6Q0AB03DJ,1SRCH7F014TAHX,1U5X071EXP5ZJG,119.8,0.1,98.4,3.607065,4.47388,0,0,Mavic Mini,1SDCH7G0169R0K,1SFLH6Q0AB03DJ,1SRCH7F014TAHX,1U5X071EXP5ZJG,DJI Fly,,1.12.6,90A4C2A7-88E9-8536-1624-051FA4A3955C,1SDCH7G0169R0K,,,,,,,,,
1/30/2024,43:19.5,0m 1.1s,1.1,6.974831646,79.9147613,0,0,0.3,64,0.2,0,0,0,0,0,0,0,0,4.1,0.2,168.9,168.9,,Auto Takeoff,Auto Fly,Takeoff (App Auto),8,4,TRUE,,Mavic Mini,TRUE,FALSE,,Smart,RC,TRUE,TRUE,FALSE,,,TRUE,,FALSE,FALSE,FALSE,FALSE,FALSE,FALSE,FALSE,FALSE,FALSE,FALSE,0,Follow Yaw,0,0,171.3,171.3,FALSE,FALSE,FALSE,FALSE,FALSE,FALSE,,TRUE,Normal,,100,1024,1024,1024,1024,1,FALSE,FALSE,FALSE,FALSE,FALSE,0,FALSE,FALSE,FALSE,FALSE,97,8.189,1995,2055,8.173,FALSE,4.097,4.092,0.005,FALSE,FALSE,NA,79.5,79.5,79.5,0,0,0,0,5,2353.6,588.4,,Idle,0,20,FALSE,5,TRUE,8,Go Home,FALSE,FALSE,FALSE,FALSE,FALSE,FALSE,FALSE,FALSE,FALSE,FALSE,FALSE,FALSE,6.974832624,79.91476298,0.7,95.2,459.3,TRUE,1,1,FALSE,FALSE,FALSE,FALSE,,TRUE,FALSE,FALSE,Course Lock,131.2,295.4,16.4,Calm,88,,1.12.6,Mavic Mini,1SDCH7G0169R0K,1SFLH6Q0AB03DJ,1SRCH7F014TAHX,1U5X071EXP5ZJG,119.8,0.1,98.4,3.607065,4.47388,0,0,Mavic Mini,1SDCH7G0169R0K,1SFLH6Q0AB03DJ,1SRCH7F014TAHX,1U5X071EXP5ZJG,DJI Fly,,1.12.6,90A4C2A7-88E9-8536-1624-051FA4A3955C,1SDCH7G0169R0K,,,,,,,,Flight mode changed to Auto Takeoff.,
1/30/2024,43:19.6,0m 1.2s,1.2,6.974831645,79.91476119,0,0,0.3,64,0.2,0,0,0,0,0,0,0,0,4.1,0.2,169,169,,Auto Takeoff,Auto Fly,Takeoff (App Auto),8,4,TRUE,,Mavic Mini,TRUE,FALSE,,Smart,RC,TRUE,TRUE,FALSE,,,TRUE,,FALSE,FALSE,FALSE,FALSE,FALSE,FALSE,FALSE,FALSE,FALSE,FALSE,0,Follow Yaw,0,0,171.3,171.3,FALSE,FALSE,FALSE,FALSE,FALSE,FALSE,,TRUE,Normal,,100,1024,1024,1024,1024,1,FALSE,FALSE,FALSE,FALSE,FALSE,0,FALSE,FALSE,FALSE,FALSE,97,8.189,1995,2055,8.173,FALSE,4.097,4.092,0.005,FALSE,FALSE,NA,79.5,79.5,79.5,0,0,0,0,5,2353.6,588.4,,Idle,0,20,FALSE,5,TRUE,8,Go Home,FALSE,FALSE,FALSE,FALSE,FALSE,FALSE,FALSE,FALSE,FALSE,FALSE,FALSE,FALSE,6.974832624,79.91476298,0.7,95.2,459.3,TRUE,1,1,FALSE,FALSE,FALSE,FALSE,,TRUE,FALSE,FALSE,Course Lock,131.2,295.4,16.4,Calm,88,,1.12.6,Mavic Mini,1SDCH7G0169R0K,1SFLH6Q0AB03DJ,1SRCH7F014TAHX,1U5X071EXP5ZJG,119.8,0.1,98.4,3.607065,4.47388,0,0,Mavic Mini,1SDCH7G0169R0K,1SFLH6Q0AB03DJ,1SRCH7F014TAHX,1U5X071EXP5ZJG,DJI Fly,,1.12.6,90A4C2A7-88E9-8536-1624-051FA4A3955C,1SDCH7G0169R0K,,,,,,,,,
1/30/2024,43:19.7,0m 1.3s,1.3,6.974831637,79.91476117,0,0,0.3,64,0.2,0,0,0,0,0,0,0,0,4,0.2,168.9,168.9,,Auto Takeoff,Auto Fly,Takeoff (App Auto),8,4,TRUE,,Mavic Mini,TRUE,FALSE,,Smart,RC,TRUE,TRUE,FALSE,,,TRUE,,FALSE,FALSE,FALSE,FALSE,FALSE,FALSE,FALSE,FALSE,FALSE,FALSE,0,Follow Yaw,0,0,171.3,171.3,FALSE,FALSE,FALSE,FALSE,FALSE,FALSE,,TRUE,Normal,,100,1024,1024,1024,1024,1,FALSE,FALSE,FALSE,FALSE,FALSE,0,FALSE,FALSE,FALSE,FALSE,97,8.189,1995,2055,8.173,FALSE,4.097,4.092,0.005,FALSE,FALSE,NA,79.5,79.5,79.5,0,0,0,0,5,2353.6,588.4,,Idle,0,20,FALSE,5,TRUE,8,Go Home,FALSE,FALSE,FALSE,FALSE,FALSE,FALSE,FALSE,FALSE,FALSE,FALSE,FALSE,FALSE,6.974832624,79.91476298,0.7,95.2,459.3,TRUE,1,1,FALSE,FALSE,FALSE,FALSE,,TRUE,FALSE,FALSE,Course Lock,131.2,295.4,16.4,Calm,88,,1.12.6,Mavic Mini,1SDCH7G0169R0K,1SFLH6Q0AB03DJ,1SRCH7F014TAHX,1U5X071EXP5ZJG,119.8,0.1,98.4,3.607065,4.47388,0,0,Mavic Mini,1SDCH7G0169R0K,1SFLH6Q0AB03DJ,1SRCH7F014TAHX,1U5X071EXP5ZJG,DJI Fly,,1.12.6,90A4C2A7-88E9-8536-1624-051FA4A3955C,1SDCH7G0169R0K,,,,,,,,,
1/30/2024,43:19.8,0m 1.4s,1.4,6.974831639,79.91476116,0,0,0.3,64,0.2,0,0,0,0,0,0,0,0,3.9,0.1,168.9,168.9,,Auto Takeoff,Auto Fly,Takeoff (App Auto),8,4,TRUE,,Mavic Mini,TRUE,FALSE,,Smart,RC,TRUE,TRUE,FALSE,,,TRUE,,FALSE,FALSE,FALSE,FALSE,FALSE,FALSE,FALSE,FALSE,FALSE,FALSE,0,Follow Yaw,0,0,171.3,171.3,FALSE,FALSE,FALSE,FALSE,FALSE,FALSE,,TRUE,Normal,,100,1024,1024,1024,1024,1,FALSE,FALSE,FALSE,FALSE,FALSE,0,FALSE,FALSE,FALSE,FALSE,97,8.189,1995,2055,8.173,FALSE,4.097,4.092,0.005,FALSE,FALSE,NA,79.5,79.5,79.5,0,0,0,0,5,2353.6,588.4,,Idle,0,20,FALSE,5,TRUE,8,Go Home,FALSE,FALSE,FALSE,FALSE,FALSE,FALSE,FALSE,FALSE,FALSE,FALSE,FALSE,FALSE,6.974832624,79.91476298,0.7,95.2,459.3,TRUE,1,1,FALSE,FALSE,FALSE,FALSE,,TRUE,FALSE,FALSE,Course Lock,131.2,295.4,16.4,Calm,88,,1.12.6,Mavic Mini,1SDCH7G0169R0K,1SFLH6Q0AB03DJ,1SRCH7F014TAHX,1U5X071EXP5ZJG,119.8,0.1,98.4,3.607065,4.47388,0,0,Mavic Mini,1SDCH7G0169R0K,1SFLH6Q0AB03DJ,1SRCH7F014TAHX,1U5X071EXP5ZJG,DJI Fly,,1.12.6,90A4C2A7-88E9-8536-1624-051FA4A3955C,1SDCH7G0169R0K,,,,,,,,,
1/30/2024,43:19.9,0m 1.5s,1.5,6.974831615,79.91476114,0,0,0.3,64,0.2,0,0,0,0,0,0,0,0,3.7,0.1,168.9,168.9,,Auto Takeoff,Auto Fly,Takeoff (App Auto),8,4,TRUE,,Mavic Mini,TRUE,FALSE,,Smart,RC,TRUE,TRUE,FALSE,,,TRUE,,FALSE,FALSE,FALSE,FALSE,FALSE,FALSE,FALSE,FALSE,FALSE,FALSE,0,Follow Yaw,0,0,171.3,171.3,FALSE,FALSE,FALSE,FALSE,FALSE,FALSE,,TRUE,Normal,,100,1024,1024,1024,1024,1,FALSE,FALSE,FALSE,FALSE,FALSE,0,FALSE,FALSE,FALSE,FALSE,97,8.123,1994,2055,8.173,FALSE,4.063,4.061,0.005,FALSE,FALSE,NA,79.5,79.5,79.5,0,0,0,0,5,2353.6,588.4,,Idle,0,20,FALSE,5,TRUE,8,Go Home,FALSE,FALSE,FALSE,FALSE,FALSE,FALSE,FALSE,FALSE,FALSE,FALSE,FALSE,FALSE,6.974832624,79.91476298,0.7,95.2,459.3,TRUE,1,1,FALSE,FALSE,FALSE,FALSE,,TRUE,FALSE,FALSE,Course Lock,131.2,295.4,16.4,Calm,88,,1.12.6,Mavic Mini,1SDCH7G0169R0K,1SFLH6Q0AB03DJ,1SRCH7F014TAHX,1U5X071EXP5ZJG,119.8,0.1,98.4,3.607065,4.47388,0,0,Mavic Mini,1SDCH7G0169R0K,1SFLH6Q0AB03DJ,1SRCH7F014TAHX,1U5X071EXP5ZJG,DJI Fly,,1.12.6,90A4C2A7-88E9-8536-1624-051FA4A3955C,1SDCH7G0169R0K,,,,,,,,,
1/30/2024,43:20.0,0m 1.6s,1.6,6.974831574,79.91476116,0,0,0.3,64,0.2,0,0,0,0,0,0,0,0,3.4,0,168.8,168.8,,Auto Takeoff,Auto Fly,Takeoff (App Auto),8,4,TRUE,,Mavic Mini,TRUE,FALSE,,Smart,RC,TRUE,TRUE,FALSE,,,TRUE,,FALSE,FALSE,FALSE,FALSE,FALSE,FALSE,FALSE,FALSE,FALSE,FALSE,0,Follow Yaw,0,0,171.3,171.3,FALSE,FALSE,FALSE,FALSE,FALSE,FALSE,,TRUE,Normal,,100,1024,1024,1024,1024,1,FALSE,FALSE,FALSE,FALSE,FALSE,0,FALSE,FALSE,FALSE,FALSE,97,8.123,1994,2055,8.156,FALSE,4.063,4.061,0.005,FALSE,FALSE,NA,79.5,79.5,79.5,0,0,0,0,5,2414.8,603.72,,Idle,0,20,FALSE,5,TRUE,8,Go Home,FALSE,FALSE,FALSE,FALSE,FALSE,FALSE,FALSE,FALSE,FALSE,FALSE,FALSE,FALSE,6.974832624,79.91476298,0.7,95.2,459.3,TRUE,1,1,FALSE,FALSE,FALSE,FALSE,,TRUE,FALSE,FALSE,Course Lock,131.2,295.4,16.4,Calm,88,,1.12.6,Mavic Mini,1SDCH7G0169R0K,1SFLH6Q0AB03DJ,1SRCH7F014TAHX,1U5X071EXP5ZJG,119.8,0.1,98.4,3.607065,4.47388,0,0,Mavic Mini,1SDCH7G0169R0K,1SFLH6Q0AB03DJ,1SRCH7F014TAHX,1U5X071EXP5ZJG,DJI Fly,,1.12.6,90A4C2A7-88E9-8536-1624-051FA4A3955C,1SDCH7G0169R0K,,,,,,,,,
1/30/2024,43:20.1,0m 1.7s,1.7,6.974831519,79.91476115,0,0,0.3,64,0.3,0,0,0,0,0,0,0,0,2.3,-0.2,168.5,168.5,,Auto Takeoff,Auto Fly,Takeoff (App Auto),8,4,TRUE,,Mavic Mini,TRUE,FALSE,,Smart,RC,TRUE,TRUE,FALSE,,,TRUE,,FALSE,FALSE,FALSE,FALSE,FALSE,FALSE,FALSE,FALSE,FALSE,FALSE,0,Follow Yaw,0,0,171.3,171.3,FALSE,FALSE,FALSE,FALSE,FALSE,FALSE,,TRUE,Normal,,100,1024,1024,1024,1024,1,FALSE,FALSE,FALSE,FALSE,FALSE,0,FALSE,FALSE,FALSE,FALSE,97,8.123,1994,2055,8.156,FALSE,4.063,4.061,0.005,FALSE,FALSE,NA,79.5,79.5,79.5,0,0,0,0,5,2414.8,603.72,,Idle,0,20,FALSE,5,TRUE,8,Go Home,FALSE,FALSE,FALSE,FALSE,FALSE,FALSE,FALSE,FALSE,FALSE,FALSE,FALSE,FALSE,6.974832624,79.91476298,0.7,95.2,459.3,TRUE,1,1,FALSE,FALSE,FALSE,FALSE,,TRUE,FALSE,FALSE,Course Lock,131.2,295.4,16.4,Calm,88,,1.12.6,Mavic Mini,1SDCH7G0169R0K,1SFLH6Q0AB03DJ,1SRCH7F014TAHX,1U5X071EXP5ZJG,119.8,0.1,98.4,3.607065,4.47388,0,0,Mavic Mini,1SDCH7G0169R0K,1SFLH6Q0AB03DJ,1SRCH7F014TAHX,1U5X071EXP5ZJG,DJI Fly,,1.12.6,90A4C2A7-88E9-8536-1624-051FA4A3955C,1SDCH7G0169R0K,,,,,,,,,
1/30/2024,43:20.2,0m 1.8s,1.8,6.974831454,79.91476114,0,0,0.3,64,0.3,0,0,0,0,0,0,0,0,1.9,-1.2,167.6,167.6,,Auto Takeoff,Auto Fly,Takeoff (App Auto),8,4,TRUE,,Mavic Mini,TRUE,FALSE,,Smart,RC,TRUE,TRUE,FALSE,,,TRUE,,FALSE,FALSE,FALSE,FALSE,FALSE,FALSE,FALSE,FALSE,FALSE,FALSE,0,Follow Yaw,0,0,171.2,171.2,FALSE,FALSE,FALSE,FALSE,FALSE,FALSE,,TRUE,Normal,,100,1024,1024,1024,1024,1,FALSE,FALSE,FALSE,FALSE,FALSE,0,FALSE,FALSE,FALSE,FALSE,97,8.123,1994,2055,8.156,FALSE,4.063,4.061,0.005,FALSE,FALSE,NA,79.5,79.5,79.5,0,0,0,0,5,2414.8,603.72,,Idle,0,20,FALSE,5,TRUE,8,Go Home,FALSE,FALSE,FALSE,FALSE,FALSE,FALSE,FALSE,FALSE,FALSE,FALSE,FALSE,FALSE,6.974832624,79.91476298,0.7,95.2,459.3,TRUE,1,1,FALSE,FALSE,FALSE,FALSE,,TRUE,FALSE,FALSE,Course Lock,131.2,295.4,16.4,Calm,88,,1.12.6,Mavic Mini,1SDCH7G0169R0K,1SFLH6Q0AB03DJ,1SRCH7F014TAHX,1U5X071EXP5ZJG,119.8,0.1,98.4,3.607065,4.47388,0,0,Mavic Mini,1SDCH7G0169R0K,1SFLH6Q0AB03DJ,1SRCH7F014TAHX,1U5X071EXP5ZJG,DJI Fly,,1.12.6,90A4C2A7-88E9-8536-1624-051FA4A3955C,1SDCH7G0169R0K,,,,,,,,,
1/30/2024,43:20.3,0m 1.9s,1.9,6.974831399,79.91476114,0,0,0.3,64,0.3,0,0,0,0,0,0,-0.447388,0,1,-1.3,167.1,167.1,,Auto Takeoff,Auto Fly,Takeoff (App Auto),8,4,TRUE,,Mavic Mini,TRUE,FALSE,,Smart,RC,FALSE,TRUE,FALSE,,,TRUE,,FALSE,FALSE,FALSE,FALSE,FALSE,FALSE,FALSE,FALSE,FALSE,FALSE,0,Follow Yaw,0,0,171.1,171.1,FALSE,FALSE,FALSE,FALSE,FALSE,FALSE,,TRUE,Normal,,100,1024,1024,1024,1024,1,FALSE,FALSE,FALSE,FALSE,FALSE,0,FALSE,FALSE,FALSE,FALSE,97,8.123,1994,2055,8.156,FALSE,4.063,4.061,0.005,FALSE,FALSE,NA,79.5,79.5,79.5,0,0,0,0,5,2414.8,603.72,,Idle,0,20,FALSE,5,TRUE,8,Go Home,FALSE,FALSE,FALSE,FALSE,FALSE,FALSE,FALSE,FALSE,TRUE,FALSE,FALSE,FALSE,6.974832624,79.91476298,0.8,95.2,459.3,TRUE,1,1,FALSE,FALSE,FALSE,FALSE,,TRUE,FALSE,FALSE,Course Lock,131.2,295.4,16.4,Calm,88,,1.12.6,Mavic Mini,1SDCH7G0169R0K,1SFLH6Q0AB03DJ,1SRCH7F014TAHX,1U5X071EXP5ZJG,119.8,0.1,98.4,3.607065,4.47388,0,0,Mavic Mini,1SDCH7G0169R0K,1SFLH6Q0AB03DJ,1SRCH7F014TAHX,1U5X071EXP5ZJG,DJI Fly,,1.12.6,90A4C2A7-88E9-8536-1624-051FA4A3955C,1SDCH7G0169R0K,,,,,,,,,
1/30/2024,43:20.4,0m 2.0s,2,6.974831269,79.91476127,0,0,0.3,64,0.4,0,0,0,0,0,0,-0.894776,0,0,-0.9,166.9,166.9,,Auto Takeoff,Auto Fly,Takeoff (App Auto),8,4,TRUE,,Mavic Mini,TRUE,FALSE,,Smart,RC,FALSE,TRUE,FALSE,,,TRUE,,FALSE,FALSE,FALSE,FALSE,FALSE,FALSE,FALSE,FALSE,FALSE,FALSE,0,Follow Yaw,0,0,171,171,FALSE,FALSE,FALSE,FALSE,FALSE,FALSE,,TRUE,Normal,,100,1024,1024,1024,1024,1,FALSE,FALSE,FALSE,FALSE,FALSE,0,FALSE,FALSE,FALSE,FALSE,97,8.123,1994,2055,8.156,FALSE,4.063,4.061,0.005,FALSE,FALSE,NA,79.5,79.5,79.5,0,0,0,0,5,2414.8,603.72,,Idle,0,20,FALSE,5,TRUE,8,Go Home,FALSE,FALSE,FALSE,FALSE,FALSE,FALSE,FALSE,FALSE,TRUE,FALSE,FALSE,FALSE,6.974832624,79.91476298,0.7,95.2,459.3,TRUE,1,1,FALSE,FALSE,FALSE,FALSE,,TRUE,FALSE,FALSE,Course Lock,131.2,295.4,16.4,Calm,88,,1.12.6,Mavic Mini,1SDCH7G0169R0K,1SFLH6Q0AB03DJ,1SRCH7F014TAHX,1U5X071EXP5ZJG,119.8,0.1,98.4,3.607065,4.47388,0,0,Mavic Mini,1SDCH7G0169R0K,1SFLH6Q0AB03DJ,1SRCH7F014TAHX,1U5X071EXP5ZJG,DJI Fly,,1.12.6,90A4C2A7-88E9-8536-1624-051FA4A3955C,1SDCH7G0169R0K,,,,,,,,,
1/30/2024,43:20.7,0m 2.1s,2.1,6.974831207,79.9147613,0.3,0.3,0.6,65,0.4,0,0,0,0,0,0,-1.11847,0,0.6,0.3,167,167,,Auto Takeoff,Auto Fly,Takeoff (App Auto),8,4,TRUE,,Mavic Mini,TRUE,FALSE,,Smart,RC,FALSE,TRUE,FALSE,,,TRUE,,FALSE,FALSE,FALSE,FALSE,FALSE,FALSE,FALSE,FALSE,FALSE,FALSE,0,Follow Yaw,0,0,170.9,170.9,FALSE,FALSE,FALSE,FALSE,FALSE,FALSE,,TRUE,Normal,,100,1024,1024,1024,1024,1,FALSE,FALSE,FALSE,FALSE,FALSE,0,FALSE,FALSE,FALSE,FALSE,97,8.123,1994,2055,8.156,FALSE,4.063,4.061,0.005,FALSE,FALSE,NA,79.5,79.5,79.5,0,0,0,0,5,2414.8,603.72,,Idle,0,20,FALSE,5,TRUE,8,Go Home,FALSE,FALSE,FALSE,FALSE,FALSE,FALSE,FALSE,FALSE,TRUE,FALSE,FALSE,FALSE,6.974832624,79.91476298,0.7,95.2,459.3,TRUE,1,1,FALSE,FALSE,FALSE,FALSE,,TRUE,FALSE,FALSE,Course Lock,131.2,295.4,16.4,Calm,88,,1.12.6,Mavic Mini,1SDCH7G0169R0K,1SFLH6Q0AB03DJ,1SRCH7F014TAHX,1U5X071EXP5ZJG,119.8,0.1,98.4,3.607065,4.47388,0,0,Mavic Mini,1SDCH7G0169R0K,1SFLH6Q0AB03DJ,1SRCH7F014TAHX,1U5X071EXP5ZJG,DJI Fly,,1.12.6,90A4C2A7-88E9-8536-1624-051FA4A3955C,1SDCH7G0169R0K,,,,,6.974828979,79.91475178,5,,
1/30/2024,43:20.7,0m 2.2s,2.2,6.97483111,79.91476132,0.3,0.3,0.6,65,0.4,0,0,0,0,0,0,-1.342164,0,1.5,0.1,167.1,167.1,,Auto Takeoff,Auto Fly,Takeoff (App Auto),8,4,TRUE,,Mavic Mini,TRUE,FALSE,,Smart,RC,FALSE,TRUE,FALSE,,,TRUE,,FALSE,FALSE,FALSE,FALSE,FALSE,FALSE,FALSE,FALSE,FALSE,FALSE,0,Follow Yaw,0,0,170.9,170.9,FALSE,FALSE,FALSE,FALSE,FALSE,FALSE,,TRUE,Normal,,100,1024,1024,1024,1024,1,FALSE,FALSE,FALSE,FALSE,FALSE,0,FALSE,FALSE,FALSE,FALSE,97,8.123,1994,2055,8.156,FALSE,4.063,4.061,0.005,FALSE,FALSE,NA,79.5,79.5,79.5,0,0,0,0,5,2414.8,603.72,,Idle,0,20,FALSE,5,TRUE,8,Go Home,FALSE,FALSE,FALSE,FALSE,FALSE,FALSE,FALSE,FALSE,TRUE,FALSE,FALSE,FALSE,6.974832624,79.91476298,0.8,95.2,459.3,TRUE,1,1,FALSE,FALSE,FALSE,FALSE,,TRUE,FALSE,FALSE,Course Lock,131.2,295.4,16.4,Calm,88,,1.12.6,Mavic Mini,1SDCH7G0169R0K,1SFLH6Q0AB03DJ,1SRCH7F014TAHX,1U5X071EXP5ZJG,119.8,0.1,98.4,3.607065,4.47388,0,0,Mavic Mini,1SDCH7G0169R0K,1SFLH6Q0AB03DJ,1SRCH7F014TAHX,1U5X071EXP5ZJG,DJI Fly,,1.12.6,90A4C2A7-88E9-8536-1624-051FA4A3955C,1SDCH7G0169R0K,,,,,6.974828979,79.91475178,5,,
1/30/2024,43:20.8,0m 2.3s,2.3,6.974830992,79.91476127,0.6,0.6,0.9,65,0.5,0,0,0,0,0,0,-1.565858,0,1.4,-0.1,167.2,167.2,,Auto Takeoff,Auto Fly,Takeoff (App Auto),8,4,TRUE,,Mavic Mini,TRUE,FALSE,,Smart,RC,FALSE,TRUE,FALSE,,,TRUE,,FALSE,FALSE,FALSE,FALSE,FALSE,FALSE,FALSE,FALSE,FALSE,FALSE,0,Follow Yaw,0,0,170.8,170.8,FALSE,FALSE,FALSE,FALSE,FALSE,FALSE,,TRUE,Normal,,100,1024,1024,1024,1024,1,FALSE,FALSE,FALSE,FALSE,FALSE,0,FALSE,FALSE,FALSE,FALSE,97,8.123,1994,2055,8.156,FALSE,4.063,4.061,0.005,FALSE,FALSE,NA,79.5,79.5,79.5,0,0,0,0,5,2414.8,603.72,,Idle,0,20,FALSE,5,TRUE,8,Go Home,FALSE,FALSE,FALSE,FALSE,FALSE,FALSE,FALSE,FALSE,TRUE,FALSE,FALSE,FALSE,6.974832624,79.91476298,0.8,95.2,459.3,TRUE,1,1,FALSE,FALSE,FALSE,FALSE,,TRUE,FALSE,FALSE,Course Lock,131.2,295.4,16.4,Calm,88,,1.12.6,Mavic Mini,1SDCH7G0169R0K,1SFLH6Q0AB03DJ,1SRCH7F014TAHX,1U5X071EXP5ZJG,119.8,0.1,98.4,3.607065,4.47388,0,0,Mavic Mini,1SDCH7G0169R0K,1SFLH6Q0AB03DJ,1SRCH7F014TAHX,1U5X071EXP5ZJG,DJI Fly,,1.12.6,90A4C2A7-88E9-8536-1624-051FA4A3955C,1SDCH7G0169R0K,,,,,6.974828979,79.91475178,5,,
1/30/2024,43:20.9,0m 2.4s,2.4,6.974830852,79.91476119,0.6,0.6,1.3,65,0.5,0,0,0,0,0,0,-1.789552,0,1.8,-1,167.2,167.2,,Auto Takeoff,Auto Fly,Takeoff (App Auto),8,4,TRUE,,Mavic Mini,TRUE,FALSE,,Smart,RC,FALSE,TRUE,FALSE,,,TRUE,,FALSE,FALSE,FALSE,FALSE,FALSE,FALSE,FALSE,FALSE,FALSE,FALSE,0,Follow Yaw,0,0,170.7,170.7,FALSE,FALSE,FALSE,FALSE,FALSE,FALSE,,TRUE,Normal,,100,1024,1024,1024,1024,1,FALSE,FALSE,FALSE,FALSE,FALSE,0,FALSE,FALSE,FALSE,FALSE,97,8.123,1994,2055,8.156,FALSE,4.063,4.061,0.005,FALSE,FALSE,NA,79.5,79.5,79.5,0,0,0,0,5,2414.8,603.72,,Idle,0,20,FALSE,5,TRUE,8,Go Home,FALSE,FALSE,FALSE,FALSE,FALSE,FALSE,FALSE,FALSE,TRUE,FALSE,FALSE,FALSE,6.974832624,79.91476298,0.9,95.2,459.3,TRUE,1,1,FALSE,FALSE,FALSE,FALSE,,TRUE,FALSE,FALSE,Course Lock,131.2,295.4,16.4,Calm,88,,1.12.6,Mavic Mini,1SDCH7G0169R0K,1SFLH6Q0AB03DJ,1SRCH7F014TAHX,1U5X071EXP5ZJG,119.8,0.1,98.4,3.607065,4.47388,0,0,Mavic Mini,1SDCH7G0169R0K,1SFLH6Q0AB03DJ,1SRCH7F014TAHX,1U5X071EXP5ZJG,DJI Fly,,1.12.6,90A4C2A7-88E9-8536-1624-051FA4A3955C,1SDCH7G0169R0K,,,,,6.974828979,79.91475178,5,,
1/30/2024,43:21.0,0m 2.5s,2.5,6.974830723,79.91476108,0.9,0.9,1.3,65,0.6,0,0,0,0,0,0,-2.013246,0,1.8,-1.5,167.1,167.1,,Auto Takeoff,Auto Fly,Takeoff (App Auto),8,4,TRUE,,Mavic Mini,TRUE,FALSE,,Smart,RC,FALSE,TRUE,FALSE,,,TRUE,,FALSE,FALSE,FALSE,FALSE,FALSE,FALSE,FALSE,FALSE,FALSE,FALSE,0,Follow Yaw,0,0,170.7,170.7,FALSE,FALSE,FALSE,FALSE,FALSE,FALSE,,TRUE,Normal,,100,1024,1024,1024,1024,1,FALSE,FALSE,FALSE,FALSE,FALSE,0,FALSE,FALSE,FALSE,FALSE,97,8.123,1994,2055,8.156,FALSE,4.063,4.061,0.005,FALSE,FALSE,NA,79.5,79.5,79.5,0,0,0,0,5,2414.8,603.72,,Idle,0,20,FALSE,5,TRUE,8,Go Home,FALSE,FALSE,FALSE,FALSE,FALSE,FALSE,FALSE,FALSE,TRUE,FALSE,FALSE,FALSE,6.974832624,79.91476298,0.9,95.2,459.3,TRUE,1,1,FALSE,FALSE,FALSE,FALSE,,TRUE,FALSE,FALSE,Course Lock,131.2,295.4,16.4,Calm,88,,1.12.6,Mavic Mini,1SDCH7G0169R0K,1SFLH6Q0AB03DJ,1SRCH7F014TAHX,1U5X071EXP5ZJG,119.8,0.1,98.4,3.607065,4.47388,0,0,Mavic Mini,1SDCH7G0169R0K,1SFLH6Q0AB03DJ,1SRCH7F014TAHX,1U5X071EXP5ZJG,DJI Fly,,1.12.6,90A4C2A7-88E9-8536-1624-051FA4A3955C,1SDCH7G0169R0K,,,,,6.974828979,79.91475178,5,,
1/30/2024,43:21.0,0m 2.6s,2.6,6.97483062,79.91476102,1.3,1.3,1.6,66,0.6,0,0,0,0,0,0,-2.013246,0,2,-1.7,167.1,167.1,,Auto Takeoff,Auto Fly,Takeoff (App Auto),8,4,TRUE,,Mavic Mini,TRUE,FALSE,,Smart,RC,FALSE,TRUE,FALSE,,,TRUE,,FALSE,FALSE,FALSE,FALSE,FALSE,FALSE,FALSE,FALSE,FALSE,FALSE,0,Follow Yaw,0,0,170.6,170.6,FALSE,FALSE,FALSE,FALSE,FALSE,FALSE,,TRUE,Normal,,100,1024,1024,1024,1024,1,FALSE,FALSE,FALSE,FALSE,FALSE,0,FALSE,FALSE,FALSE,FALSE,97,7.916,1993,2055,8.153,FALSE,3.959,3.957,0.005,FALSE,FALSE,NA,79.5,79.5,79.5,0,0,0,0,5,2414.8,603.72,,Idle,0,20,FALSE,5,TRUE,8,Go Home,FALSE,FALSE,FALSE,FALSE,FALSE,FALSE,FALSE,FALSE,TRUE,FALSE,FALSE,FALSE,6.974831423,79.91476114,0.2,95.2,459.3,TRUE,1,1,FALSE,FALSE,FALSE,FALSE,,TRUE,FALSE,FALSE,Course Lock,131.2,295.4,16.4,Calm,88,,1.12.6,Mavic Mini,1SDCH7G0169R0K,1SFLH6Q0AB03DJ,1SRCH7F014TAHX,1U5X071EXP5ZJG,119.8,0.1,98.4,3.607065,4.47388,0,0,Mavic Mini,1SDCH7G0169R0K,1SFLH6Q0AB03DJ,1SRCH7F014TAHX,1U5X071EXP5ZJG,DJI Fly,,1.12.6,90A4C2A7-88E9-8536-1624-051FA4A3955C,1SDCH7G0169R0K,,,,,6.974828979,79.91475178,5,Home Point Updated.,
1/30/2024,43:21.1,0m 2.7s,2.7,6.974830492,79.91476097,1.6,1.6,1.9,66,0.7,0,0,0,0,0,0,-2.013246,0,2.3,-1.8,167.1,167.1,,Auto Takeoff,Auto Fly,Takeoff (App Auto),8,4,TRUE,,Mavic Mini,TRUE,FALSE,,Smart,RC,FALSE,TRUE,FALSE,,,TRUE,,FALSE,FALSE,FALSE,FALSE,FALSE,FALSE,FALSE,FALSE,FALSE,FALSE,0,Follow Yaw,0,0,170.6,170.6,FALSE,FALSE,FALSE,FALSE,FALSE,FALSE,,TRUE,Normal,,100,1024,1024,1024,1024,1,FALSE,FALSE,FALSE,FALSE,FALSE,0,FALSE,FALSE,FALSE,FALSE,97,7.916,1993,2055,8.153,FALSE,3.959,3.957,0.005,FALSE,FALSE,NA,79.5,79.5,79.5,0,0,0,0,5,2414.8,603.72,,Idle,0,20,FALSE,5,TRUE,8,Go Home,FALSE,FALSE,FALSE,FALSE,FALSE,FALSE,FALSE,FALSE,TRUE,FALSE,FALSE,FALSE,6.974831423,79.91476114,0.3,95.2,459.3,TRUE,1,1,FALSE,FALSE,FALSE,FALSE,,TRUE,FALSE,FALSE,Course Lock,131.2,295.4,16.4,Calm,88,,1.12.6,Mavic Mini,1SDCH7G0169R0K,1SFLH6Q0AB03DJ,1SRCH7F014TAHX,1U5X071EXP5ZJG,119.8,0.1,98.4,3.607065,4.47388,0,0,Mavic Mini,1SDCH7G0169R0K,1SFLH6Q0AB03DJ,1SRCH7F014TAHX,1U5X071EXP5ZJG,DJI Fly,,1.12.6,90A4C2A7-88E9-8536-1624-051FA4A3955C,1SDCH7G0169R0K,,,,,6.974828979,79.91475178,5,Home Point updated. RTH altitude adjusted to 40 m! (Code: 120852).,
1/30/2024,43:21.2,0m 2.8s,2.8,6.974830344,79.91476093,1.9,1.9,2.2,66,0.8,0,0,0,0,0,0,-2.013246,0,2.2,-2,167,167,,Auto Takeoff,Auto Fly,Takeoff (App Auto),8,4,TRUE,,Mavic Mini,TRUE,FALSE,,Smart,RC,FALSE,TRUE,FALSE,,,TRUE,,FALSE,FALSE,FALSE,FALSE,FALSE,FALSE,FALSE,FALSE,FALSE,FALSE,0,Follow Yaw,0,0,170.5,170.5,FALSE,FALSE,FALSE,FALSE,FALSE,FALSE,,TRUE,Normal,,100,1024,1024,1024,1024,1,FALSE,FALSE,FALSE,FALSE,FALSE,0,FALSE,FALSE,FALSE,FALSE,97,7.916,1993,2055,8.153,FALSE,3.959,3.957,0.005,FALSE,FALSE,NA,79.5,79.5,79.5,0,0,0,0,5,2414.8,603.72,,Idle,0,20,FALSE,5,TRUE,8,Go Home,FALSE,FALSE,FALSE,FALSE,FALSE,FALSE,FALSE,FALSE,TRUE,FALSE,FALSE,FALSE,6.974831423,79.91476114,0.4,95.2,459.3,TRUE,1,1,FALSE,FALSE,FALSE,FALSE,,TRUE,FALSE,FALSE,Course Lock,131.2,295.4,16.4,Calm,88,,1.12.6,Mavic Mini,1SDCH7G0169R0K,1SFLH6Q0AB03DJ,1SRCH7F014TAHX,1U5X071EXP5ZJG,119.8,0.1,98.4,3.607065,4.47388,0,0,Mavic Mini,1SDCH7G0169R0K,1SFLH6Q0AB03DJ,1SRCH7F014TAHX,1U5X071EXP5ZJG,DJI Fly,,1.12.6,90A4C2A7-88E9-8536-1624-051FA4A3955C,1SDCH7G0169R0K,,,,,6.974828979,79.91475178,5,,
1/30/2024,43:21.3,0m 2.9s,2.9,6.974830212,79.91476088,2.2,2.2,2.6,67,0.8,0,0,0,0,0,0,-2.013246,0,2,-2.1,166.9,166.9,,Auto Takeoff,Auto Fly,Takeoff (App Auto),8,4,TRUE,,Mavic Mini,TRUE,FALSE,,Smart,RC,FALSE,TRUE,FALSE,,,TRUE,,FALSE,FALSE,FALSE,FALSE,FALSE,FALSE,FALSE,FALSE,FALSE,FALSE,0,Follow Yaw,0,0,170.5,170.5,FALSE,FALSE,FALSE,FALSE,FALSE,FALSE,,TRUE,Normal,,100,1024,1024,1024,1024,1,FALSE,FALSE,FALSE,FALSE,FALSE,0,FALSE,FALSE,FALSE,FALSE,97,7.916,1993,2055,8.153,FALSE,3.959,3.957,0.005,FALSE,FALSE,NA,79.5,79.5,79.5,0,0,0,0,5,2414.8,603.72,,Idle,0,20,FALSE,5,TRUE,8,Go Home,FALSE,FALSE,FALSE,FALSE,FALSE,FALSE,FALSE,FALSE,TRUE,FALSE,FALSE,FALSE,6.974831423,79.91476114,0.4,95.2,459.3,TRUE,1,1,FALSE,FALSE,FALSE,FALSE,,TRUE,FALSE,FALSE,Course Lock,131.2,295.4,16.4,Calm,88,,1.12.6,Mavic Mini,1SDCH7G0169R0K,1SFLH6Q0AB03DJ,1SRCH7F014TAHX,1U5X071EXP5ZJG,119.8,0.1,98.4,3.607065,4.47388,0,0,Mavic Mini,1SDCH7G0169R0K,1SFLH6Q0AB03DJ,1SRCH7F014TAHX,1U5X071EXP5ZJG,DJI Fly,,1.12.6,90A4C2A7-88E9-8536-1624-051FA4A3955C,1SDCH7G0169R0K,,,,,6.974828979,79.91475178,5,,
1/30/2024,43:21.4,0m 3.0s,3,6.974830061,79.9147608,2.6,2.6,2.9,67,0.9,0,0,0,0,0,0,-2.013246,0,1.9,-2.2,166.9,166.9,,P-GPS,Auto Fly,,8,4,TRUE,,Mavic Mini,TRUE,FALSE,,Smart,RC,FALSE,TRUE,FALSE,,,TRUE,,FALSE,FALSE,FALSE,FALSE,FALSE,FALSE,FALSE,FALSE,FALSE,FALSE,0,Follow Yaw,0,0,170.4,170.4,FALSE,FALSE,FALSE,FALSE,FALSE,FALSE,,TRUE,Normal,,100,1024,1024,1024,1024,1,FALSE,FALSE,FALSE,FALSE,FALSE,0,FALSE,FALSE,FALSE,FALSE,97,7.916,1993,2055,8.153,FALSE,3.959,3.957,0.005,FALSE,FALSE,NA,79.5,79.5,79.5,0,0,0,0,5,2414.8,603.72,,Idle,0,20,FALSE,5,TRUE,8,Go Home,FALSE,FALSE,FALSE,FALSE,FALSE,FALSE,FALSE,FALSE,TRUE,FALSE,FALSE,FALSE,6.974831423,79.91476114,0.5,95.2,459.3,TRUE,1,1,FALSE,FALSE,FALSE,FALSE,,TRUE,FALSE,FALSE,Course Lock,131.2,295.4,16.4,Calm,88,,1.12.6,Mavic Mini,1SDCH7G0169R0K,1SFLH6Q0AB03DJ,1SRCH7F014TAHX,1U5X071EXP5ZJG,119.8,0.1,98.4,3.607065,4.47388,0,0,Mavic Mini,1SDCH7G0169R0K,1SFLH6Q0AB03DJ,1SRCH7F014TAHX,1U5X071EXP5ZJG,DJI Fly,,1.12.6,90A4C2A7-88E9-8536-1624-051FA4A3955C,1SDCH7G0169R0K,,,,,6.974828979,79.91475178,5,Flight mode changed to P-GPS.,
1/30/2024,43:21.5,0m 3.1s,3.1,6.974829926,79.9147607,2.9,2.9,3.2,67,0.9,0,0,0,0,0,0,-1.789552,0,2,-1.6,166.9,166.9,,P-GPS,Auto Fly,,8,4,TRUE,,Mavic Mini,TRUE,FALSE,,Smart,RC,FALSE,TRUE,FALSE,,,TRUE,,FALSE,FALSE,FALSE,FALSE,FALSE,FALSE,FALSE,FALSE,FALSE,FALSE,0,Follow Yaw,0,0,170.4,170.4,FALSE,FALSE,FALSE,FALSE,FALSE,FALSE,,TRUE,Normal,,100,1024,1024,1024,1024,1,FALSE,FALSE,FALSE,FALSE,FALSE,0,FALSE,FALSE,FALSE,FALSE,97,7.916,1993,2055,8.153,FALSE,3.959,3.957,0.005,FALSE,FALSE,NA,79.5,79.5,79.5,0,0,0,0,5,2414.8,603.72,,Idle,0,20,FALSE,5,TRUE,8,Go Home,FALSE,FALSE,FALSE,FALSE,FALSE,FALSE,FALSE,FALSE,TRUE,FALSE,FALSE,FALSE,6.974831423,79.91476114,0.5,95.2,459.3,TRUE,1,1,FALSE,FALSE,FALSE,FALSE,,TRUE,FALSE,FALSE,Course Lock,131.2,295.4,16.4,Calm,88,,1.12.6,Mavic Mini,1SDCH7G0169R0K,1SFLH6Q0AB03DJ,1SRCH7F014TAHX,1U5X071EXP5ZJG,119.8,0.1,98.4,3.607065,4.47388,0,0,Mavic Mini,1SDCH7G0169R0K,1SFLH6Q0AB03DJ,1SRCH7F014TAHX,1U5X071EXP5ZJG,DJI Fly,,1.12.6,90A4C2A7-88E9-8536-1624-051FA4A3955C,1SDCH7G0169R0K,,,,,6.974828979,79.91475178,5,,
1/30/2024,43:21.7,0m 3.2s,3.2,6.97482979,79.9147606,3.2,3.2,3.6,68,1,0,0,0,0,0,0,-1.342164,0,2.3,-1.3,167,167,,P-GPS,Auto Fly,,8,4,TRUE,,Mavic Mini,TRUE,FALSE,,Smart,RC,FALSE,TRUE,FALSE,,,TRUE,,FALSE,FALSE,FALSE,FALSE,FALSE,FALSE,FALSE,FALSE,FALSE,FALSE,0,Follow Yaw,0,0,170.4,170.4,FALSE,FALSE,FALSE,FALSE,FALSE,FALSE,,TRUE,Normal,,100,1024,1024,1024,1024,1,FALSE,FALSE,FALSE,FALSE,FALSE,0,FALSE,FALSE,FALSE,FALSE,97,7.916,1993,2055,8.153,FALSE,3.959,3.957,0.005,FALSE,FALSE,NA,79.5,79.5,79.5,0,0,0,0,5,2414.8,603.72,,Idle,0,20,FALSE,5,TRUE,8,Go Home,FALSE,FALSE,FALSE,FALSE,FALSE,FALSE,FALSE,FALSE,TRUE,FALSE,FALSE,FALSE,6.974831423,79.91476114,0.6,95.2,459.3,TRUE,1,1,FALSE,FALSE,FALSE,FALSE,,TRUE,FALSE,FALSE,Course Lock,131.2,295.4,16.4,Calm,88,,1.12.6,Mavic Mini,1SDCH7G0169R0K,1SFLH6Q0AB03DJ,1SRCH7F014TAHX,1U5X071EXP5ZJG,119.8,0.1,98.4,3.607065,4.47388,0,0,Mavic Mini,1SDCH7G0169R0K,1SFLH6Q0AB03DJ,1SRCH7F014TAHX,1U5X071EXP5ZJG,DJI Fly,,1.12.6,90A4C2A7-88E9-8536-1624-051FA4A3955C,1SDCH7G0169R0K,,,,,6.974828979,79.91475178,5,,
1/30/2024,43:21.7,0m 3.3s,3.3,6.974829454,79.91476037,3.2,3.2,3.6,68,1.1,0,0,0,0,0,0,-0.894776,0,2.2,-1.2,167.1,167.1,,P-GPS,Auto Fly,,8,4,TRUE,,Mavic Mini,TRUE,FALSE,,Smart,RC,FALSE,TRUE,FALSE,,,TRUE,,FALSE,FALSE,FALSE,FALSE,FALSE,FALSE,FALSE,FALSE,FALSE,FALSE,0,Follow Yaw,0,0,170.3,170.3,FALSE,FALSE,FALSE,FALSE,FALSE,FALSE,,TRUE,Normal,,100,1024,1024,1024,1024,1,FALSE,FALSE,FALSE,FALSE,FALSE,0,FALSE,FALSE,FALSE,FALSE,97,7.916,1993,2055,8.153,FALSE,3.959,3.957,0.005,FALSE,FALSE,NA,79.5,79.5,79.5,0,0,0,0,5,2414.8,603.72,,Idle,0,20,FALSE,5,TRUE,8,Go Home,FALSE,FALSE,FALSE,FALSE,FALSE,FALSE,FALSE,FALSE,TRUE,FALSE,FALSE,FALSE,6.974831423,79.91476114,0.7,95.2,459.3,TRUE,1,1,FALSE,FALSE,FALSE,FALSE,,TRUE,FALSE,FALSE,Course Lock,131.2,295.4,16.4,Calm,88,,1.12.6,Mavic Mini,1SDCH7G0169R0K,1SFLH6Q0AB03DJ,1SRCH7F014TAHX,1U5X071EXP5ZJG,119.8,0.1,98.4,3.607065,4.47388,0,0,Mavic Mini,1SDCH7G0169R0K,1SFLH6Q0AB03DJ,1SRCH7F014TAHX,1U5X071EXP5ZJG,DJI Fly,,1.12.6,90A4C2A7-88E9-8536-1624-051FA4A3955C,1SDCH7G0169R0K,,,,,6.974828979,79.91475178,5,,
1/30/2024,43:21.9,0m 3.4s,3.4,6.974829257,79.91476035,3.6,3.6,3.9,68,1.2,0,0,0,0,0,0,-0.447388,0,2.3,-1,167.3,167.3,,P-GPS,Auto Fly,,8,4,TRUE,,Mavic Mini,TRUE,FALSE,,Smart,RC,FALSE,TRUE,FALSE,,,TRUE,,FALSE,FALSE,FALSE,FALSE,FALSE,FALSE,FALSE,FALSE,FALSE,FALSE,0,Follow Yaw,0,0,170.3,170.3,FALSE,FALSE,FALSE,FALSE,FALSE,FALSE,,TRUE,Normal,,100,1024,1024,1024,1024,1,FALSE,FALSE,FALSE,FALSE,FALSE,0,FALSE,FALSE,FALSE,FALSE,97,7.916,1993,2055,8.153,FALSE,3.959,3.957,0.005,FALSE,FALSE,NA,79.5,79.5,79.5,0,0,0,0,5,2414.8,603.72,,Idle,0,20,FALSE,5,TRUE,8,Go Home,FALSE,FALSE,FALSE,FALSE,FALSE,FALSE,FALSE,FALSE,TRUE,FALSE,FALSE,FALSE,6.974831423,79.91476114,0.8,95.2,459.3,TRUE,1,1,FALSE,FALSE,FALSE,FALSE,,TRUE,FALSE,FALSE,Course Lock,131.2,295.4,16.4,Calm,88,,1.12.6,Mavic Mini,1SDCH7G0169R0K,1SFLH6Q0AB03DJ,1SRCH7F014TAHX,1U5X071EXP5ZJG,119.8,0.1,98.4,3.607065,4.47388,0,0,Mavic Mini,1SDCH7G0169R0K,1SFLH6Q0AB03DJ,1SRCH7F014TAHX,1U5X071EXP5ZJG,DJI Fly,,1.12.6,90A4C2A7-88E9-8536-1624-051FA4A3955C,1SDCH7G0169R0K,,,,,6.974828979,79.91475178,5,,
1/30/2024,43:22.0,0m 3.5s,3.5,6.974829115,79.91476032,3.6,3.6,3.9,68,1.3,0,0,0,0,0,0,-0.223694,0,2.5,-1.2,167.5,167.5,,P-GPS,Auto Fly,,8,4,TRUE,,Mavic Mini,TRUE,FALSE,,Smart,RC,FALSE,TRUE,FALSE,,,TRUE,,FALSE,FALSE,FALSE,FALSE,FALSE,FALSE,FALSE,FALSE,FALSE,FALSE,0,Follow Yaw,0,0,170.2,170.2,FALSE,FALSE,FALSE,FALSE,FALSE,FALSE,,TRUE,Normal,,100,1024,1024,1024,1024,1,FALSE,FALSE,FALSE,FALSE,FALSE,0,FALSE,FALSE,FALSE,FALSE,97,7.916,1993,2055,8.153,FALSE,3.959,3.957,0.005,FALSE,FALSE,NA,79.5,79.5,79.5,0,0,0,0,5,2414.8,603.72,,Idle,0,20,FALSE,5,TRUE,8,Go Home,FALSE,FALSE,FALSE,FALSE,FALSE,FALSE,FALSE,FALSE,TRUE,FALSE,FALSE,FALSE,6.974831423,79.91476114,0.8,95.2,459.3,TRUE,1,1,FALSE,FALSE,FALSE,FALSE,,TRUE,FALSE,FALSE,Course Lock,131.2,295.4,16.4,Calm,88,,1.12.6,Mavic Mini,1SDCH7G0169R0K,1SFLH6Q0AB03DJ,1SRCH7F014TAHX,1U5X071EXP5ZJG,119.8,0.1,98.4,3.607065,4.47388,0,0,Mavic Mini,1SDCH7G0169R0K,1SFLH6Q0AB03DJ,1SRCH7F014TAHX,1U5X071EXP5ZJG,DJI Fly,,1.12.6,90A4C2A7-88E9-8536-1624-051FA4A3955C,1SDCH7G0169R0K,,,,,6.974828979,79.91475178,5,,
1/30/2024,43:22.1,0m 3.6s,3.6,6.974828991,79.91476028,3.6,3.6,3.9,68,1.3,0,0,0,0,0,0,0,0,2.7,-1.3,167.6,167.6,,P-GPS,Auto Fly,,8,4,TRUE,,Mavic Mini,TRUE,FALSE,,Smart,RC,FALSE,TRUE,FALSE,,,TRUE,,FALSE,FALSE,FALSE,FALSE,FALSE,FALSE,FALSE,FALSE,FALSE,FALSE,0,Follow Yaw,0,0,170.2,170.2,FALSE,FALSE,FALSE,FALSE,FALSE,FALSE,,TRUE,Normal,,100,1024,1024,1024,1024,1,FALSE,FALSE,FALSE,FALSE,FALSE,0,FALSE,FALSE,FALSE,FALSE,97,7.916,1993,2055,7.927,FALSE,3.959,3.957,0.005,FALSE,FALSE,NA,79.5,79.5,79.5,0,0,0,0,5,2911.6,727.9,,Idle,0,20,FALSE,5,TRUE,8,Go Home,FALSE,FALSE,FALSE,FALSE,FALSE,FALSE,FALSE,FALSE,TRUE,FALSE,FALSE,FALSE,6.974831423,79.91476114,0.9,95.2,459.3,TRUE,1,1,FALSE,FALSE,FALSE,FALSE,,TRUE,FALSE,FALSE,Course Lock,131.2,295.4,16.4,Calm,88,,1.12.6,Mavic Mini,1SDCH7G0169R0K,1SFLH6Q0AB03DJ,1SRCH7F014TAHX,1U5X071EXP5ZJG,119.8,0.1,98.4,3.607065,4.47388,0,0,Mavic Mini,1SDCH7G0169R0K,1SFLH6Q0AB03DJ,1SRCH7F014TAHX,1U5X071EXP5ZJG,DJI Fly,,1.12.6,90A4C2A7-88E9-8536-1624-051FA4A3955C,1SDCH7G0169R0K,,,,,6.974828979,79.91475178,5,,
1/30/2024,43:22.1,0m 3.7s,3.7,6.974828688,79.91476055,3.6,3.6,3.9,68,1.5,0,0,0,0,0,0,0,0,3,-1.2,167.8,167.8,,P-GPS,Auto Fly,,8,4,TRUE,,Mavic Mini,TRUE,FALSE,,Smart,RC,FALSE,TRUE,FALSE,,,TRUE,,FALSE,FALSE,FALSE,FALSE,FALSE,FALSE,FALSE,FALSE,FALSE,FALSE,0,Follow Yaw,0,0,170.2,170.2,FALSE,FALSE,FALSE,FALSE,FALSE,FALSE,,TRUE,Normal,,100,1024,1024,1024,1024,1,FALSE,FALSE,FALSE,FALSE,FALSE,0,FALSE,FALSE,FALSE,FALSE,97,7.916,1993,2055,7.927,FALSE,3.959,3.957,0.005,FALSE,FALSE,NA,79.5,79.5,79.5,0,0,0,0,5,2911.6,727.9,,Idle,0,20,FALSE,5,TRUE,8,Go Home,FALSE,FALSE,FALSE,FALSE,FALSE,FALSE,FALSE,FALSE,TRUE,FALSE,FALSE,FALSE,6.974831423,79.91476114,1,95.2,459.3,TRUE,1,1,FALSE,FALSE,FALSE,FALSE,,TRUE,FALSE,FALSE,Course Lock,131.2,295.4,16.4,Calm,88,,1.12.6,Mavic Mini,1SDCH7G0169R0K,1SFLH6Q0AB03DJ,1SRCH7F014TAHX,1U5X071EXP5ZJG,119.8,0.1,98.4,3.607065,4.47388,0,0,Mavic Mini,1SDCH7G0169R0K,1SFLH6Q0AB03DJ,1SRCH7F014TAHX,1U5X071EXP5ZJG,DJI Fly,,1.12.6,90A4C2A7-88E9-8536-1624-051FA4A3955C,1SDCH7G0169R0K,,,,,6.974828979,79.91475178,5,,
1/30/2024,43:22.2,0m 3.8s,3.8,6.974828442,79.91476068,3.6,3.6,3.9,68,1.6,0,0,0,0,0,0,0,0,3.3,-1.3,168.3,168.3,,P-GPS,Auto Fly,,8,4,TRUE,,Mavic Mini,TRUE,FALSE,,Smart,RC,FALSE,TRUE,FALSE,,,TRUE,,FALSE,FALSE,FALSE,FALSE,FALSE,FALSE,FALSE,FALSE,FALSE,FALSE,0,Follow Yaw,0,0,170.2,170.2,FALSE,FALSE,FALSE,FALSE,FALSE,FALSE,,TRUE,Normal,,100,1024,1024,1024,1024,1,FALSE,FALSE,FALSE,FALSE,FALSE,0,FALSE,FALSE,FALSE,FALSE,97,7.965,1991,2055,7.927,FALSE,3.985,3.98,0.005,FALSE,FALSE,NA,79.7,79.5,79.7,0,0,0,0,5,2911.6,727.9,,Idle,0,20,FALSE,5,TRUE,8,Go Home,FALSE,FALSE,FALSE,FALSE,FALSE,FALSE,FALSE,FALSE,TRUE,FALSE,FALSE,FALSE,6.974831423,79.91476114,1.1,95.2,459.3,TRUE,1,1,FALSE,FALSE,FALSE,FALSE,,TRUE,FALSE,FALSE,Course Lock,131.2,295.4,16.4,Calm,88,,1.12.6,Mavic Mini,1SDCH7G0169R0K,1SFLH6Q0AB03DJ,1SRCH7F014TAHX,1U5X071EXP5ZJG,119.8,0.1,98.4,3.607065,4.47388,0,0,Mavic Mini,1SDCH7G0169R0K,1SFLH6Q0AB03DJ,1SRCH7F014TAHX,1U5X071EXP5ZJG,DJI Fly,,1.12.6,90A4C2A7-88E9-8536-1624-051FA4A3955C,1SDCH7G0169R0K,,,,,6.974828979,79.91475178,5,,
1/30/2024,43:22.4,0m 3.9s,3.9,6.974828288,79.9147608,3.9,3.9,3.9,68,1.6,0,0,0,0,0,0,0,0,3.5,-0.9,168.6,168.6,,P-GPS,Auto Fly,,8,4,TRUE,,Mavic Mini,TRUE,FALSE,,Smart,RC,FALSE,TRUE,FALSE,,,TRUE,,FALSE,FALSE,FALSE,FALSE,FALSE,FALSE,FALSE,FALSE,FALSE,FALSE,0,Follow Yaw,0,0,170.2,170.2,FALSE,FALSE,FALSE,FALSE,FALSE,FALSE,,TRUE,Normal,,100,1024,1024,1024,1024,1,FALSE,FALSE,FALSE,FALSE,FALSE,0,FALSE,FALSE,FALSE,FALSE,97,7.965,1991,2055,7.927,FALSE,3.985,3.98,0.005,FALSE,FALSE,NA,79.7,79.5,79.7,0,0,0,0,5,2911.6,727.9,,Idle,0,20,FALSE,5,TRUE,8,Go Home,FALSE,FALSE,FALSE,FALSE,FALSE,FALSE,FALSE,FALSE,TRUE,FALSE,FALSE,FALSE,6.974831423,79.91476114,1.1,95.2,459.3,TRUE,1,1,FALSE,FALSE,FALSE,FALSE,,TRUE,FALSE,FALSE,Course Lock,131.2,295.4,16.4,Calm,88,,1.12.6,Mavic Mini,1SDCH7G0169R0K,1SFLH6Q0AB03DJ,1SRCH7F014TAHX,1U5X071EXP5ZJG,119.8,0.1,98.4,3.607065,4.47388,0,0,Mavic Mini,1SDCH7G0169R0K,1SFLH6Q0AB03DJ,1SRCH7F014TAHX,1U5X071EXP5ZJG,DJI Fly,,1.12.6,90A4C2A7-88E9-8536-1624-051FA4A3955C,1SDCH7G0169R0K,,,,,6.974828979,79.91475178,5,,
1/30/2024,43:22.4,0m 4.0s,4,6.974828179,79.91476093,3.9,3.9,3.9,68,1.7,0,0,0,0,0,0,0,0,3.1,-0.7,168.8,168.8,,P-GPS,Auto Fly,,8,4,TRUE,,Mavic Mini,TRUE,FALSE,,Smart,RC,FALSE,TRUE,FALSE,,,TRUE,,FALSE,FALSE,FALSE,FALSE,FALSE,FALSE,FALSE,FALSE,FALSE,FALSE,0,Follow Yaw,0,0,170.2,170.2,FALSE,FALSE,FALSE,FALSE,FALSE,FALSE,,TRUE,Normal,,100,1024,1024,1024,1024,1,FALSE,FALSE,FALSE,FALSE,FALSE,0,FALSE,FALSE,FALSE,FALSE,97,7.965,1991,2055,7.927,FALSE,3.985,3.98,0.005,FALSE,FALSE,NA,79.7,79.5,79.7,0,0,0,0,5,2911.6,727.9,,Idle,0,20,FALSE,5,TRUE,8,Go Home,FALSE,FALSE,FALSE,FALSE,FALSE,FALSE,FALSE,FALSE,TRUE,FALSE,FALSE,FALSE,6.974831423,79.91476114,1.1,95.2,459.3,TRUE,1,1,FALSE,FALSE,FALSE,FALSE,,TRUE,FALSE,FALSE,Course Lock,131.2,295.4,16.4,Calm,88,,1.12.6,Mavic Mini,1SDCH7G0169R0K,1SFLH6Q0AB03DJ,1SRCH7F014TAHX,1U5X071EXP5ZJG,119.8,0.1,98.4,3.607065,4.47388,0,0,Mavic Mini,1SDCH7G0169R0K,1SFLH6Q0AB03DJ,1SRCH7F014TAHX,1U5X071EXP5ZJG,DJI Fly,,1.12.6,90A4C2A7-88E9-8536-1624-051FA4A3955C,1SDCH7G0169R0K,,,,,6.974828979,79.91475178,5,,
1/30/2024,43:22.5,0m 4.1s,4.1,6.974828059,79.9147609,3.9,3.9,3.9,68,1.7,0,0,0,0,0,0,0,0,2.8,-0.9,168.9,168.9,,P-GPS,Auto Fly,,8,4,TRUE,,Mavic Mini,TRUE,FALSE,,Smart,RC,FALSE,TRUE,FALSE,,,TRUE,,FALSE,FALSE,FALSE,FALSE,FALSE,FALSE,FALSE,FALSE,FALSE,FALSE,0,Follow Yaw,0,0,170.2,170.2,FALSE,FALSE,FALSE,FALSE,FALSE,FALSE,,TRUE,Normal,,100,1024,1024,1024,1024,1,FALSE,FALSE,FALSE,FALSE,FALSE,0,FALSE,FALSE,FALSE,FALSE,97,7.965,1991,2055,7.927,FALSE,3.985,3.98,0.005,FALSE,FALSE,NA,79.7,79.5,79.7,0,0,0,0,5,2911.6,727.9,,Idle,0,20,FALSE,5,TRUE,8,Go Home,FALSE,FALSE,FALSE,FALSE,FALSE,FALSE,FALSE,FALSE,TRUE,FALSE,FALSE,FALSE,6.974831423,79.91476114,1.2,95.2,459.3,TRUE,1,1,FALSE,FALSE,FALSE,FALSE,,TRUE,FALSE,FALSE,Course Lock,131.2,295.4,16.4,Calm,88,,1.12.6,Mavic Mini,1SDCH7G0169R0K,1SFLH6Q0AB03DJ,1SRCH7F014TAHX,1U5X071EXP5ZJG,119.8,0.1,98.4,3.607065,4.47388,0,0,Mavic Mini,1SDCH7G0169R0K,1SFLH6Q0AB03DJ,1SRCH7F014TAHX,1U5X071EXP5ZJG,DJI Fly,,1.12.6,90A4C2A7-88E9-8536-1624-051FA4A3955C,1SDCH7G0169R0K,,,,,6.974828979,79.91475178,5,,
1/30/2024,43:22.6,0m 4.2s,4.2,6.974827955,79.91476065,3.9,3.9,3.9,68,1.8,0,0,0,0,0,0,0,0,3.5,-1.2,169,169,,P-GPS,Auto Fly,,8,4,TRUE,,Mavic Mini,TRUE,FALSE,,Smart,RC,FALSE,TRUE,FALSE,,,TRUE,,FALSE,FALSE,FALSE,FALSE,FALSE,FALSE,FALSE,FALSE,FALSE,FALSE,0,Follow Yaw,0,0,170.2,170.2,FALSE,FALSE,FALSE,FALSE,FALSE,FALSE,,TRUE,Normal,,100,1024,1024,1024,1024,1,FALSE,FALSE,FALSE,FALSE,FALSE,0,FALSE,FALSE,FALSE,FALSE,97,7.965,1991,2055,7.927,FALSE,3.985,3.98,0.005,FALSE,FALSE,NA,79.7,79.5,79.7,0,0,0,0,5,2911.6,727.9,,Idle,0,20,FALSE,5,TRUE,8,Go Home,FALSE,FALSE,FALSE,FALSE,FALSE,FALSE,FALSE,FALSE,TRUE,FALSE,FALSE,FALSE,6.974831423,79.91476114,1.2,95.2,459.3,TRUE,1,1,FALSE,FALSE,FALSE,FALSE,,TRUE,FALSE,FALSE,Course Lock,131.2,295.4,16.4,Calm,88,,1.12.6,Mavic Mini,1SDCH7G0169R0K,1SFLH6Q0AB03DJ,1SRCH7F014TAHX,1U5X071EXP5ZJG,119.8,0.1,98.4,3.607065,4.47388,0,0,Mavic Mini,1SDCH7G0169R0K,1SFLH6Q0AB03DJ,1SRCH7F014TAHX,1U5X071EXP5ZJG,DJI Fly,,1.12.6,90A4C2A7-88E9-8536-1624-051FA4A3955C,1SDCH7G0169R0K,,,,,6.974828979,79.91475178,5,,
1/30/2024,43:22.7,0m 4.3s,4.3,6.974827859,79.91476059,3.9,3.9,3.9,68,1.9,0,0,0,0,0,0,0,0,3.7,-1,169,169,,P-GPS,Auto Fly,,8,4,TRUE,,Mavic Mini,TRUE,FALSE,,Smart,RC,FALSE,TRUE,FALSE,,,TRUE,,FALSE,FALSE,FALSE,FALSE,FALSE,FALSE,FALSE,FALSE,FALSE,FALSE,0,Follow Yaw,0,0,170.2,170.2,FALSE,FALSE,FALSE,FALSE,FALSE,FALSE,,TRUE,Normal,,100,1024,1024,1024,1024,1,FALSE,FALSE,FALSE,FALSE,FALSE,0,FALSE,FALSE,FALSE,FALSE,97,7.965,1991,2055,7.927,FALSE,3.985,3.98,0.005,FALSE,FALSE,NA,79.7,79.5,79.7,0,0,0,0,5,2911.6,727.9,,Idle,0,20,FALSE,5,TRUE,8,Go Home,FALSE,FALSE,FALSE,FALSE,FALSE,FALSE,FALSE,FALSE,TRUE,FALSE,FALSE,FALSE,6.974831423,79.91476114,1.3,95.2,459.3,TRUE,1,1,FALSE,FALSE,FALSE,FALSE,,TRUE,FALSE,FALSE,Course Lock,131.2,295.4,16.4,Calm,88,,1.12.6,Mavic Mini,1SDCH7G0169R0K,1SFLH6Q0AB03DJ,1SRCH7F014TAHX,1U5X071EXP5ZJG,119.8,0.1,98.4,3.607065,4.47388,0,0,Mavic Mini,1SDCH7G0169R0K,1SFLH6Q0AB03DJ,1SRCH7F014TAHX,1U5X071EXP5ZJG,DJI Fly,,1.12.6,90A4C2A7-88E9-8536-1624-051FA4A3955C,1SDCH7G0169R0K,,,,,6.974828979,79.91475178,5,,
1/30/2024,43:22.9,0m 4.4s,4.4,6.974827786,79.91476056,3.9,3.9,3.9,68,1.9,0,0,0,0,0,0,0,0,3.2,-0.5,169.1,169.1,,P-GPS,Auto Fly,,8,4,TRUE,,Mavic Mini,TRUE,FALSE,,Smart,RC,FALSE,TRUE,FALSE,,,TRUE,,FALSE,FALSE,FALSE,FALSE,FALSE,FALSE,FALSE,FALSE,FALSE,FALSE,0,Follow Yaw,0,0,170.2,170.2,FALSE,FALSE,FALSE,FALSE,FALSE,FALSE,,TRUE,Normal,,100,1024,1024,1024,1024,1,FALSE,FALSE,FALSE,FALSE,FALSE,0,FALSE,FALSE,FALSE,FALSE,97,7.965,1991,2055,7.927,FALSE,3.985,3.98,0.005,FALSE,FALSE,NA,79.7,79.5,79.7,0,0,0,0,5,2911.6,727.9,,Idle,0,20,FALSE,5,TRUE,8,Go Home,FALSE,FALSE,FALSE,FALSE,FALSE,FALSE,FALSE,FALSE,TRUE,FALSE,FALSE,FALSE,6.974831423,79.91476114,1.3,95.2,459.3,TRUE,1,1,FALSE,FALSE,FALSE,FALSE,,TRUE,FALSE,FALSE,Course Lock,131.2,295.4,16.4,Calm,88,,1.12.6,Mavic Mini,1SDCH7G0169R0K,1SFLH6Q0AB03DJ,1SRCH7F014TAHX,1U5X071EXP5ZJG,119.8,0.1,98.4,3.607065,4.47388,0,0,Mavic Mini,1SDCH7G0169R0K,1SFLH6Q0AB03DJ,1SRCH7F014TAHX,1U5X071EXP5ZJG,DJI Fly,,1.12.6,90A4C2A7-88E9-8536-1624-051FA4A3955C,1SDCH7G0169R0K,,,,,6.974828979,79.91475178,5,,
1/30/2024,43:23.0,0m 4.5s,4.5,6.974827727,79.91476051,3.9,3.9,4.2,68,1.9,0,0,0,0,0,0,0,0,2.6,-0.7,169.3,169.3,,P-GPS,Auto Fly,,8,4,TRUE,,Mavic Mini,TRUE,FALSE,,Smart,RC,FALSE,TRUE,FALSE,,,TRUE,,FALSE,FALSE,FALSE,FALSE,FALSE,FALSE,FALSE,FALSE,FALSE,FALSE,0,Follow Yaw,0,0,170.2,170.2,FALSE,FALSE,FALSE,FALSE,FALSE,FALSE,,TRUE,Normal,,100,1024,1024,1024,1024,1,FALSE,FALSE,FALSE,FALSE,FALSE,0,FALSE,FALSE,FALSE,FALSE,97,7.965,1991,2055,7.927,FALSE,3.985,3.98,0.005,FALSE,FALSE,NA,79.7,79.5,79.7,0,0,0,0,5,2911.6,727.9,,Idle,0,20,FALSE,5,TRUE,8,Go Home,FALSE,FALSE,FALSE,FALSE,FALSE,FALSE,FALSE,FALSE,TRUE,FALSE,FALSE,FALSE,6.974831423,79.91476114,1.3,95.2,459.3,TRUE,1,1,FALSE,FALSE,FALSE,FALSE,,TRUE,FALSE,FALSE,Course Lock,131.2,295.4,16.4,Calm,88,,1.12.6,Mavic Mini,1SDCH7G0169R0K,1SFLH6Q0AB03DJ,1SRCH7F014TAHX,1U5X071EXP5ZJG,119.8,0.1,98.4,3.607065,4.47388,0,0,Mavic Mini,1SDCH7G0169R0K,1SFLH6Q0AB03DJ,1SRCH7F014TAHX,1U5X071EXP5ZJG,DJI Fly,,1.12.6,90A4C2A7-88E9-8536-1624-051FA4A3955C,1SDCH7G0169R0K,,,,,6.974828979,79.91475178,5,,
1/30/2024,43:23.1,0m 4.6s,4.6,6.974827685,79.91476028,3.9,3.9,4.2,68,2,0,0,0,0,0,0,0,0,2.9,-0.9,169.4,169.4,,P-GPS,Auto Fly,,8,4,TRUE,,Mavic Mini,TRUE,FALSE,,Smart,RC,FALSE,TRUE,FALSE,,,TRUE,,FALSE,FALSE,FALSE,FALSE,FALSE,FALSE,FALSE,FALSE,FALSE,FALSE,0,Follow Yaw,0,0,170.2,170.2,FALSE,FALSE,FALSE,FALSE,FALSE,FALSE,,TRUE,Normal,,100,1024,1024,1024,1024,1,FALSE,FALSE,FALSE,FALSE,FALSE,0,FALSE,FALSE,FALSE,FALSE,97,7.965,1991,2055,7.973,FALSE,3.985,3.98,0.005,FALSE,FALSE,NA,79.7,79.5,79.7,0,0,0,0,5,4222.9,1055.74,,Idle,0,20,FALSE,5,TRUE,8,Go Home,FALSE,FALSE,FALSE,FALSE,FALSE,FALSE,FALSE,FALSE,TRUE,FALSE,FALSE,FALSE,6.974831423,79.91476114,1.3,95.2,459.3,TRUE,1,1,FALSE,FALSE,FALSE,FALSE,,TRUE,FALSE,FALSE,Course Lock,131.2,295.4,16.4,Calm,88,,1.12.6,Mavic Mini,1SDCH7G0169R0K,1SFLH6Q0AB03DJ,1SRCH7F014TAHX,1U5X071EXP5ZJG,119.8,0.1,98.4,3.607065,4.47388,0,0,Mavic Mini,1SDCH7G0169R0K,1SFLH6Q0AB03DJ,1SRCH7F014TAHX,1U5X071EXP5ZJG,DJI Fly,,1.12.6,90A4C2A7-88E9-8536-1624-051FA4A3955C,1SDCH7G0169R0K,,,,,6.974828979,79.91475178,5,,
1/30/2024,43:23.1,0m 4.7s,4.7,6.974827655,79.91476021,3.9,3.9,4.2,68,2,0,0,0,0,0,0,0,0,2.6,-0.6,169.6,169.6,,P-GPS,Auto Fly,,8,4,TRUE,,Mavic Mini,TRUE,FALSE,,Smart,RC,FALSE,TRUE,FALSE,,,TRUE,,FALSE,FALSE,FALSE,FALSE,FALSE,FALSE,FALSE,FALSE,FALSE,FALSE,0,Follow Yaw,0,0,170.2,170.2,FALSE,FALSE,FALSE,FALSE,FALSE,FALSE,,TRUE,Normal,,100,1024,1024,1024,1024,1,FALSE,FALSE,FALSE,FALSE,FALSE,0,FALSE,FALSE,FALSE,FALSE,97,7.965,1991,2055,7.973,FALSE,3.985,3.98,0.005,FALSE,FALSE,NA,79.7,79.5,79.7,0,0,0,0,5,4222.9,1055.74,,Idle,0,20,FALSE,5,TRUE,8,Go Home,FALSE,FALSE,FALSE,FALSE,FALSE,FALSE,FALSE,FALSE,TRUE,FALSE,FALSE,FALSE,6.974831423,79.91476114,1.4,95.2,459.3,TRUE,1,1,FALSE,FALSE,FALSE,FALSE,,TRUE,FALSE,FALSE,Course Lock,131.2,295.4,16.4,Calm,88,,1.12.6,Mavic Mini,1SDCH7G0169R0K,1SFLH6Q0AB03DJ,1SRCH7F014TAHX,1U5X071EXP5ZJG,119.8,0.1,98.4,3.607065,4.47388,0,0,Mavic Mini,1SDCH7G0169R0K,1SFLH6Q0AB03DJ,1SRCH7F014TAHX,1U5X071EXP5ZJG,DJI Fly,,1.12.6,90A4C2A7-88E9-8536-1624-051FA4A3955C,1SDCH7G0169R0K,,,,,6.974828979,79.91475178,5,,
1/30/2024,43:23.2,0m 4.8s,4.8,6.974827641,79.91476014,3.9,3.9,4.2,68,2.1,0,0,0,0,0,0,0,0,2.6,-0.9,169.7,169.7,,P-GPS,Auto Fly,,8,4,TRUE,,Mavic Mini,TRUE,FALSE,,Smart,RC,FALSE,TRUE,FALSE,,,TRUE,,FALSE,FALSE,FALSE,FALSE,FALSE,FALSE,FALSE,FALSE,FALSE,FALSE,0,Follow Yaw,0,0,170.2,170.2,FALSE,FALSE,FALSE,FALSE,FALSE,FALSE,,TRUE,Normal,,100,1024,1024,1024,1024,1,FALSE,FALSE,FALSE,FALSE,FALSE,0,FALSE,FALSE,FALSE,FALSE,97,7.965,1991,2055,7.973,FALSE,3.985,3.98,0.005,FALSE,FALSE,NA,79.7,79.5,79.7,0,0,0,0,5,4222.9,1055.74,,Idle,0,20,FALSE,5,TRUE,8,Go Home,FALSE,FALSE,FALSE,FALSE,FALSE,FALSE,FALSE,FALSE,TRUE,FALSE,FALSE,FALSE,6.974831423,79.91476114,1.4,95.2,459.3,TRUE,1,1,FALSE,FALSE,FALSE,FALSE,,TRUE,FALSE,FALSE,Course Lock,131.2,295.4,16.4,Calm,88,,1.12.6,Mavic Mini,1SDCH7G0169R0K,1SFLH6Q0AB03DJ,1SRCH7F014TAHX,1U5X071EXP5ZJG,119.8,0.1,98.4,3.607065,4.47388,0,0,Mavic Mini,1SDCH7G0169R0K,1SFLH6Q0AB03DJ,1SRCH7F014TAHX,1U5X071EXP5ZJG,DJI Fly,,1.12.6,90A4C2A7-88E9-8536-1624-051FA4A3955C,1SDCH7G0169R0K,,,,,6.974828979,79.91475178,5,,
1/30/2024,43:23.3,0m 4.9s,4.9,6.974827624,79.9147601,3.9,3.9,4.2,68,2.1,0,0,0,0,0,0,0,0,2.2,-1,169.8,169.8,,P-GPS,Auto Fly,,8,4,TRUE,,Mavic Mini,TRUE,FALSE,,Smart,RC,FALSE,TRUE,FALSE,,,TRUE,,FALSE,FALSE,FALSE,FALSE,FALSE,FALSE,FALSE,FALSE,FALSE,FALSE,0,Follow Yaw,0,0,170.2,170.2,FALSE,FALSE,FALSE,FALSE,FALSE,FALSE,,TRUE,Normal,,100,1024,1024,1024,1024,1,FALSE,FALSE,FALSE,FALSE,FALSE,0,FALSE,FALSE,FALSE,FALSE,97,7.965,1991,2055,7.973,FALSE,3.985,3.98,0.005,FALSE,FALSE,NA,79.7,79.5,79.7,0,0,0,0,5,4222.9,1055.74,,Idle,0,20,FALSE,5,TRUE,8,Go Home,FALSE,FALSE,FALSE,FALSE,FALSE,FALSE,FALSE,FALSE,TRUE,FALSE,FALSE,FALSE,6.974831423,79.91476114,1.4,95.2,459.3,TRUE,1,1,FALSE,FALSE,FALSE,FALSE,,TRUE,FALSE,FALSE,Course Lock,131.2,295.4,16.4,Calm,88,,1.12.6,Mavic Mini,1SDCH7G0169R0K,1SFLH6Q0AB03DJ,1SRCH7F014TAHX,1U5X071EXP5ZJG,119.8,0.1,98.4,3.607065,4.47388,0,0,Mavic Mini,1SDCH7G0169R0K,1SFLH6Q0AB03DJ,1SRCH7F014TAHX,1U5X071EXP5ZJG,DJI Fly,,1.12.6,90A4C2A7-88E9-8536-1624-051FA4A3955C,1SDCH7G0169R0K,,,,,6.974828979,79.91475178,5,,
1/30/2024,43:23.5,0m 5.0s,5,6.974827605,79.91476005,3.9,3.9,4.2,68,2.1,0,0,0,0,0,0,0,0,2.1,-0.8,169.9,169.9,,P-GPS,Auto Fly,,8,4,TRUE,,Mavic Mini,TRUE,FALSE,,Smart,RC,FALSE,TRUE,FALSE,,,TRUE,,FALSE,FALSE,FALSE,FALSE,FALSE,FALSE,FALSE,FALSE,FALSE,FALSE,0,Follow Yaw,0,0,170.2,170.2,FALSE,FALSE,FALSE,FALSE,FALSE,FALSE,,TRUE,Normal,,100,1024,1024,1024,1024,1,FALSE,FALSE,FALSE,FALSE,FALSE,0,FALSE,FALSE,FALSE,FALSE,97,7.93,1990,2055,7.973,FALSE,3.966,3.964,0.005,FALSE,FALSE,NA,79.7,79.5,79.7,0,0,0,0,5,4222.9,1055.74,,Idle,0,20,FALSE,5,TRUE,8,Go Home,FALSE,FALSE,FALSE,FALSE,FALSE,FALSE,FALSE,FALSE,TRUE,FALSE,FALSE,FALSE,6.974831423,79.91476114,1.4,95.2,459.3,TRUE,1,1,FALSE,FALSE,FALSE,FALSE,,TRUE,FALSE,FALSE,Course Lock,131.2,295.4,16.4,Calm,88,,1.12.6,Mavic Mini,1SDCH7G0169R0K,1SFLH6Q0AB03DJ,1SRCH7F014TAHX,1U5X071EXP5ZJG,119.8,0.1,98.4,3.607065,4.47388,0,0,Mavic Mini,1SDCH7G0169R0K,1SFLH6Q0AB03DJ,1SRCH7F014TAHX,1U5X071EXP5ZJG,DJI Fly,,1.12.6,90A4C2A7-88E9-8536-1624-051FA4A3955C,1SDCH7G0169R0K,,,,,6.974828979,79.91475178,5,,
1/30/2024,43:23.5,0m 5.1s,5.1,6.974827593,79.91476004,3.9,3.9,4.2,68,2.1,0,0,0,0,0,0,0,0,2.4,-1,169.9,169.9,,P-GPS,Auto Fly,,8,4,TRUE,,Mavic Mini,TRUE,FALSE,,Smart,RC,FALSE,TRUE,FALSE,,,TRUE,,FALSE,FALSE,FALSE,FALSE,FALSE,FALSE,FALSE,FALSE,FALSE,FALSE,0,Follow Yaw,0,0,170.2,170.2,FALSE,FALSE,FALSE,FALSE,FALSE,FALSE,,TRUE,Normal,,100,1024,1024,1024,1024,1,FALSE,FALSE,FALSE,FALSE,FALSE,0,FALSE,FALSE,FALSE,FALSE,97,7.93,1990,2055,7.973,FALSE,3.966,3.964,0.005,FALSE,FALSE,NA,79.7,79.5,79.7,0,0,0,0,5,4222.9,1055.74,,Idle,0,20,FALSE,5,TRUE,8,Go Home,FALSE,FALSE,FALSE,FALSE,FALSE,FALSE,FALSE,FALSE,TRUE,FALSE,FALSE,FALSE,6.974831423,79.91476114,1.4,95.2,459.3,TRUE,1,1,FALSE,FALSE,FALSE,FALSE,,TRUE,FALSE,FALSE,Course Lock,131.2,295.4,16.4,Calm,88,,1.12.6,Mavic Mini,1SDCH7G0169R0K,1SFLH6Q0AB03DJ,1SRCH7F014TAHX,1U5X071EXP5ZJG,119.8,0.1,98.4,3.607065,4.47388,0,0,Mavic Mini,1SDCH7G0169R0K,1SFLH6Q0AB03DJ,1SRCH7F014TAHX,1U5X071EXP5ZJG,DJI Fly,,1.12.6,90A4C2A7-88E9-8536-1624-051FA4A3955C,1SDCH7G0169R0K,,,,,6.974828979,79.91475178,5,,
1/30/2024,43:23.6,0m 5.2s,5.2,6.974827588,79.91476004,3.9,3.9,4.2,68,2.1,0,0,0,0,0,0,0,0,2.3,-1.1,170,170,,P-GPS,Auto Fly,,8,4,TRUE,,Mavic Mini,TRUE,FALSE,,Smart,RC,FALSE,TRUE,FALSE,,,TRUE,,FALSE,FALSE,FALSE,FALSE,FALSE,FALSE,FALSE,FALSE,FALSE,FALSE,0,Follow Yaw,0,0,170.2,170.2,FALSE,FALSE,FALSE,FALSE,FALSE,FALSE,,TRUE,Normal,,100,1024,1024,1024,1024,1,FALSE,FALSE,FALSE,FALSE,FALSE,0,FALSE,FALSE,FALSE,FALSE,97,7.93,1990,2055,7.973,FALSE,3.966,3.964,0.005,FALSE,FALSE,NA,79.7,79.5,79.7,0,0,0,0,5,4222.9,1055.74,,Idle,0,20,FALSE,5,TRUE,8,Go Home,FALSE,FALSE,FALSE,FALSE,FALSE,FALSE,FALSE,FALSE,TRUE,FALSE,FALSE,FALSE,6.974831423,79.91476114,1.4,95.2,459.3,TRUE,1,1,FALSE,FALSE,FALSE,FALSE,,TRUE,FALSE,FALSE,Course Lock,131.2,295.4,16.4,Calm,88,,1.12.6,Mavic Mini,1SDCH7G0169R0K,1SFLH6Q0AB03DJ,1SRCH7F014TAHX,1U5X071EXP5ZJG,119.8,0.1,98.4,3.607065,4.47388,0,0,Mavic Mini,1SDCH7G0169R0K,1SFLH6Q0AB03DJ,1SRCH7F014TAHX,1U5X071EXP5ZJG,DJI Fly,,1.12.6,90A4C2A7-88E9-8536-1624-051FA4A3955C,1SDCH7G0169R0K,,,,,6.974828979,79.91475178,5,,
1/30/2024,43:23.8,0m 5.3s,5.3,6.974827573,79.91476008,3.9,3.9,4.2,68,2.1,0,0,0,0,0,0,0,0,2.3,-1,170,170,,P-GPS,Auto Fly,,8,4,TRUE,,Mavic Mini,TRUE,FALSE,,Smart,RC,FALSE,TRUE,FALSE,,,TRUE,,FALSE,FALSE,FALSE,FALSE,FALSE,FALSE,FALSE,FALSE,FALSE,FALSE,0,Follow Yaw,0,0,170.2,170.2,FALSE,FALSE,FALSE,FALSE,FALSE,FALSE,,TRUE,Normal,,100,1024,1024,1024,1024,1,FALSE,FALSE,FALSE,FALSE,FALSE,0,FALSE,FALSE,FALSE,FALSE,97,7.93,1990,2055,7.973,FALSE,3.966,3.964,0.005,FALSE,FALSE,NA,79.7,79.5,79.7,0,0,0,0,5,4222.9,1055.74,,Idle,0,20,FALSE,5,TRUE,8,Go Home,FALSE,FALSE,FALSE,FALSE,FALSE,FALSE,FALSE,FALSE,TRUE,FALSE,FALSE,FALSE,6.974831423,79.91476114,1.4,95.2,459.3,TRUE,1,1,FALSE,FALSE,FALSE,FALSE,,TRUE,FALSE,FALSE,Course Lock,131.2,295.4,16.4,Calm,88,,1.12.6,Mavic Mini,1SDCH7G0169R0K,1SFLH6Q0AB03DJ,1SRCH7F014TAHX,1U5X071EXP5ZJG,119.8,0.1,98.4,3.607065,4.47388,0,0,Mavic Mini,1SDCH7G0169R0K,1SFLH6Q0AB03DJ,1SRCH7F014TAHX,1U5X071EXP5ZJG,DJI Fly,,1.12.6,90A4C2A7-88E9-8536-1624-051FA4A3955C,1SDCH7G0169R0K,,,,,6.974828979,79.91475178,5,,
