CUSTOM.date [local],CUSTOM.updateTime [local],OSD.flyTime,OSD.flyTime [s],OSD.latitude,OSD.longitude,OSD.height [ft],OSD.heightMax [ft],OSD.vpsHeight [ft],OSD.altitude [ft],OSD.mileage [ft],OSD.hSpeed [MPH],OSD.hSpeedMax [MPH],OSD.xSpeed [MPH],OSD.xSpeedMax [MPH],OSD.ySpeed [MPH],OSD.ySpeedMax [MPH],OSD.zSpeed [MPH],OSD.zSpeedMax [MPH],OSD.pitch,OSD.roll,OSD.yaw,OSD.yaw [360],OSD.directionOfTravel,OSD.flycState,OSD.flycCommand,OSD.flightAction,OSD.gpsNum,OSD.gpsLevel,OSD.isGPSUsed,OSD.nonGPSCause,OSD.droneType,OSD.isSwaveWork,OSD.waveError,OSD.goHomeStatus,OSD.batteryType,OSD.ctrlDevice,OSD.isOnGround,OSD.isMotorOn,OSD.isMotorBlocked,OSD.motorStartFailedCause,OSD.motorFailReason,OSD.isImuPreheated,OSD.imuInitFailReason,OSD.isAcceletorOverRange,OSD.isBarometerDeadInAir,OSD.isCompassError,OSD.isGoHomeHeightModified,OSD.canIOCWork,OSD.isNotEnoughForce,OSD.isOutOfLimit,OSD.isPropellerCatapult,OSD.isVibrating,OSD.isVisionUsed,OSD.voltageWarning,GIMBAL.mode,GIMBAL.pitch,GIMBAL.roll,GIMBAL.yaw,GIMBAL.yaw [360],GIMBAL.isPitchAtLimit,GIMBAL.isRollAtLimit,GIMBAL.isYawAtLimit,GIMBAL.isStuck,CAMERA.isPhoto,CAMERA.isVideo,CAMERA.filename,CAMERA.sdCardIsInserted,CAMERA.sdCardState,RC.downlinkSignal,RC.uplinkSignal,RC.aileron,RC.elevator,RC.throttle,RC.rudder,RC.mode,RC.goHomeDepressed,RC.recordDepressed,RC.shutterDepressed,RC.playbackDepressed,RC.wheelDepressed,RC.wheelOffset,RC.custom1Depressed,RC.custom2Depressed,RC.custom3Depressed,RC.custom4Depressed,BATTERY.chargeLevel,BATTERY.currentPV [V],BATTERY.currentCapacity [mAh],BATTERY.fullCapacity [mAh],BATTERY.voltage [V],BATTERY.isCellVoltageEstimated,BATTERY.cellVoltage1 [V],BATTERY.cellVoltage2 [V],BATTERY.maxCellVoltageDeviation,BATTERY.isCellVoltageDeviationHigh,BATTERY.isVoltageLow,BATTERY.current [A],BATTERY.temperature [F],BATTERY.minTemperature [F],BATTERY.maxTemperature [F],BATTERY.usefulTime [s],BATTERY.goHomeTime [s],BATTERY.landTime [s],BATTERY.goHomeBattery,BATTERY.landBattery,BATTERY.safeFlyRadius,BATTERY.volumeConsume,BATTERY.status,BATTERY.goHomeStatus,BATTERY.goHomeCountdown,BATTERY.lowWarning,BATTERY.lowWarningGoHome,BATTERY.seriousLowWarning,BATTERY.seriousLowWarningLanding,BATTERY.timesCharged,MC.failSafeAction,MC.isObstacleAvoidanceEnabled,MC.isCollisionAvoidanceEnabled,MC.isRthObstacleAvoidanceEnabled,MC.isBraking,MC.isAvoidingObstacle,MC.isAvoidingActiveObstacle,MC.isAscentLimitedByObstacle,MC.isLandingConfirmationNeeded,MC.atLowAltitudeLimit,MC.atDistanceLimit,MC.atAirportAltitudeLimit,MC.atAirportBoundary,HOME.latitude,HOME.longitude,HOME.distance [ft],HOME.height [ft],HOME.heightLimit [ft],HOME.isHomeRecord,HOME.goHomeMode,HOME.aircraftHeadDirection,HOME.isDynamicHomePointEnabled,HOME.isReachedLimitDistance,HOME.isReachedLimitHeight,HOME.isCompassCalibrating,HOME.compassCalibrationState,HOME.isMultipleFlightModeEnabled,HOME.isBeginnerMode,HOME.isIOCEnabled,HOME.iocMode,HOME.goHomeHeight [ft],HOME.courseLockAngle,HOME.forceLandingHeight [ft],HOME.wind,HOME.dataRecorderFileIndex,RECOVER.appType,RECOVER.appVersion,RECOVER.aircraftName,RECOVER.aircraftSerial,RECOVER.cameraSerial,RECOVER.rcSerial,RECOVER.batterySerial,DETAILS.totalTime [s],DETAILS.totalDistance [ft],DETAILS.maxHeight [ft],DETAILS.maxHorizontalSpeed [MPH],DETAILS.maxVerticalSpeed [MPH],DETAILS.photoNum,DETAILS.videoTime [s],DETAILS.aircraftName,DETAILS.aircraftSerial,DETAILS.cameraSerial,DETAILS.rcSerial,DETAILS.batterySerial,DETAILS.appName,DETAILS.appType,DETAILS.appVersion,DETAILS.guid,SERIAL.flightController,SERIAL.camera,SERIAL.gimbal,SERIAL.rc,SERIAL.battery,APPGPS.latitude,APPGPS.longitude,APPGPS.accuracy,APP.tip,APP.warning
2/27/2024,09:10.3,4m 11.2s,251.2,6.974172925,79.91451541,0,0,,61,0,0,0,0,0,0,0,0,0,7.7,1.9,152.1,152.1,,P-GPS,Other,Takeoff (RC Assisted),14,5,TRUE,,Mavic Mini,FALSE,FALSE,,Smart,RC,TRUE,TRUE,FALSE,,,TRUE,,FALSE,FALSE,FALSE,FALSE,FALSE,FALSE,FALSE,FALSE,FALSE,FALSE,0,Follow Yaw,0,0,150.2,150.2,FALSE,FALSE,FALSE,FALSE,FALSE,FALSE,,TRUE,Normal,,,1024,1024,1024,1154,1,FALSE,FALSE,FALSE,FALSE,FALSE,0,FALSE,FALSE,FALSE,FALSE,81,7.871,1670,2063,7.871,TRUE,3.936,3.936,,FALSE,FALSE,NA,100.4,100.4,100.4,,,,,,,,,Idle,,,TRUE,,FALSE,6,Go Home,FALSE,FALSE,FALSE,FALSE,FALSE,FALSE,FALSE,FALSE,FALSE,FALSE,FALSE,FALSE,,,,,,FALSE,,,FALSE,FALSE,FALSE,FALSE,,FALSE,FALSE,FALSE,,,,,Calm,,,1.12.8,Mavic Mini,1SDCH7G0169R0K,1SFLH6Q0AB03DJ,1SRCH7F014TAHX,1U5X071EXP6C9Y,51.1,0.1,13.1,5.533965,3.802798,0,80,Mavic Mini,1SDCH7G0169R0K,1SFLH6Q0AB03DJ,1SRCH7F014TAHX,1U5X071EXP6C9Y,DJI Fly,,1.12.8,2A2A605A-9147-C0D4-1FE7-CA62CBF03550,1SDCH7G0169R0K,,,,,,,,Flight mode changed to P-GPS.,
2/27/2024,04:59.2,4m 11.3s,251.3,6.974172919,79.91451546,0,0,,61,0,0,0,0,0,0,0,0,0,7.7,1.9,152.1,152.1,,Starting Motors,Other,Takeoff (RC Assisted),14,5,TRUE,,Mavic Mini,FALSE,FALSE,,Smart,RC,TRUE,TRUE,FALSE,,,TRUE,,FALSE,FALSE,FALSE,FALSE,FALSE,FALSE,FALSE,FALSE,FALSE,FALSE,0,Follow Yaw,0,0,150.3,150.3,FALSE,FALSE,FALSE,FALSE,FALSE,FALSE,,TRUE,Normal,,100,1024,1024,1024,1024,1,FALSE,FALSE,FALSE,FALSE,FALSE,0,FALSE,FALSE,FALSE,FALSE,81,7.871,1670,2063,7.871,TRUE,3.936,3.936,,FALSE,FALSE,NA,100.4,100.4,100.4,,,,,,,,,Idle,,,TRUE,,FALSE,6,Go Home,FALSE,FALSE,FALSE,FALSE,FALSE,FALSE,FALSE,FALSE,FALSE,FALSE,FALSE,FALSE,,,,,,FALSE,,,FALSE,FALSE,FALSE,FALSE,,FALSE,FALSE,FALSE,,,,,Calm,,,1.12.8,Mavic Mini,1SDCH7G0169R0K,1SFLH6Q0AB03DJ,1SRCH7F014TAHX,1U5X071EXP6C9Y,51.1,0.1,13.1,5.533965,3.802798,0,80,Mavic Mini,1SDCH7G0169R0K,1SFLH6Q0AB03DJ,1SRCH7F014TAHX,1U5X071EXP6C9Y,DJI Fly,,1.12.8,2A2A605A-9147-C0D4-1FE7-CA62CBF03550,1SDCH7G0169R0K,,,,,,,,Flight mode changed to Starting Motors.,
2/27/2024,04:59.3,4m 11.4s,251.4,6.974172914,79.91451551,0,0,0.3,61,0,0,0,0,0,0,0,0,0,7.7,1.9,152.1,152.1,,Starting Motors,Other,Takeoff (RC Assisted),14,5,TRUE,,Mavic Mini,TRUE,FALSE,,Smart,RC,TRUE,TRUE,FALSE,,,TRUE,,FALSE,FALSE,FALSE,FALSE,FALSE,FALSE,FALSE,FALSE,FALSE,FALSE,0,Follow Yaw,0,0,150.3,150.3,FALSE,FALSE,FALSE,FALSE,FALSE,FALSE,,TRUE,Normal,,100,1024,1024,1024,1024,1,FALSE,FALSE,FALSE,FALSE,FALSE,0,FALSE,FALSE,FALSE,FALSE,81,7.871,1670,2063,7.871,TRUE,3.936,3.936,,FALSE,FALSE,NA,100.4,100.4,100.4,,,,,,,,,Idle,,,TRUE,,FALSE,6,Go Home,FALSE,FALSE,FALSE,FALSE,FALSE,FALSE,FALSE,FALSE,FALSE,FALSE,FALSE,FALSE,,,,,,FALSE,,,FALSE,FALSE,FALSE,FALSE,,FALSE,FALSE,FALSE,,,,,Calm,,,1.12.8,Mavic Mini,1SDCH7G0169R0K,1SFLH6Q0AB03DJ,1SRCH7F014TAHX,1U5X071EXP6C9Y,51.1,0.1,13.1,5.533965,3.802798,0,80,Mavic Mini,1SDCH7G0169R0K,1SFLH6Q0AB03DJ,1SRCH7F014TAHX,1U5X071EXP6C9Y,DJI Fly,,1.12.8,2A2A605A-9147-C0D4-1FE7-CA62CBF03550,1SDCH7G0169R0K,,,,,,,,,
2/27/2024,04:59.4,4m 11.5s,251.5,6.97417292,79.91451557,0,0,0.3,61,0,0,0,0,0,0,0,0,0,7.7,1.9,152.1,152.1,,Starting Motors,Other,Takeoff (RC Assisted),14,5,TRUE,,Mavic Mini,TRUE,FALSE,,Smart,RC,TRUE,TRUE,FALSE,,,TRUE,,FALSE,FALSE,FALSE,FALSE,FALSE,FALSE,FALSE,FALSE,FALSE,FALSE,0,Follow Yaw,0,0,150.3,150.3,FALSE,FALSE,FALSE,FALSE,FALSE,FALSE,,TRUE,Normal,,100,1024,1024,1024,1024,1,FALSE,FALSE,FALSE,FALSE,FALSE,0,FALSE,FALSE,FALSE,FALSE,81,7.871,1670,2063,7.871,TRUE,3.936,3.936,,FALSE,FALSE,NA,100.4,100.4,100.4,,,,,,,,,Idle,,,TRUE,,FALSE,6,Go Home,FALSE,FALSE,FALSE,FALSE,FALSE,FALSE,FALSE,FALSE,FALSE,FALSE,FALSE,FALSE,,,,,,FALSE,,,FALSE,FALSE,FALSE,FALSE,,FALSE,FALSE,FALSE,,,,,Calm,,,1.12.8,Mavic Mini,1SDCH7G0169R0K,1SFLH6Q0AB03DJ,1SRCH7F014TAHX,1U5X071EXP6C9Y,51.1,0.1,13.1,5.533965,3.802798,0,80,Mavic Mini,1SDCH7G0169R0K,1SFLH6Q0AB03DJ,1SRCH7F014TAHX,1U5X071EXP6C9Y,DJI Fly,,1.12.8,2A2A605A-9147-C0D4-1FE7-CA62CBF03550,1SDCH7G0169R0K,,,,,,,,,
2/27/2024,04:59.5,4m 11.6s,251.6,6.974173046,79.91451572,0,0,0.3,61,0.1,0,0,0,0,0,0,0,0,7.7,1.8,152.1,152.1,,Starting Motors,Other,Takeoff (RC Assisted),14,5,TRUE,,Mavic Mini,TRUE,FALSE,,Smart,RC,TRUE,TRUE,FALSE,,,TRUE,,FALSE,FALSE,FALSE,FALSE,FALSE,FALSE,FALSE,FALSE,FALSE,FALSE,0,Follow Yaw,0,0,150.3,150.3,FALSE,FALSE,FALSE,FALSE,FALSE,FALSE,,TRUE,Normal,,100,1024,1024,1024,1024,1,FALSE,FALSE,FALSE,FALSE,FALSE,0,FALSE,FALSE,FALSE,FALSE,81,7.871,1670,2063,7.871,TRUE,3.936,3.936,,FALSE,FALSE,NA,100.4,100.4,100.4,,,,,,,,,Idle,,,TRUE,,FALSE,6,Go Home,FALSE,FALSE,FALSE,FALSE,FALSE,FALSE,FALSE,FALSE,FALSE,FALSE,FALSE,FALSE,,,,,,FALSE,,,FALSE,FALSE,FALSE,FALSE,,FALSE,FALSE,FALSE,,,,,Calm,,,1.12.8,Mavic Mini,1SDCH7G0169R0K,1SFLH6Q0AB03DJ,1SRCH7F014TAHX,1U5X071EXP6C9Y,51.1,0.1,13.1,5.533965,3.802798,0,80,Mavic Mini,1SDCH7G0169R0K,1SFLH6Q0AB03DJ,1SRCH7F014TAHX,1U5X071EXP6C9Y,DJI Fly,,1.12.8,2A2A605A-9147-C0D4-1FE7-CA62CBF03550,1SDCH7G0169R0K,,,,,,,,,
2/27/2024,04:59.6,4m 11.7s,251.7,6.974173003,79.91451572,0,0,0.3,61,0.1,0,0,0,0,0,0,0,0,7.7,1.9,152.1,152.1,,Starting Motors,Other,Takeoff (RC Assisted),14,5,TRUE,,Mavic Mini,TRUE,FALSE,,Smart,RC,TRUE,TRUE,FALSE,,,TRUE,,FALSE,FALSE,FALSE,FALSE,FALSE,FALSE,FALSE,FALSE,FALSE,FALSE,0,Follow Yaw,0,0,150.3,150.3,FALSE,FALSE,FALSE,FALSE,FALSE,FALSE,,TRUE,Normal,,100,1024,1024,1024,1024,1,FALSE,FALSE,FALSE,FALSE,FALSE,0,FALSE,FALSE,FALSE,FALSE,81,7.871,1670,2063,7.871,TRUE,3.936,3.936,,FALSE,FALSE,NA,100.4,100.4,100.4,,,,,,,,,Idle,,,TRUE,,FALSE,6,Go Home,FALSE,FALSE,FALSE,FALSE,FALSE,FALSE,FALSE,FALSE,FALSE,FALSE,FALSE,FALSE,,,,,,FALSE,,,FALSE,FALSE,FALSE,FALSE,,FALSE,FALSE,FALSE,,,,,Calm,,,1.12.8,Mavic Mini,1SDCH7G0169R0K,1SFLH6Q0AB03DJ,1SRCH7F014TAHX,1U5X071EXP6C9Y,51.1,0.1,13.1,5.533965,3.802798,0,80,Mavic Mini,1SDCH7G0169R0K,1SFLH6Q0AB03DJ,1SRCH7F014TAHX,1U5X071EXP6C9Y,DJI Fly,,1.12.8,2A2A605A-9147-C0D4-1FE7-CA62CBF03550,1SDCH7G0169R0K,,,,,,,,,
2/27/2024,04:59.7,4m 11.8s,251.8,6.974172961,79.91451573,0,0,0.3,61,0.1,0,0,0,0,0,0,0,0,7.8,1.7,152.3,152.3,,Starting Motors,Other,Takeoff (RC Assisted),14,5,TRUE,,Mavic Mini,TRUE,FALSE,,Smart,RC,TRUE,TRUE,FALSE,,,TRUE,,FALSE,FALSE,FALSE,FALSE,FALSE,FALSE,FALSE,FALSE,FALSE,FALSE,0,Follow Yaw,0,0,150.3,150.3,FALSE,FALSE,FALSE,FALSE,FALSE,FALSE,,TRUE,Normal,,100,1024,1024,1024,1024,1,FALSE,FALSE,FALSE,FALSE,FALSE,0,FALSE,FALSE,FALSE,FALSE,81,7.871,1670,2063,7.871,TRUE,3.936,3.936,,FALSE,FALSE,NA,100.4,100.4,100.4,,,,,,,,,Idle,,,TRUE,,FALSE,6,Go Home,FALSE,FALSE,FALSE,FALSE,FALSE,FALSE,FALSE,FALSE,FALSE,FALSE,FALSE,FALSE,,,,,,FALSE,,,FALSE,FALSE,FALSE,FALSE,,FALSE,FALSE,FALSE,,,,,Calm,,,1.12.8,Mavic Mini,1SDCH7G0169R0K,1SFLH6Q0AB03DJ,1SRCH7F014TAHX,1U5X071EXP6C9Y,51.1,0.1,13.1,5.533965,3.802798,0,80,Mavic Mini,1SDCH7G0169R0K,1SFLH6Q0AB03DJ,1SRCH7F014TAHX,1U5X071EXP6C9Y,DJI Fly,,1.12.8,2A2A605A-9147-C0D4-1FE7-CA62CBF03550,1SDCH7G0169R0K,,,,,,,,,
2/27/2024,04:59.8,4m 11.9s,251.9,6.9741729,79.91451578,0,0,0.3,61,0.1,0,0,0,0,0,0,0,0,7.8,1.8,152.4,152.4,,Starting Motors,Other,Takeoff (RC Assisted),14,5,TRUE,,Mavic Mini,TRUE,FALSE,,Smart,RC,TRUE,TRUE,FALSE,,,TRUE,,FALSE,FALSE,FALSE,FALSE,FALSE,FALSE,FALSE,FALSE,FALSE,FALSE,0,Follow Yaw,0,0,150.3,150.3,FALSE,FALSE,FALSE,FALSE,FALSE,FALSE,,TRUE,Normal,,100,1024,1024,1098,1024,1,FALSE,FALSE,FALSE,FALSE,FALSE,0,FALSE,FALSE,FALSE,FALSE,81,7.871,1670,2063,7.871,TRUE,3.936,3.936,,FALSE,FALSE,NA,100.4,100.4,100.4,,,,,,,,,Idle,,,TRUE,,FALSE,6,Go Home,FALSE,FALSE,FALSE,FALSE,FALSE,FALSE,FALSE,FALSE,FALSE,FALSE,FALSE,FALSE,,,,,,FALSE,,,FALSE,FALSE,FALSE,FALSE,,FALSE,FALSE,FALSE,,,,,Calm,,,1.12.8,Mavic Mini,1SDCH7G0169R0K,1SFLH6Q0AB03DJ,1SRCH7F014TAHX,1U5X071EXP6C9Y,51.1,0.1,13.1,5.533965,3.802798,0,80,Mavic Mini,1SDCH7G0169R0K,1SFLH6Q0AB03DJ,1SRCH7F014TAHX,1U5X071EXP6C9Y,DJI Fly,,1.12.8,2A2A605A-9147-C0D4-1FE7-CA62CBF03550,1SDCH7G0169R0K,,,,,,,,,
2/27/2024,04:59.8,4m 12.0s,252,6.974172758,79.9145158,0,0,0.3,61,0.2,0,0,0,0,0,0,0,0,7.8,1.7,152.3,152.3,,Starting Motors,Other,Takeoff (RC Assisted),14,5,TRUE,,Mavic Mini,TRUE,FALSE,,Smart,RC,TRUE,TRUE,FALSE,,,TRUE,,FALSE,FALSE,FALSE,FALSE,FALSE,FALSE,FALSE,FALSE,FALSE,FALSE,0,Follow Yaw,0,0,150.4,150.4,FALSE,FALSE,FALSE,FALSE,FALSE,FALSE,,TRUE,Normal,,100,1024,1024,1098,1024,1,FALSE,FALSE,FALSE,FALSE,FALSE,0,FALSE,FALSE,FALSE,FALSE,81,7.871,1670,2063,7.857,TRUE,3.929,3.929,,FALSE,FALSE,NA,100.4,100.4,100.4,0,0,0,0,5,2253.1,563.28,,Idle,0,20,FALSE,5,TRUE,6,Go Home,FALSE,FALSE,FALSE,FALSE,FALSE,FALSE,FALSE,FALSE,FALSE,FALSE,FALSE,FALSE,6.9741691,79.91451619,1.3,181.9,328,TRUE,1,1,FALSE,FALSE,FALSE,FALSE,,TRUE,FALSE,FALSE,Course Lock,49.2,254.5,16.4,Calm,39,,1.12.8,Mavic Mini,1SDCH7G0169R0K,1SFLH6Q0AB03DJ,1SRCH7F014TAHX,1U5X071EXP6C9Y,51.1,0.1,13.1,5.533965,3.802798,0,80,Mavic Mini,1SDCH7G0169R0K,1SFLH6Q0AB03DJ,1SRCH7F014TAHX,1U5X071EXP6C9Y,DJI Fly,,1.12.8,2A2A605A-9147-C0D4-1FE7-CA62CBF03550,1SDCH7G0169R0K,,,,,,,,Data Recorder File Index is 39.; Set Return to Home (RTH) altitude to 15 m (49 ft).; Set maximum flight altitude to 100 m (328 ft).,
2/27/2024,05:00.1,4m 12.1s,252.1,6.974172693,79.91451586,0,0,0.3,61,0.2,0,0,0,0,0,0,0,0,7.8,1.8,152.4,152.4,,Starting Motors,Other,Takeoff (RC Assisted),14,5,TRUE,,Mavic Mini,TRUE,FALSE,,Smart,RC,TRUE,TRUE,FALSE,,,TRUE,,FALSE,FALSE,FALSE,FALSE,FALSE,FALSE,FALSE,FALSE,FALSE,FALSE,0,Follow Yaw,0,0,150.4,150.4,FALSE,FALSE,FALSE,FALSE,FALSE,FALSE,,TRUE,Normal,,100,1024,1024,1149,1024,1,FALSE,FALSE,FALSE,FALSE,FALSE,0,FALSE,FALSE,FALSE,FALSE,81,7.871,1670,2063,7.857,TRUE,3.929,3.929,,FALSE,FALSE,NA,100.4,100.4,100.4,0,0,0,0,5,2253.1,563.28,,Idle,0,20,FALSE,5,TRUE,6,Go Home,FALSE,FALSE,FALSE,FALSE,FALSE,FALSE,FALSE,FALSE,FALSE,FALSE,FALSE,FALSE,6.9741691,79.91451619,1.3,181.9,328,TRUE,1,1,FALSE,FALSE,FALSE,FALSE,,TRUE,FALSE,FALSE,Course Lock,49.2,254.5,16.4,Calm,39,,1.12.8,Mavic Mini,1SDCH7G0169R0K,1SFLH6Q0AB03DJ,1SRCH7F014TAHX,1U5X071EXP6C9Y,51.1,0.1,13.1,5.533965,3.802798,0,80,Mavic Mini,1SDCH7G0169R0K,1SFLH6Q0AB03DJ,1SRCH7F014TAHX,1U5X071EXP6C9Y,DJI Fly,,1.12.8,2A2A605A-9147-C0D4-1FE7-CA62CBF03550,1SDCH7G0169R0K,,,,,,,,,
2/27/2024,05:00.1,4m 12.2s,252.2,6.974172634,79.91451591,0,0,0.3,61,0.2,0,0,0,0,0,0,0,0,7.9,1.7,152.3,152.3,,Starting Motors,Other,Takeoff (RC Assisted),14,5,TRUE,,Mavic Mini,TRUE,FALSE,,Smart,RC,TRUE,TRUE,FALSE,,,TRUE,,FALSE,FALSE,FALSE,FALSE,FALSE,FALSE,FALSE,FALSE,FALSE,FALSE,0,Follow Yaw,0,0,150.4,150.4,FALSE,FALSE,FALSE,FALSE,FALSE,FALSE,,TRUE,Normal,,100,1024,1024,1436,1024,1,FALSE,FALSE,FALSE,FALSE,FALSE,0,FALSE,FALSE,FALSE,FALSE,81,7.832,1670,2063,7.857,FALSE,3.933,3.899,0.034,FALSE,FALSE,NA,100.6,100.4,100.5,0,0,0,0,5,2253.1,563.28,,Idle,0,20,FALSE,5,TRUE,6,Go Home,FALSE,FALSE,FALSE,FALSE,FALSE,FALSE,FALSE,FALSE,FALSE,FALSE,FALSE,FALSE,6.9741691,79.91451619,1.2,181.9,328,TRUE,1,1,FALSE,FALSE,FALSE,FALSE,,TRUE,FALSE,FALSE,Course Lock,49.2,254.5,16.4,Calm,39,,1.12.8,Mavic Mini,1SDCH7G0169R0K,1SFLH6Q0AB03DJ,1SRCH7F014TAHX,1U5X071EXP6C9Y,51.1,0.1,13.1,5.533965,3.802798,0,80,Mavic Mini,1SDCH7G0169R0K,1SFLH6Q0AB03DJ,1SRCH7F014TAHX,1U5X071EXP6C9Y,DJI Fly,,1.12.8,2A2A605A-9147-C0D4-1FE7-CA62CBF03550,1SDCH7G0169R0K,,,,,,,,,
2/27/2024,05:00.2,4m 12.3s,252.3,6.974172624,79.91451597,0,0,0.3,61,0.3,0,0,0,0,0,0,0,0,7.8,1.7,152.3,152.3,,Starting Motors,Other,Takeoff (RC Assisted),14,5,TRUE,,Mavic Mini,TRUE,FALSE,,Smart,RC,TRUE,TRUE,FALSE,,,TRUE,,FALSE,FALSE,FALSE,FALSE,FALSE,FALSE,FALSE,FALSE,FALSE,FALSE,0,Follow Yaw,0,0,150.5,150.5,FALSE,FALSE,FALSE,FALSE,FALSE,FALSE,,TRUE,Normal,,100,1024,1024,1533,1024,1,FALSE,FALSE,FALSE,FALSE,FALSE,0,FALSE,FALSE,FALSE,FALSE,81,7.832,1670,2063,7.857,FALSE,3.933,3.899,0.034,FALSE,FALSE,NA,100.6,100.4,100.5,0,0,0,0,5,2253.1,563.28,,Idle,0,20,FALSE,5,TRUE,6,Go Home,FALSE,FALSE,FALSE,FALSE,FALSE,FALSE,FALSE,FALSE,FALSE,FALSE,FALSE,FALSE,6.9741691,79.91451619,1.2,181.9,328,TRUE,1,1,FALSE,FALSE,FALSE,FALSE,,TRUE,FALSE,FALSE,Course Lock,49.2,254.5,16.4,Calm,39,,1.12.8,Mavic Mini,1SDCH7G0169R0K,1SFLH6Q0AB03DJ,1SRCH7F014TAHX,1U5X071EXP6C9Y,51.1,0.1,13.1,5.533965,3.802798,0,80,Mavic Mini,1SDCH7G0169R0K,1SFLH6Q0AB03DJ,1SRCH7F014TAHX,1U5X071EXP6C9Y,DJI Fly,,1.12.8,2A2A605A-9147-C0D4-1FE7-CA62CBF03550,1SDCH7G0169R0K,,,,,,,,,
2/27/2024,05:00.3,4m 12.4s,252.4,6.974172644,79.91451609,0,0,0.3,61,0.3,0,0,0,0,0,0,0,0,7.8,1.7,152.3,152.3,,Manual Takeoff,Other,Takeoff (RC Assisted),14,5,TRUE,,Mavic Mini,TRUE,FALSE,,Smart,RC,TRUE,TRUE,FALSE,,,TRUE,,FALSE,FALSE,FALSE,FALSE,FALSE,FALSE,FALSE,FALSE,FALSE,FALSE,0,Follow Yaw,0,0,150.5,150.5,FALSE,FALSE,FALSE,FALSE,FALSE,FALSE,,TRUE,Normal,,100,1024,1024,1579,1024,1,FALSE,FALSE,FALSE,FALSE,FALSE,0,FALSE,FALSE,FALSE,FALSE,81,7.832,1670,2063,7.857,FALSE,3.933,3.899,0.034,FALSE,FALSE,NA,100.6,100.4,100.5,0,0,0,0,5,2253.1,563.28,,Idle,0,20,FALSE,5,TRUE,6,Go Home,FALSE,FALSE,FALSE,FALSE,FALSE,FALSE,FALSE,FALSE,FALSE,FALSE,FALSE,FALSE,6.9741691,79.91451619,1.2,181.9,328,TRUE,1,1,FALSE,FALSE,FALSE,FALSE,,TRUE,FALSE,FALSE,Course Lock,49.2,254.5,16.4,Calm,39,,1.12.8,Mavic Mini,1SDCH7G0169R0K,1SFLH6Q0AB03DJ,1SRCH7F014TAHX,1U5X071EXP6C9Y,51.1,0.1,13.1,5.533965,3.802798,0,80,Mavic Mini,1SDCH7G0169R0K,1SFLH6Q0AB03DJ,1SRCH7F014TAHX,1U5X071EXP6C9Y,DJI Fly,,1.12.8,2A2A605A-9147-C0D4-1FE7-CA62CBF03550,1SDCH7G0169R0K,,,,,,,,Flight mode changed to Manual Takeoff.,
2/27/2024,05:00.4,4m 12.5s,252.5,6.974172605,79.91451615,0,0,0.3,61,0.3,0,0,0,0,0,0,0,0,7.8,1.7,152.4,152.4,,Manual Takeoff,Other,Takeoff (RC Assisted),14,5,TRUE,,Mavic Mini,TRUE,FALSE,,Smart,RC,TRUE,TRUE,FALSE,,,TRUE,,FALSE,FALSE,FALSE,FALSE,FALSE,FALSE,FALSE,FALSE,FALSE,FALSE,0,Follow Yaw,0,0,150.5,150.5,FALSE,FALSE,FALSE,FALSE,FALSE,FALSE,,TRUE,Normal,,100,1024,1024,1621,1024,1,FALSE,FALSE,FALSE,FALSE,FALSE,0,FALSE,FALSE,FALSE,FALSE,81,7.832,1670,2063,7.857,FALSE,3.933,3.899,0.034,FALSE,FALSE,NA,100.6,100.4,100.5,0,0,0,0,5,2253.1,563.28,,Idle,0,20,FALSE,5,TRUE,6,Go Home,FALSE,FALSE,FALSE,FALSE,FALSE,FALSE,FALSE,FALSE,FALSE,FALSE,FALSE,FALSE,6.9741691,79.91451619,1.2,181.9,328,TRUE,1,1,FALSE,FALSE,FALSE,FALSE,,TRUE,FALSE,FALSE,Course Lock,49.2,254.5,16.4,Calm,39,,1.12.8,Mavic Mini,1SDCH7G0169R0K,1SFLH6Q0AB03DJ,1SRCH7F014TAHX,1U5X071EXP6C9Y,51.1,0.1,13.1,5.533965,3.802798,0,80,Mavic Mini,1SDCH7G0169R0K,1SFLH6Q0AB03DJ,1SRCH7F014TAHX,1U5X071EXP6C9Y,DJI Fly,,1.12.8,2A2A605A-9147-C0D4-1FE7-CA62CBF03550,1SDCH7G0169R0K,,,,,,,,,
2/27/2024,05:00.5,4m 12.6s,252.6,6.974172567,79.9145162,0,0,0.3,61,0.3,0,0,0,0,0,0,0,0,7.8,1.6,152.3,152.3,,Manual Takeoff,Other,Takeoff (RC Assisted),14,5,TRUE,,Mavic Mini,TRUE,FALSE,,Smart,RC,TRUE,TRUE,FALSE,,,TRUE,,FALSE,FALSE,FALSE,FALSE,FALSE,FALSE,FALSE,FALSE,FALSE,FALSE,0,Follow Yaw,0,0,150.5,150.5,FALSE,FALSE,FALSE,FALSE,FALSE,FALSE,,TRUE,Normal,,100,1024,1024,1622,1024,1,FALSE,FALSE,FALSE,FALSE,FALSE,0,FALSE,FALSE,FALSE,FALSE,81,7.832,1670,2063,7.857,FALSE,3.933,3.899,0.034,FALSE,FALSE,NA,100.6,100.4,100.5,0,0,0,0,5,2253.1,563.28,,Idle,0,20,FALSE,5,TRUE,6,Go Home,FALSE,FALSE,FALSE,FALSE,FALSE,FALSE,FALSE,FALSE,FALSE,FALSE,FALSE,FALSE,6.9741691,79.91451619,1.2,181.9,328,TRUE,1,1,FALSE,FALSE,FALSE,FALSE,,TRUE,FALSE,FALSE,Course Lock,49.2,254.5,16.4,Calm,39,,1.12.8,Mavic Mini,1SDCH7G0169R0K,1SFLH6Q0AB03DJ,1SRCH7F014TAHX,1U5X071EXP6C9Y,51.1,0.1,13.1,5.533965,3.802798,0,80,Mavic Mini,1SDCH7G0169R0K,1SFLH6Q0AB03DJ,1SRCH7F014TAHX,1U5X071EXP6C9Y,DJI Fly,,1.12.8,2A2A605A-9147-C0D4-1FE7-CA62CBF03550,1SDCH7G0169R0K,,,,,,,,,
2/27/2024,05:00.6,4m 12.7s,252.7,6.974172513,79.9145162,0,0,0.3,61,0.4,0,0,0,0,0,0,0,0,7.5,1.7,152.2,152.2,,Manual Takeoff,Other,Takeoff (RC Assisted),14,5,TRUE,,Mavic Mini,TRUE,FALSE,,Smart,RC,TRUE,TRUE,FALSE,,,TRUE,,FALSE,FALSE,FALSE,FALSE,FALSE,FALSE,FALSE,FALSE,FALSE,FALSE,0,Follow Yaw,0,0,150.5,150.5,FALSE,FALSE,FALSE,FALSE,FALSE,FALSE,,TRUE,Normal,,100,1024,1024,1622,1024,1,FALSE,FALSE,FALSE,FALSE,FALSE,0,FALSE,FALSE,FALSE,FALSE,81,7.832,1670,2063,7.857,FALSE,3.933,3.899,0.034,FALSE,FALSE,NA,100.6,100.4,100.5,0,0,0,0,5,2253.1,563.28,,Idle,0,20,FALSE,5,TRUE,6,Go Home,FALSE,FALSE,FALSE,FALSE,FALSE,FALSE,FALSE,FALSE,FALSE,FALSE,FALSE,FALSE,6.9741691,79.91451619,1.2,181.9,328,TRUE,1,1,FALSE,FALSE,FALSE,FALSE,,TRUE,FALSE,FALSE,Course Lock,49.2,254.5,16.4,Calm,39,,1.12.8,Mavic Mini,1SDCH7G0169R0K,1SFLH6Q0AB03DJ,1SRCH7F014TAHX,1U5X071EXP6C9Y,51.1,0.1,13.1,5.533965,3.802798,0,80,Mavic Mini,1SDCH7G0169R0K,1SFLH6Q0AB03DJ,1SRCH7F014TAHX,1U5X071EXP6C9Y,DJI Fly,,1.12.8,2A2A605A-9147-C0D4-1FE7-CA62CBF03550,1SDCH7G0169R0K,,,,,,,,,
2/27/2024,05:00.7,4m 12.8s,252.8,6.974172461,79.9145162,0,0,0.3,61,0.4,0,0,0,0,0,0,0,0,6.6,1.8,151.8,151.8,,Manual Takeoff,Other,Takeoff (RC Assisted),14,5,TRUE,,Mavic Mini,TRUE,FALSE,,Smart,RC,TRUE,TRUE,FALSE,,,TRUE,,FALSE,FALSE,FALSE,FALSE,FALSE,FALSE,FALSE,FALSE,FALSE,FALSE,0,Follow Yaw,0,0,150.4,150.4,FALSE,FALSE,FALSE,FALSE,FALSE,FALSE,,TRUE,Normal,,100,1024,1024,1621,1024,1,FALSE,FALSE,FALSE,FALSE,FALSE,0,FALSE,FALSE,FALSE,FALSE,81,7.832,1670,2063,7.857,FALSE,3.933,3.899,0.034,FALSE,FALSE,NA,100.6,100.4,100.5,0,0,0,0,5,2253.1,563.28,,Idle,0,20,FALSE,5,TRUE,6,Go Home,FALSE,FALSE,FALSE,FALSE,FALSE,FALSE,FALSE,FALSE,FALSE,FALSE,FALSE,FALSE,6.9741691,79.91451619,1.2,181.9,328,TRUE,1,1,FALSE,FALSE,FALSE,FALSE,,TRUE,FALSE,FALSE,Course Lock,49.2,254.5,16.4,Calm,39,,1.12.8,Mavic Mini,1SDCH7G0169R0K,1SFLH6Q0AB03DJ,1SRCH7F014TAHX,1U5X071EXP6C9Y,51.1,0.1,13.1,5.533965,3.802798,0,80,Mavic Mini,1SDCH7G0169R0K,1SFLH6Q0AB03DJ,1SRCH7F014TAHX,1U5X071EXP6C9Y,DJI Fly,,1.12.8,2A2A605A-9147-C0D4-1FE7-CA62CBF03550,1SDCH7G0169R0K,,,,,,,,,
2/27/2024,05:00.8,4m 12.9s,252.9,6.974172474,79.91451616,0,0,0.3,61,0.4,0,0,0,0,0,0,0,0,5.7,1.9,151.2,151.2,,Manual Takeoff,Other,Takeoff (RC Assisted),14,5,TRUE,,Mavic Mini,TRUE,FALSE,,Smart,RC,TRUE,TRUE,FALSE,,,TRUE,,FALSE,FALSE,FALSE,FALSE,FALSE,FALSE,FALSE,FALSE,FALSE,FALSE,0,Follow Yaw,0,0,150,150,FALSE,FALSE,FALSE,FALSE,FALSE,FALSE,,TRUE,Normal,,100,1024,1024,1621,1024,1,FALSE,FALSE,FALSE,FALSE,FALSE,0,FALSE,FALSE,FALSE,FALSE,81,7.832,1670,2063,7.857,FALSE,3.933,3.899,0.034,FALSE,FALSE,NA,100.6,100.4,100.5,0,0,0,0,5,2253.1,563.28,,Idle,0,20,FALSE,5,TRUE,6,Go Home,FALSE,FALSE,FALSE,FALSE,FALSE,FALSE,FALSE,FALSE,FALSE,FALSE,FALSE,FALSE,6.9741691,79.91451619,1.2,181.9,328,TRUE,1,1,FALSE,FALSE,FALSE,FALSE,,TRUE,FALSE,FALSE,Course Lock,49.2,254.5,16.4,Calm,39,,1.12.8,Mavic Mini,1SDCH7G0169R0K,1SFLH6Q0AB03DJ,1SRCH7F014TAHX,1U5X071EXP6C9Y,51.1,0.1,13.1,5.533965,3.802798,0,80,Mavic Mini,1SDCH7G0169R0K,1SFLH6Q0AB03DJ,1SRCH7F014TAHX,1U5X071EXP6C9Y,DJI Fly,,1.12.8,2A2A605A-9147-C0D4-1FE7-CA62CBF03550,1SDCH7G0169R0K,,,,,,,,,
2/27/2024,05:00.9,4m 13.0s,253,6.974172492,79.91451615,0,0,0.3,61,0.4,0,0,0,0,0,0,0,0,3,0.8,150.6,150.6,,Manual Takeoff,Other,Takeoff (RC Assisted),14,5,TRUE,,Mavic Mini,TRUE,FALSE,,Smart,RC,TRUE,TRUE,FALSE,,,TRUE,,FALSE,FALSE,FALSE,FALSE,FALSE,FALSE,FALSE,FALSE,FALSE,FALSE,0,Follow Yaw,0,0,149.5,149.5,FALSE,FALSE,FALSE,FALSE,FALSE,FALSE,,TRUE,Normal,,100,1024,1024,1621,1024,1,FALSE,FALSE,FALSE,FALSE,FALSE,0,FALSE,FALSE,FALSE,FALSE,81,7.832,1670,2063,7.795,FALSE,3.933,3.899,0.034,FALSE,FALSE,NA,100.6,100.4,100.5,0,0,0,0,5,2385.4,596.36,,Idle,0,20,FALSE,5,TRUE,6,Go Home,FALSE,FALSE,FALSE,FALSE,FALSE,FALSE,FALSE,FALSE,FALSE,FALSE,FALSE,FALSE,6.9741691,79.91451619,1.2,181.9,328,TRUE,1,1,FALSE,FALSE,FALSE,FALSE,,TRUE,FALSE,FALSE,Course Lock,49.2,254.5,16.4,Calm,39,,1.12.8,Mavic Mini,1SDCH7G0169R0K,1SFLH6Q0AB03DJ,1SRCH7F014TAHX,1U5X071EXP6C9Y,51.1,0.1,13.1,5.533965,3.802798,0,80,Mavic Mini,1SDCH7G0169R0K,1SFLH6Q0AB03DJ,1SRCH7F014TAHX,1U5X071EXP6C9Y,DJI Fly,,1.12.8,2A2A605A-9147-C0D4-1FE7-CA62CBF03550,1SDCH7G0169R0K,,,,,,,,,
2/27/2024,05:01.0,4m 13.1s,253.1,6.974172493,79.91451606,0,0,0.3,61,0.4,0,0,0,0,0,0,-0.223694,0,0.7,-1.3,149.3,149.3,,Manual Takeoff,Other,Takeoff (RC Assisted),14,5,TRUE,,Mavic Mini,TRUE,FALSE,,Smart,RC,TRUE,TRUE,FALSE,,,TRUE,,FALSE,FALSE,FALSE,FALSE,FALSE,FALSE,FALSE,FALSE,FALSE,FALSE,0,Follow Yaw,0,0,148.7,148.7,FALSE,FALSE,FALSE,FALSE,FALSE,FALSE,,TRUE,Normal,,100,1024,1024,1621,1024,1,FALSE,FALSE,FALSE,FALSE,FALSE,0,FALSE,FALSE,FALSE,FALSE,81,7.832,1670,2063,7.795,FALSE,3.933,3.899,0.034,FALSE,FALSE,NA,100.6,100.4,100.5,0,0,0,0,5,2385.4,596.36,,Idle,0,20,FALSE,5,TRUE,6,Go Home,FALSE,FALSE,FALSE,FALSE,FALSE,FALSE,FALSE,FALSE,FALSE,FALSE,FALSE,FALSE,6.9741691,79.91451619,1.2,181.9,328,TRUE,1,1,FALSE,FALSE,FALSE,FALSE,,TRUE,FALSE,FALSE,Course Lock,49.2,254.5,16.4,Calm,39,,1.12.8,Mavic Mini,1SDCH7G0169R0K,1SFLH6Q0AB03DJ,1SRCH7F014TAHX,1U5X071EXP6C9Y,51.1,0.1,13.1,5.533965,3.802798,0,80,Mavic Mini,1SDCH7G0169R0K,1SFLH6Q0AB03DJ,1SRCH7F014TAHX,1U5X071EXP6C9Y,DJI Fly,,1.12.8,2A2A605A-9147-C0D4-1FE7-CA62CBF03550,1SDCH7G0169R0K,,,,,,,,,
2/27/2024,05:01.1,4m 13.2s,253.2,6.974172507,79.91451598,0,0,0.3,61,0.5,0,0,0,0,0,0,-0.447388,0,-0.1,-1.4,148.9,148.9,,P-GPS,Other,,14,5,TRUE,,Mavic Mini,TRUE,FALSE,,Smart,RC,FALSE,TRUE,FALSE,,,TRUE,,FALSE,FALSE,FALSE,FALSE,FALSE,FALSE,FALSE,FALSE,FALSE,FALSE,0,Follow Yaw,0,0,148,148,FALSE,FALSE,FALSE,FALSE,FALSE,FALSE,,TRUE,Normal,,100,1024,1024,1618,1024,1,FALSE,FALSE,FALSE,FALSE,FALSE,0,FALSE,FALSE,FALSE,FALSE,81,7.832,1670,2063,7.795,FALSE,3.933,3.899,0.034,FALSE,FALSE,NA,100.6,100.4,100.5,0,0,0,0,5,2385.4,596.36,,Idle,0,20,FALSE,5,TRUE,6,Go Home,FALSE,FALSE,FALSE,FALSE,FALSE,FALSE,FALSE,FALSE,FALSE,FALSE,FALSE,FALSE,6.9741691,79.91451619,1.2,181.9,328,TRUE,1,1,FALSE,FALSE,FALSE,FALSE,,TRUE,FALSE,FALSE,Course Lock,49.2,254.5,16.4,Calm,39,,1.12.8,Mavic Mini,1SDCH7G0169R0K,1SFLH6Q0AB03DJ,1SRCH7F014TAHX,1U5X071EXP6C9Y,51.1,0.1,13.1,5.533965,3.802798,0,80,Mavic Mini,1SDCH7G0169R0K,1SFLH6Q0AB03DJ,1SRCH7F014TAHX,1U5X071EXP6C9Y,DJI Fly,,1.12.8,2A2A605A-9147-C0D4-1FE7-CA62CBF03550,1SDCH7G0169R0K,,,,,6.974140406,79.91451373,5,Flight mode changed to P-GPS.,
2/27/2024,05:01.2,4m 13.3s,253.3,6.974172592,79.91451593,0,0,0.3,61,0.5,0,0,0,0,0,0,-0.671082,0,-0.4,-1.3,149.1,149.1,,P-GPS,Other,,14,5,TRUE,,Mavic Mini,TRUE,FALSE,,Smart,RC,FALSE,TRUE,FALSE,,,TRUE,,FALSE,FALSE,FALSE,FALSE,FALSE,FALSE,FALSE,FALSE,FALSE,FALSE,0,Follow Yaw,0,0,148,148,FALSE,FALSE,FALSE,FALSE,FALSE,FALSE,,TRUE,Normal,,100,1024,1024,1618,1024,1,FALSE,FALSE,FALSE,FALSE,FALSE,0,FALSE,FALSE,FALSE,FALSE,81,7.832,1670,2063,7.795,FALSE,3.933,3.899,0.034,FALSE,FALSE,NA,100.6,100.4,100.5,0,0,0,0,5,2385.4,596.36,,Idle,0,20,FALSE,5,TRUE,6,Go Home,FALSE,FALSE,FALSE,FALSE,FALSE,FALSE,FALSE,FALSE,FALSE,FALSE,FALSE,FALSE,6.9741691,79.91451619,1.2,181.9,328,TRUE,1,1,FALSE,FALSE,FALSE,FALSE,,TRUE,FALSE,FALSE,Course Lock,49.2,254.5,16.4,Calm,39,,1.12.8,Mavic Mini,1SDCH7G0169R0K,1SFLH6Q0AB03DJ,1SRCH7F014TAHX,1U5X071EXP6C9Y,51.1,0.1,13.1,5.533965,3.802798,0,80,Mavic Mini,1SDCH7G0169R0K,1SFLH6Q0AB03DJ,1SRCH7F014TAHX,1U5X071EXP6C9Y,DJI Fly,,1.12.8,2A2A605A-9147-C0D4-1FE7-CA62CBF03550,1SDCH7G0169R0K,,,,,6.974140406,79.91451373,5,,
2/27/2024,05:01.3,4m 13.4s,253.4,6.974172617,79.91451595,0,0,0.6,61,0.5,0,0,0,0,0,0,-1.11847,0,0,-0.2,149.2,149.2,,P-GPS,Other,,14,5,TRUE,,Mavic Mini,TRUE,FALSE,,Smart,RC,FALSE,TRUE,FALSE,,,TRUE,,FALSE,FALSE,FALSE,FALSE,FALSE,FALSE,FALSE,FALSE,FALSE,FALSE,0,Follow Yaw,0,0,148,148,FALSE,FALSE,FALSE,FALSE,FALSE,FALSE,,TRUE,Normal,,100,1024,1024,1623,1024,1,FALSE,FALSE,FALSE,FALSE,FALSE,0,FALSE,FALSE,FALSE,FALSE,81,7.659,1670,2063,7.795,FALSE,3.84,3.819,0.034,FALSE,FALSE,NA,100.6,100.4,100.5,0,0,0,0,5,2385.4,596.36,,Idle,0,20,FALSE,5,TRUE,6,Go Home,FALSE,FALSE,FALSE,FALSE,FALSE,FALSE,FALSE,FALSE,FALSE,FALSE,FALSE,FALSE,6.9741691,79.91451619,1.2,181.9,328,TRUE,1,1,FALSE,FALSE,FALSE,FALSE,,TRUE,FALSE,FALSE,Course Lock,49.2,254.5,16.4,Calm,39,,1.12.8,Mavic Mini,1SDCH7G0169R0K,1SFLH6Q0AB03DJ,1SRCH7F014TAHX,1U5X071EXP6C9Y,51.1,0.1,13.1,5.533965,3.802798,0,80,Mavic Mini,1SDCH7G0169R0K,1SFLH6Q0AB03DJ,1SRCH7F014TAHX,1U5X071EXP6C9Y,DJI Fly,,1.12.8,2A2A605A-9147-C0D4-1FE7-CA62CBF03550,1SDCH7G0169R0K,,,,,6.974140406,79.91451373,5,,
2/27/2024,05:01.4,4m 13.5s,253.5,6.974172611,79.91451599,0.3,0.3,0.9,61,0.5,0,0,0,0,0,0,-1.789552,0,0.8,-0.1,149.2,149.2,,P-GPS,Other,,14,5,TRUE,,Mavic Mini,TRUE,FALSE,,Smart,RC,FALSE,TRUE,FALSE,,,TRUE,,FALSE,FALSE,FALSE,FALSE,FALSE,FALSE,FALSE,FALSE,FALSE,FALSE,0,Follow Yaw,0,0,148,148,FALSE,FALSE,FALSE,FALSE,FALSE,FALSE,,TRUE,Normal,,100,1024,1024,1622,1024,1,FALSE,FALSE,FALSE,FALSE,FALSE,0,FALSE,FALSE,FALSE,FALSE,81,7.659,1670,2063,7.795,FALSE,3.84,3.819,0.034,FALSE,FALSE,NA,100.6,100.4,100.5,0,0,0,0,5,2385.4,596.36,,Idle,0,20,FALSE,5,TRUE,6,Go Home,FALSE,FALSE,FALSE,FALSE,FALSE,FALSE,FALSE,FALSE,FALSE,FALSE,FALSE,FALSE,6.9741691,79.91451619,1.2,181.9,328,TRUE,1,1,FALSE,FALSE,FALSE,FALSE,,TRUE,FALSE,FALSE,Course Lock,49.2,254.5,16.4,Calm,39,,1.12.8,Mavic Mini,1SDCH7G0169R0K,1SFLH6Q0AB03DJ,1SRCH7F014TAHX,1U5X071EXP6C9Y,51.1,0.1,13.1,5.533965,3.802798,0,80,Mavic Mini,1SDCH7G0169R0K,1SFLH6Q0AB03DJ,1SRCH7F014TAHX,1U5X071EXP6C9Y,DJI Fly,,1.12.8,2A2A605A-9147-C0D4-1FE7-CA62CBF03550,1SDCH7G0169R0K,,,,,6.974140406,79.91451373,5,,
2/27/2024,05:01.5,4m 13.6s,253.6,6.974172584,79.91451603,0.6,0.6,1.3,61,0.5,0,0,0,0,0,0,-2.460634,0,1.2,-0.3,149.2,149.2,,P-GPS,Other,,13,5,TRUE,,Mavic Mini,TRUE,FALSE,,Smart,RC,FALSE,TRUE,FALSE,,,TRUE,,FALSE,FALSE,FALSE,FALSE,FALSE,FALSE,FALSE,FALSE,FALSE,FALSE,0,Follow Yaw,0,0,148,148,FALSE,FALSE,FALSE,FALSE,FALSE,FALSE,,TRUE,Normal,,100,1024,1024,1622,1024,1,FALSE,FALSE,FALSE,FALSE,FALSE,0,FALSE,FALSE,FALSE,FALSE,81,7.659,1670,2063,7.795,FALSE,3.84,3.819,0.034,FALSE,FALSE,NA,100.6,100.4,100.5,0,0,0,0,5,2385.4,596.36,,Idle,0,20,FALSE,5,TRUE,6,Go Home,FALSE,FALSE,FALSE,FALSE,FALSE,FALSE,FALSE,FALSE,FALSE,FALSE,FALSE,FALSE,6.9741691,79.91451619,1.2,181.9,328,TRUE,1,1,FALSE,FALSE,FALSE,FALSE,,TRUE,FALSE,FALSE,Course Lock,49.2,254.5,16.4,Calm,39,,1.12.8,Mavic Mini,1SDCH7G0169R0K,1SFLH6Q0AB03DJ,1SRCH7F014TAHX,1U5X071EXP6C9Y,51.1,0.1,13.1,5.533965,3.802798,0,80,Mavic Mini,1SDCH7G0169R0K,1SFLH6Q0AB03DJ,1SRCH7F014TAHX,1U5X071EXP6C9Y,DJI Fly,,1.12.8,2A2A605A-9147-C0D4-1FE7-CA62CBF03550,1SDCH7G0169R0K,,,,,6.974140406,79.91451373,5,,
2/27/2024,05:01.6,4m 13.7s,253.7,6.974172626,79.91451594,0.9,0.9,1.6,62,0.6,0,0,0,0,0,0,-2.908022,0,1.3,-0.4,149.2,149.2,,P-GPS,Other,,13,5,TRUE,,Mavic Mini,TRUE,FALSE,,Smart,RC,FALSE,TRUE,FALSE,,,TRUE,,FALSE,FALSE,FALSE,FALSE,FALSE,FALSE,FALSE,FALSE,FALSE,FALSE,0,Follow Yaw,0,0,148,148,FALSE,FALSE,FALSE,FALSE,FALSE,FALSE,,TRUE,Normal,,100,1024,1024,1607,1024,1,FALSE,FALSE,FALSE,FALSE,FALSE,0,FALSE,FALSE,FALSE,FALSE,81,7.659,1670,2063,7.795,FALSE,3.84,3.819,0.034,FALSE,FALSE,NA,100.6,100.4,100.5,0,0,0,0,5,2385.4,596.36,,Idle,0,20,FALSE,5,TRUE,6,Go Home,FALSE,FALSE,FALSE,FALSE,FALSE,FALSE,FALSE,FALSE,FALSE,FALSE,FALSE,FALSE,6.9741691,79.91451619,1.2,181.9,328,TRUE,1,1,FALSE,FALSE,FALSE,FALSE,,TRUE,FALSE,FALSE,Course Lock,49.2,254.5,16.4,Calm,39,,1.12.8,Mavic Mini,1SDCH7G0169R0K,1SFLH6Q0AB03DJ,1SRCH7F014TAHX,1U5X071EXP6C9Y,51.1,0.1,13.1,5.533965,3.802798,0,80,Mavic Mini,1SDCH7G0169R0K,1SFLH6Q0AB03DJ,1SRCH7F014TAHX,1U5X071EXP6C9Y,DJI Fly,,1.12.8,2A2A605A-9147-C0D4-1FE7-CA62CBF03550,1SDCH7G0169R0K,,,,,6.974140406,79.91451373,5,,
2/27/2024,05:01.7,4m 13.8s,253.8,6.974172586,79.91451593,1.3,1.3,1.9,62,0.6,0,0,0,0,0,0,-3.35541,0,1.5,-0.6,149.2,149.2,,P-GPS,Other,,13,5,TRUE,,Mavic Mini,TRUE,FALSE,,Smart,RC,FALSE,TRUE,FALSE,,,TRUE,,FALSE,FALSE,FALSE,FALSE,FALSE,FALSE,FALSE,FALSE,FALSE,FALSE,0,Follow Yaw,0,0,148,148,FALSE,FALSE,FALSE,FALSE,FALSE,FALSE,,TRUE,Normal,,100,1024,1024,1549,1024,1,FALSE,FALSE,FALSE,FALSE,FALSE,0,FALSE,FALSE,FALSE,FALSE,81,7.659,1670,2063,7.795,FALSE,3.84,3.819,0.034,FALSE,FALSE,NA,100.6,100.4,100.5,0,0,0,0,5,2385.4,596.36,,Idle,0,20,FALSE,5,TRUE,6,Go Home,FALSE,FALSE,FALSE,FALSE,FALSE,FALSE,FALSE,FALSE,FALSE,FALSE,FALSE,FALSE,6.9741691,79.91451619,1.2,181.9,328,TRUE,1,1,FALSE,FALSE,FALSE,FALSE,,TRUE,FALSE,FALSE,Course Lock,49.2,254.5,16.4,Calm,39,,1.12.8,Mavic Mini,1SDCH7G0169R0K,1SFLH6Q0AB03DJ,1SRCH7F014TAHX,1U5X071EXP6C9Y,51.1,0.1,13.1,5.533965,3.802798,0,80,Mavic Mini,1SDCH7G0169R0K,1SFLH6Q0AB03DJ,1SRCH7F014TAHX,1U5X071EXP6C9Y,DJI Fly,,1.12.8,2A2A605A-9147-C0D4-1FE7-CA62CBF03550,1SDCH7G0169R0K,,,,,6.974140406,79.91451373,5,,
2/27/2024,05:01.9,4m 13.9s,253.9,6.9741724,79.91451594,1.9,1.9,2.6,63,0.7,0,0,0,0,0,0,-3.802798,0,1.7,-0.6,149.3,149.3,,P-GPS,Other,,13,5,TRUE,,Mavic Mini,TRUE,FALSE,,Smart,RC,FALSE,TRUE,FALSE,,,TRUE,,FALSE,FALSE,FALSE,FALSE,FALSE,FALSE,FALSE,FALSE,FALSE,FALSE,0,Follow Yaw,0,0,148,148,FALSE,FALSE,FALSE,FALSE,FALSE,FALSE,,TRUE,Normal,,100,1024,1024,1234,1024,1,FALSE,FALSE,FALSE,FALSE,FALSE,0,FALSE,FALSE,FALSE,FALSE,81,7.659,1670,2063,7.795,FALSE,3.84,3.819,0.034,FALSE,FALSE,NA,100.6,100.4,100.5,0,0,0,0,5,2385.4,596.36,,Idle,0,20,FALSE,5,TRUE,6,Go Home,FALSE,FALSE,FALSE,FALSE,FALSE,FALSE,FALSE,FALSE,FALSE,FALSE,FALSE,FALSE,6.9741691,79.91451619,1.2,181.9,328,TRUE,1,1,FALSE,FALSE,FALSE,FALSE,,TRUE,FALSE,FALSE,Course Lock,49.2,254.5,16.4,Calm,39,,1.12.8,Mavic Mini,1SDCH7G0169R0K,1SFLH6Q0AB03DJ,1SRCH7F014TAHX,1U5X071EXP6C9Y,51.1,0.1,13.1,5.533965,3.802798,0,80,Mavic Mini,1SDCH7G0169R0K,1SFLH6Q0AB03DJ,1SRCH7F014TAHX,1U5X071EXP6C9Y,DJI Fly,,1.12.8,2A2A605A-9147-C0D4-1FE7-CA62CBF03550,1SDCH7G0169R0K,,,,,6.974140406,79.91451373,5,,
2/27/2024,05:02.0,4m 14.0s,254,6.974172226,79.91451596,2.2,2.2,2.9,63,0.7,0,0,0,0,0,0,-3.802798,0,1.6,-0.4,149.3,149.3,,P-GPS,Other,,13,5,TRUE,,Mavic Mini,TRUE,FALSE,,Smart,RC,FALSE,TRUE,FALSE,,,TRUE,,FALSE,FALSE,FALSE,FALSE,FALSE,FALSE,FALSE,FALSE,FALSE,FALSE,0,Follow Yaw,0,0,148,148,FALSE,FALSE,FALSE,FALSE,FALSE,FALSE,,TRUE,Normal,,100,1024,1024,1024,1024,1,FALSE,FALSE,FALSE,FALSE,FALSE,0,FALSE,FALSE,FALSE,FALSE,81,7.659,1670,2063,7.757,FALSE,3.84,3.819,0.034,FALSE,FALSE,NA,100.6,100.4,100.5,0,0,0,0,5,2745,686.25,,Idle,0,20,FALSE,5,TRUE,6,Go Home,FALSE,FALSE,FALSE,FALSE,FALSE,FALSE,FALSE,FALSE,FALSE,FALSE,FALSE,FALSE,6.974172497,79.91451603,0.1,181.9,328,TRUE,1,1,FALSE,FALSE,FALSE,FALSE,,TRUE,FALSE,FALSE,Course Lock,49.2,254.5,16.4,Calm,39,,1.12.8,Mavic Mini,1SDCH7G0169R0K,1SFLH6Q0AB03DJ,1SRCH7F014TAHX,1U5X071EXP6C9Y,51.1,0.1,13.1,5.533965,3.802798,0,80,Mavic Mini,1SDCH7G0169R0K,1SFLH6Q0AB03DJ,1SRCH7F014TAHX,1U5X071EXP6C9Y,DJI Fly,,1.12.8,2A2A605A-9147-C0D4-1FE7-CA62CBF03550,1SDCH7G0169R0K,,,,,6.974140406,79.91451373,5,Home Point Updated.,
2/27/2024,05:02.1,4m 14.1s,254.1,6.974171986,79.91451644,2.9,2.9,3.6,63,0.9,0,0,0,0,0,0,-3.579104,0,1.7,-0.2,149.3,149.3,,P-GPS,Other,,13,5,TRUE,,Mavic Mini,TRUE,FALSE,,Smart,RC,FALSE,TRUE,FALSE,,,TRUE,,FALSE,FALSE,FALSE,FALSE,FALSE,FALSE,FALSE,FALSE,FALSE,FALSE,0,Follow Yaw,0,0,148,148,FALSE,FALSE,FALSE,FALSE,FALSE,FALSE,,TRUE,Normal,,100,1024,1024,1024,1024,1,FALSE,FALSE,FALSE,FALSE,FALSE,0,FALSE,FALSE,FALSE,FALSE,81,7.659,1670,2063,7.757,FALSE,3.84,3.819,0.034,FALSE,FALSE,NA,100.6,100.4,100.5,0,0,0,0,5,2745,686.25,,Idle,0,20,FALSE,5,TRUE,6,Go Home,FALSE,FALSE,FALSE,FALSE,FALSE,FALSE,FALSE,FALSE,FALSE,FALSE,FALSE,FALSE,6.974172497,79.91451603,0.2,181.9,328,TRUE,1,1,FALSE,FALSE,FALSE,FALSE,,TRUE,FALSE,FALSE,Course Lock,49.2,254.5,16.4,Calm,39,,1.12.8,Mavic Mini,1SDCH7G0169R0K,1SFLH6Q0AB03DJ,1SRCH7F014TAHX,1U5X071EXP6C9Y,51.1,0.1,13.1,5.533965,3.802798,0,80,Mavic Mini,1SDCH7G0169R0K,1SFLH6Q0AB03DJ,1SRCH7F014TAHX,1U5X071EXP6C9Y,DJI Fly,,1.12.8,2A2A605A-9147-C0D4-1FE7-CA62CBF03550,1SDCH7G0169R0K,,,,,6.974140406,79.91451373,5,Home Point updated. RTH altitude adjusted to 15 m! (Code: 120852).,
2/27/2024,05:02.1,4m 14.2s,254.2,6.974171916,79.91451666,3.2,3.2,4.2,64,1,0,0,0,0,0,0,-3.35541,0,1.5,0,149.4,149.4,,P-GPS,Other,,13,5,TRUE,,Mavic Mini,TRUE,FALSE,,Smart,RC,FALSE,TRUE,FALSE,,,TRUE,,FALSE,FALSE,FALSE,FALSE,FALSE,FALSE,FALSE,FALSE,FALSE,FALSE,0,Follow Yaw,0,0,148,148,FALSE,FALSE,FALSE,FALSE,FALSE,FALSE,,TRUE,Normal,,100,1024,1024,1024,1024,1,FALSE,FALSE,FALSE,FALSE,FALSE,0,FALSE,FALSE,FALSE,FALSE,81,7.659,1670,2063,7.757,FALSE,3.84,3.819,0.034,FALSE,FALSE,NA,100.6,100.4,100.5,0,0,0,0,5,2745,686.25,,Idle,0,20,FALSE,5,TRUE,6,Go Home,FALSE,FALSE,FALSE,FALSE,FALSE,FALSE,FALSE,FALSE,FALSE,FALSE,FALSE,FALSE,6.974172497,79.91451603,0.3,181.9,328,TRUE,1,1,FALSE,FALSE,FALSE,FALSE,,TRUE,FALSE,FALSE,Course Lock,49.2,254.5,16.4,Calm,39,,1.12.8,Mavic Mini,1SDCH7G0169R0K,1SFLH6Q0AB03DJ,1SRCH7F014TAHX,1U5X071EXP6C9Y,51.1,0.1,13.1,5.533965,3.802798,0,80,Mavic Mini,1SDCH7G0169R0K,1SFLH6Q0AB03DJ,1SRCH7F014TAHX,1U5X071EXP6C9Y,DJI Fly,,1.12.8,2A2A605A-9147-C0D4-1FE7-CA62CBF03550,1SDCH7G0169R0K,,,,,6.974140406,79.91451373,5,,
2/27/2024,05:02.2,4m 14.3s,254.3,6.974171869,79.91451688,3.9,3.9,4.5,64,1.1,0,0,0,0,0,0,-2.684328,0,1.3,0,149.4,149.4,,P-GPS,Other,,13,5,TRUE,,Mavic Mini,TRUE,FALSE,,Smart,RC,FALSE,TRUE,FALSE,,,TRUE,,FALSE,FALSE,FALSE,FALSE,FALSE,FALSE,FALSE,FALSE,FALSE,FALSE,0,Follow Yaw,0,0,148,148,FALSE,FALSE,FALSE,FALSE,FALSE,FALSE,,TRUE,Normal,,100,1024,748,1024,1024,1,FALSE,FALSE,FALSE,FALSE,FALSE,0,FALSE,FALSE,FALSE,FALSE,81,7.659,1670,2063,7.757,FALSE,3.84,3.819,0.034,FALSE,FALSE,NA,100.6,100.4,100.5,0,0,0,0,5,2745,686.25,,Idle,0,20,FALSE,5,TRUE,6,Go Home,FALSE,FALSE,FALSE,FALSE,FALSE,FALSE,FALSE,FALSE,FALSE,FALSE,FALSE,FALSE,6.974172497,79.91451603,0.3,181.9,328,TRUE,1,1,FALSE,FALSE,FALSE,FALSE,,TRUE,FALSE,FALSE,Course Lock,49.2,254.5,16.4,Calm,39,,1.12.8,Mavic Mini,1SDCH7G0169R0K,1SFLH6Q0AB03DJ,1SRCH7F014TAHX,1U5X071EXP6C9Y,51.1,0.1,13.1,5.533965,3.802798,0,80,Mavic Mini,1SDCH7G0169R0K,1SFLH6Q0AB03DJ,1SRCH7F014TAHX,1U5X071EXP6C9Y,DJI Fly,,1.12.8,2A2A605A-9147-C0D4-1FE7-CA62CBF03550,1SDCH7G0169R0K,,,,,6.974140406,79.91451373,5,,
2/27/2024,05:02.3,4m 14.4s,254.4,6.974171825,79.91451708,4.2,4.2,4.9,65,1.2,0,0,0,0,0,0,-2.23694,0,1.1,0,149.4,149.4,,P-GPS,Other,,13,5,TRUE,,Mavic Mini,TRUE,FALSE,,Smart,RC,FALSE,TRUE,FALSE,,,TRUE,,FALSE,FALSE,FALSE,FALSE,FALSE,FALSE,FALSE,FALSE,FALSE,FALSE,0,Follow Yaw,0,0,148,148,FALSE,FALSE,FALSE,FALSE,FALSE,FALSE,,TRUE,Normal,,100,1024,472,1024,1024,1,FALSE,FALSE,FALSE,FALSE,FALSE,0,FALSE,FALSE,FALSE,FALSE,81,7.659,1670,2063,7.757,FALSE,3.84,3.819,0.034,FALSE,FALSE,NA,100.6,100.4,100.5,0,0,0,0,5,2745,686.25,,Idle,0,20,FALSE,5,TRUE,6,Go Home,FALSE,FALSE,FALSE,FALSE,FALSE,FALSE,FALSE,FALSE,FALSE,FALSE,FALSE,FALSE,6.974172497,79.91451603,0.4,181.9,328,TRUE,1,1,FALSE,FALSE,FALSE,FALSE,,TRUE,FALSE,FALSE,Course Lock,49.2,254.5,16.4,Calm,39,,1.12.8,Mavic Mini,1SDCH7G0169R0K,1SFLH6Q0AB03DJ,1SRCH7F014TAHX,1U5X071EXP6C9Y,51.1,0.1,13.1,5.533965,3.802798,0,80,Mavic Mini,1SDCH7G0169R0K,1SFLH6Q0AB03DJ,1SRCH7F014TAHX,1U5X071EXP6C9Y,DJI Fly,,1.12.8,2A2A605A-9147-C0D4-1FE7-CA62CBF03550,1SDCH7G0169R0K,,,,,6.974140406,79.91451373,5,,
2/27/2024,05:02.4,4m 14.5s,254.5,6.974171777,79.91451712,4.2,4.2,5.2,65,1.2,0,0,0,0,0,0,-1.565858,0,1,-0.1,149.4,149.4,,P-GPS,Other,,13,5,TRUE,,Mavic Mini,TRUE,FALSE,,Smart,RC,FALSE,TRUE,FALSE,,,TRUE,,FALSE,FALSE,FALSE,FALSE,FALSE,FALSE,FALSE,FALSE,FALSE,FALSE,0,Follow Yaw,0,0,148,148,FALSE,FALSE,FALSE,FALSE,FALSE,FALSE,,TRUE,Normal,,100,1024,392,1024,1024,1,FALSE,FALSE,FALSE,FALSE,FALSE,0,FALSE,FALSE,FALSE,FALSE,81,7.698,1668,2063,7.757,FALSE,3.852,3.846,0.034,FALSE,FALSE,NA,100.8,100.4,100.7,0,0,0,0,5,2745,686.25,,Idle,0,20,FALSE,5,TRUE,6,Go Home,FALSE,FALSE,FALSE,FALSE,FALSE,FALSE,FALSE,FALSE,FALSE,FALSE,FALSE,FALSE,6.974172497,79.91451603,0.4,181.9,328,TRUE,1,1,FALSE,FALSE,FALSE,FALSE,,TRUE,FALSE,FALSE,Course Lock,49.2,254.5,16.4,Calm,39,,1.12.8,Mavic Mini,1SDCH7G0169R0K,1SFLH6Q0AB03DJ,1SRCH7F014TAHX,1U5X071EXP6C9Y,51.1,0.1,13.1,5.533965,3.802798,0,80,Mavic Mini,1SDCH7G0169R0K,1SFLH6Q0AB03DJ,1SRCH7F014TAHX,1U5X071EXP6C9Y,DJI Fly,,1.12.8,2A2A605A-9147-C0D4-1FE7-CA62CBF03550,1SDCH7G0169R0K,,,,,6.974140406,79.91451373,5,,
2/27/2024,05:02.5,4m 14.6s,254.6,6.974171847,79.91451718,4.5,4.5,5.5,65,1.2,0,0,0,0,0,0,-0.894776,0,4.2,-0.1,149.4,149.4,,P-GPS,Other,,13,5,TRUE,,Mavic Mini,TRUE,FALSE,,Smart,RC,FALSE,TRUE,FALSE,,,TRUE,,FALSE,FALSE,FALSE,FALSE,FALSE,FALSE,FALSE,FALSE,FALSE,FALSE,0,Follow Yaw,0,0,148,148,FALSE,FALSE,FALSE,FALSE,FALSE,FALSE,,TRUE,Normal,,100,1024,392,1024,1024,1,FALSE,FALSE,FALSE,FALSE,FALSE,0,FALSE,FALSE,FALSE,FALSE,81,7.698,1668,2063,7.757,FALSE,3.852,3.846,0.034,FALSE,FALSE,NA,100.8,100.4,100.7,0,0,0,0,5,2745,686.25,,Idle,0,20,FALSE,5,TRUE,6,Go Home,FALSE,FALSE,FALSE,FALSE,FALSE,FALSE,FALSE,FALSE,FALSE,FALSE,FALSE,FALSE,6.974172497,79.91451603,0.4,181.9,328,TRUE,1,1,FALSE,FALSE,FALSE,FALSE,,TRUE,FALSE,FALSE,Course Lock,49.2,254.5,16.4,Calm,39,,1.12.8,Mavic Mini,1SDCH7G0169R0K,1SFLH6Q0AB03DJ,1SRCH7F014TAHX,1U5X071EXP6C9Y,51.1,0.1,13.1,5.533965,3.802798,0,80,Mavic Mini,1SDCH7G0169R0K,1SFLH6Q0AB03DJ,1SRCH7F014TAHX,1U5X071EXP6C9Y,DJI Fly,,1.12.8,2A2A605A-9147-C0D4-1FE7-CA62CBF03550,1SDCH7G0169R0K,,,,,6.974140406,79.91451373,5,,
2/27/2024,05:02.6,4m 14.7s,254.7,6.97417176,79.91451717,4.5,4.5,5.5,65,1.3,0,0,0,0,0,0,-0.447388,0,10.9,-0.3,149.4,149.4,,P-GPS,Other,,13,5,TRUE,,Mavic Mini,TRUE,FALSE,,Smart,RC,FALSE,TRUE,FALSE,,,TRUE,,FALSE,FALSE,FALSE,FALSE,FALSE,FALSE,FALSE,FALSE,FALSE,FALSE,0,Follow Yaw,0,0,148,148,FALSE,FALSE,FALSE,FALSE,FALSE,FALSE,,TRUE,Normal,,100,1024,382,1024,1024,1,FALSE,FALSE,FALSE,FALSE,FALSE,0,FALSE,FALSE,FALSE,FALSE,81,7.698,1668,2063,7.757,FALSE,3.852,3.846,0.034,FALSE,FALSE,NA,100.8,100.4,100.7,0,0,0,0,5,2745,686.25,,Idle,0,20,FALSE,5,TRUE,6,Go Home,FALSE,FALSE,FALSE,FALSE,FALSE,FALSE,FALSE,FALSE,FALSE,FALSE,FALSE,FALSE,6.974172497,79.91451603,0.4,181.9,328,TRUE,1,1,FALSE,FALSE,FALSE,FALSE,,TRUE,FALSE,FALSE,Course Lock,49.2,254.5,16.4,Calm,39,,1.12.8,Mavic Mini,1SDCH7G0169R0K,1SFLH6Q0AB03DJ,1SRCH7F014TAHX,1U5X071EXP6C9Y,51.1,0.1,13.1,5.533965,3.802798,0,80,Mavic Mini,1SDCH7G0169R0K,1SFLH6Q0AB03DJ,1SRCH7F014TAHX,1U5X071EXP6C9Y,DJI Fly,,1.12.8,2A2A605A-9147-C0D4-1FE7-CA62CBF03550,1SDCH7G0169R0K,,,,,6.974140406,79.91451373,5,,
2/27/2024,05:02.8,4m 14.8s,254.8,6.974171765,79.91451711,4.5,4.5,5.9,65,1.3,0.500194,0.500194,0.447388,0.447388,-0.223694,0,0,0,16.2,-0.4,149.3,149.3,275,P-GPS,Other,,13,5,TRUE,,Mavic Mini,TRUE,FALSE,,Smart,RC,FALSE,TRUE,FALSE,,,TRUE,,FALSE,FALSE,FALSE,FALSE,FALSE,FALSE,FALSE,FALSE,FALSE,FALSE,0,Follow Yaw,0,0,148,148,FALSE,FALSE,FALSE,FALSE,FALSE,FALSE,,TRUE,Normal,,100,1024,774,1024,1024,1,FALSE,FALSE,FALSE,FALSE,FALSE,0,FALSE,FALSE,FALSE,FALSE,81,7.698,1668,2063,7.757,FALSE,3.852,3.846,0.034,FALSE,FALSE,NA,100.8,100.4,100.7,0,0,0,0,5,2745,686.25,,Idle,0,20,FALSE,5,TRUE,6,Go Home,FALSE,FALSE,FALSE,FALSE,FALSE,FALSE,FALSE,FALSE,FALSE,FALSE,FALSE,FALSE,6.974172497,79.91451603,0.4,181.9,328,TRUE,1,1,FALSE,FALSE,FALSE,FALSE,,TRUE,FALSE,FALSE,Course Lock,49.2,254.5,16.4,Calm,39,,1.12.8,Mavic Mini,1SDCH7G0169R0K,1SFLH6Q0AB03DJ,1SRCH7F014TAHX,1U5X071EXP6C9Y,51.1,0.1,13.1,5.533965,3.802798,0,80,Mavic Mini,1SDCH7G0169R0K,1SFLH6Q0AB03DJ,1SRCH7F014TAHX,1U5X071EXP6C9Y,DJI Fly,,1.12.8,2A2A605A-9147-C0D4-1FE7-CA62CBF03550,1SDCH7G0169R0K,,,,,6.974140406,79.91451373,5,,
2/27/2024,05:02.8,4m 14.9s,254.9,6.974172007,79.91451691,4.5,4.5,5.9,65,1.4,1.000389,1.000389,0.894776,0.894776,-0.447388,0,0,0,18.3,-0.4,149.3,149.3,327.6,P-GPS,Other,,13,5,TRUE,,Mavic Mini,TRUE,FALSE,,Smart,RC,FALSE,TRUE,FALSE,,,TRUE,,FALSE,FALSE,FALSE,FALSE,FALSE,FALSE,FALSE,FALSE,FALSE,FALSE,0,Follow Yaw,0,0,148,148,FALSE,FALSE,FALSE,FALSE,FALSE,FALSE,,TRUE,Normal,,100,1024,1024,1024,1024,1,FALSE,FALSE,FALSE,FALSE,FALSE,0,FALSE,FALSE,FALSE,FALSE,81,7.698,1668,2063,7.757,FALSE,3.852,3.846,0.034,FALSE,FALSE,NA,100.8,100.4,100.7,0,0,0,0,5,2745,686.25,,Idle,0,20,FALSE,5,TRUE,6,Go Home,FALSE,FALSE,FALSE,FALSE,FALSE,FALSE,FALSE,FALSE,FALSE,FALSE,FALSE,FALSE,6.974172497,79.91451603,0.3,181.9,328,TRUE,1,1,FALSE,FALSE,FALSE,FALSE,,TRUE,FALSE,FALSE,Course Lock,49.2,254.5,16.4,Calm,39,,1.12.8,Mavic Mini,1SDCH7G0169R0K,1SFLH6Q0AB03DJ,1SRCH7F014TAHX,1U5X071EXP6C9Y,51.1,0.1,13.1,5.533965,3.802798,0,80,Mavic Mini,1SDCH7G0169R0K,1SFLH6Q0AB03DJ,1SRCH7F014TAHX,1U5X071EXP6C9Y,DJI Fly,,1.12.8,2A2A605A-9147-C0D4-1FE7-CA62CBF03550,1SDCH7G0169R0K,,,,,6.974140406,79.91451373,5,,
2/27/2024,05:02.9,4m 15.0s,255,6.974172473,79.91451633,4.5,4.5,5.9,65,1.7,1.500584,1.500584,1.342164,1.342164,-0.671082,0,0,0,13.8,-0.5,149.3,149.3,316.2,P-GPS,Other,,13,5,TRUE,,Mavic Mini,TRUE,FALSE,,Smart,RC,FALSE,TRUE,FALSE,,,TRUE,,FALSE,FALSE,FALSE,FALSE,FALSE,FALSE,FALSE,FALSE,FALSE,FALSE,0,Follow Yaw,0,0,148,148,FALSE,FALSE,FALSE,FALSE,FALSE,FALSE,,TRUE,Normal,,100,1024,1024,1024,1024,1,FALSE,FALSE,FALSE,FALSE,FALSE,0,FALSE,FALSE,FALSE,FALSE,81,7.698,1668,2063,7.695,FALSE,3.852,3.846,0.034,FALSE,FALSE,NA,100.8,100.4,100.7,0,0,0,0,5,3750.7,937.69,,Idle,0,20,FALSE,5,TRUE,6,Go Home,FALSE,FALSE,FALSE,FALSE,FALSE,FALSE,FALSE,FALSE,FALSE,FALSE,FALSE,FALSE,6.974172497,79.91451603,0.1,181.9,328,TRUE,1,1,FALSE,FALSE,FALSE,FALSE,,TRUE,FALSE,FALSE,Course Lock,49.2,254.5,16.4,Calm,39,,1.12.8,Mavic Mini,1SDCH7G0169R0K,1SFLH6Q0AB03DJ,1SRCH7F014TAHX,1U5X071EXP6C9Y,51.1,0.1,13.1,5.533965,3.802798,0,80,Mavic Mini,1SDCH7G0169R0K,1SFLH6Q0AB03DJ,1SRCH7F014TAHX,1U5X071EXP6C9Y,DJI Fly,,1.12.8,2A2A605A-9147-C0D4-1FE7-CA62CBF03550,1SDCH7G0169R0K,,,,,6.974140406,79.91451373,5,,
2/27/2024,05:03.0,4m 15.1s,255.1,6.97417306,79.91451597,4.5,4.5,5.9,65,1.9,1.803478,1.803478,1.565858,1.565858,-0.894776,0,0,0,-2,-0.1,149.4,149.4,335,P-GPS,Other,,13,5,TRUE,,Mavic Mini,TRUE,FALSE,,Smart,RC,FALSE,TRUE,FALSE,,,TRUE,,FALSE,FALSE,FALSE,FALSE,FALSE,FALSE,FALSE,FALSE,FALSE,FALSE,0,Follow Yaw,0,0,148,148,FALSE,FALSE,FALSE,FALSE,FALSE,FALSE,,TRUE,Normal,,100,1024,572,1024,1024,1,FALSE,FALSE,FALSE,FALSE,FALSE,0,FALSE,FALSE,FALSE,FALSE,81,7.698,1668,2063,7.695,FALSE,3.852,3.846,0.034,FALSE,FALSE,NA,100.8,100.4,100.7,0,0,0,0,5,3750.7,937.69,,Idle,0,20,FALSE,5,TRUE,6,Go Home,FALSE,FALSE,FALSE,FALSE,FALSE,FALSE,FALSE,FALSE,FALSE,FALSE,FALSE,FALSE,6.974172497,79.91451603,0.2,181.9,328,TRUE,1,1,FALSE,FALSE,FALSE,FALSE,,TRUE,FALSE,FALSE,Course Lock,49.2,254.5,16.4,Calm,39,,1.12.8,Mavic Mini,1SDCH7G0169R0K,1SFLH6Q0AB03DJ,1SRCH7F014TAHX,1U5X071EXP6C9Y,51.1,0.1,13.1,5.533965,3.802798,0,80,Mavic Mini,1SDCH7G0169R0K,1SFLH6Q0AB03DJ,1SRCH7F014TAHX,1U5X071EXP6C9Y,DJI Fly,,1.12.8,2A2A605A-9147-C0D4-1FE7-CA62CBF03550,1SDCH7G0169R0K,,,,,6.974140406,79.91451373,5,,
2/27/2024,05:03.1,4m 15.2s,255.2,6.974173612,79.91451564,4.5,4.5,5.9,65,2.1,1.61308,1.803478,1.342164,1.565858,-0.894776,0,0,0,-6.5,-0.5,149.4,149.4,334.7,P-GPS,Other,,13,5,TRUE,,Mavic Mini,TRUE,FALSE,,Smart,RC,FALSE,TRUE,FALSE,,,TRUE,,FALSE,FALSE,FALSE,FALSE,FALSE,FALSE,FALSE,FALSE,FALSE,FALSE,0,Follow Yaw,0,0,148,148,FALSE,FALSE,FALSE,FALSE,FALSE,FALSE,,TRUE,Normal,,100,1024,657,1024,1024,1,FALSE,FALSE,FALSE,FALSE,FALSE,0,FALSE,FALSE,FALSE,FALSE,81,7.698,1668,2063,7.695,FALSE,3.852,3.846,0.034,FALSE,FALSE,NA,100.8,100.4,100.7,0,0,0,0,5,3750.7,937.69,,Idle,0,20,FALSE,5,TRUE,6,Go Home,FALSE,FALSE,FALSE,FALSE,FALSE,FALSE,FALSE,FALSE,FALSE,FALSE,FALSE,FALSE,6.974172497,79.91451603,0.4,181.9,328,TRUE,1,1,FALSE,FALSE,FALSE,FALSE,,TRUE,FALSE,FALSE,Course Lock,49.2,254.5,16.4,Calm,39,,1.12.8,Mavic Mini,1SDCH7G0169R0K,1SFLH6Q0AB03DJ,1SRCH7F014TAHX,1U5X071EXP6C9Y,51.1,0.1,13.1,5.533965,3.802798,0,80,Mavic Mini,1SDCH7G0169R0K,1SFLH6Q0AB03DJ,1SRCH7F014TAHX,1U5X071EXP6C9Y,DJI Fly,,1.12.8,2A2A605A-9147-C0D4-1FE7-CA62CBF03550,1SDCH7G0169R0K,,,,,6.974140406,79.91451373,5,,
2/27/2024,05:03.2,4m 15.3s,255.3,6.974174094,79.9145153,4.2,4.5,5.9,65,2.4,1.304348,1.803478,1.11847,1.565858,-0.671082,0,0,0,-3.1,-0.4,149.3,149.3,331.9,P-GPS,Other,,13,5,TRUE,,Mavic Mini,TRUE,FALSE,,Smart,RC,FALSE,TRUE,FALSE,,,TRUE,,FALSE,FALSE,FALSE,FALSE,FALSE,FALSE,FALSE,FALSE,FALSE,FALSE,0,Follow Yaw,0,0,148,148,FALSE,FALSE,FALSE,FALSE,FALSE,FALSE,,TRUE,Normal,,100,1024,864,1024,1024,1,FALSE,FALSE,FALSE,FALSE,FALSE,0,FALSE,FALSE,FALSE,FALSE,81,7.698,1668,2063,7.695,FALSE,3.852,3.846,0.034,FALSE,FALSE,NA,100.8,100.4,100.7,0,0,0,0,5,3750.7,937.69,,Idle,0,20,FALSE,5,TRUE,6,Go Home,FALSE,FALSE,FALSE,FALSE,FALSE,FALSE,FALSE,FALSE,FALSE,FALSE,FALSE,FALSE,6.974172497,79.91451603,0.6,181.9,328,TRUE,1,1,FALSE,FALSE,FALSE,FALSE,,TRUE,FALSE,FALSE,Course Lock,49.2,254.5,16.4,Calm,39,,1.12.8,Mavic Mini,1SDCH7G0169R0K,1SFLH6Q0AB03DJ,1SRCH7F014TAHX,1U5X071EXP6C9Y,51.1,0.1,13.1,5.533965,3.802798,0,80,Mavic Mini,1SDCH7G0169R0K,1SFLH6Q0AB03DJ,1SRCH7F014TAHX,1U5X071EXP6C9Y,DJI Fly,,1.12.8,2A2A605A-9147-C0D4-1FE7-CA62CBF03550,1SDCH7G0169R0K,,,,,6.974140406,79.91451373,5,,
2/27/2024,05:03.3,4m 15.4s,255.4,6.974174587,79.91451492,4.2,4.5,5.9,65,2.6,1.000389,1.803478,0.894776,1.565858,-0.447388,0,0,0,5.2,-0.4,149.4,149.4,328.8,P-GPS,Other,,13,5,TRUE,,Mavic Mini,TRUE,FALSE,,Smart,RC,FALSE,TRUE,FALSE,,,TRUE,,FALSE,FALSE,FALSE,FALSE,FALSE,FALSE,FALSE,FALSE,FALSE,FALSE,0,Follow Yaw,0,0,148,148,FALSE,FALSE,FALSE,FALSE,FALSE,FALSE,,TRUE,Normal,,100,1024,1024,1024,1024,1,FALSE,FALSE,FALSE,FALSE,FALSE,0,FALSE,FALSE,FALSE,FALSE,81,7.698,1668,2063,7.695,FALSE,3.852,3.846,0.034,FALSE,FALSE,NA,100.8,100.4,100.7,0,0,0,0,5,3750.7,937.69,,Idle,0,20,FALSE,5,TRUE,6,Go Home,FALSE,FALSE,FALSE,FALSE,FALSE,FALSE,FALSE,FALSE,FALSE,FALSE,FALSE,FALSE,6.974172497,79.91451603,0.8,181.9,328,TRUE,1,1,FALSE,FALSE,FALSE,FALSE,,TRUE,FALSE,FALSE,Course Lock,49.2,254.5,16.4,Calm,39,,1.12.8,Mavic Mini,1SDCH7G0169R0K,1SFLH6Q0AB03DJ,1SRCH7F014TAHX,1U5X071EXP6C9Y,51.1,0.1,13.1,5.533965,3.802798,0,80,Mavic Mini,1SDCH7G0169R0K,1SFLH6Q0AB03DJ,1SRCH7F014TAHX,1U5X071EXP6C9Y,DJI Fly,,1.12.8,2A2A605A-9147-C0D4-1FE7-CA62CBF03550,1SDCH7G0169R0K,,,,,6.974140406,79.91451373,5,,
2/27/2024,05:03.5,4m 15.5s,255.5,6.974175155,79.91451451,4.2,4.5,5.9,65,2.8,1.11847,1.803478,0.894776,1.565858,-0.671082,0,0,0,6.8,-0.3,149.4,149.4,331,P-GPS,Other,,13,5,TRUE,,Mavic Mini,TRUE,FALSE,,Smart,RC,FALSE,TRUE,FALSE,,,TRUE,,FALSE,FALSE,FALSE,FALSE,FALSE,FALSE,FALSE,FALSE,FALSE,FALSE,0,Follow Yaw,0,0,148,148,FALSE,FALSE,FALSE,FALSE,FALSE,FALSE,,TRUE,Normal,,100,1024,1024,1024,1024,1,FALSE,FALSE,FALSE,FALSE,FALSE,0,FALSE,FALSE,FALSE,FALSE,81,7.698,1668,2063,7.695,FALSE,3.852,3.846,0.034,FALSE,FALSE,NA,100.8,100.4,100.7,0,0,0,0,5,3750.7,937.69,,Idle,0,20,FALSE,5,TRUE,6,Go Home,FALSE,FALSE,FALSE,FALSE,FALSE,FALSE,FALSE,FALSE,FALSE,FALSE,FALSE,FALSE,6.974172497,79.91451603,1.1,181.9,328,TRUE,1,1,FALSE,FALSE,FALSE,FALSE,,TRUE,FALSE,FALSE,Course Lock,49.2,254.5,16.4,Calm,39,,1.12.8,Mavic Mini,1SDCH7G0169R0K,1SFLH6Q0AB03DJ,1SRCH7F014TAHX,1U5X071EXP6C9Y,51.1,0.1,13.1,5.533965,3.802798,0,80,Mavic Mini,1SDCH7G0169R0K,1SFLH6Q0AB03DJ,1SRCH7F014TAHX,1U5X071EXP6C9Y,DJI Fly,,1.12.8,2A2A605A-9147-C0D4-1FE7-CA62CBF03550,1SDCH7G0169R0K,,,,,6.974140406,79.91451373,5,,
2/27/2024,05:03.6,4m 15.6s,255.6,6.974175744,79.91451409,4.2,4.5,5.9,65,3.1,1.304348,1.803478,1.11847,1.565858,-0.671082,0,0,0,4.4,-0.4,149.4,149.4,331.4,P-GPS,Other,,13,5,TRUE,,Mavic Mini,TRUE,FALSE,,Smart,RC,FALSE,TRUE,FALSE,,,TRUE,,FALSE,FALSE,FALSE,FALSE,FALSE,FALSE,FALSE,FALSE,FALSE,FALSE,0,Follow Yaw,0,0,148,148,FALSE,FALSE,FALSE,FALSE,FALSE,FALSE,,TRUE,Normal,,100,1024,1024,1024,1024,1,FALSE,FALSE,FALSE,FALSE,FALSE,0,FALSE,FALSE,FALSE,FALSE,81,7.698,1668,2063,7.695,FALSE,3.852,3.846,0.034,FALSE,FALSE,NA,100.8,100.4,100.7,0,0,0,0,5,3750.7,937.69,,Idle,0,20,FALSE,5,TRUE,6,Go Home,FALSE,FALSE,FALSE,FALSE,FALSE,FALSE,FALSE,FALSE,FALSE,FALSE,FALSE,FALSE,6.974172497,79.91451603,1.3,181.9,328,TRUE,1,1,FALSE,FALSE,FALSE,FALSE,,TRUE,FALSE,FALSE,Course Lock,49.2,254.5,16.4,Calm,39,,1.12.8,Mavic Mini,1SDCH7G0169R0K,1SFLH6Q0AB03DJ,1SRCH7F014TAHX,1U5X071EXP6C9Y,51.1,0.1,13.1,5.533965,3.802798,0,80,Mavic Mini,1SDCH7G0169R0K,1SFLH6Q0AB03DJ,1SRCH7F014TAHX,1U5X071EXP6C9Y,DJI Fly,,1.12.8,2A2A605A-9147-C0D4-1FE7-CA62CBF03550,1SDCH7G0169R0K,,,,,6.974140406,79.91451373,5,,
2/27/2024,05:03.7,4m 15.7s,255.7,6.974176314,79.91451372,4.2,4.5,5.9,65,3.4,1.304348,1.803478,1.11847,1.565858,-0.671082,0,0,0,-2.4,-0.3,149.4,149.4,333,P-GPS,Other,,13,5,TRUE,,Mavic Mini,TRUE,FALSE,,Smart,RC,FALSE,TRUE,FALSE,,,TRUE,,FALSE,FALSE,FALSE,FALSE,FALSE,FALSE,FALSE,FALSE,FALSE,FALSE,0,Follow Yaw,0,0,148,148,FALSE,FALSE,FALSE,FALSE,FALSE,FALSE,,TRUE,Normal,,100,1024,1024,1024,1024,1,FALSE,FALSE,FALSE,FALSE,FALSE,0,FALSE,FALSE,FALSE,FALSE,81,7.678,1667,2063,7.695,FALSE,3.842,3.836,0.034,FALSE,FALSE,NA,100.6,100.4,100.7,0,0,0,0,5,3750.7,937.69,,Idle,0,20,FALSE,5,TRUE,6,Go Home,FALSE,FALSE,FALSE,FALSE,FALSE,FALSE,FALSE,FALSE,FALSE,FALSE,FALSE,FALSE,6.974172497,79.91451603,1.6,181.9,328,TRUE,1,1,FALSE,FALSE,FALSE,FALSE,,TRUE,FALSE,FALSE,Course Lock,49.2,254.5,16.4,Calm,39,,1.12.8,Mavic Mini,1SDCH7G0169R0K,1SFLH6Q0AB03DJ,1SRCH7F014TAHX,1U5X071EXP6C9Y,51.1,0.1,13.1,5.533965,3.802798,0,80,Mavic Mini,1SDCH7G0169R0K,1SFLH6Q0AB03DJ,1SRCH7F014TAHX,1U5X071EXP6C9Y,DJI Fly,,1.12.8,2A2A605A-9147-C0D4-1FE7-CA62CBF03550,1SDCH7G0169R0K,,,,,6.974140406,79.91451373,5,,
2/27/2024,05:03.8,4m 15.8s,255.8,6.974177047,79.91451317,4.2,4.5,5.9,65,3.7,1.000389,1.803478,0.894776,1.565858,-0.447388,0,0,0,-4.7,-0.4,149.4,149.4,329.9,P-GPS,Other,,13,5,TRUE,,Mavic Mini,TRUE,FALSE,,Smart,RC,FALSE,TRUE,FALSE,,,TRUE,,FALSE,FALSE,FALSE,FALSE,FALSE,FALSE,FALSE,FALSE,FALSE,FALSE,0,Follow Yaw,0,0,148,148,FALSE,FALSE,FALSE,FALSE,FALSE,FALSE,,TRUE,Normal,,100,1024,1024,1024,1024,1,FALSE,FALSE,FALSE,FALSE,FALSE,0,FALSE,FALSE,FALSE,FALSE,81,7.678,1667,2063,7.695,FALSE,3.842,3.836,0.034,FALSE,FALSE,NA,100.6,100.4,100.7,0,0,0,0,5,3750.7,937.69,,Idle,0,20,FALSE,5,TRUE,6,Go Home,FALSE,FALSE,FALSE,FALSE,FALSE,FALSE,FALSE,FALSE,FALSE,FALSE,FALSE,FALSE,6.974172497,79.91451603,1.9,181.9,328,TRUE,1,1,FALSE,FALSE,FALSE,FALSE,,TRUE,FALSE,FALSE,Course Lock,49.2,254.5,16.4,Calm,39,,1.12.8,Mavic Mini,1SDCH7G0169R0K,1SFLH6Q0AB03DJ,1SRCH7F014TAHX,1U5X071EXP6C9Y,51.1,0.1,13.1,5.533965,3.802798,0,80,Mavic Mini,1SDCH7G0169R0K,1SFLH6Q0AB03DJ,1SRCH7F014TAHX,1U5X071EXP6C9Y,DJI Fly,,1.12.8,2A2A605A-9147-C0D4-1FE7-CA62CBF03550,1SDCH7G0169R0K,,,,,6.974140406,79.91451373,5,,
2/27/2024,05:03.8,4m 15.9s,255.9,6.974177352,79.91451292,4.2,4.5,5.9,65,3.8,0.80654,1.803478,0.671082,1.565858,-0.447388,0,0,0,-4.5,-0.5,149.4,149.4,328,P-GPS,Other,,13,5,TRUE,,Mavic Mini,TRUE,FALSE,,Smart,RC,FALSE,TRUE,FALSE,,,TRUE,,FALSE,FALSE,FALSE,FALSE,FALSE,FALSE,FALSE,FALSE,FALSE,FALSE,0,Follow Yaw,0,0,148,148,FALSE,FALSE,FALSE,FALSE,FALSE,FALSE,,TRUE,Normal,,100,1024,1024,1024,1024,1,FALSE,FALSE,FALSE,FALSE,FALSE,0,FALSE,FALSE,FALSE,FALSE,81,7.678,1667,2063,7.695,FALSE,3.842,3.836,0.034,FALSE,FALSE,NA,100.6,100.4,100.7,0,0,0,0,5,3750.7,937.69,,Idle,0,20,FALSE,5,TRUE,6,Go Home,FALSE,FALSE,FALSE,FALSE,FALSE,FALSE,FALSE,FALSE,FALSE,FALSE,FALSE,FALSE,6.974172497,79.91451603,2,181.9,328,TRUE,1,1,FALSE,FALSE,FALSE,FALSE,,TRUE,FALSE,FALSE,Course Lock,49.2,254.5,16.4,Calm,39,,1.12.8,Mavic Mini,1SDCH7G0169R0K,1SFLH6Q0AB03DJ,1SRCH7F014TAHX,1U5X071EXP6C9Y,51.1,0.1,13.1,5.533965,3.802798,0,80,Mavic Mini,1SDCH7G0169R0K,1SFLH6Q0AB03DJ,1SRCH7F014TAHX,1U5X071EXP6C9Y,DJI Fly,,1.12.8,2A2A605A-9147-C0D4-1FE7-CA62CBF03550,1SDCH7G0169R0K,,,,,6.974140406,79.91451373,5,,
2/27/2024,05:04.0,4m 16.0s,256,6.974177558,79.91451274,4.2,4.5,5.9,65,3.9,0.500194,1.803478,0.447388,1.565858,-0.223694,0,0,0,-3.5,-0.5,149.5,149.5,326.5,P-GPS,Other,,13,5,TRUE,,Mavic Mini,TRUE,FALSE,,Smart,RC,FALSE,TRUE,FALSE,,,TRUE,,FALSE,FALSE,FALSE,FALSE,FALSE,FALSE,FALSE,FALSE,FALSE,FALSE,0,Follow Yaw,0,0,148,148,FALSE,FALSE,FALSE,FALSE,FALSE,FALSE,,TRUE,Normal,,100,1024,1024,1024,1024,1,FALSE,FALSE,FALSE,FALSE,FALSE,0,FALSE,FALSE,FALSE,FALSE,81,7.678,1667,2063,7.684,FALSE,3.842,3.836,0.034,FALSE,FALSE,NA,100.6,100.4,100.7,0,0,0,0,5,5597.7,1399.44,,Idle,0,20,FALSE,5,TRUE,6,Go Home,FALSE,FALSE,FALSE,FALSE,FALSE,FALSE,FALSE,FALSE,FALSE,FALSE,FALSE,FALSE,6.974172497,79.91451603,2.1,181.9,328,TRUE,1,1,FALSE,FALSE,FALSE,FALSE,,TRUE,FALSE,FALSE,Course Lock,49.2,254.5,16.4,Calm,39,,1.12.8,Mavic Mini,1SDCH7G0169R0K,1SFLH6Q0AB03DJ,1SRCH7F014TAHX,1U5X071EXP6C9Y,51.1,0.1,13.1,5.533965,3.802798,0,80,Mavic Mini,1SDCH7G0169R0K,1SFLH6Q0AB03DJ,1SRCH7F014TAHX,1U5X071EXP6C9Y,DJI Fly,,1.12.8,2A2A605A-9147-C0D4-1FE7-CA62CBF03550,1SDCH7G0169R0K,,,,,6.974140406,79.91451373,5,,
2/27/2024,05:04.1,4m 16.1s,256.1,6.97417774,79.91451265,4.2,4.5,5.9,65,4,0.316351,1.803478,0.223694,1.565858,-0.223694,0,0,0,-2.4,-0.4,149.5,149.5,337.7,P-GPS,Other,,13,5,TRUE,,Mavic Mini,TRUE,FALSE,,Smart,RC,FALSE,TRUE,FALSE,,,TRUE,,FALSE,FALSE,FALSE,FALSE,FALSE,FALSE,FALSE,FALSE,FALSE,FALSE,0,Follow Yaw,0,0,148,148,FALSE,FALSE,FALSE,FALSE,FALSE,FALSE,,TRUE,Normal,,100,1024,1024,1024,1024,1,FALSE,FALSE,FALSE,FALSE,FALSE,0,FALSE,FALSE,FALSE,FALSE,81,7.678,1667,2063,7.684,FALSE,3.842,3.836,0.034,FALSE,FALSE,NA,100.6,100.4,100.7,0,0,0,0,5,5597.7,1399.44,,Idle,0,20,FALSE,5,TRUE,6,Go Home,FALSE,FALSE,FALSE,FALSE,FALSE,FALSE,FALSE,FALSE,FALSE,FALSE,FALSE,FALSE,6.974172497,79.91451603,2.2,181.9,328,TRUE,1,1,FALSE,FALSE,FALSE,FALSE,,TRUE,FALSE,FALSE,Course Lock,49.2,254.5,16.4,Calm,39,,1.12.8,Mavic Mini,1SDCH7G0169R0K,1SFLH6Q0AB03DJ,1SRCH7F014TAHX,1U5X071EXP6C9Y,51.1,0.1,13.1,5.533965,3.802798,0,80,Mavic Mini,1SDCH7G0169R0K,1SFLH6Q0AB03DJ,1SRCH7F014TAHX,1U5X071EXP6C9Y,DJI Fly,,1.12.8,2A2A605A-9147-C0D4-1FE7-CA62CBF03550,1SDCH7G0169R0K,,,,,6.974140406,79.91451373,5,,
2/27/2024,05:04.1,4m 16.2s,256.2,6.974177853,79.91451259,3.9,4.5,5.9,64,4,0,1.803478,0,1.565858,0,0,0,0,-1.4,-0.4,149.5,149.5,,P-GPS,Other,,13,5,TRUE,,Mavic Mini,TRUE,FALSE,,Smart,RC,FALSE,TRUE,FALSE,,,TRUE,,FALSE,FALSE,FALSE,FALSE,FALSE,FALSE,FALSE,FALSE,FALSE,FALSE,0,Follow Yaw,0,0,148,148,FALSE,FALSE,FALSE,FALSE,FALSE,FALSE,,TRUE,Normal,,100,1024,1024,1024,1024,1,FALSE,FALSE,FALSE,FALSE,FALSE,0,FALSE,FALSE,FALSE,FALSE,81,7.678,1667,2063,7.684,FALSE,3.842,3.836,0.034,FALSE,FALSE,NA,100.6,100.4,100.7,0,0,0,0,5,5597.7,1399.44,,Idle,0,20,FALSE,5,TRUE,6,Go Home,FALSE,FALSE,FALSE,FALSE,FALSE,FALSE,FALSE,FALSE,FALSE,FALSE,FALSE,FALSE,6.974172497,79.91451603,2.3,181.9,328,TRUE,1,1,FALSE,FALSE,FALSE,FALSE,,TRUE,FALSE,FALSE,Course Lock,49.2,254.5,16.4,Calm,39,,1.12.8,Mavic Mini,1SDCH7G0169R0K,1SFLH6Q0AB03DJ,1SRCH7F014TAHX,1U5X071EXP6C9Y,51.1,0.1,13.1,5.533965,3.802798,0,80,Mavic Mini,1SDCH7G0169R0K,1SFLH6Q0AB03DJ,1SRCH7F014TAHX,1U5X071EXP6C9Y,DJI Fly,,1.12.8,2A2A605A-9147-C0D4-1FE7-CA62CBF03550,1SDCH7G0169R0K,,,,,6.974140406,79.91451373,5,,
2/27/2024,05:04.2,4m 16.3s,256.3,6.974177609,79.91451274,3.9,4.5,5.9,64,4.2,0,1.803478,0,1.565858,0,0,0,0,-0.6,-0.4,149.5,149.5,,P-GPS,Other,,13,5,TRUE,,Mavic Mini,TRUE,FALSE,,Smart,RC,FALSE,TRUE,FALSE,,,TRUE,,FALSE,FALSE,FALSE,FALSE,FALSE,FALSE,FALSE,FALSE,FALSE,FALSE,0,Follow Yaw,0,0,148,148,FALSE,FALSE,FALSE,FALSE,FALSE,FALSE,,TRUE,Normal,,100,1024,1024,1024,1024,1,FALSE,FALSE,FALSE,FALSE,FALSE,0,FALSE,FALSE,FALSE,FALSE,81,7.678,1667,2063,7.684,FALSE,3.842,3.836,0.034,FALSE,FALSE,NA,100.6,100.4,100.7,0,0,0,0,5,5597.7,1399.44,,Idle,0,20,FALSE,5,TRUE,6,Go Home,FALSE,FALSE,FALSE,FALSE,FALSE,FALSE,FALSE,FALSE,FALSE,FALSE,FALSE,FALSE,6.974172497,79.91451603,2.2,181.9,328,TRUE,1,1,FALSE,FALSE,FALSE,FALSE,,TRUE,FALSE,FALSE,Course Lock,49.2,254.5,16.4,Calm,39,,1.12.8,Mavic Mini,1SDCH7G0169R0K,1SFLH6Q0AB03DJ,1SRCH7F014TAHX,1U5X071EXP6C9Y,51.1,0.1,13.1,5.533965,3.802798,0,80,Mavic Mini,1SDCH7G0169R0K,1SFLH6Q0AB03DJ,1SRCH7F014TAHX,1U5X071EXP6C9Y,DJI Fly,,1.12.8,2A2A605A-9147-C0D4-1FE7-CA62CBF03550,1SDCH7G0169R0K,,,,,6.974140406,79.91451373,5,,
2/27/2024,05:04.3,4m 16.4s,256.4,6.974177602,79.91451273,3.9,4.5,5.9,64,4.2,0,1.803478,0,1.565858,0,0,0,0,0,-0.5,149.5,149.5,,P-GPS,Other,,13,5,TRUE,,Mavic Mini,TRUE,FALSE,,Smart,RC,FALSE,TRUE,FALSE,,,TRUE,,FALSE,FALSE,FALSE,FALSE,FALSE,FALSE,FALSE,FALSE,FALSE,FALSE,0,Follow Yaw,0,0,148,148,FALSE,FALSE,FALSE,FALSE,FALSE,FALSE,,TRUE,Normal,,100,1024,1024,1024,1024,1,FALSE,FALSE,FALSE,FALSE,FALSE,0,FALSE,FALSE,FALSE,FALSE,81,7.678,1667,2063,7.684,FALSE,3.842,3.836,0.034,FALSE,FALSE,NA,100.6,100.4,100.7,0,0,0,0,5,5597.7,1399.44,,Idle,0,20,FALSE,5,TRUE,6,Go Home,FALSE,FALSE,FALSE,FALSE,FALSE,FALSE,FALSE,FALSE,FALSE,FALSE,FALSE,FALSE,6.974172497,79.91451603,2.2,181.9,328,TRUE,1,1,FALSE,FALSE,FALSE,FALSE,,TRUE,FALSE,FALSE,Course Lock,49.2,254.5,16.4,Calm,39,,1.12.8,Mavic Mini,1SDCH7G0169R0K,1SFLH6Q0AB03DJ,1SRCH7F014TAHX,1U5X071EXP6C9Y,51.1,0.1,13.1,5.533965,3.802798,0,80,Mavic Mini,1SDCH7G0169R0K,1SFLH6Q0AB03DJ,1SRCH7F014TAHX,1U5X071EXP6C9Y,DJI Fly,,1.12.8,2A2A605A-9147-C0D4-1FE7-CA62CBF03550,1SDCH7G0169R0K,,,,,6.974140406,79.91451373,5,,
2/27/2024,05:04.4,4m 16.5s,256.5,6.974177447,79.91451279,3.9,4.5,5.9,64,4.2,0,1.803478,0,1.565858,0,0,0,0,0.5,-0.5,149.3,149.3,,P-GPS,Other,,13,5,TRUE,,Mavic Mini,TRUE,FALSE,,Smart,RC,FALSE,TRUE,FALSE,,,TRUE,,FALSE,FALSE,FALSE,FALSE,FALSE,FALSE,FALSE,FALSE,FALSE,FALSE,0,Follow Yaw,0,0,148,148,FALSE,FALSE,FALSE,FALSE,FALSE,FALSE,,TRUE,Normal,,100,1024,1024,1024,1024,1,FALSE,FALSE,FALSE,FALSE,FALSE,0,FALSE,FALSE,FALSE,FALSE,81,7.678,1667,2063,7.684,FALSE,3.842,3.836,0.034,FALSE,FALSE,NA,100.6,100.4,100.7,0,0,0,0,5,5597.7,1399.44,,Idle,0,20,FALSE,5,TRUE,6,Go Home,FALSE,FALSE,FALSE,FALSE,FALSE,FALSE,FALSE,FALSE,FALSE,FALSE,FALSE,FALSE,6.974172497,79.91451603,2.1,181.9,328,TRUE,1,1,FALSE,FALSE,FALSE,FALSE,,TRUE,FALSE,FALSE,Course Lock,49.2,254.5,16.4,Calm,39,,1.12.8,Mavic Mini,1SDCH7G0169R0K,1SFLH6Q0AB03DJ,1SRCH7F014TAHX,1U5X071EXP6C9Y,51.1,0.1,13.1,5.533965,3.802798,0,80,Mavic Mini,1SDCH7G0169R0K,1SFLH6Q0AB03DJ,1SRCH7F014TAHX,1U5X071EXP6C9Y,DJI Fly,,1.12.8,2A2A605A-9147-C0D4-1FE7-CA62CBF03550,1SDCH7G0169R0K,,,,,6.974140406,79.91451373,5,,
