CUSTOM.date [local],CUSTOM.updateTime [local],OSD.flyTime,OSD.flyTime [s],OSD.latitude,OSD.longitude,OSD.height [ft],OSD.heightMax [ft],OSD.vpsHeight [ft],OSD.altitude [ft],OSD.mileage [ft],OSD.hSpeed [MPH],OSD.hSpeedMax [MPH],OSD.xSpeed [MPH],OSD.xSpeedMax [MPH],OSD.ySpeed [MPH],OSD.ySpeedMax [MPH],OSD.zSpeed [MPH],OSD.zSpeedMax [MPH],OSD.pitch,OSD.roll,OSD.yaw,OSD.yaw [360],OSD.directionOfTravel,OSD.flycState,OSD.flycCommand,OSD.flightAction,OSD.gpsNum,OSD.gpsLevel,OSD.isGPSUsed,OSD.nonGPSCause,OSD.droneType,OSD.isSwaveWork,OSD.waveError,OSD.goHomeStatus,OSD.batteryType,OSD.ctrlDevice,OSD.isOnGround,OSD.isMotorOn,OSD.isMotorBlocked,OSD.motorStartFailedCause,OSD.motorFailReason,OSD.isImuPreheated,OSD.imuInitFailReason,OSD.isAcceletorOverRange,OSD.isBarometerDeadInAir,OSD.isCompassError,OSD.isGoHomeHeightModified,OSD.canIOCWork,OSD.isNotEnoughForce,OSD.isOutOfLimit,OSD.isPropellerCatapult,OSD.isVibrating,OSD.isVisionUsed,OSD.voltageWarning,GIMBAL.mode,GIMBAL.pitch,GIMBAL.roll,GIMBAL.yaw,GIMBAL.yaw [360],GIMBAL.isPitchAtLimit,GIMBAL.isRollAtLimit,GIMBAL.isYawAtLimit,GIMBAL.isStuck,CAMERA.isPhoto,CAMERA.isVideo,CAMERA.filename,CAMERA.sdCardIsInserted,CAMERA.sdCardState,RC.downlinkSignal,RC.uplinkSignal,RC.aileron,RC.elevator,RC.throttle,RC.rudder,RC.mode,RC.goHomeDepressed,RC.recordDepressed,RC.shutterDepressed,RC.playbackDepressed,RC.wheelDepressed,RC.wheelOffset,RC.custom1Depressed,RC.custom2Depressed,RC.custom3Depressed,RC.custom4Depressed,BATTERY.chargeLevel,BATTERY.currentPV [V],BATTERY.currentCapacity [mAh],BATTERY.fullCapacity [mAh],BATTERY.voltage [V],BATTERY.isCellVoltageEstimated,BATTERY.cellVoltage1 [V],BATTERY.cellVoltage2 [V],BATTERY.maxCellVoltageDeviation,BATTERY.isCellVoltageDeviationHigh,BATTERY.isVoltageLow,BATTERY.current [A],BATTERY.temperature [F],BATTERY.minTemperature [F],BATTERY.maxTemperature [F],BATTERY.usefulTime [s],BATTERY.goHomeTime [s],BATTERY.landTime [s],BATTERY.goHomeBattery,BATTERY.landBattery,BATTERY.safeFlyRadius,BATTERY.volumeConsume,BATTERY.status,BATTERY.goHomeStatus,BATTERY.goHomeCountdown,BATTERY.lowWarning,BATTERY.lowWarningGoHome,BATTERY.seriousLowWarning,BATTERY.seriousLowWarningLanding,BATTERY.timesCharged,MC.failSafeAction,MC.isObstacleAvoidanceEnabled,MC.isCollisionAvoidanceEnabled,MC.isRthObstacleAvoidanceEnabled,MC.isBraking,MC.isAvoidingObstacle,MC.isAvoidingActiveObstacle,MC.isAscentLimitedByObstacle,MC.isLandingConfirmationNeeded,MC.atLowAltitudeLimit,MC.atDistanceLimit,MC.atAirportAltitudeLimit,MC.atAirportBoundary,HOME.latitude,HOME.longitude,HOME.distance [ft],HOME.height [ft],HOME.heightLimit [ft],HOME.isHomeRecord,HOME.goHomeMode,HOME.aircraftHeadDirection,HOME.isDynamicHomePointEnabled,HOME.isReachedLimitDistance,HOME.isReachedLimitHeight,HOME.isCompassCalibrating,HOME.compassCalibrationState,HOME.isMultipleFlightModeEnabled,HOME.isBeginnerMode,HOME.isIOCEnabled,HOME.iocMode,HOME.goHomeHeight [ft],HOME.courseLockAngle,HOME.forceLandingHeight [ft],HOME.wind,HOME.dataRecorderFileIndex,RECOVER.appType,RECOVER.appVersion,RECOVER.aircraftName,RECOVER.aircraftSerial,RECOVER.cameraSerial,RECOVER.rcSerial,RECOVER.batterySerial,DETAILS.totalTime [s],DETAILS.totalDistance [ft],DETAILS.maxHeight [ft],DETAILS.maxHorizontalSpeed [MPH],DETAILS.maxVerticalSpeed [MPH],DETAILS.photoNum,DETAILS.videoTime [s],DETAILS.aircraftName,DETAILS.aircraftSerial,DETAILS.cameraSerial,DETAILS.rcSerial,DETAILS.batterySerial,DETAILS.appName,DETAILS.appType,DETAILS.appVersion,DETAILS.guid,SERIAL.flightController,SERIAL.camera,SERIAL.gimbal,SERIAL.rc,SERIAL.battery,APPGPS.latitude,APPGPS.longitude,APPGPS.accuracy,APP.tip,APP.warning
3/2/2024,38:13.0,0m 54.2s,54.2,6.972772415,79.91568223,0,0,0.3,66,0,0,0,0,0,0,0,0,0,8.5,-0.4,9.5,9.5,,Starting Motors,Auto Fly,Takeoff (App Auto),12,4,TRUE,,Mavic Mini,FALSE,FALSE,,Smart,RC,TRUE,TRUE,FALSE,,,TRUE,,FALSE,FALSE,FALSE,FALSE,FALSE,FALSE,FALSE,FALSE,FALSE,FALSE,0,Follow Yaw,0,0,13.8,13.8,FALSE,FALSE,FALSE,FALSE,FALSE,FALSE,,TRUE,Normal,,,1024,1024,1024,1024,2,FALSE,FALSE,FALSE,FALSE,FALSE,0,FALSE,FALSE,FALSE,FALSE,92,7.97,1911,2075,7.97,TRUE,3.985,3.985,,FALSE,FALSE,NA,88.7,88.7,88.7,,,,,,,,,Idle,,,TRUE,,FALSE,7,Go Home,FALSE,FALSE,FALSE,FALSE,FALSE,FALSE,FALSE,FALSE,FALSE,FALSE,FALSE,FALSE,,,,,,FALSE,,,FALSE,FALSE,FALSE,FALSE,,FALSE,FALSE,FALSE,,,,,Calm,,,1.12.8,Mavic Mini,1SDCH7G0169R0K,1SFLH6Q0AB03DJ,1SRCH7F014TAHX,1U5X071EXP6C8G,292.5,0.4,55.7,5.596823,2.908022,0,0,Mavic Mini,1SDCH7G0169R0K,1SFLH6Q0AB03DJ,1SRCH7F014TAHX,1U5X071EXP6C8G,DJI Fly,,1.12.8,F973E09C-9A78-961D-2D84-F266DFF51B36,1SDCH7G0169R0K,,,,,,,,Flight mode changed to Starting Motors.,
3/2/2024,37:19.0,0m 54.3s,54.3,6.972772433,79.91568216,0,0,0.3,66,0,0,0,0,0,0,0,0,0,8.6,-0.4,9.5,9.5,,Starting Motors,Auto Fly,Takeoff (App Auto),12,4,TRUE,,Mavic Mini,FALSE,FALSE,,Smart,RC,TRUE,TRUE,FALSE,,,TRUE,,FALSE,FALSE,FALSE,FALSE,FALSE,FALSE,FALSE,FALSE,FALSE,FALSE,0,Follow Yaw,0,0,13.8,13.8,FALSE,FALSE,FALSE,FALSE,FALSE,FALSE,,TRUE,Normal,,100,1024,1024,1024,1024,2,FALSE,FALSE,FALSE,FALSE,FALSE,0,FALSE,FALSE,FALSE,FALSE,92,7.97,1911,2075,7.97,TRUE,3.985,3.985,,FALSE,FALSE,NA,88.7,88.7,88.7,,,,,,,,,Idle,,,TRUE,,FALSE,7,Go Home,FALSE,FALSE,FALSE,FALSE,FALSE,FALSE,FALSE,FALSE,FALSE,FALSE,FALSE,FALSE,,,,,,FALSE,,,FALSE,FALSE,FALSE,FALSE,,FALSE,FALSE,FALSE,,,,,Calm,,,1.12.8,Mavic Mini,1SDCH7G0169R0K,1SFLH6Q0AB03DJ,1SRCH7F014TAHX,1U5X071EXP6C8G,292.5,0.4,55.7,5.596823,2.908022,0,0,Mavic Mini,1SDCH7G0169R0K,1SFLH6Q0AB03DJ,1SRCH7F014TAHX,1U5X071EXP6C8G,DJI Fly,,1.12.8,F973E09C-9A78-961D-2D84-F266DFF51B36,1SDCH7G0169R0K,,,,,,,,,
3/2/2024,37:19.1,0m 54.4s,54.4,6.972772438,79.91568214,0,0,0.3,66,0,0,0,0,0,0,0,0,0,8.6,-0.4,9.5,9.5,,Starting Motors,Auto Fly,Takeoff (App Auto),12,4,TRUE,,Mavic Mini,TRUE,FALSE,,Smart,RC,TRUE,TRUE,FALSE,,,TRUE,,FALSE,FALSE,FALSE,FALSE,FALSE,FALSE,FALSE,FALSE,FALSE,FALSE,0,Follow Yaw,0,0,13.8,13.8,FALSE,FALSE,FALSE,FALSE,FALSE,FALSE,,TRUE,Normal,,100,1024,1024,1024,1024,2,FALSE,FALSE,FALSE,FALSE,FALSE,0,FALSE,FALSE,FALSE,FALSE,92,7.971,1911,2075,7.964,FALSE,3.987,3.984,0.003,FALSE,FALSE,NA,88.9,88.7,88.8,0,9,0,0,5,8169.7,2042.43,,Idle,0,20,FALSE,5,TRUE,7,Go Home,FALSE,FALSE,FALSE,FALSE,FALSE,FALSE,FALSE,FALSE,FALSE,FALSE,FALSE,FALSE,6.972713004,79.91566064,23,127.7,328,TRUE,1,1,FALSE,FALSE,FALSE,FALSE,,TRUE,FALSE,FALSE,Course Lock,49.2,14.3,16.4,Calm,40,,1.12.8,Mavic Mini,1SDCH7G0169R0K,1SFLH6Q0AB03DJ,1SRCH7F014TAHX,1U5X071EXP6C8G,292.5,0.4,55.7,5.596823,2.908022,0,0,Mavic Mini,1SDCH7G0169R0K,1SFLH6Q0AB03DJ,1SRCH7F014TAHX,1U5X071EXP6C8G,DJI Fly,,1.12.8,F973E09C-9A78-961D-2D84-F266DFF51B36,1SDCH7G0169R0K,,,,,,,,Data Recorder File Index is 40.; Set Return to Home (RTH) altitude to 15 m (49 ft).; Set maximum flight altitude to 100 m (328 ft).,
3/2/2024,37:19.2,0m 54.5s,54.5,6.972772443,79.91568213,0,0,0.3,66,0,0,0,0,0,0,0,0,0,8.6,-0.4,9.6,9.6,,Starting Motors,Auto Fly,Takeoff (App Auto),12,4,TRUE,,Mavic Mini,TRUE,FALSE,,Smart,RC,TRUE,TRUE,FALSE,,,TRUE,,FALSE,FALSE,FALSE,FALSE,FALSE,FALSE,FALSE,FALSE,FALSE,FALSE,0,Follow Yaw,0,0,13.8,13.8,FALSE,FALSE,FALSE,FALSE,FALSE,FALSE,,TRUE,Normal,,100,1024,1024,1024,1024,2,FALSE,FALSE,FALSE,FALSE,FALSE,0,FALSE,FALSE,FALSE,FALSE,92,7.971,1911,2075,7.964,FALSE,3.987,3.984,0.003,FALSE,FALSE,NA,88.9,88.7,88.8,0,9,0,0,5,8169.7,2042.43,,Idle,0,20,FALSE,5,TRUE,7,Go Home,FALSE,FALSE,FALSE,FALSE,FALSE,FALSE,FALSE,FALSE,FALSE,FALSE,FALSE,FALSE,6.972713004,79.91566064,23,127.7,328,TRUE,1,1,FALSE,FALSE,FALSE,FALSE,,TRUE,FALSE,FALSE,Course Lock,49.2,14.3,16.4,Calm,40,,1.12.8,Mavic Mini,1SDCH7G0169R0K,1SFLH6Q0AB03DJ,1SRCH7F014TAHX,1U5X071EXP6C8G,292.5,0.4,55.7,5.596823,2.908022,0,0,Mavic Mini,1SDCH7G0169R0K,1SFLH6Q0AB03DJ,1SRCH7F014TAHX,1U5X071EXP6C8G,DJI Fly,,1.12.8,F973E09C-9A78-961D-2D84-F266DFF51B36,1SDCH7G0169R0K,,,,,,,,,
3/2/2024,37:19.3,0m 54.6s,54.6,6.972772446,79.91568213,0,0,0.3,66,0,0,0,0,0,0,0,0,0,8.5,-0.4,9.4,9.4,,Starting Motors,Auto Fly,Takeoff (App Auto),12,4,TRUE,,Mavic Mini,TRUE,FALSE,,Smart,RC,TRUE,TRUE,FALSE,,,TRUE,,FALSE,FALSE,FALSE,FALSE,FALSE,FALSE,FALSE,FALSE,FALSE,FALSE,0,Follow Yaw,0,0,13.8,13.8,FALSE,FALSE,FALSE,FALSE,FALSE,FALSE,,TRUE,Normal,,100,1024,1024,1024,1024,2,FALSE,FALSE,FALSE,FALSE,FALSE,0,FALSE,FALSE,FALSE,FALSE,92,7.971,1911,2075,7.964,FALSE,3.987,3.984,0.003,FALSE,FALSE,NA,88.9,88.7,88.8,0,9,0,0,5,8169.7,2042.43,,Idle,0,20,FALSE,5,TRUE,7,Go Home,FALSE,FALSE,FALSE,FALSE,FALSE,FALSE,FALSE,FALSE,FALSE,FALSE,FALSE,FALSE,6.972713004,79.91566064,23,127.7,328,TRUE,1,1,FALSE,FALSE,FALSE,FALSE,,TRUE,FALSE,FALSE,Course Lock,49.2,14.3,16.4,Calm,40,,1.12.8,Mavic Mini,1SDCH7G0169R0K,1SFLH6Q0AB03DJ,1SRCH7F014TAHX,1U5X071EXP6C8G,292.5,0.4,55.7,5.596823,2.908022,0,0,Mavic Mini,1SDCH7G0169R0K,1SFLH6Q0AB03DJ,1SRCH7F014TAHX,1U5X071EXP6C8G,DJI Fly,,1.12.8,F973E09C-9A78-961D-2D84-F266DFF51B36,1SDCH7G0169R0K,,,,,,,,,
3/2/2024,37:19.4,0m 54.7s,54.7,6.972772426,79.9156822,0,0,0.3,66,0,0,0,0,0,0,0,0,0,8.8,-0.3,9.6,9.6,,Starting Motors,Auto Fly,Takeoff (App Auto),12,4,TRUE,,Mavic Mini,TRUE,FALSE,,Smart,RC,TRUE,TRUE,FALSE,,,TRUE,,FALSE,FALSE,FALSE,FALSE,FALSE,FALSE,FALSE,FALSE,FALSE,FALSE,0,Follow Yaw,0,0,13.8,13.8,FALSE,FALSE,FALSE,FALSE,FALSE,FALSE,,TRUE,Normal,,100,1024,1024,1024,1024,2,FALSE,FALSE,FALSE,FALSE,FALSE,0,FALSE,FALSE,FALSE,FALSE,92,7.971,1911,2075,7.964,FALSE,3.987,3.984,0.003,FALSE,FALSE,NA,88.9,88.7,88.8,0,9,0,0,5,8169.7,2042.43,,Idle,0,20,FALSE,5,TRUE,7,Go Home,FALSE,FALSE,FALSE,FALSE,FALSE,FALSE,FALSE,FALSE,FALSE,FALSE,FALSE,FALSE,6.972713004,79.91566064,23,127.7,328,TRUE,1,1,FALSE,FALSE,FALSE,FALSE,,TRUE,FALSE,FALSE,Course Lock,49.2,14.3,16.4,Calm,40,,1.12.8,Mavic Mini,1SDCH7G0169R0K,1SFLH6Q0AB03DJ,1SRCH7F014TAHX,1U5X071EXP6C8G,292.5,0.4,55.7,5.596823,2.908022,0,0,Mavic Mini,1SDCH7G0169R0K,1SFLH6Q0AB03DJ,1SRCH7F014TAHX,1U5X071EXP6C8G,DJI Fly,,1.12.8,F973E09C-9A78-961D-2D84-F266DFF51B36,1SDCH7G0169R0K,,,,,,,,,
3/2/2024,37:19.5,0m 54.8s,54.8,6.972772429,79.9156822,0,0,0.3,66,0,0,0,0,0,0,0,0,0,8.7,-0.4,9.6,9.6,,Starting Motors,Auto Fly,Takeoff (App Auto),12,4,TRUE,,Mavic Mini,TRUE,FALSE,,Smart,RC,TRUE,TRUE,FALSE,,,TRUE,,FALSE,FALSE,FALSE,FALSE,FALSE,FALSE,FALSE,FALSE,FALSE,FALSE,0,Follow Yaw,0,0,13.8,13.8,FALSE,FALSE,FALSE,FALSE,FALSE,FALSE,,TRUE,Normal,,100,1024,1024,1024,1024,2,FALSE,FALSE,FALSE,FALSE,FALSE,0,FALSE,FALSE,FALSE,FALSE,92,7.971,1911,2075,7.964,FALSE,3.987,3.984,0.003,FALSE,FALSE,NA,88.9,88.7,88.8,0,9,0,0,5,8169.7,2042.43,,Idle,0,20,FALSE,5,TRUE,7,Go Home,FALSE,FALSE,FALSE,FALSE,FALSE,FALSE,FALSE,FALSE,FALSE,FALSE,FALSE,FALSE,6.972713004,79.91566064,23,127.7,328,TRUE,1,1,FALSE,FALSE,FALSE,FALSE,,TRUE,FALSE,FALSE,Course Lock,49.2,14.3,16.4,Calm,40,,1.12.8,Mavic Mini,1SDCH7G0169R0K,1SFLH6Q0AB03DJ,1SRCH7F014TAHX,1U5X071EXP6C8G,292.5,0.4,55.7,5.596823,2.908022,0,0,Mavic Mini,1SDCH7G0169R0K,1SFLH6Q0AB03DJ,1SRCH7F014TAHX,1U5X071EXP6C8G,DJI Fly,,1.12.8,F973E09C-9A78-961D-2D84-F266DFF51B36,1SDCH7G0169R0K,,,,,,,,,
3/2/2024,37:19.6,0m 54.9s,54.9,6.972772431,79.9156822,0,0,0.3,66,0,0,0,0,0,0,0,0,0,8.7,-0.4,9.5,9.5,,Starting Motors,Auto Fly,Takeoff (App Auto),12,4,TRUE,,Mavic Mini,TRUE,FALSE,,Smart,RC,TRUE,TRUE,FALSE,,,TRUE,,FALSE,FALSE,FALSE,FALSE,FALSE,FALSE,FALSE,FALSE,FALSE,FALSE,0,Follow Yaw,0,0,13.8,13.8,FALSE,FALSE,FALSE,FALSE,FALSE,FALSE,,TRUE,Normal,,100,1024,1024,1024,1024,2,FALSE,FALSE,FALSE,FALSE,FALSE,0,FALSE,FALSE,FALSE,FALSE,92,7.971,1911,2075,7.964,FALSE,3.987,3.984,0.003,FALSE,FALSE,NA,88.9,88.7,88.8,0,9,0,0,5,8169.7,2042.43,,Idle,0,20,FALSE,5,TRUE,7,Go Home,FALSE,FALSE,FALSE,FALSE,FALSE,FALSE,FALSE,FALSE,FALSE,FALSE,FALSE,FALSE,6.972713004,79.91566064,23,127.7,328,TRUE,1,1,FALSE,FALSE,FALSE,FALSE,,TRUE,FALSE,FALSE,Course Lock,49.2,14.3,16.4,Calm,40,,1.12.8,Mavic Mini,1SDCH7G0169R0K,1SFLH6Q0AB03DJ,1SRCH7F014TAHX,1U5X071EXP6C8G,292.5,0.4,55.7,5.596823,2.908022,0,0,Mavic Mini,1SDCH7G0169R0K,1SFLH6Q0AB03DJ,1SRCH7F014TAHX,1U5X071EXP6C8G,DJI Fly,,1.12.8,F973E09C-9A78-961D-2D84-F266DFF51B36,1SDCH7G0169R0K,,,,,,,,,
3/2/2024,37:19.7,0m 55.0s,55,6.972772433,79.91568221,0,0,0.3,66,0,0,0,0,0,0,0,0,0,8.7,-0.4,9.6,9.6,,Starting Motors,Auto Fly,Takeoff (App Auto),12,4,TRUE,,Mavic Mini,TRUE,FALSE,,Smart,RC,TRUE,TRUE,FALSE,,,TRUE,,FALSE,FALSE,FALSE,FALSE,FALSE,FALSE,FALSE,FALSE,FALSE,FALSE,0,Follow Yaw,0,0,13.8,13.8,FALSE,FALSE,FALSE,FALSE,FALSE,FALSE,,TRUE,Normal,,100,1024,1024,1024,1024,2,FALSE,FALSE,FALSE,FALSE,FALSE,0,FALSE,FALSE,FALSE,FALSE,92,7.971,1911,2075,7.964,FALSE,3.987,3.984,0.003,FALSE,FALSE,NA,88.9,88.7,88.8,0,9,0,0,5,8169.7,2042.43,,Idle,0,20,FALSE,5,TRUE,7,Go Home,FALSE,FALSE,FALSE,FALSE,FALSE,FALSE,FALSE,FALSE,FALSE,FALSE,FALSE,FALSE,6.972713004,79.91566064,23,127.7,328,TRUE,1,1,FALSE,FALSE,FALSE,FALSE,,TRUE,FALSE,FALSE,Course Lock,49.2,14.3,16.4,Calm,40,,1.12.8,Mavic Mini,1SDCH7G0169R0K,1SFLH6Q0AB03DJ,1SRCH7F014TAHX,1U5X071EXP6C8G,292.5,0.4,55.7,5.596823,2.908022,0,0,Mavic Mini,1SDCH7G0169R0K,1SFLH6Q0AB03DJ,1SRCH7F014TAHX,1U5X071EXP6C8G,DJI Fly,,1.12.8,F973E09C-9A78-961D-2D84-F266DFF51B36,1SDCH7G0169R0K,,,,,,,,,
3/2/2024,37:19.8,0m 55.1s,55.1,6.972772417,79.91568221,0,0,0.3,66,0,0,0,0,0,0,0,0,0,8.6,-0.4,9.6,9.6,,Starting Motors,Auto Fly,Takeoff (App Auto),11,4,TRUE,,Mavic Mini,TRUE,FALSE,,Smart,RC,TRUE,TRUE,FALSE,,,TRUE,,FALSE,FALSE,FALSE,FALSE,FALSE,FALSE,FALSE,FALSE,FALSE,FALSE,0,Follow Yaw,0,0,13.8,13.8,FALSE,FALSE,FALSE,FALSE,FALSE,FALSE,,TRUE,Normal,,100,1024,1024,1024,1024,2,FALSE,FALSE,FALSE,FALSE,FALSE,0,FALSE,FALSE,FALSE,FALSE,92,7.971,1911,2075,7.964,FALSE,3.987,3.984,0.003,FALSE,FALSE,NA,88.9,88.7,88.8,0,9,0,0,5,8169.7,2042.43,,Idle,0,20,FALSE,5,TRUE,7,Go Home,FALSE,FALSE,FALSE,FALSE,FALSE,FALSE,FALSE,FALSE,FALSE,FALSE,FALSE,FALSE,6.972713004,79.91566064,23,127.7,328,TRUE,1,1,FALSE,FALSE,FALSE,FALSE,,TRUE,FALSE,FALSE,Course Lock,49.2,14.3,16.4,Calm,40,,1.12.8,Mavic Mini,1SDCH7G0169R0K,1SFLH6Q0AB03DJ,1SRCH7F014TAHX,1U5X071EXP6C8G,292.5,0.4,55.7,5.596823,2.908022,0,0,Mavic Mini,1SDCH7G0169R0K,1SFLH6Q0AB03DJ,1SRCH7F014TAHX,1U5X071EXP6C8G,DJI Fly,,1.12.8,F973E09C-9A78-961D-2D84-F266DFF51B36,1SDCH7G0169R0K,,,,,,,,,
3/2/2024,37:20.0,0m 55.2s,55.2,6.972772271,79.91568223,0,0,0.3,66,0.1,0,0,0,0,0,0,0,0,8.6,-0.4,9.6,9.6,,Starting Motors,Auto Fly,Takeoff (App Auto),11,4,TRUE,,Mavic Mini,TRUE,FALSE,,Smart,RC,TRUE,TRUE,FALSE,,,TRUE,,FALSE,FALSE,FALSE,FALSE,FALSE,FALSE,FALSE,FALSE,FALSE,FALSE,0,Follow Yaw,0,0,13.8,13.8,FALSE,FALSE,FALSE,FALSE,FALSE,FALSE,,TRUE,Normal,,100,1024,1024,1024,1024,2,FALSE,FALSE,FALSE,FALSE,FALSE,0,FALSE,FALSE,FALSE,FALSE,92,7.971,1911,2075,7.964,FALSE,3.987,3.984,0.003,FALSE,FALSE,NA,88.9,88.7,88.8,0,9,0,0,5,8169.7,2042.43,,Idle,0,20,FALSE,5,TRUE,7,Go Home,FALSE,FALSE,FALSE,FALSE,FALSE,FALSE,FALSE,FALSE,FALSE,FALSE,FALSE,FALSE,6.972713004,79.91566064,22.9,127.7,328,TRUE,1,1,FALSE,FALSE,FALSE,FALSE,,TRUE,FALSE,FALSE,Course Lock,49.2,14.3,16.4,Calm,40,,1.12.8,Mavic Mini,1SDCH7G0169R0K,1SFLH6Q0AB03DJ,1SRCH7F014TAHX,1U5X071EXP6C8G,292.5,0.4,55.7,5.596823,2.908022,0,0,Mavic Mini,1SDCH7G0169R0K,1SFLH6Q0AB03DJ,1SRCH7F014TAHX,1U5X071EXP6C8G,DJI Fly,,1.12.8,F973E09C-9A78-961D-2D84-F266DFF51B36,1SDCH7G0169R0K,,,,,,,,,
3/2/2024,37:20.0,0m 55.3s,55.3,6.972772233,79.91568223,0,0,0.3,66,0.1,0,0,0,0,0,0,0,0,8.6,-0.4,9.6,9.6,,Auto Takeoff,Auto Fly,Takeoff (App Auto),12,4,TRUE,,Mavic Mini,TRUE,FALSE,,Smart,RC,TRUE,TRUE,FALSE,,,TRUE,,FALSE,FALSE,FALSE,FALSE,FALSE,FALSE,FALSE,FALSE,FALSE,FALSE,0,Follow Yaw,0,0,13.8,13.8,FALSE,FALSE,FALSE,FALSE,FALSE,FALSE,,TRUE,Normal,,100,1024,1024,1024,1024,2,FALSE,FALSE,FALSE,FALSE,FALSE,0,FALSE,FALSE,FALSE,FALSE,92,7.971,1911,2075,7.964,FALSE,3.987,3.984,0.003,FALSE,FALSE,NA,88.9,88.7,88.8,0,9,0,0,5,8169.7,2042.43,,Idle,0,20,FALSE,5,TRUE,7,Go Home,FALSE,FALSE,FALSE,FALSE,FALSE,FALSE,FALSE,FALSE,FALSE,FALSE,FALSE,FALSE,6.972713004,79.91566064,22.9,127.7,328,TRUE,1,1,FALSE,FALSE,FALSE,FALSE,,TRUE,FALSE,FALSE,Course Lock,49.2,14.3,16.4,Calm,40,,1.12.8,Mavic Mini,1SDCH7G0169R0K,1SFLH6Q0AB03DJ,1SRCH7F014TAHX,1U5X071EXP6C8G,292.5,0.4,55.7,5.596823,2.908022,0,0,Mavic Mini,1SDCH7G0169R0K,1SFLH6Q0AB03DJ,1SRCH7F014TAHX,1U5X071EXP6C8G,DJI Fly,,1.12.8,F973E09C-9A78-961D-2D84-F266DFF51B36,1SDCH7G0169R0K,,,,,,,,Flight mode changed to Auto Takeoff.,
3/2/2024,37:20.0,0m 55.4s,55.4,6.972772218,79.91568223,0,0,0.3,66,0.1,0,0,0,0,0,0,0,0,7.9,-0.2,9.6,9.6,,Auto Takeoff,Auto Fly,Takeoff (App Auto),12,4,TRUE,,Mavic Mini,TRUE,FALSE,,Smart,RC,TRUE,TRUE,FALSE,,,TRUE,,FALSE,FALSE,FALSE,FALSE,FALSE,FALSE,FALSE,FALSE,FALSE,FALSE,0,Follow Yaw,0,0,13.8,13.8,FALSE,FALSE,FALSE,FALSE,FALSE,FALSE,,TRUE,Normal,,100,1024,1024,1024,1024,2,FALSE,FALSE,FALSE,FALSE,FALSE,0,FALSE,FALSE,FALSE,FALSE,92,7.963,1911,2075,7.969,FALSE,3.985,3.978,0.007,FALSE,FALSE,NA,88.9,88.7,88.8,0,8,0,0,5,6412.1,1603.04,,Idle,0,20,FALSE,5,TRUE,7,Go Home,FALSE,FALSE,FALSE,FALSE,FALSE,FALSE,FALSE,FALSE,FALSE,FALSE,FALSE,FALSE,6.972713004,79.91566064,22.9,127.7,328,TRUE,1,1,FALSE,FALSE,FALSE,FALSE,,TRUE,FALSE,FALSE,Course Lock,49.2,14.3,16.4,Calm,40,,1.12.8,Mavic Mini,1SDCH7G0169R0K,1SFLH6Q0AB03DJ,1SRCH7F014TAHX,1U5X071EXP6C8G,292.5,0.4,55.7,5.596823,2.908022,0,0,Mavic Mini,1SDCH7G0169R0K,1SFLH6Q0AB03DJ,1SRCH7F014TAHX,1U5X071EXP6C8G,DJI Fly,,1.12.8,F973E09C-9A78-961D-2D84-F266DFF51B36,1SDCH7G0169R0K,,,,,,,,,
3/2/2024,37:20.1,0m 55.5s,55.5,6.972772218,79.91568224,0,0,0.3,66,0.1,0,0,0,0,0,0,0,0,6.2,0.3,9.8,9.8,,Auto Takeoff,Auto Fly,Takeoff (App Auto),12,4,TRUE,,Mavic Mini,TRUE,FALSE,,Smart,RC,TRUE,TRUE,FALSE,,,TRUE,,FALSE,FALSE,FALSE,FALSE,FALSE,FALSE,FALSE,FALSE,FALSE,FALSE,0,Follow Yaw,0,0,13.8,13.8,FALSE,FALSE,FALSE,FALSE,FALSE,FALSE,,TRUE,Normal,,100,1024,1024,1024,1024,2,FALSE,FALSE,FALSE,FALSE,FALSE,0,FALSE,FALSE,FALSE,FALSE,92,7.963,1910,2075,7.969,FALSE,3.985,3.978,0.007,FALSE,FALSE,NA,88.9,88.7,88.8,0,8,0,0,5,6412.1,1603.04,,Idle,0,20,FALSE,5,TRUE,7,Go Home,FALSE,FALSE,FALSE,FALSE,FALSE,FALSE,FALSE,FALSE,FALSE,FALSE,FALSE,FALSE,6.972713004,79.91566064,22.9,127.7,328,TRUE,1,1,FALSE,FALSE,FALSE,FALSE,,TRUE,FALSE,FALSE,Course Lock,49.2,14.3,16.4,Calm,40,,1.12.8,Mavic Mini,1SDCH7G0169R0K,1SFLH6Q0AB03DJ,1SRCH7F014TAHX,1U5X071EXP6C8G,292.5,0.4,55.7,5.596823,2.908022,0,0,Mavic Mini,1SDCH7G0169R0K,1SFLH6Q0AB03DJ,1SRCH7F014TAHX,1U5X071EXP6C8G,DJI Fly,,1.12.8,F973E09C-9A78-961D-2D84-F266DFF51B36,1SDCH7G0169R0K,,,,,,,,,
3/2/2024,37:20.2,0m 55.6s,55.6,6.97277227,79.91568227,0,0,0.3,66,0.1,0,0,0,0,0,0,0,0,5.4,0.4,9.8,9.8,,Auto Takeoff,Auto Fly,Takeoff (App Auto),12,4,TRUE,,Mavic Mini,TRUE,FALSE,,Smart,RC,TRUE,TRUE,FALSE,,,TRUE,,FALSE,FALSE,FALSE,FALSE,FALSE,FALSE,FALSE,FALSE,FALSE,FALSE,0,Follow Yaw,0,0,13.8,13.8,FALSE,FALSE,FALSE,FALSE,FALSE,FALSE,,TRUE,Normal,,100,1024,1024,1024,1024,2,FALSE,FALSE,FALSE,FALSE,FALSE,0,FALSE,FALSE,FALSE,FALSE,92,7.963,1910,2075,7.969,FALSE,3.985,3.978,0.007,FALSE,FALSE,NA,88.9,88.7,88.8,0,8,0,0,5,6412.1,1603.04,,Idle,0,20,FALSE,5,TRUE,7,Go Home,FALSE,FALSE,FALSE,FALSE,FALSE,FALSE,FALSE,FALSE,FALSE,FALSE,FALSE,FALSE,6.972713004,79.91566064,22.9,127.7,328,TRUE,1,1,FALSE,FALSE,FALSE,FALSE,,TRUE,FALSE,FALSE,Course Lock,49.2,14.3,16.4,Calm,40,,1.12.8,Mavic Mini,1SDCH7G0169R0K,1SFLH6Q0AB03DJ,1SRCH7F014TAHX,1U5X071EXP6C8G,292.5,0.4,55.7,5.596823,2.908022,0,0,Mavic Mini,1SDCH7G0169R0K,1SFLH6Q0AB03DJ,1SRCH7F014TAHX,1U5X071EXP6C8G,DJI Fly,,1.12.8,F973E09C-9A78-961D-2D84-F266DFF51B36,1SDCH7G0169R0K,,,,,,,,,
3/2/2024,37:20.4,0m 55.7s,55.7,6.972772291,79.91568227,0,0,0.3,66,0.1,0,0,0,0,0,0,0,0,3.9,0.7,9.8,9.8,,Auto Takeoff,Auto Fly,Takeoff (App Auto),12,4,TRUE,,Mavic Mini,TRUE,FALSE,,Smart,RC,TRUE,TRUE,FALSE,,,TRUE,,FALSE,FALSE,FALSE,FALSE,FALSE,FALSE,FALSE,FALSE,FALSE,FALSE,0,Follow Yaw,0,0,13.8,13.8,FALSE,FALSE,FALSE,FALSE,FALSE,FALSE,,TRUE,Normal,,100,1024,1024,1024,1024,2,FALSE,FALSE,FALSE,FALSE,FALSE,0,FALSE,FALSE,FALSE,FALSE,92,7.963,1910,2075,7.969,FALSE,3.985,3.978,0.007,FALSE,FALSE,NA,88.9,88.7,88.8,0,8,0,0,5,6412.1,1603.04,,Idle,0,20,FALSE,5,TRUE,7,Go Home,FALSE,FALSE,FALSE,FALSE,FALSE,FALSE,FALSE,FALSE,FALSE,FALSE,FALSE,FALSE,6.972713004,79.91566064,23,127.7,328,TRUE,1,1,FALSE,FALSE,FALSE,FALSE,,TRUE,FALSE,FALSE,Course Lock,49.2,14.3,16.4,Calm,40,,1.12.8,Mavic Mini,1SDCH7G0169R0K,1SFLH6Q0AB03DJ,1SRCH7F014TAHX,1U5X071EXP6C8G,292.5,0.4,55.7,5.596823,2.908022,0,0,Mavic Mini,1SDCH7G0169R0K,1SFLH6Q0AB03DJ,1SRCH7F014TAHX,1U5X071EXP6C8G,DJI Fly,,1.12.8,F973E09C-9A78-961D-2D84-F266DFF51B36,1SDCH7G0169R0K,,,,,,,,,
3/2/2024,37:20.5,0m 55.8s,55.8,6.972772321,79.91568229,0,0,0.3,66,0.1,0,0,0,0,0,0,0,0,2.2,0.5,9.6,9.6,,Auto Takeoff,Auto Fly,Takeoff (App Auto),12,4,TRUE,,Mavic Mini,TRUE,FALSE,,Smart,RC,TRUE,TRUE,FALSE,,,TRUE,,FALSE,FALSE,FALSE,FALSE,FALSE,FALSE,FALSE,FALSE,FALSE,FALSE,0,Follow Yaw,0,0,13.8,13.8,FALSE,FALSE,FALSE,FALSE,FALSE,FALSE,,TRUE,Normal,,100,1024,1024,1024,1024,2,FALSE,FALSE,FALSE,FALSE,FALSE,0,FALSE,FALSE,FALSE,FALSE,92,7.963,1910,2075,7.969,FALSE,3.985,3.978,0.007,FALSE,FALSE,NA,88.9,88.7,88.8,0,8,0,0,5,6412.1,1603.04,,Idle,0,20,FALSE,5,TRUE,7,Go Home,FALSE,FALSE,FALSE,FALSE,FALSE,FALSE,FALSE,FALSE,FALSE,FALSE,FALSE,FALSE,6.972713004,79.91566064,23,127.7,328,TRUE,1,1,FALSE,FALSE,FALSE,FALSE,,TRUE,FALSE,FALSE,Course Lock,49.2,14.3,16.4,Calm,40,,1.12.8,Mavic Mini,1SDCH7G0169R0K,1SFLH6Q0AB03DJ,1SRCH7F014TAHX,1U5X071EXP6C8G,292.5,0.4,55.7,5.596823,2.908022,0,0,Mavic Mini,1SDCH7G0169R0K,1SFLH6Q0AB03DJ,1SRCH7F014TAHX,1U5X071EXP6C8G,DJI Fly,,1.12.8,F973E09C-9A78-961D-2D84-F266DFF51B36,1SDCH7G0169R0K,,,,,,,,,
3/2/2024,37:20.6,0m 55.9s,55.9,6.972772371,79.9156823,0,0,0.3,66,0.1,0,0,0,0,0,0,-0.223694,0,0.6,-0.8,9,9,,Auto Takeoff,Auto Fly,Takeoff (App Auto),12,4,TRUE,,Mavic Mini,TRUE,FALSE,,Smart,RC,TRUE,TRUE,FALSE,,,TRUE,,FALSE,FALSE,FALSE,FALSE,FALSE,FALSE,FALSE,FALSE,FALSE,FALSE,0,Follow Yaw,0,0,13.8,13.8,FALSE,FALSE,FALSE,FALSE,FALSE,FALSE,,TRUE,Normal,,100,1024,1024,1024,1024,2,FALSE,FALSE,FALSE,FALSE,FALSE,0,FALSE,FALSE,FALSE,FALSE,92,7.963,1910,2075,7.969,FALSE,3.985,3.978,0.007,FALSE,FALSE,NA,88.9,88.7,88.8,0,8,0,0,5,6412.1,1603.04,,Idle,0,20,FALSE,5,TRUE,7,Go Home,FALSE,FALSE,FALSE,FALSE,FALSE,FALSE,FALSE,FALSE,FALSE,FALSE,FALSE,FALSE,6.972713004,79.91566064,23,127.7,328,TRUE,1,1,FALSE,FALSE,FALSE,FALSE,,TRUE,FALSE,FALSE,Course Lock,49.2,14.3,16.4,Calm,40,,1.12.8,Mavic Mini,1SDCH7G0169R0K,1SFLH6Q0AB03DJ,1SRCH7F014TAHX,1U5X071EXP6C8G,292.5,0.4,55.7,5.596823,2.908022,0,0,Mavic Mini,1SDCH7G0169R0K,1SFLH6Q0AB03DJ,1SRCH7F014TAHX,1U5X071EXP6C8G,DJI Fly,,1.12.8,F973E09C-9A78-961D-2D84-F266DFF51B36,1SDCH7G0169R0K,,,,,,,,,
3/2/2024,37:20.7,0m 56.0s,56,6.972772574,79.91568233,0,0,0.3,66,0.2,0,0,0,0,0,0,-0.223694,0,-0.7,-1.4,8.3,8.3,,Auto Takeoff,Auto Fly,Takeoff (App Auto),12,4,TRUE,,Mavic Mini,TRUE,FALSE,,Smart,RC,TRUE,TRUE,FALSE,,,TRUE,,FALSE,FALSE,FALSE,FALSE,FALSE,FALSE,FALSE,FALSE,FALSE,FALSE,0,Follow Yaw,0,0,13.7,13.7,FALSE,FALSE,FALSE,FALSE,FALSE,FALSE,,TRUE,Normal,,100,1024,1024,1024,1024,2,FALSE,FALSE,FALSE,FALSE,FALSE,0,FALSE,FALSE,FALSE,FALSE,92,7.963,1910,2075,7.969,FALSE,3.985,3.978,0.007,FALSE,FALSE,NA,88.9,88.7,88.8,0,8,0,0,5,6412.1,1603.04,,Idle,0,20,FALSE,5,TRUE,7,Go Home,FALSE,FALSE,FALSE,FALSE,FALSE,FALSE,FALSE,FALSE,FALSE,FALSE,FALSE,FALSE,6.972713004,79.91566064,23.1,127.7,328,TRUE,1,1,FALSE,FALSE,FALSE,FALSE,,TRUE,FALSE,FALSE,Course Lock,49.2,14.3,16.4,Calm,40,,1.12.8,Mavic Mini,1SDCH7G0169R0K,1SFLH6Q0AB03DJ,1SRCH7F014TAHX,1U5X071EXP6C8G,292.5,0.4,55.7,5.596823,2.908022,0,0,Mavic Mini,1SDCH7G0169R0K,1SFLH6Q0AB03DJ,1SRCH7F014TAHX,1U5X071EXP6C8G,DJI Fly,,1.12.8,F973E09C-9A78-961D-2D84-F266DFF51B36,1SDCH7G0169R0K,,,,,,,,,
3/2/2024,37:20.8,0m 56.1s,56.1,6.972772678,79.91568235,0,0,0.3,66,0.2,0,0,0,0,0,0,-0.447388,0,-0.6,-1.1,7.7,7.7,,Auto Takeoff,Auto Fly,Takeoff (App Auto),12,4,TRUE,,Mavic Mini,TRUE,FALSE,,Smart,RC,FALSE,TRUE,FALSE,,,TRUE,,FALSE,FALSE,FALSE,FALSE,FALSE,FALSE,FALSE,FALSE,FALSE,FALSE,0,Follow Yaw,0,0,13.7,13.7,FALSE,FALSE,FALSE,FALSE,FALSE,FALSE,,TRUE,Normal,,100,1024,1024,1024,1024,2,FALSE,FALSE,FALSE,FALSE,FALSE,0,FALSE,FALSE,FALSE,FALSE,92,7.963,1910,2075,7.969,FALSE,3.985,3.978,0.007,FALSE,FALSE,NA,88.9,88.7,88.8,0,8,0,0,5,6412.1,1603.04,,Idle,0,20,FALSE,5,TRUE,7,Go Home,FALSE,FALSE,FALSE,FALSE,FALSE,FALSE,FALSE,FALSE,FALSE,FALSE,FALSE,FALSE,6.972713004,79.91566064,23.1,127.7,328,TRUE,1,1,FALSE,FALSE,FALSE,FALSE,,TRUE,FALSE,FALSE,Course Lock,49.2,14.3,16.4,Calm,40,,1.12.8,Mavic Mini,1SDCH7G0169R0K,1SFLH6Q0AB03DJ,1SRCH7F014TAHX,1U5X071EXP6C8G,292.5,0.4,55.7,5.596823,2.908022,0,0,Mavic Mini,1SDCH7G0169R0K,1SFLH6Q0AB03DJ,1SRCH7F014TAHX,1U5X071EXP6C8G,DJI Fly,,1.12.8,F973E09C-9A78-961D-2D84-F266DFF51B36,1SDCH7G0169R0K,,,,,,,,,
3/2/2024,37:20.9,0m 56.2s,56.2,6.972772787,79.91568237,0,0,0.6,66,0.3,0.223694,0.223694,0.223694,0.223694,0,0,-0.894776,0,1,-0.6,7.3,7.3,7.1,Auto Takeoff,Auto Fly,Takeoff (App Auto),12,4,TRUE,,Mavic Mini,TRUE,FALSE,,Smart,RC,FALSE,TRUE,FALSE,,,TRUE,,FALSE,FALSE,FALSE,FALSE,FALSE,FALSE,FALSE,FALSE,FALSE,FALSE,0,Follow Yaw,0,0,13.6,13.6,FALSE,FALSE,FALSE,FALSE,FALSE,FALSE,,TRUE,Normal,,100,1024,1024,1024,1024,2,FALSE,FALSE,FALSE,FALSE,FALSE,0,FALSE,FALSE,FALSE,FALSE,92,7.963,1910,2075,7.969,FALSE,3.985,3.978,0.007,FALSE,FALSE,NA,88.9,88.7,88.8,0,8,0,0,5,6412.1,1603.04,,Idle,0,20,FALSE,5,TRUE,7,Go Home,FALSE,FALSE,FALSE,FALSE,FALSE,FALSE,FALSE,FALSE,FALSE,FALSE,FALSE,FALSE,6.972713004,79.91566064,23.1,127.7,328,TRUE,1,1,FALSE,FALSE,FALSE,FALSE,,TRUE,FALSE,FALSE,Course Lock,49.2,14.3,16.4,Calm,40,,1.12.8,Mavic Mini,1SDCH7G0169R0K,1SFLH6Q0AB03DJ,1SRCH7F014TAHX,1U5X071EXP6C8G,292.5,0.4,55.7,5.596823,2.908022,0,0,Mavic Mini,1SDCH7G0169R0K,1SFLH6Q0AB03DJ,1SRCH7F014TAHX,1U5X071EXP6C8G,DJI Fly,,1.12.8,F973E09C-9A78-961D-2D84-F266DFF51B36,1SDCH7G0169R0K,,,,,6.972725834,79.91569407,5,,
3/2/2024,37:21.0,0m 56.3s,56.3,6.972772878,79.91568239,0,0,0.6,66,0.3,0.223694,0.223694,0.223694,0.223694,0,0,-1.11847,0,1.6,-0.1,7.2,7.2,7.4,Auto Takeoff,Auto Fly,Takeoff (App Auto),13,4,TRUE,,Mavic Mini,TRUE,FALSE,,Smart,RC,FALSE,TRUE,FALSE,,,TRUE,,FALSE,FALSE,FALSE,FALSE,FALSE,FALSE,FALSE,FALSE,FALSE,FALSE,0,Follow Yaw,0,0,13.4,13.4,FALSE,FALSE,FALSE,FALSE,FALSE,FALSE,,TRUE,Normal,,100,1024,1024,1024,1024,2,FALSE,FALSE,FALSE,FALSE,FALSE,0,FALSE,FALSE,FALSE,FALSE,92,7.963,1910,2075,7.969,FALSE,3.985,3.978,0.007,FALSE,FALSE,NA,88.9,88.7,88.8,0,8,0,0,5,6412.1,1603.04,,Idle,0,20,FALSE,5,TRUE,7,Go Home,FALSE,FALSE,FALSE,FALSE,FALSE,FALSE,FALSE,FALSE,FALSE,FALSE,FALSE,FALSE,6.972713004,79.91566064,23.2,127.7,328,TRUE,1,1,FALSE,FALSE,FALSE,FALSE,,TRUE,FALSE,FALSE,Course Lock,49.2,14.3,16.4,Calm,40,,1.12.8,Mavic Mini,1SDCH7G0169R0K,1SFLH6Q0AB03DJ,1SRCH7F014TAHX,1U5X071EXP6C8G,292.5,0.4,55.7,5.596823,2.908022,0,0,Mavic Mini,1SDCH7G0169R0K,1SFLH6Q0AB03DJ,1SRCH7F014TAHX,1U5X071EXP6C8G,DJI Fly,,1.12.8,F973E09C-9A78-961D-2D84-F266DFF51B36,1SDCH7G0169R0K,,,,,6.972725834,79.91569407,5,,
3/2/2024,37:21.1,0m 56.4s,56.4,6.972772749,79.91568239,0.3,0.3,0.6,66,0.4,0,0.223694,0,0.223694,0,0,-1.342164,0,2.7,-0.6,7.3,7.3,,Auto Takeoff,Auto Fly,Takeoff (App Auto),13,4,TRUE,,Mavic Mini,TRUE,FALSE,,Smart,RC,FALSE,TRUE,FALSE,,,TRUE,,FALSE,FALSE,FALSE,FALSE,FALSE,FALSE,FALSE,FALSE,FALSE,FALSE,0,Follow Yaw,0,0,13.3,13.3,FALSE,FALSE,FALSE,FALSE,FALSE,FALSE,,TRUE,Normal,,100,1024,1024,1024,1024,2,FALSE,FALSE,FALSE,FALSE,FALSE,0,FALSE,FALSE,FALSE,FALSE,92,7.963,1910,2075,7.919,FALSE,3.985,3.978,0.007,FALSE,FALSE,NA,88.9,88.7,88.8,0,0,0,0,5,5037.2,1259.3,,Idle,0,20,FALSE,5,TRUE,7,Go Home,FALSE,FALSE,FALSE,FALSE,FALSE,FALSE,FALSE,FALSE,FALSE,FALSE,FALSE,FALSE,6.972772655,79.91568235,0,127.7,328,TRUE,1,1,FALSE,FALSE,FALSE,FALSE,,TRUE,FALSE,FALSE,Course Lock,49.2,14.3,16.4,Calm,40,,1.12.8,Mavic Mini,1SDCH7G0169R0K,1SFLH6Q0AB03DJ,1SRCH7F014TAHX,1U5X071EXP6C8G,292.5,0.4,55.7,5.596823,2.908022,0,0,Mavic Mini,1SDCH7G0169R0K,1SFLH6Q0AB03DJ,1SRCH7F014TAHX,1U5X071EXP6C8G,DJI Fly,,1.12.8,F973E09C-9A78-961D-2D84-F266DFF51B36,1SDCH7G0169R0K,,,,,6.972725834,79.91569407,5,Home Point updated. RTH altitude adjusted to 15 m! (Code: 120852).,
3/2/2024,37:21.2,0m 56.5s,56.5,6.972772787,79.91568243,0.3,0.3,0.9,66,0.4,0,0.223694,0,0.223694,0,0,-1.565858,0,2.3,-0.8,7.4,7.4,,Auto Takeoff,Auto Fly,Takeoff (App Auto),13,4,TRUE,,Mavic Mini,TRUE,FALSE,,Smart,RC,FALSE,TRUE,FALSE,,,TRUE,,FALSE,FALSE,FALSE,FALSE,FALSE,FALSE,FALSE,FALSE,FALSE,FALSE,0,Follow Yaw,0,0,13.2,13.2,FALSE,FALSE,FALSE,FALSE,FALSE,FALSE,,TRUE,Normal,,100,1024,1024,1024,1024,2,FALSE,FALSE,FALSE,FALSE,FALSE,0,FALSE,FALSE,FALSE,FALSE,92,7.963,1910,2075,7.919,FALSE,3.985,3.978,0.007,FALSE,FALSE,NA,88.9,88.7,88.8,0,0,0,0,5,5037.2,1259.3,,Idle,0,20,FALSE,5,TRUE,7,Go Home,FALSE,FALSE,FALSE,FALSE,FALSE,FALSE,FALSE,FALSE,FALSE,FALSE,FALSE,FALSE,6.972772655,79.91568235,0,127.7,328,TRUE,1,1,FALSE,FALSE,FALSE,FALSE,,TRUE,FALSE,FALSE,Course Lock,49.2,14.3,16.4,Calm,40,,1.12.8,Mavic Mini,1SDCH7G0169R0K,1SFLH6Q0AB03DJ,1SRCH7F014TAHX,1U5X071EXP6C8G,292.5,0.4,55.7,5.596823,2.908022,0,0,Mavic Mini,1SDCH7G0169R0K,1SFLH6Q0AB03DJ,1SRCH7F014TAHX,1U5X071EXP6C8G,DJI Fly,,1.12.8,F973E09C-9A78-961D-2D84-F266DFF51B36,1SDCH7G0169R0K,,,,,6.972725834,79.91569407,5,,
3/2/2024,37:21.3,0m 56.6s,56.6,6.972772841,79.9156825,0.6,0.6,1.3,67,0.4,0,0.223694,0,0.223694,0,0,-1.789552,0,1.5,-0.9,7.5,7.5,,Auto Takeoff,Auto Fly,Takeoff (App Auto),13,4,TRUE,,Mavic Mini,TRUE,FALSE,,Smart,RC,FALSE,TRUE,FALSE,,,TRUE,,FALSE,FALSE,FALSE,FALSE,FALSE,FALSE,FALSE,FALSE,FALSE,FALSE,0,Follow Yaw,0,0,13.2,13.2,FALSE,FALSE,FALSE,FALSE,FALSE,FALSE,,TRUE,Normal,,100,1024,1024,1024,1024,2,FALSE,FALSE,FALSE,FALSE,FALSE,0,FALSE,FALSE,FALSE,FALSE,92,7.724,1909,2075,7.919,FALSE,3.863,3.861,0.007,FALSE,FALSE,NA,89.1,88.7,89,0,0,0,0,5,5037.2,1259.3,,Idle,0,20,FALSE,5,TRUE,7,Go Home,FALSE,FALSE,FALSE,FALSE,FALSE,FALSE,FALSE,FALSE,FALSE,FALSE,FALSE,FALSE,6.972772655,79.91568235,0,127.7,328,TRUE,1,1,FALSE,FALSE,FALSE,FALSE,,TRUE,FALSE,FALSE,Course Lock,49.2,14.3,16.4,Calm,40,,1.12.8,Mavic Mini,1SDCH7G0169R0K,1SFLH6Q0AB03DJ,1SRCH7F014TAHX,1U5X071EXP6C8G,292.5,0.4,55.7,5.596823,2.908022,0,0,Mavic Mini,1SDCH7G0169R0K,1SFLH6Q0AB03DJ,1SRCH7F014TAHX,1U5X071EXP6C8G,DJI Fly,,1.12.8,F973E09C-9A78-961D-2D84-F266DFF51B36,1SDCH7G0169R0K,,,,,6.972725834,79.91569407,5,,
3/2/2024,37:21.3,0m 56.7s,56.7,6.972772924,79.91568256,0.9,0.9,1.6,67,0.5,0,0.223694,0,0.223694,0,0,-2.013246,0,1.2,-0.8,7.5,7.5,,Auto Takeoff,Auto Fly,Takeoff (App Auto),12,4,TRUE,,Mavic Mini,TRUE,FALSE,,Smart,RC,FALSE,TRUE,FALSE,,,TRUE,,FALSE,FALSE,FALSE,FALSE,FALSE,FALSE,FALSE,FALSE,FALSE,FALSE,0,Follow Yaw,0,0,13.1,13.1,FALSE,FALSE,FALSE,FALSE,FALSE,FALSE,,TRUE,Normal,,100,1024,1024,1024,1024,2,FALSE,FALSE,FALSE,FALSE,FALSE,0,FALSE,FALSE,FALSE,FALSE,92,7.724,1909,2075,7.919,FALSE,3.863,3.861,0.007,FALSE,FALSE,NA,89.1,88.7,89,0,0,0,0,5,5037.2,1259.3,,Idle,0,20,FALSE,5,TRUE,7,Go Home,FALSE,FALSE,FALSE,FALSE,FALSE,FALSE,FALSE,FALSE,FALSE,FALSE,FALSE,FALSE,6.972772655,79.91568235,0.1,127.7,328,TRUE,1,1,FALSE,FALSE,FALSE,FALSE,,TRUE,FALSE,FALSE,Course Lock,49.2,14.3,16.4,Calm,40,,1.12.8,Mavic Mini,1SDCH7G0169R0K,1SFLH6Q0AB03DJ,1SRCH7F014TAHX,1U5X071EXP6C8G,292.5,0.4,55.7,5.596823,2.908022,0,0,Mavic Mini,1SDCH7G0169R0K,1SFLH6Q0AB03DJ,1SRCH7F014TAHX,1U5X071EXP6C8G,DJI Fly,,1.12.8,F973E09C-9A78-961D-2D84-F266DFF51B36,1SDCH7G0169R0K,,,,,6.972725834,79.91569407,5,,
3/2/2024,37:21.5,0m 56.8s,56.8,6.972773088,79.9156826,1.3,1.3,1.6,67,0.5,0,0.223694,0,0.223694,0,0,-2.23694,0,0.8,-0.7,7.5,7.5,,Auto Takeoff,Auto Fly,Takeoff (App Auto),12,4,TRUE,,Mavic Mini,TRUE,FALSE,,Smart,RC,FALSE,TRUE,FALSE,,,TRUE,,FALSE,FALSE,FALSE,FALSE,FALSE,FALSE,FALSE,FALSE,FALSE,FALSE,0,Follow Yaw,0,0,13,13,FALSE,FALSE,FALSE,FALSE,FALSE,FALSE,,TRUE,Normal,,100,1024,1024,1024,1024,2,FALSE,FALSE,FALSE,FALSE,FALSE,0,FALSE,FALSE,FALSE,FALSE,92,7.724,1909,2075,7.919,FALSE,3.863,3.861,0.007,FALSE,FALSE,NA,89.1,88.7,89,0,0,0,0,5,5037.2,1259.3,,Idle,0,20,FALSE,5,TRUE,7,Go Home,FALSE,FALSE,FALSE,FALSE,FALSE,FALSE,FALSE,FALSE,FALSE,FALSE,FALSE,FALSE,6.972772655,79.91568235,0.1,127.7,328,TRUE,1,1,FALSE,FALSE,FALSE,FALSE,,TRUE,FALSE,FALSE,Course Lock,49.2,14.3,16.4,Calm,40,,1.12.8,Mavic Mini,1SDCH7G0169R0K,1SFLH6Q0AB03DJ,1SRCH7F014TAHX,1U5X071EXP6C8G,292.5,0.4,55.7,5.596823,2.908022,0,0,Mavic Mini,1SDCH7G0169R0K,1SFLH6Q0AB03DJ,1SRCH7F014TAHX,1U5X071EXP6C8G,DJI Fly,,1.12.8,F973E09C-9A78-961D-2D84-F266DFF51B36,1SDCH7G0169R0K,,,,,6.972725834,79.91569407,5,,
3/2/2024,37:21.7,0m 56.9s,56.9,6.972773388,79.91568264,1.3,1.3,1.9,67,0.6,0,0.223694,0,0.223694,0,0,-2.23694,0,0.8,-0.3,7.5,7.5,,Auto Takeoff,Auto Fly,Takeoff (App Auto),12,4,TRUE,,Mavic Mini,TRUE,FALSE,,Smart,RC,FALSE,TRUE,FALSE,,,TRUE,,FALSE,FALSE,FALSE,FALSE,FALSE,FALSE,FALSE,FALSE,FALSE,FALSE,0,Follow Yaw,0,0,13,13,FALSE,FALSE,FALSE,FALSE,FALSE,FALSE,,TRUE,Normal,,100,1024,1024,1024,1024,2,FALSE,FALSE,FALSE,FALSE,FALSE,0,FALSE,FALSE,FALSE,FALSE,92,7.724,1909,2075,7.919,FALSE,3.863,3.861,0.007,FALSE,FALSE,NA,89.1,88.7,89,0,0,0,0,5,5037.2,1259.3,,Idle,0,20,FALSE,5,TRUE,7,Go Home,FALSE,FALSE,FALSE,FALSE,FALSE,FALSE,FALSE,FALSE,FALSE,FALSE,FALSE,FALSE,6.972772655,79.91568235,0.2,127.7,328,TRUE,1,1,FALSE,FALSE,FALSE,FALSE,,TRUE,FALSE,FALSE,Course Lock,49.2,14.3,16.4,Calm,40,,1.12.8,Mavic Mini,1SDCH7G0169R0K,1SFLH6Q0AB03DJ,1SRCH7F014TAHX,1U5X071EXP6C8G,292.5,0.4,55.7,5.596823,2.908022,0,0,Mavic Mini,1SDCH7G0169R0K,1SFLH6Q0AB03DJ,1SRCH7F014TAHX,1U5X071EXP6C8G,DJI Fly,,1.12.8,F973E09C-9A78-961D-2D84-F266DFF51B36,1SDCH7G0169R0K,,,,,6.972725834,79.91569407,5,,
3/2/2024,37:21.8,0m 57.0s,57,6.972773416,79.91568266,1.6,1.6,2.2,68,0.6,0,0.223694,0,0.223694,0,0,-2.23694,0,0.8,-0.3,7.5,7.5,,Auto Takeoff,Auto Fly,Takeoff (App Auto),12,4,TRUE,,Mavic Mini,TRUE,FALSE,,Smart,RC,FALSE,TRUE,FALSE,,,TRUE,,FALSE,FALSE,FALSE,FALSE,FALSE,FALSE,FALSE,FALSE,FALSE,FALSE,0,Follow Yaw,0,0,12.9,12.9,FALSE,FALSE,FALSE,FALSE,FALSE,FALSE,,TRUE,Normal,,100,1024,1024,1024,1024,2,FALSE,FALSE,FALSE,FALSE,FALSE,0,FALSE,FALSE,FALSE,FALSE,92,7.724,1909,2075,7.919,FALSE,3.863,3.861,0.007,FALSE,FALSE,NA,89.1,88.7,89,0,0,0,0,5,5037.2,1259.3,,Idle,0,20,FALSE,5,TRUE,7,Go Home,FALSE,FALSE,FALSE,FALSE,FALSE,FALSE,FALSE,FALSE,FALSE,FALSE,FALSE,FALSE,6.972772655,79.91568235,0.2,127.7,328,TRUE,1,1,FALSE,FALSE,FALSE,FALSE,,TRUE,FALSE,FALSE,Course Lock,49.2,14.3,16.4,Calm,40,,1.12.8,Mavic Mini,1SDCH7G0169R0K,1SFLH6Q0AB03DJ,1SRCH7F014TAHX,1U5X071EXP6C8G,292.5,0.4,55.7,5.596823,2.908022,0,0,Mavic Mini,1SDCH7G0169R0K,1SFLH6Q0AB03DJ,1SRCH7F014TAHX,1U5X071EXP6C8G,DJI Fly,,1.12.8,F973E09C-9A78-961D-2D84-F266DFF51B36,1SDCH7G0169R0K,,,,,6.972725834,79.91569407,5,,
3/2/2024,37:21.9,0m 57.1s,57.1,6.972773411,79.91568274,1.9,1.9,2.6,68,0.7,0,0.223694,0,0.223694,0,0,-2.23694,0,0.8,-0.7,7.5,7.5,,Auto Takeoff,Auto Fly,,13,4,TRUE,,Mavic Mini,TRUE,FALSE,,Smart,RC,FALSE,TRUE,FALSE,,,TRUE,,FALSE,FALSE,FALSE,FALSE,FALSE,FALSE,FALSE,FALSE,FALSE,FALSE,0,Follow Yaw,0,0,12.9,12.9,FALSE,FALSE,FALSE,FALSE,FALSE,FALSE,,TRUE,Normal,,100,1024,1024,1024,1024,2,FALSE,FALSE,FALSE,FALSE,FALSE,0,FALSE,FALSE,FALSE,FALSE,92,7.724,1909,2075,7.919,FALSE,3.863,3.861,0.007,FALSE,FALSE,NA,89.1,88.7,89,0,0,0,0,5,5037.2,1259.3,,Idle,0,20,FALSE,5,TRUE,7,Go Home,FALSE,FALSE,FALSE,FALSE,FALSE,FALSE,FALSE,FALSE,FALSE,FALSE,FALSE,FALSE,6.972772655,79.91568235,0.3,127.7,328,TRUE,1,1,FALSE,FALSE,FALSE,FALSE,,TRUE,FALSE,FALSE,Course Lock,49.2,14.3,16.4,Calm,40,,1.12.8,Mavic Mini,1SDCH7G0169R0K,1SFLH6Q0AB03DJ,1SRCH7F014TAHX,1U5X071EXP6C8G,292.5,0.4,55.7,5.596823,2.908022,0,0,Mavic Mini,1SDCH7G0169R0K,1SFLH6Q0AB03DJ,1SRCH7F014TAHX,1U5X071EXP6C8G,DJI Fly,,1.12.8,F973E09C-9A78-961D-2D84-F266DFF51B36,1SDCH7G0169R0K,,,,,6.972725834,79.91569407,5,,
3/2/2024,37:21.9,0m 57.2s,57.2,6.972773373,79.91568292,2.2,2.2,2.9,68,0.7,0,0.223694,0,0.223694,0,0,-2.013246,0,1.1,-0.9,7.5,7.5,,Tripod,Auto Fly,,13,4,TRUE,,Mavic Mini,TRUE,FALSE,,Smart,RC,FALSE,TRUE,FALSE,,,TRUE,,FALSE,FALSE,FALSE,FALSE,FALSE,FALSE,FALSE,FALSE,FALSE,FALSE,0,Follow Yaw,0,0,12.8,12.8,FALSE,FALSE,FALSE,FALSE,FALSE,FALSE,,TRUE,Normal,,100,1024,1024,1024,1024,2,FALSE,FALSE,FALSE,FALSE,FALSE,0,FALSE,FALSE,FALSE,FALSE,92,7.724,1909,2075,7.919,FALSE,3.863,3.861,0.007,FALSE,FALSE,NA,89.1,88.7,89,0,0,0,0,5,5037.2,1259.3,,Idle,0,20,FALSE,5,TRUE,7,Go Home,FALSE,FALSE,FALSE,FALSE,FALSE,FALSE,FALSE,FALSE,FALSE,FALSE,FALSE,FALSE,6.972772655,79.91568235,0.3,127.7,328,TRUE,1,1,FALSE,FALSE,FALSE,FALSE,,TRUE,FALSE,FALSE,Course Lock,49.2,14.3,16.4,Calm,40,,1.12.8,Mavic Mini,1SDCH7G0169R0K,1SFLH6Q0AB03DJ,1SRCH7F014TAHX,1U5X071EXP6C8G,292.5,0.4,55.7,5.596823,2.908022,0,0,Mavic Mini,1SDCH7G0169R0K,1SFLH6Q0AB03DJ,1SRCH7F014TAHX,1U5X071EXP6C8G,DJI Fly,,1.12.8,F973E09C-9A78-961D-2D84-F266DFF51B36,1SDCH7G0169R0K,,,,,6.972725834,79.91569407,5,Flight mode changed to Tripod.,
3/2/2024,37:22.0,0m 57.3s,57.3,6.972773143,79.91568319,2.6,2.6,3.2,69,0.9,0,0.223694,0,0.223694,0,0,-1.565858,0,1,-0.7,7.6,7.6,,Tripod,Auto Fly,,13,4,TRUE,,Mavic Mini,TRUE,FALSE,,Smart,RC,FALSE,TRUE,FALSE,,,TRUE,,FALSE,FALSE,FALSE,FALSE,FALSE,FALSE,FALSE,FALSE,FALSE,FALSE,0,Follow Yaw,0,0,12.8,12.8,FALSE,FALSE,FALSE,FALSE,FALSE,FALSE,,TRUE,Normal,,100,1024,1024,1024,1024,2,FALSE,FALSE,FALSE,FALSE,FALSE,0,FALSE,FALSE,FALSE,FALSE,92,7.724,1909,2075,7.919,FALSE,3.863,3.861,0.007,FALSE,FALSE,NA,89.1,88.7,89,0,0,0,0,5,5037.2,1259.3,,Idle,0,20,FALSE,5,TRUE,7,Go Home,FALSE,FALSE,FALSE,FALSE,FALSE,FALSE,FALSE,FALSE,FALSE,FALSE,FALSE,FALSE,6.972772655,79.91568235,0.3,127.7,328,TRUE,1,1,FALSE,FALSE,FALSE,FALSE,,TRUE,FALSE,FALSE,Course Lock,49.2,14.3,16.4,Calm,40,,1.12.8,Mavic Mini,1SDCH7G0169R0K,1SFLH6Q0AB03DJ,1SRCH7F014TAHX,1U5X071EXP6C8G,292.5,0.4,55.7,5.596823,2.908022,0,0,Mavic Mini,1SDCH7G0169R0K,1SFLH6Q0AB03DJ,1SRCH7F014TAHX,1U5X071EXP6C8G,DJI Fly,,1.12.8,F973E09C-9A78-961D-2D84-F266DFF51B36,1SDCH7G0169R0K,,,,,6.972725834,79.91569407,5,,
3/2/2024,37:22.1,0m 57.4s,57.4,6.972773212,79.91568331,2.6,2.6,3.6,69,0.9,0,0.223694,0,0.223694,0,0,-1.11847,0,1.2,-1,7.5,7.5,,Tripod,Auto Fly,,13,4,TRUE,,Mavic Mini,TRUE,FALSE,,Smart,RC,FALSE,TRUE,FALSE,,,TRUE,,FALSE,FALSE,FALSE,FALSE,FALSE,FALSE,FALSE,FALSE,FALSE,FALSE,0,Follow Yaw,0,0,12.8,12.8,FALSE,FALSE,FALSE,FALSE,FALSE,FALSE,,TRUE,Normal,,100,1024,1024,1024,1024,2,FALSE,FALSE,FALSE,FALSE,FALSE,0,FALSE,FALSE,FALSE,FALSE,92,7.724,1909,2075,7.779,FALSE,3.863,3.861,0.007,FALSE,FALSE,NA,89.1,88.7,89,0,0,0,0,5,4390.8,1097.72,,Idle,0,20,FALSE,5,TRUE,7,Go Home,FALSE,FALSE,FALSE,FALSE,FALSE,FALSE,FALSE,FALSE,FALSE,FALSE,FALSE,FALSE,6.972772655,79.91568235,0.4,127.7,328,TRUE,1,1,FALSE,FALSE,FALSE,FALSE,,TRUE,FALSE,FALSE,Course Lock,49.2,14.3,16.4,Calm,40,,1.12.8,Mavic Mini,1SDCH7G0169R0K,1SFLH6Q0AB03DJ,1SRCH7F014TAHX,1U5X071EXP6C8G,292.5,0.4,55.7,5.596823,2.908022,0,0,Mavic Mini,1SDCH7G0169R0K,1SFLH6Q0AB03DJ,1SRCH7F014TAHX,1U5X071EXP6C8G,DJI Fly,,1.12.8,F973E09C-9A78-961D-2D84-F266DFF51B36,1SDCH7G0169R0K,,,,,6.972725834,79.91569407,5,,
3/2/2024,37:22.2,0m 57.5s,57.5,6.97277329,79.91568346,2.9,2.9,3.6,69,1,0,0.223694,0,0.223694,0,0,-0.671082,0,0.9,-1.2,7.5,7.5,,Tripod,Auto Fly,,13,4,TRUE,,Mavic Mini,TRUE,FALSE,,Smart,RC,FALSE,TRUE,FALSE,,,TRUE,,FALSE,FALSE,FALSE,FALSE,FALSE,FALSE,FALSE,FALSE,FALSE,FALSE,0,Follow Yaw,0,0,12.7,12.7,FALSE,FALSE,FALSE,FALSE,FALSE,FALSE,,TRUE,Normal,,100,1024,1024,1024,1024,2,FALSE,FALSE,FALSE,FALSE,FALSE,0,FALSE,FALSE,FALSE,FALSE,92,7.724,1909,2075,7.779,FALSE,3.863,3.861,0.007,FALSE,FALSE,NA,89.1,88.7,89,0,0,0,0,5,4390.8,1097.72,,Idle,0,20,FALSE,5,TRUE,7,Go Home,FALSE,FALSE,FALSE,FALSE,FALSE,FALSE,FALSE,FALSE,FALSE,FALSE,FALSE,FALSE,6.972772655,79.91568235,0.4,127.7,328,TRUE,1,1,FALSE,FALSE,FALSE,FALSE,,TRUE,FALSE,FALSE,Course Lock,49.2,14.3,16.4,Calm,40,,1.12.8,Mavic Mini,1SDCH7G0169R0K,1SFLH6Q0AB03DJ,1SRCH7F014TAHX,1U5X071EXP6C8G,292.5,0.4,55.7,5.596823,2.908022,0,0,Mavic Mini,1SDCH7G0169R0K,1SFLH6Q0AB03DJ,1SRCH7F014TAHX,1U5X071EXP6C8G,DJI Fly,,1.12.8,F973E09C-9A78-961D-2D84-F266DFF51B36,1SDCH7G0169R0K,,,,,6.972725834,79.91569407,5,,
3/2/2024,37:22.3,0m 57.6s,57.6,6.972773398,79.91568364,2.9,2.9,3.6,69,1.1,0,0.223694,0,0.223694,0,0,-0.223694,0,0.7,-1.3,7.5,7.5,,Tripod,Auto Fly,,13,4,TRUE,,Mavic Mini,TRUE,FALSE,,Smart,RC,FALSE,TRUE,FALSE,,,TRUE,,FALSE,FALSE,FALSE,FALSE,FALSE,FALSE,FALSE,FALSE,FALSE,FALSE,0,Follow Yaw,0,0,12.7,12.7,FALSE,FALSE,FALSE,FALSE,FALSE,FALSE,,TRUE,Normal,,100,1024,1024,1024,1024,2,FALSE,FALSE,FALSE,FALSE,FALSE,0,FALSE,FALSE,FALSE,FALSE,92,7.724,1909,2075,7.779,FALSE,3.863,3.861,0.007,FALSE,FALSE,NA,89.1,88.7,89,0,0,0,0,5,4390.8,1097.72,,Idle,0,20,FALSE,5,TRUE,7,Go Home,FALSE,FALSE,FALSE,FALSE,FALSE,FALSE,FALSE,FALSE,FALSE,FALSE,FALSE,FALSE,6.972772655,79.91568235,0.5,127.7,328,TRUE,1,1,FALSE,FALSE,FALSE,FALSE,,TRUE,FALSE,FALSE,Course Lock,49.2,14.3,16.4,Calm,40,,1.12.8,Mavic Mini,1SDCH7G0169R0K,1SFLH6Q0AB03DJ,1SRCH7F014TAHX,1U5X071EXP6C8G,292.5,0.4,55.7,5.596823,2.908022,0,0,Mavic Mini,1SDCH7G0169R0K,1SFLH6Q0AB03DJ,1SRCH7F014TAHX,1U5X071EXP6C8G,DJI Fly,,1.12.8,F973E09C-9A78-961D-2D84-F266DFF51B36,1SDCH7G0169R0K,,,,,6.972725834,79.91569407,5,,
3/2/2024,37:22.4,0m 57.7s,57.7,6.972773683,79.91568388,2.9,2.9,3.9,69,1.2,0,0.223694,0,0.223694,0,0,0,0,0.6,-1.5,7.5,7.5,,Tripod,Auto Fly,,13,4,TRUE,,Mavic Mini,TRUE,FALSE,,Smart,RC,FALSE,TRUE,FALSE,,,TRUE,,FALSE,FALSE,FALSE,FALSE,FALSE,FALSE,FALSE,FALSE,FALSE,FALSE,0,Follow Yaw,0,0,12.7,12.7,FALSE,FALSE,FALSE,FALSE,FALSE,FALSE,,TRUE,Normal,,100,1024,1024,1024,1024,2,FALSE,FALSE,FALSE,FALSE,FALSE,0,FALSE,FALSE,FALSE,FALSE,92,7.724,1909,2075,7.779,FALSE,3.863,3.861,0.007,FALSE,FALSE,NA,89.1,88.7,89,0,0,0,0,5,4390.8,1097.72,,Idle,0,20,FALSE,5,TRUE,7,Go Home,FALSE,FALSE,FALSE,FALSE,FALSE,FALSE,FALSE,FALSE,FALSE,FALSE,FALSE,FALSE,6.972772655,79.91568235,0.6,127.7,328,TRUE,1,1,FALSE,FALSE,FALSE,FALSE,,TRUE,FALSE,FALSE,Course Lock,49.2,14.3,16.4,Calm,40,,1.12.8,Mavic Mini,1SDCH7G0169R0K,1SFLH6Q0AB03DJ,1SRCH7F014TAHX,1U5X071EXP6C8G,292.5,0.4,55.7,5.596823,2.908022,0,0,Mavic Mini,1SDCH7G0169R0K,1SFLH6Q0AB03DJ,1SRCH7F014TAHX,1U5X071EXP6C8G,DJI Fly,,1.12.8,F973E09C-9A78-961D-2D84-F266DFF51B36,1SDCH7G0169R0K,,,,,6.972725834,79.91569407,5,,
3/2/2024,37:22.5,0m 57.8s,57.8,6.972773799,79.9156839,2.9,2.9,3.9,69,1.2,0,0.223694,0,0.223694,0,0,0,0,0.4,-1.3,7.5,7.5,,Tripod,Auto Fly,,13,4,TRUE,,Mavic Mini,TRUE,FALSE,,Smart,RC,FALSE,TRUE,FALSE,,,TRUE,,FALSE,FALSE,FALSE,FALSE,FALSE,FALSE,FALSE,FALSE,FALSE,FALSE,0,Follow Yaw,0,0,12.6,12.6,FALSE,FALSE,FALSE,FALSE,FALSE,FALSE,,TRUE,Normal,,100,1024,1024,1024,1024,2,FALSE,FALSE,FALSE,FALSE,FALSE,0,FALSE,FALSE,FALSE,FALSE,92,7.795,1908,2075,7.779,FALSE,3.9,3.896,0.007,FALSE,FALSE,NA,89.1,88.7,89,0,0,0,0,5,4390.8,1097.72,,Idle,0,20,FALSE,5,TRUE,7,Go Home,FALSE,FALSE,FALSE,FALSE,FALSE,FALSE,FALSE,FALSE,FALSE,FALSE,FALSE,FALSE,6.972772655,79.91568235,0.6,127.7,328,TRUE,1,1,FALSE,FALSE,FALSE,FALSE,,TRUE,FALSE,FALSE,Course Lock,49.2,14.3,16.4,Calm,40,,1.12.8,Mavic Mini,1SDCH7G0169R0K,1SFLH6Q0AB03DJ,1SRCH7F014TAHX,1U5X071EXP6C8G,292.5,0.4,55.7,5.596823,2.908022,0,0,Mavic Mini,1SDCH7G0169R0K,1SFLH6Q0AB03DJ,1SRCH7F014TAHX,1U5X071EXP6C8G,DJI Fly,,1.12.8,F973E09C-9A78-961D-2D84-F266DFF51B36,1SDCH7G0169R0K,,,,,6.972725834,79.91569407,5,,
3/2/2024,37:22.6,0m 57.9s,57.9,6.972773875,79.91568392,2.9,2.9,3.9,69,1.3,0,0.223694,0,0.223694,0,0,0,0,0.3,-1.4,7.5,7.5,,Tripod,Auto Fly,,13,4,TRUE,,Mavic Mini,TRUE,FALSE,,Smart,RC,FALSE,TRUE,FALSE,,,TRUE,,FALSE,FALSE,FALSE,FALSE,FALSE,FALSE,FALSE,FALSE,FALSE,FALSE,0,Follow Yaw,0,0,12.6,12.6,FALSE,FALSE,FALSE,FALSE,FALSE,FALSE,,TRUE,Normal,,100,1024,1024,1051,1024,2,FALSE,FALSE,FALSE,FALSE,FALSE,0,FALSE,FALSE,FALSE,FALSE,92,7.795,1908,2075,7.779,FALSE,3.9,3.896,0.007,FALSE,FALSE,NA,89.1,88.7,89,0,0,0,0,5,4390.8,1097.72,,Idle,0,20,FALSE,5,TRUE,7,Go Home,FALSE,FALSE,FALSE,FALSE,FALSE,FALSE,FALSE,FALSE,FALSE,FALSE,FALSE,FALSE,6.972772655,79.91568235,0.7,127.7,328,TRUE,1,1,FALSE,FALSE,FALSE,FALSE,,TRUE,FALSE,FALSE,Course Lock,49.2,14.3,16.4,Calm,40,,1.12.8,Mavic Mini,1SDCH7G0169R0K,1SFLH6Q0AB03DJ,1SRCH7F014TAHX,1U5X071EXP6C8G,292.5,0.4,55.7,5.596823,2.908022,0,0,Mavic Mini,1SDCH7G0169R0K,1SFLH6Q0AB03DJ,1SRCH7F014TAHX,1U5X071EXP6C8G,DJI Fly,,1.12.8,F973E09C-9A78-961D-2D84-F266DFF51B36,1SDCH7G0169R0K,,,,,6.972725834,79.91569407,5,,
3/2/2024,37:22.7,0m 58.0s,58,6.972773889,79.91568396,2.9,2.9,3.9,69,1.3,0,0.223694,0,0.223694,0,0,0,0,0.3,-1.5,7.8,7.8,,Tripod,Auto Fly,,13,4,TRUE,,Mavic Mini,TRUE,FALSE,,Smart,RC,FALSE,TRUE,FALSE,,,TRUE,,FALSE,FALSE,FALSE,FALSE,FALSE,FALSE,FALSE,FALSE,FALSE,FALSE,0,Follow Yaw,0,0,12.6,12.6,FALSE,FALSE,FALSE,FALSE,FALSE,FALSE,,TRUE,Normal,,100,1024,1024,1051,1024,2,FALSE,FALSE,FALSE,FALSE,FALSE,0,FALSE,FALSE,FALSE,FALSE,92,7.795,1908,2075,7.779,FALSE,3.9,3.896,0.007,FALSE,FALSE,NA,89.1,88.7,89,0,0,0,0,5,4390.8,1097.72,,Idle,0,20,FALSE,5,TRUE,7,Go Home,FALSE,FALSE,FALSE,FALSE,FALSE,FALSE,FALSE,FALSE,FALSE,FALSE,FALSE,FALSE,6.972772655,79.91568235,0.7,127.7,328,TRUE,1,1,FALSE,FALSE,FALSE,FALSE,,TRUE,FALSE,FALSE,Course Lock,49.2,14.3,16.4,Calm,40,,1.12.8,Mavic Mini,1SDCH7G0169R0K,1SFLH6Q0AB03DJ,1SRCH7F014TAHX,1U5X071EXP6C8G,292.5,0.4,55.7,5.596823,2.908022,0,0,Mavic Mini,1SDCH7G0169R0K,1SFLH6Q0AB03DJ,1SRCH7F014TAHX,1U5X071EXP6C8G,DJI Fly,,1.12.8,F973E09C-9A78-961D-2D84-F266DFF51B36,1SDCH7G0169R0K,,,,,6.972725834,79.91569407,5,,
3/2/2024,37:22.8,0m 58.1s,58.1,6.972773573,79.91568378,2.9,2.9,3.9,69,1.4,0,0.223694,0,0.223694,0,0,0,0,0.5,-1.5,8.1,8.1,,Tripod,Auto Fly,,14,4,TRUE,,Mavic Mini,TRUE,FALSE,,Smart,RC,FALSE,TRUE,FALSE,,,TRUE,,FALSE,FALSE,FALSE,FALSE,FALSE,FALSE,FALSE,FALSE,FALSE,FALSE,0,Follow Yaw,0,0,12.6,12.6,FALSE,FALSE,FALSE,FALSE,FALSE,FALSE,,TRUE,Normal,,100,1024,1024,1133,1024,2,FALSE,FALSE,FALSE,FALSE,FALSE,0,FALSE,FALSE,FALSE,FALSE,92,7.795,1908,2075,7.779,FALSE,3.9,3.896,0.007,FALSE,FALSE,NA,89.1,88.7,89,0,0,0,0,5,4390.8,1097.72,,Idle,0,20,FALSE,5,TRUE,7,Go Home,FALSE,FALSE,FALSE,FALSE,FALSE,FALSE,FALSE,FALSE,FALSE,FALSE,FALSE,FALSE,6.972772655,79.91568235,0.6,127.7,328,TRUE,1,1,FALSE,FALSE,FALSE,FALSE,,TRUE,FALSE,FALSE,Course Lock,49.2,14.3,16.4,Calm,40,,1.12.8,Mavic Mini,1SDCH7G0169R0K,1SFLH6Q0AB03DJ,1SRCH7F014TAHX,1U5X071EXP6C8G,292.5,0.4,55.7,5.596823,2.908022,0,0,Mavic Mini,1SDCH7G0169R0K,1SFLH6Q0AB03DJ,1SRCH7F014TAHX,1U5X071EXP6C8G,DJI Fly,,1.12.8,F973E09C-9A78-961D-2D84-F266DFF51B36,1SDCH7G0169R0K,,,,,6.972725834,79.91569407,5,,
3/2/2024,37:22.8,0m 58.2s,58.2,6.972773458,79.91568383,2.9,2.9,3.9,69,1.5,0,0.223694,0,0.223694,0,0,0,0,0.7,-1.5,8.2,8.2,,Tripod,Auto Fly,,14,4,TRUE,,Mavic Mini,TRUE,FALSE,,Smart,RC,FALSE,TRUE,FALSE,,,TRUE,,FALSE,FALSE,FALSE,FALSE,FALSE,FALSE,FALSE,FALSE,FALSE,FALSE,0,Follow Yaw,0,0,12.6,12.6,FALSE,FALSE,FALSE,FALSE,FALSE,FALSE,,TRUE,Normal,,100,1024,1024,1224,1024,2,FALSE,FALSE,FALSE,FALSE,FALSE,0,FALSE,FALSE,FALSE,FALSE,92,7.795,1908,2075,7.779,FALSE,3.9,3.896,0.007,FALSE,FALSE,NA,89.1,88.7,89,0,0,0,0,5,4390.8,1097.72,,Idle,0,20,FALSE,5,TRUE,7,Go Home,FALSE,FALSE,FALSE,FALSE,FALSE,FALSE,FALSE,FALSE,FALSE,FALSE,FALSE,FALSE,6.972772655,79.91568235,0.6,127.7,328,TRUE,1,1,FALSE,FALSE,FALSE,FALSE,,TRUE,FALSE,FALSE,Course Lock,49.2,14.3,16.4,Calm,40,,1.12.8,Mavic Mini,1SDCH7G0169R0K,1SFLH6Q0AB03DJ,1SRCH7F014TAHX,1U5X071EXP6C8G,292.5,0.4,55.7,5.596823,2.908022,0,0,Mavic Mini,1SDCH7G0169R0K,1SFLH6Q0AB03DJ,1SRCH7F014TAHX,1U5X071EXP6C8G,DJI Fly,,1.12.8,F973E09C-9A78-961D-2D84-F266DFF51B36,1SDCH7G0169R0K,,,,,6.972725834,79.91569407,5,,
3/2/2024,37:22.9,0m 58.3s,58.3,6.972773382,79.91568385,2.9,2.9,3.9,69,1.5,0,0.223694,0,0.223694,0,0,0,0,0.8,-1.3,8.2,8.2,,Tripod,Auto Fly,,14,4,TRUE,,Mavic Mini,TRUE,FALSE,,Smart,RC,FALSE,TRUE,FALSE,,,TRUE,,FALSE,FALSE,FALSE,FALSE,FALSE,FALSE,FALSE,FALSE,FALSE,FALSE,0,Follow Yaw,0,0,12.6,12.6,FALSE,FALSE,FALSE,FALSE,FALSE,FALSE,,TRUE,Normal,,100,1024,1024,1257,1024,2,FALSE,FALSE,FALSE,FALSE,FALSE,0,FALSE,FALSE,FALSE,FALSE,92,7.795,1908,2075,7.779,FALSE,3.9,3.896,0.007,FALSE,FALSE,NA,89.1,88.7,89,0,0,0,0,5,4390.8,1097.72,,Idle,0,20,FALSE,5,TRUE,7,Go Home,FALSE,FALSE,FALSE,FALSE,FALSE,FALSE,FALSE,FALSE,FALSE,FALSE,FALSE,FALSE,6.972772655,79.91568235,0.6,127.7,328,TRUE,1,1,FALSE,FALSE,FALSE,FALSE,,TRUE,FALSE,FALSE,Course Lock,49.2,14.3,16.4,Calm,40,,1.12.8,Mavic Mini,1SDCH7G0169R0K,1SFLH6Q0AB03DJ,1SRCH7F014TAHX,1U5X071EXP6C8G,292.5,0.4,55.7,5.596823,2.908022,0,0,Mavic Mini,1SDCH7G0169R0K,1SFLH6Q0AB03DJ,1SRCH7F014TAHX,1U5X071EXP6C8G,DJI Fly,,1.12.8,F973E09C-9A78-961D-2D84-F266DFF51B36,1SDCH7G0169R0K,,,,,6.972725834,79.91569407,5,,
3/2/2024,37:23.1,0m 58.4s,58.4,6.972773393,79.91568384,2.9,2.9,3.9,69,1.5,0,0.223694,0,0.223694,0,0,0,0,0.6,-0.8,8.3,8.3,,Tripod,Auto Fly,,14,4,TRUE,,Mavic Mini,TRUE,FALSE,,Smart,RC,FALSE,TRUE,FALSE,,,TRUE,,FALSE,FALSE,FALSE,FALSE,FALSE,FALSE,FALSE,FALSE,FALSE,FALSE,0,Follow Yaw,0,0,12.6,12.6,FALSE,FALSE,FALSE,FALSE,FALSE,FALSE,,TRUE,Normal,,100,1024,1024,1190,1024,2,FALSE,FALSE,FALSE,FALSE,FALSE,0,FALSE,FALSE,FALSE,FALSE,92,7.795,1908,2075,7.778,FALSE,3.9,3.896,0.007,FALSE,FALSE,NA,89.1,88.7,89,0,0,0,0,5,4814.9,1203.74,,Idle,0,20,FALSE,5,TRUE,7,Go Home,FALSE,FALSE,FALSE,FALSE,FALSE,FALSE,FALSE,FALSE,FALSE,FALSE,FALSE,FALSE,6.972772655,79.91568235,0.6,127.7,328,TRUE,1,1,FALSE,FALSE,FALSE,FALSE,,TRUE,FALSE,FALSE,Course Lock,49.2,14.3,16.4,Calm,40,,1.12.8,Mavic Mini,1SDCH7G0169R0K,1SFLH6Q0AB03DJ,1SRCH7F014TAHX,1U5X071EXP6C8G,292.5,0.4,55.7,5.596823,2.908022,0,0,Mavic Mini,1SDCH7G0169R0K,1SFLH6Q0AB03DJ,1SRCH7F014TAHX,1U5X071EXP6C8G,DJI Fly,,1.12.8,F973E09C-9A78-961D-2D84-F266DFF51B36,1SDCH7G0169R0K,,,,,6.972725834,79.91569407,5,,
3/2/2024,37:23.3,0m 58.5s,58.5,6.972773421,79.91568379,2.9,2.9,3.9,69,1.5,0,0.223694,0,0.223694,0,0,-0.223694,0,0.8,-0.8,8.5,8.5,,Tripod,Auto Fly,,14,4,TRUE,,Mavic Mini,TRUE,FALSE,,Smart,RC,FALSE,TRUE,FALSE,,,TRUE,,FALSE,FALSE,FALSE,FALSE,FALSE,FALSE,FALSE,FALSE,FALSE,FALSE,0,Follow Yaw,0,0,12.6,12.6,FALSE,FALSE,FALSE,FALSE,FALSE,FALSE,,TRUE,Normal,,100,1024,1024,1125,1024,2,FALSE,FALSE,FALSE,FALSE,FALSE,0,FALSE,FALSE,FALSE,FALSE,92,7.795,1908,2075,7.778,FALSE,3.9,3.896,0.007,FALSE,FALSE,NA,89.1,88.7,89,0,0,0,0,5,4814.9,1203.74,,Idle,0,20,FALSE,5,TRUE,7,Go Home,FALSE,FALSE,FALSE,FALSE,FALSE,FALSE,FALSE,FALSE,FALSE,FALSE,FALSE,FALSE,6.972772655,79.91568235,0.5,127.7,328,TRUE,1,1,FALSE,FALSE,FALSE,FALSE,,TRUE,FALSE,FALSE,Course Lock,49.2,14.3,16.4,Calm,40,,1.12.8,Mavic Mini,1SDCH7G0169R0K,1SFLH6Q0AB03DJ,1SRCH7F014TAHX,1U5X071EXP6C8G,292.5,0.4,55.7,5.596823,2.908022,0,0,Mavic Mini,1SDCH7G0169R0K,1SFLH6Q0AB03DJ,1SRCH7F014TAHX,1U5X071EXP6C8G,DJI Fly,,1.12.8,F973E09C-9A78-961D-2D84-F266DFF51B36,1SDCH7G0169R0K,,,,,6.972725834,79.91569407,5,,
3/2/2024,37:23.3,0m 58.6s,58.6,6.972773589,79.91568346,2.9,2.9,3.9,69,1.6,0,0.223694,0,0.223694,0,0,-0.447388,0,1.4,-0.9,8.5,8.5,,Tripod,Auto Fly,,14,4,TRUE,,Mavic Mini,TRUE,FALSE,,Smart,RC,FALSE,TRUE,FALSE,,,TRUE,,FALSE,FALSE,FALSE,FALSE,FALSE,FALSE,FALSE,FALSE,FALSE,FALSE,0,Follow Yaw,0,0,12.6,12.6,FALSE,FALSE,FALSE,FALSE,FALSE,FALSE,,TRUE,Normal,,100,1024,1024,1032,1024,2,FALSE,FALSE,FALSE,FALSE,FALSE,0,FALSE,FALSE,FALSE,FALSE,92,7.795,1908,2075,7.778,FALSE,3.9,3.896,0.007,FALSE,FALSE,NA,89.1,88.7,89,0,0,0,0,5,4814.9,1203.74,,Idle,0,20,FALSE,5,TRUE,7,Go Home,FALSE,FALSE,FALSE,FALSE,FALSE,FALSE,FALSE,FALSE,FALSE,FALSE,FALSE,FALSE,6.972772655,79.91568235,0.5,127.7,328,TRUE,1,1,FALSE,FALSE,FALSE,FALSE,,TRUE,FALSE,FALSE,Course Lock,49.2,14.3,16.4,Calm,40,,1.12.8,Mavic Mini,1SDCH7G0169R0K,1SFLH6Q0AB03DJ,1SRCH7F014TAHX,1U5X071EXP6C8G,292.5,0.4,55.7,5.596823,2.908022,0,0,Mavic Mini,1SDCH7G0169R0K,1SFLH6Q0AB03DJ,1SRCH7F014TAHX,1U5X071EXP6C8G,DJI Fly,,1.12.8,F973E09C-9A78-961D-2D84-F266DFF51B36,1SDCH7G0169R0K,,,,,6.972725834,79.91569407,5,,
3/2/2024,37:23.4,0m 58.7s,58.7,6.972773632,79.91568335,2.9,2.9,3.9,69,1.7,0,0.223694,0,0.223694,0,0,-0.447388,0,1.5,-1,8.5,8.5,,Tripod,Auto Fly,,14,4,TRUE,,Mavic Mini,TRUE,FALSE,,Smart,RC,FALSE,TRUE,FALSE,,,TRUE,,FALSE,FALSE,FALSE,FALSE,FALSE,FALSE,FALSE,FALSE,FALSE,FALSE,0,Follow Yaw,0,0,12.6,12.6,FALSE,FALSE,FALSE,FALSE,FALSE,FALSE,,TRUE,Normal,,100,1024,1024,1044,1024,2,FALSE,FALSE,FALSE,FALSE,FALSE,0,FALSE,FALSE,FALSE,FALSE,92,7.795,1908,2075,7.778,FALSE,3.9,3.896,0.007,FALSE,FALSE,NA,89.1,88.7,89,0,0,0,0,5,4814.9,1203.74,,Idle,0,20,FALSE,5,TRUE,7,Go Home,FALSE,FALSE,FALSE,FALSE,FALSE,FALSE,FALSE,FALSE,FALSE,FALSE,FALSE,FALSE,6.972772655,79.91568235,0.5,127.7,328,TRUE,1,1,FALSE,FALSE,FALSE,FALSE,,TRUE,FALSE,FALSE,Course Lock,49.2,14.3,16.4,Calm,40,,1.12.8,Mavic Mini,1SDCH7G0169R0K,1SFLH6Q0AB03DJ,1SRCH7F014TAHX,1U5X071EXP6C8G,292.5,0.4,55.7,5.596823,2.908022,0,0,Mavic Mini,1SDCH7G0169R0K,1SFLH6Q0AB03DJ,1SRCH7F014TAHX,1U5X071EXP6C8G,DJI Fly,,1.12.8,F973E09C-9A78-961D-2D84-F266DFF51B36,1SDCH7G0169R0K,,,,,6.972725834,79.91569407,5,,
3/2/2024,37:23.6,0m 58.8s,58.8,6.972773635,79.91568324,2.9,2.9,4.2,69,1.7,0,0.223694,0,0.223694,0,0,-0.447388,0,1.4,-1.1,8.5,8.5,,Tripod,Auto Fly,,14,4,TRUE,,Mavic Mini,TRUE,FALSE,,Smart,RC,FALSE,TRUE,FALSE,,,TRUE,,FALSE,FALSE,FALSE,FALSE,FALSE,FALSE,FALSE,FALSE,FALSE,FALSE,0,Follow Yaw,0,0,12.6,12.6,FALSE,FALSE,FALSE,FALSE,FALSE,FALSE,,TRUE,Normal,,100,1024,1024,1177,1024,2,FALSE,FALSE,FALSE,FALSE,FALSE,0,FALSE,FALSE,FALSE,FALSE,92,7.795,1908,2075,7.778,FALSE,3.9,3.896,0.007,FALSE,FALSE,NA,89.1,88.7,89,0,0,0,0,5,4814.9,1203.74,,Idle,0,20,FALSE,5,TRUE,7,Go Home,FALSE,FALSE,FALSE,FALSE,FALSE,FALSE,FALSE,FALSE,FALSE,FALSE,FALSE,FALSE,6.972772655,79.91568235,0.4,127.7,328,TRUE,1,1,FALSE,FALSE,FALSE,FALSE,,TRUE,FALSE,FALSE,Course Lock,49.2,14.3,16.4,Calm,40,,1.12.8,Mavic Mini,1SDCH7G0169R0K,1SFLH6Q0AB03DJ,1SRCH7F014TAHX,1U5X071EXP6C8G,292.5,0.4,55.7,5.596823,2.908022,0,0,Mavic Mini,1SDCH7G0169R0K,1SFLH6Q0AB03DJ,1SRCH7F014TAHX,1U5X071EXP6C8G,DJI Fly,,1.12.8,F973E09C-9A78-961D-2D84-F266DFF51B36,1SDCH7G0169R0K,,,,,6.972725834,79.91569407,5,,
3/2/2024,37:23.6,0m 58.9s,58.9,6.97277365,79.91568316,3.2,3.2,4.2,69,1.8,0,0.223694,0,0.223694,0,0,-0.223694,0,1.4,-1.4,8.5,8.5,,Tripod,Auto Fly,,14,4,TRUE,,Mavic Mini,TRUE,FALSE,,Smart,RC,FALSE,TRUE,FALSE,,,TRUE,,FALSE,FALSE,FALSE,FALSE,FALSE,FALSE,FALSE,FALSE,FALSE,FALSE,0,Follow Yaw,0,0,12.6,12.6,FALSE,FALSE,FALSE,FALSE,FALSE,FALSE,,TRUE,Normal,,100,1024,1024,1177,1024,2,FALSE,FALSE,FALSE,FALSE,FALSE,0,FALSE,FALSE,FALSE,FALSE,92,7.76,1907,2075,7.778,FALSE,3.88,3.88,0.007,FALSE,FALSE,NA,89.1,88.7,89,0,0,0,0,5,4814.9,1203.74,,Idle,0,20,FALSE,5,TRUE,7,Go Home,FALSE,FALSE,FALSE,FALSE,FALSE,FALSE,FALSE,FALSE,FALSE,FALSE,FALSE,FALSE,6.972772655,79.91568235,0.4,127.7,328,TRUE,1,1,FALSE,FALSE,FALSE,FALSE,,TRUE,FALSE,FALSE,Course Lock,49.2,14.3,16.4,Calm,40,,1.12.8,Mavic Mini,1SDCH7G0169R0K,1SFLH6Q0AB03DJ,1SRCH7F014TAHX,1U5X071EXP6C8G,292.5,0.4,55.7,5.596823,2.908022,0,0,Mavic Mini,1SDCH7G0169R0K,1SFLH6Q0AB03DJ,1SRCH7F014TAHX,1U5X071EXP6C8G,DJI Fly,,1.12.8,F973E09C-9A78-961D-2D84-F266DFF51B36,1SDCH7G0169R0K,,,,,6.972725834,79.91569407,5,,
3/2/2024,37:23.6,0m 59.0s,59,6.972773802,79.91568303,3.2,3.2,4.2,69,1.8,0,0.223694,0,0.223694,0,0,0,0,1.3,-1.4,8.5,8.5,,Tripod,Auto Fly,,14,4,TRUE,,Mavic Mini,TRUE,FALSE,,Smart,RC,FALSE,TRUE,FALSE,,,TRUE,,FALSE,FALSE,FALSE,FALSE,FALSE,FALSE,FALSE,FALSE,FALSE,FALSE,0,Follow Yaw,0,0,12.6,12.6,FALSE,FALSE,FALSE,FALSE,FALSE,FALSE,,TRUE,Normal,,100,1024,1024,1223,1024,2,FALSE,FALSE,FALSE,FALSE,FALSE,0,FALSE,FALSE,FALSE,FALSE,92,7.76,1907,2075,7.778,FALSE,3.88,3.88,0.007,FALSE,FALSE,NA,89.1,88.7,89,0,0,0,0,5,4814.9,1203.74,,Idle,0,20,FALSE,5,TRUE,7,Go Home,FALSE,FALSE,FALSE,FALSE,FALSE,FALSE,FALSE,FALSE,FALSE,FALSE,FALSE,FALSE,6.972772655,79.91568235,0.4,127.7,328,TRUE,1,1,FALSE,FALSE,FALSE,FALSE,,TRUE,FALSE,FALSE,Course Lock,49.2,14.3,16.4,Calm,40,,1.12.8,Mavic Mini,1SDCH7G0169R0K,1SFLH6Q0AB03DJ,1SRCH7F014TAHX,1U5X071EXP6C8G,292.5,0.4,55.7,5.596823,2.908022,0,0,Mavic Mini,1SDCH7G0169R0K,1SFLH6Q0AB03DJ,1SRCH7F014TAHX,1U5X071EXP6C8G,DJI Fly,,1.12.8,F973E09C-9A78-961D-2D84-F266DFF51B36,1SDCH7G0169R0K,,,,,6.972725834,79.91569407,5,,
3/2/2024,37:23.8,0m 59.1s,59.1,6.972773847,79.91568299,3.2,3.2,4.2,69,1.8,0,0.223694,0,0.223694,0,0,0,0,1.3,-1.4,8.4,8.4,,Tripod,Auto Fly,,14,4,TRUE,,Mavic Mini,TRUE,FALSE,,Smart,RC,FALSE,TRUE,FALSE,,,TRUE,,FALSE,FALSE,FALSE,FALSE,FALSE,FALSE,FALSE,FALSE,FALSE,FALSE,0,Follow Yaw,0,0,12.6,12.6,FALSE,FALSE,FALSE,FALSE,FALSE,FALSE,,TRUE,Normal,,100,1024,1024,1224,1024,2,FALSE,FALSE,FALSE,FALSE,FALSE,0,FALSE,FALSE,FALSE,FALSE,92,7.76,1907,2075,7.778,FALSE,3.88,3.88,0.007,FALSE,FALSE,NA,89.1,88.7,89,0,0,0,0,5,4814.9,1203.74,,Idle,0,20,FALSE,5,TRUE,7,Go Home,FALSE,FALSE,FALSE,FALSE,FALSE,FALSE,FALSE,FALSE,FALSE,FALSE,FALSE,FALSE,6.972772655,79.91568235,0.4,127.7,328,TRUE,1,1,FALSE,FALSE,FALSE,FALSE,,TRUE,FALSE,FALSE,Course Lock,49.2,14.3,16.4,Calm,40,,1.12.8,Mavic Mini,1SDCH7G0169R0K,1SFLH6Q0AB03DJ,1SRCH7F014TAHX,1U5X071EXP6C8G,292.5,0.4,55.7,5.596823,2.908022,0,0,Mavic Mini,1SDCH7G0169R0K,1SFLH6Q0AB03DJ,1SRCH7F014TAHX,1U5X071EXP6C8G,DJI Fly,,1.12.8,F973E09C-9A78-961D-2D84-F266DFF51B36,1SDCH7G0169R0K,,,,,6.972725834,79.91569407,5,,
3/2/2024,37:23.9,0m 59.2s,59.2,6.972773874,79.91568294,3.2,3.2,4.2,69,1.9,0,0.223694,0,0.223694,0,0,0,0,0.9,-1.1,8.4,8.4,,Tripod,Auto Fly,,14,4,TRUE,,Mavic Mini,TRUE,FALSE,,Smart,RC,FALSE,TRUE,FALSE,,,TRUE,,FALSE,FALSE,FALSE,FALSE,FALSE,FALSE,FALSE,FALSE,FALSE,FALSE,0,Follow Yaw,0,0,12.6,12.6,FALSE,FALSE,FALSE,FALSE,FALSE,FALSE,,TRUE,Normal,,100,1024,1024,1236,1024,2,FALSE,FALSE,FALSE,FALSE,FALSE,0,FALSE,FALSE,FALSE,FALSE,92,7.76,1907,2075,7.778,FALSE,3.88,3.88,0.007,FALSE,FALSE,NA,89.1,88.7,89,0,0,0,0,5,4814.9,1203.74,,Idle,0,20,FALSE,5,TRUE,7,Go Home,FALSE,FALSE,FALSE,FALSE,FALSE,FALSE,FALSE,FALSE,FALSE,FALSE,FALSE,FALSE,6.972772655,79.91568235,0.4,127.7,328,TRUE,1,1,FALSE,FALSE,FALSE,FALSE,,TRUE,FALSE,FALSE,Course Lock,49.2,14.3,16.4,Calm,40,,1.12.8,Mavic Mini,1SDCH7G0169R0K,1SFLH6Q0AB03DJ,1SRCH7F014TAHX,1U5X071EXP6C8G,292.5,0.4,55.7,5.596823,2.908022,0,0,Mavic Mini,1SDCH7G0169R0K,1SFLH6Q0AB03DJ,1SRCH7F014TAHX,1U5X071EXP6C8G,DJI Fly,,1.12.8,F973E09C-9A78-961D-2D84-F266DFF51B36,1SDCH7G0169R0K,,,,,6.972725834,79.91569407,5,,
3/2/2024,37:24.0,0m 59.3s,59.3,6.972773887,79.91568287,3.2,3.2,4.2,69,1.9,0,0.223694,0,0.223694,0,0,-0.223694,0,0.9,-1.1,8.4,8.4,,Tripod,Auto Fly,,14,4,TRUE,,Mavic Mini,TRUE,FALSE,,Smart,RC,FALSE,TRUE,FALSE,,,TRUE,,FALSE,FALSE,FALSE,FALSE,FALSE,FALSE,FALSE,FALSE,FALSE,FALSE,0,Follow Yaw,0,0,12.6,12.6,FALSE,FALSE,FALSE,FALSE,FALSE,FALSE,,TRUE,Normal,,100,1024,1024,1234,1024,2,FALSE,FALSE,FALSE,FALSE,FALSE,0,FALSE,FALSE,FALSE,FALSE,92,7.76,1907,2075,7.778,FALSE,3.88,3.88,0.007,FALSE,FALSE,NA,89.1,88.7,89,0,0,0,0,5,4814.9,1203.74,,Idle,0,20,FALSE,5,TRUE,7,Go Home,FALSE,FALSE,FALSE,FALSE,FALSE,FALSE,FALSE,FALSE,FALSE,FALSE,FALSE,FALSE,6.972772655,79.91568235,0.4,127.7,328,TRUE,1,1,FALSE,FALSE,FALSE,FALSE,,TRUE,FALSE,FALSE,Course Lock,49.2,14.3,16.4,Calm,40,,1.12.8,Mavic Mini,1SDCH7G0169R0K,1SFLH6Q0AB03DJ,1SRCH7F014TAHX,1U5X071EXP6C8G,292.5,0.4,55.7,5.596823,2.908022,0,0,Mavic Mini,1SDCH7G0169R0K,1SFLH6Q0AB03DJ,1SRCH7F014TAHX,1U5X071EXP6C8G,DJI Fly,,1.12.8,F973E09C-9A78-961D-2D84-F266DFF51B36,1SDCH7G0169R0K,,,,,6.972725834,79.91569407,5,,
3/2/2024,37:24.1,0m 59.4s,59.4,6.97277383,79.91568273,3.2,3.2,4.5,69,2,0,0.223694,0,0.223694,0,0,-0.447388,0,1,-1.2,8.4,8.4,,Tripod,Auto Fly,,14,4,TRUE,,Mavic Mini,TRUE,FALSE,,Smart,RC,FALSE,TRUE,FALSE,,,TRUE,,FALSE,FALSE,FALSE,FALSE,FALSE,FALSE,FALSE,FALSE,FALSE,FALSE,0,Follow Yaw,0,0,12.6,12.6,FALSE,FALSE,FALSE,FALSE,FALSE,FALSE,,TRUE,Normal,,100,1024,1024,1217,1024,2,FALSE,FALSE,FALSE,FALSE,FALSE,0,FALSE,FALSE,FALSE,FALSE,92,7.76,1907,2075,7.743,FALSE,3.88,3.88,0.007,FALSE,FALSE,NA,89.1,88.7,89,0,0,0,0,5,6153.6,1538.4,,Idle,0,20,FALSE,5,TRUE,7,Go Home,FALSE,FALSE,FALSE,FALSE,FALSE,FALSE,FALSE,FALSE,FALSE,FALSE,FALSE,FALSE,6.972772655,79.91568235,0.4,127.7,328,TRUE,1,1,FALSE,FALSE,FALSE,FALSE,,TRUE,FALSE,FALSE,Course Lock,49.2,14.3,16.4,Calm,40,,1.12.8,Mavic Mini,1SDCH7G0169R0K,1SFLH6Q0AB03DJ,1SRCH7F014TAHX,1U5X071EXP6C8G,292.5,0.4,55.7,5.596823,2.908022,0,0,Mavic Mini,1SDCH7G0169R0K,1SFLH6Q0AB03DJ,1SRCH7F014TAHX,1U5X071EXP6C8G,DJI Fly,,1.12.8,F973E09C-9A78-961D-2D84-F266DFF51B36,1SDCH7G0169R0K,,,,,6.972725834,79.91569407,5,,
