CUSTOM.date [local],CUSTOM.updateTime [local],OSD.flyTime,OSD.flyTime [s],OSD.latitude,OSD.longitude,OSD.height [ft],OSD.heightMax [ft],OSD.vpsHeight [ft],OSD.altitude [ft],OSD.mileage [ft],OSD.hSpeed [MPH],OSD.hSpeedMax [MPH],OSD.xSpeed [MPH],OSD.xSpeedMax [MPH],OSD.ySpeed [MPH],OSD.ySpeedMax [MPH],OSD.zSpeed [MPH],OSD.zSpeedMax [MPH],OSD.pitch,OSD.roll,OSD.yaw,OSD.yaw [360],OSD.directionOfTravel,OSD.flycState,OSD.flycCommand,OSD.flightAction,OSD.gpsNum,OSD.gpsLevel,OSD.isGPSUsed,OSD.nonGPSCause,OSD.droneType,OSD.isSwaveWork,OSD.waveError,OSD.goHomeStatus,OSD.batteryType,OSD.ctrlDevice,OSD.isOnGround,OSD.isMotorOn,OSD.isMotorBlocked,OSD.motorStartFailedCause,OSD.motorFailReason,OSD.isImuPreheated,OSD.imuInitFailReason,OSD.isAcceletorOverRange,OSD.isBarometerDeadInAir,OSD.isCompassError,OSD.isGoHomeHeightModified,OSD.canIOCWork,OSD.isNotEnoughForce,OSD.isOutOfLimit,OSD.isPropellerCatapult,OSD.isVibrating,OSD.isVisionUsed,OSD.voltageWarning,GIMBAL.mode,GIMBAL.pitch,GIMBAL.roll,GIMBAL.yaw,GIMBAL.yaw [360],GIMBAL.isPitchAtLimit,GIMBAL.isRollAtLimit,GIMBAL.isYawAtLimit,GIMBAL.isStuck,CAMERA.isPhoto,CAMERA.isVideo,CAMERA.filename,CAMERA.sdCardIsInserted,CAMERA.sdCardState,RC.downlinkSignal,RC.uplinkSignal,RC.aileron,RC.elevator,RC.throttle,RC.rudder,RC.mode,RC.goHomeDepressed,RC.recordDepressed,RC.shutterDepressed,RC.playbackDepressed,RC.wheelDepressed,RC.wheelOffset,RC.custom1Depressed,RC.custom2Depressed,RC.custom3Depressed,RC.custom4Depressed,BATTERY.chargeLevel,BATTERY.currentPV [V],BATTERY.currentCapacity [mAh],BATTERY.fullCapacity [mAh],BATTERY.voltage [V],BATTERY.isCellVoltageEstimated,BATTERY.cellVoltage1 [V],BATTERY.cellVoltage2 [V],BATTERY.maxCellVoltageDeviation,BATTERY.isCellVoltageDeviationHigh,BATTERY.isVoltageLow,BATTERY.current [A],BATTERY.temperature [F],BATTERY.minTemperature [F],BATTERY.maxTemperature [F],BATTERY.usefulTime [s],BATTERY.goHomeTime [s],BATTERY.landTime [s],BATTERY.goHomeBattery,BATTERY.landBattery,BATTERY.safeFlyRadius,BATTERY.volumeConsume,BATTERY.status,BATTERY.goHomeStatus,BATTERY.goHomeCountdown,BATTERY.lowWarning,BATTERY.lowWarningGoHome,BATTERY.seriousLowWarning,BATTERY.seriousLowWarningLanding,BATTERY.timesCharged,MC.failSafeAction,MC.isObstacleAvoidanceEnabled,MC.isCollisionAvoidanceEnabled,MC.isRthObstacleAvoidanceEnabled,MC.isBraking,MC.isAvoidingObstacle,MC.isAvoidingActiveObstacle,MC.isAscentLimitedByObstacle,MC.isLandingConfirmationNeeded,MC.atLowAltitudeLimit,MC.atDistanceLimit,MC.atAirportAltitudeLimit,MC.atAirportBoundary,HOME.latitude,HOME.longitude,HOME.distance [ft],HOME.height [ft],HOME.heightLimit [ft],HOME.isHomeRecord,HOME.goHomeMode,HOME.aircraftHeadDirection,HOME.isDynamicHomePointEnabled,HOME.isReachedLimitDistance,HOME.isReachedLimitHeight,HOME.isCompassCalibrating,HOME.compassCalibrationState,HOME.isMultipleFlightModeEnabled,HOME.isBeginnerMode,HOME.isIOCEnabled,HOME.iocMode,HOME.goHomeHeight [ft],HOME.courseLockAngle,HOME.forceLandingHeight [ft],HOME.wind,HOME.dataRecorderFileIndex,RECOVER.appType,RECOVER.appVersion,RECOVER.aircraftName,RECOVER.aircraftSerial,RECOVER.cameraSerial,RECOVER.rcSerial,RECOVER.batterySerial,DETAILS.totalTime [s],DETAILS.totalDistance [ft],DETAILS.maxHeight [ft],DETAILS.maxHorizontalSpeed [MPH],DETAILS.maxVerticalSpeed [MPH],DETAILS.photoNum,DETAILS.videoTime [s],DETAILS.aircraftName,DETAILS.aircraftSerial,DETAILS.cameraSerial,DETAILS.rcSerial,DETAILS.batterySerial,DETAILS.appName,DETAILS.appType,DETAILS.appVersion,DETAILS.guid,SERIAL.flightController,SERIAL.camera,SERIAL.gimbal,SERIAL.rc,SERIAL.battery,APPGPS.latitude,APPGPS.longitude,APPGPS.accuracy,APP.tip,APP.warning
2/13/2024,30:05.4,4m 53.3s,293.3,6.974700937,79.91481246,0,0,,68,0,0,0,0,0,0,0,0,0,0.3,-0.6,165,165,,Tripod,Auto Landing,Takeoff (RC Assisted),11,4,TRUE,,Mavic Mini,FALSE,FALSE,,Smart,RC,TRUE,TRUE,FALSE,,,TRUE,,FALSE,FALSE,FALSE,FALSE,FALSE,FALSE,FALSE,FALSE,FALSE,FALSE,0,Follow Yaw,-1.4,0,166.6,166.6,FALSE,FALSE,FALSE,FALSE,FALSE,FALSE,,TRUE,Normal,,,1024,1024,1024,1024,2,FALSE,FALSE,FALSE,FALSE,FALSE,0,FALSE,FALSE,FALSE,FALSE,76,7.875,1558,2054,7.875,TRUE,3.938,3.938,,FALSE,FALSE,NA,107.4,107.4,107.4,,,,,,,,,Idle,,,TRUE,,FALSE,8,Go Home,FALSE,FALSE,FALSE,FALSE,FALSE,FALSE,FALSE,FALSE,FALSE,FALSE,FALSE,FALSE,,,,,,FALSE,,,FALSE,FALSE,FALSE,FALSE,,FALSE,FALSE,FALSE,,,,,Calm,,,1.12.8,Mavic Mini,1SDCH7G0169R0K,1SFLH6Q0AB03DJ,1SRCH7F014TAHX,1U5X071EXP5ZJG,97.9,0.1,9.8,4.523987,3.35541,0,0,Mavic Mini,1SDCH7G0169R0K,1SFLH6Q0AB03DJ,1SRCH7F014TAHX,1U5X071EXP5ZJG,DJI Fly,,1.12.8,4CAC23FE-809E-8155-77BE-5DA74EF42E7C,1SDCH7G0169R0K,,,,,,,,Flight mode changed to Tripod.,
2/13/2024,25:12.3,4m 53.4s,293.4,6.974700959,79.91481246,0,0,,68,0,0,0,0,0,0,0,0,0,0.3,-0.6,165,165,,Starting Motors,Auto Landing,Takeoff (RC Assisted),11,4,TRUE,,Mavic Mini,FALSE,FALSE,,Smart,RC,TRUE,TRUE,FALSE,,,TRUE,,FALSE,FALSE,FALSE,FALSE,FALSE,FALSE,FALSE,FALSE,FALSE,FALSE,0,Follow Yaw,-1.4,0,166.6,166.6,FALSE,FALSE,FALSE,FALSE,FALSE,FALSE,,TRUE,Normal,,,1024,1024,1024,1024,2,FALSE,FALSE,FALSE,FALSE,FALSE,0,FALSE,FALSE,FALSE,FALSE,76,7.875,1558,2054,7.875,TRUE,3.938,3.938,,FALSE,FALSE,NA,107.4,107.4,107.4,,,,,,,,,Idle,,,TRUE,,FALSE,8,Go Home,FALSE,FALSE,FALSE,FALSE,FALSE,FALSE,FALSE,FALSE,FALSE,FALSE,FALSE,FALSE,,,,,,FALSE,,,FALSE,FALSE,FALSE,FALSE,,FALSE,FALSE,FALSE,,,,,Calm,,,1.12.8,Mavic Mini,1SDCH7G0169R0K,1SFLH6Q0AB03DJ,1SRCH7F014TAHX,1U5X071EXP5ZJG,97.9,0.1,9.8,4.523987,3.35541,0,0,Mavic Mini,1SDCH7G0169R0K,1SFLH6Q0AB03DJ,1SRCH7F014TAHX,1U5X071EXP5ZJG,DJI Fly,,1.12.8,4CAC23FE-809E-8155-77BE-5DA74EF42E7C,1SDCH7G0169R0K,,,,,,,,Flight mode changed to Starting Motors.,
2/13/2024,25:12.4,4m 53.5s,293.5,6.974701009,79.91481254,0,0,0.3,68,0,0,0,0,0,0,0,0,0,0.3,-0.6,165,165,,Starting Motors,Auto Landing,Takeoff (RC Assisted),10,4,TRUE,,Mavic Mini,TRUE,FALSE,,Smart,RC,TRUE,TRUE,FALSE,,,TRUE,,FALSE,FALSE,FALSE,FALSE,FALSE,FALSE,FALSE,FALSE,FALSE,FALSE,0,Follow Yaw,-1.4,0,166.6,166.6,FALSE,FALSE,FALSE,FALSE,FALSE,FALSE,,TRUE,Normal,,100,1024,1024,1024,1024,2,FALSE,FALSE,FALSE,FALSE,FALSE,0,FALSE,FALSE,FALSE,FALSE,76,7.875,1558,2054,7.875,TRUE,3.938,3.938,,FALSE,FALSE,NA,107.4,107.4,107.4,,,,,,,,,Idle,,,TRUE,,FALSE,8,Go Home,FALSE,FALSE,FALSE,FALSE,FALSE,FALSE,FALSE,FALSE,FALSE,FALSE,FALSE,FALSE,,,,,,FALSE,,,FALSE,FALSE,FALSE,FALSE,,FALSE,FALSE,FALSE,,,,,Calm,,,1.12.8,Mavic Mini,1SDCH7G0169R0K,1SFLH6Q0AB03DJ,1SRCH7F014TAHX,1U5X071EXP5ZJG,97.9,0.1,9.8,4.523987,3.35541,0,0,Mavic Mini,1SDCH7G0169R0K,1SFLH6Q0AB03DJ,1SRCH7F014TAHX,1U5X071EXP5ZJG,DJI Fly,,1.12.8,4CAC23FE-809E-8155-77BE-5DA74EF42E7C,1SDCH7G0169R0K,,,,,,,,,
2/13/2024,25:12.5,4m 53.6s,293.6,6.974701037,79.91481257,0,0,0.3,68,0,0,0,0,0,0,0,0,0,0.4,-0.6,165,165,,Starting Motors,Auto Landing,Takeoff (RC Assisted),10,4,TRUE,,Mavic Mini,TRUE,FALSE,,Smart,RC,TRUE,TRUE,FALSE,,,TRUE,,FALSE,FALSE,FALSE,FALSE,FALSE,FALSE,FALSE,FALSE,FALSE,FALSE,0,Follow Yaw,-1.4,0,166.6,166.6,FALSE,FALSE,FALSE,FALSE,FALSE,FALSE,,TRUE,Normal,,100,1024,1024,1024,1024,2,FALSE,FALSE,FALSE,FALSE,FALSE,0,FALSE,FALSE,FALSE,FALSE,76,7.875,1558,2054,7.875,TRUE,3.938,3.938,,FALSE,FALSE,NA,107.4,107.4,107.4,,,,,,,,,Idle,,,TRUE,,FALSE,8,Go Home,FALSE,FALSE,FALSE,FALSE,FALSE,FALSE,FALSE,FALSE,FALSE,FALSE,FALSE,FALSE,,,,,,FALSE,,,FALSE,FALSE,FALSE,FALSE,,FALSE,FALSE,FALSE,,,,,Calm,,,1.12.8,Mavic Mini,1SDCH7G0169R0K,1SFLH6Q0AB03DJ,1SRCH7F014TAHX,1U5X071EXP5ZJG,97.9,0.1,9.8,4.523987,3.35541,0,0,Mavic Mini,1SDCH7G0169R0K,1SFLH6Q0AB03DJ,1SRCH7F014TAHX,1U5X071EXP5ZJG,DJI Fly,,1.12.8,4CAC23FE-809E-8155-77BE-5DA74EF42E7C,1SDCH7G0169R0K,,,,,,,,,
2/13/2024,25:12.6,4m 53.7s,293.7,6.974701049,79.91481258,0,0,0.3,68,0,0,0,0,0,0,0,0,0,0.3,-0.6,165,165,,Starting Motors,Auto Landing,Takeoff (RC Assisted),10,4,TRUE,,Mavic Mini,TRUE,FALSE,,Smart,RC,TRUE,TRUE,FALSE,,,TRUE,,FALSE,FALSE,FALSE,FALSE,FALSE,FALSE,FALSE,FALSE,FALSE,FALSE,0,Follow Yaw,-1.4,0,166.6,166.6,FALSE,FALSE,FALSE,FALSE,FALSE,FALSE,,TRUE,Normal,,100,1024,1024,1024,1024,2,FALSE,FALSE,FALSE,FALSE,FALSE,0,FALSE,FALSE,FALSE,FALSE,76,7.872,1558,2054,7.872,FALSE,3.937,3.935,0.002,FALSE,FALSE,NA,107.4,107.4,107.4,,,,,,,,,Idle,,,TRUE,,FALSE,8,Go Home,FALSE,FALSE,FALSE,FALSE,FALSE,FALSE,FALSE,FALSE,FALSE,FALSE,FALSE,FALSE,,,,,,FALSE,,,FALSE,FALSE,FALSE,FALSE,,FALSE,FALSE,FALSE,,,,,Calm,,,1.12.8,Mavic Mini,1SDCH7G0169R0K,1SFLH6Q0AB03DJ,1SRCH7F014TAHX,1U5X071EXP5ZJG,97.9,0.1,9.8,4.523987,3.35541,0,0,Mavic Mini,1SDCH7G0169R0K,1SFLH6Q0AB03DJ,1SRCH7F014TAHX,1U5X071EXP5ZJG,DJI Fly,,1.12.8,4CAC23FE-809E-8155-77BE-5DA74EF42E7C,1SDCH7G0169R0K,,,,,,,,,
2/13/2024,25:12.7,4m 53.8s,293.8,6.974701052,79.91481259,0,0,0.3,68,0,0,0,0,0,0,0,0,0,0.4,-0.6,165.1,165.1,,Starting Motors,Auto Landing,Takeoff (RC Assisted),10,4,TRUE,,Mavic Mini,TRUE,FALSE,,Smart,RC,TRUE,TRUE,FALSE,,,TRUE,,FALSE,FALSE,FALSE,FALSE,FALSE,FALSE,FALSE,FALSE,FALSE,FALSE,0,Follow Yaw,-1.4,0,166.6,166.6,FALSE,FALSE,FALSE,FALSE,FALSE,FALSE,,TRUE,Normal,,100,1024,1024,1024,1024,2,FALSE,FALSE,FALSE,FALSE,FALSE,0,FALSE,FALSE,FALSE,FALSE,76,7.872,1558,2054,7.872,FALSE,3.937,3.935,0.002,FALSE,FALSE,NA,107.4,107.4,107.4,,,,,,,,,Idle,,,TRUE,,FALSE,8,Go Home,FALSE,FALSE,FALSE,FALSE,FALSE,FALSE,FALSE,FALSE,FALSE,FALSE,FALSE,FALSE,,,,,,FALSE,,,FALSE,FALSE,FALSE,FALSE,,FALSE,FALSE,FALSE,,,,,Calm,,,1.12.8,Mavic Mini,1SDCH7G0169R0K,1SFLH6Q0AB03DJ,1SRCH7F014TAHX,1U5X071EXP5ZJG,97.9,0.1,9.8,4.523987,3.35541,0,0,Mavic Mini,1SDCH7G0169R0K,1SFLH6Q0AB03DJ,1SRCH7F014TAHX,1U5X071EXP5ZJG,DJI Fly,,1.12.8,4CAC23FE-809E-8155-77BE-5DA74EF42E7C,1SDCH7G0169R0K,,,,,,,,,
2/13/2024,25:12.8,4m 53.9s,293.9,6.974701001,79.91481259,0,0,0.3,68,0,0,0,0,0,0,0,0,0,0.3,-0.6,164.7,164.7,,Starting Motors,Auto Landing,Takeoff (RC Assisted),10,4,TRUE,,Mavic Mini,TRUE,FALSE,,Smart,RC,TRUE,TRUE,FALSE,,,TRUE,,FALSE,FALSE,FALSE,FALSE,FALSE,FALSE,FALSE,FALSE,FALSE,FALSE,0,Follow Yaw,-1.4,0,166.6,166.6,FALSE,FALSE,FALSE,FALSE,FALSE,FALSE,,TRUE,Normal,,100,1024,1024,1024,1024,2,FALSE,FALSE,FALSE,FALSE,FALSE,0,FALSE,FALSE,FALSE,FALSE,76,7.872,1558,2054,7.872,FALSE,3.937,3.935,0.002,FALSE,FALSE,NA,107.4,107.4,107.4,,,,,,,,,Idle,,,TRUE,,FALSE,8,Go Home,FALSE,FALSE,FALSE,FALSE,FALSE,FALSE,FALSE,FALSE,FALSE,FALSE,FALSE,FALSE,,,,,,FALSE,,,FALSE,FALSE,FALSE,FALSE,,FALSE,FALSE,FALSE,,,,,Calm,,,1.12.8,Mavic Mini,1SDCH7G0169R0K,1SFLH6Q0AB03DJ,1SRCH7F014TAHX,1U5X071EXP5ZJG,97.9,0.1,9.8,4.523987,3.35541,0,0,Mavic Mini,1SDCH7G0169R0K,1SFLH6Q0AB03DJ,1SRCH7F014TAHX,1U5X071EXP5ZJG,DJI Fly,,1.12.8,4CAC23FE-809E-8155-77BE-5DA74EF42E7C,1SDCH7G0169R0K,,,,,,,,,
2/13/2024,25:12.9,4m 54.0s,294,6.974700995,79.91481259,0,0,0.3,68,0,0,0,0,0,0,0,0,0,0.3,-0.5,164.9,164.9,,Starting Motors,Auto Landing,Takeoff (RC Assisted),10,4,TRUE,,Mavic Mini,TRUE,FALSE,,Smart,RC,TRUE,TRUE,FALSE,,,TRUE,,FALSE,FALSE,FALSE,FALSE,FALSE,FALSE,FALSE,FALSE,FALSE,FALSE,0,Follow Yaw,-1.4,0,166.6,166.6,FALSE,FALSE,FALSE,FALSE,FALSE,FALSE,,TRUE,Normal,,100,1024,1024,1024,1024,2,FALSE,FALSE,FALSE,FALSE,FALSE,0,FALSE,FALSE,FALSE,FALSE,76,7.872,1558,2054,7.872,FALSE,3.937,3.935,0.002,FALSE,FALSE,NA,107.4,107.4,107.4,,,,,,,,,Idle,,,TRUE,,FALSE,8,Go Home,FALSE,FALSE,FALSE,FALSE,FALSE,FALSE,FALSE,FALSE,FALSE,FALSE,FALSE,FALSE,,,,,,FALSE,,,FALSE,FALSE,FALSE,FALSE,,FALSE,FALSE,FALSE,,,,,Calm,,,1.12.8,Mavic Mini,1SDCH7G0169R0K,1SFLH6Q0AB03DJ,1SRCH7F014TAHX,1U5X071EXP5ZJG,97.9,0.1,9.8,4.523987,3.35541,0,0,Mavic Mini,1SDCH7G0169R0K,1SFLH6Q0AB03DJ,1SRCH7F014TAHX,1U5X071EXP5ZJG,DJI Fly,,1.12.8,4CAC23FE-809E-8155-77BE-5DA74EF42E7C,1SDCH7G0169R0K,,,,,,,,,
2/13/2024,25:12.9,4m 54.1s,294.1,6.974700989,79.91481259,0,0,0.3,68,0,0,0,0,0,0,0,0,0,0.3,-0.6,164.9,164.9,,Starting Motors,Auto Landing,Takeoff (RC Assisted),10,4,TRUE,,Mavic Mini,TRUE,FALSE,,Smart,RC,TRUE,TRUE,FALSE,,,TRUE,,FALSE,FALSE,FALSE,FALSE,FALSE,FALSE,FALSE,FALSE,FALSE,FALSE,0,Follow Yaw,-1.4,0,166.6,166.6,FALSE,FALSE,FALSE,FALSE,FALSE,FALSE,,TRUE,Normal,,100,1024,1024,1024,1024,2,FALSE,FALSE,FALSE,FALSE,FALSE,0,FALSE,FALSE,FALSE,FALSE,76,7.872,1558,2054,7.872,FALSE,3.937,3.935,0.002,FALSE,FALSE,NA,107.4,107.4,107.4,,,,,,,,,Idle,,,TRUE,,FALSE,8,Go Home,FALSE,FALSE,FALSE,FALSE,FALSE,FALSE,FALSE,FALSE,FALSE,FALSE,FALSE,FALSE,,,,,,FALSE,,,FALSE,FALSE,FALSE,FALSE,,FALSE,FALSE,FALSE,,,,,Calm,,,1.12.8,Mavic Mini,1SDCH7G0169R0K,1SFLH6Q0AB03DJ,1SRCH7F014TAHX,1U5X071EXP5ZJG,97.9,0.1,9.8,4.523987,3.35541,0,0,Mavic Mini,1SDCH7G0169R0K,1SFLH6Q0AB03DJ,1SRCH7F014TAHX,1U5X071EXP5ZJG,DJI Fly,,1.12.8,4CAC23FE-809E-8155-77BE-5DA74EF42E7C,1SDCH7G0169R0K,,,,,,,,,
2/13/2024,25:13.1,4m 54.2s,294.2,6.974701011,79.91481261,0,0,0.3,68,0,0,0,0,0,0,0,0,0,0.3,-0.6,165,165,,Starting Motors,Auto Landing,Takeoff (RC Assisted),10,4,TRUE,,Mavic Mini,TRUE,FALSE,,Smart,RC,TRUE,TRUE,FALSE,,,TRUE,,FALSE,FALSE,FALSE,FALSE,FALSE,FALSE,FALSE,FALSE,FALSE,FALSE,0,Follow Yaw,-1.4,0,166.6,166.6,FALSE,FALSE,FALSE,FALSE,FALSE,FALSE,,TRUE,Normal,,100,1024,1024,1024,1024,2,FALSE,FALSE,FALSE,FALSE,FALSE,0,FALSE,FALSE,FALSE,FALSE,76,7.872,1558,2054,7.869,FALSE,3.937,3.935,0.002,FALSE,FALSE,NA,107.4,107.4,107.4,0,5,0,0,5,2559.5,639.87,,Idle,0,20,FALSE,5,TRUE,8,Go Home,FALSE,FALSE,FALSE,FALSE,FALSE,FALSE,FALSE,FALSE,FALSE,FALSE,FALSE,FALSE,6.97468995,79.91482314,5.5,113.7,328,TRUE,1,1,FALSE,FALSE,FALSE,FALSE,,TRUE,FALSE,FALSE,Course Lock,246,303.7,16.4,Calm,23,,1.12.8,Mavic Mini,1SDCH7G0169R0K,1SFLH6Q0AB03DJ,1SRCH7F014TAHX,1U5X071EXP5ZJG,97.9,0.1,9.8,4.523987,3.35541,0,0,Mavic Mini,1SDCH7G0169R0K,1SFLH6Q0AB03DJ,1SRCH7F014TAHX,1U5X071EXP5ZJG,DJI Fly,,1.12.8,4CAC23FE-809E-8155-77BE-5DA74EF42E7C,1SDCH7G0169R0K,,,,,,,,Data Recorder File Index is 23.; Set Return to Home (RTH) altitude to 75 m (246 ft).; Set maximum flight altitude to 100 m (328 ft).,
2/13/2024,25:13.1,4m 54.3s,294.3,6.974701078,79.91481272,0,0,0.3,68,0.1,0,0,0,0,0,0,0,0,0.2,-0.5,164.9,164.9,,Starting Motors,Auto Landing,Takeoff (RC Assisted),10,4,TRUE,,Mavic Mini,TRUE,FALSE,,Smart,RC,TRUE,TRUE,FALSE,,,TRUE,,FALSE,FALSE,FALSE,FALSE,FALSE,FALSE,FALSE,FALSE,FALSE,FALSE,0,Follow Yaw,-1.4,0,166.6,166.6,FALSE,FALSE,FALSE,FALSE,FALSE,FALSE,,TRUE,Normal,,100,1024,1024,1024,1024,2,FALSE,FALSE,FALSE,FALSE,FALSE,0,FALSE,FALSE,FALSE,FALSE,76,7.872,1558,2054,7.869,FALSE,3.937,3.935,0.002,FALSE,FALSE,NA,107.4,107.4,107.4,0,5,0,0,5,2559.5,639.87,,Idle,0,20,FALSE,5,TRUE,8,Go Home,FALSE,FALSE,FALSE,FALSE,FALSE,FALSE,FALSE,FALSE,FALSE,FALSE,FALSE,FALSE,6.97468995,79.91482314,5.5,113.7,328,TRUE,1,1,FALSE,FALSE,FALSE,FALSE,,TRUE,FALSE,FALSE,Course Lock,246,303.7,16.4,Calm,23,,1.12.8,Mavic Mini,1SDCH7G0169R0K,1SFLH6Q0AB03DJ,1SRCH7F014TAHX,1U5X071EXP5ZJG,97.9,0.1,9.8,4.523987,3.35541,0,0,Mavic Mini,1SDCH7G0169R0K,1SFLH6Q0AB03DJ,1SRCH7F014TAHX,1U5X071EXP5ZJG,DJI Fly,,1.12.8,4CAC23FE-809E-8155-77BE-5DA74EF42E7C,1SDCH7G0169R0K,,,,,,,,,
2/13/2024,25:13.2,4m 54.4s,294.4,6.974701106,79.9148128,0,0,0.3,68,0.1,0,0,0,0,0,0,0,0,0.3,-0.6,165,165,,Starting Motors,Auto Landing,Takeoff (RC Assisted),10,4,TRUE,,Mavic Mini,TRUE,FALSE,,Smart,RC,TRUE,TRUE,FALSE,,,TRUE,,FALSE,FALSE,FALSE,FALSE,FALSE,FALSE,FALSE,FALSE,FALSE,FALSE,0,Follow Yaw,-1.4,0,166.6,166.6,FALSE,FALSE,FALSE,FALSE,FALSE,FALSE,,TRUE,Normal,,100,1024,1024,1024,1024,2,FALSE,FALSE,FALSE,FALSE,FALSE,0,FALSE,FALSE,FALSE,FALSE,76,7.872,1558,2054,7.869,FALSE,3.937,3.935,0.002,FALSE,FALSE,NA,107.4,107.4,107.4,0,5,0,0,5,2559.5,639.87,,Idle,0,20,FALSE,5,TRUE,8,Go Home,FALSE,FALSE,FALSE,FALSE,FALSE,FALSE,FALSE,FALSE,FALSE,FALSE,FALSE,FALSE,6.97468995,79.91482314,5.5,113.7,328,TRUE,1,1,FALSE,FALSE,FALSE,FALSE,,TRUE,FALSE,FALSE,Course Lock,246,303.7,16.4,Calm,23,,1.12.8,Mavic Mini,1SDCH7G0169R0K,1SFLH6Q0AB03DJ,1SRCH7F014TAHX,1U5X071EXP5ZJG,97.9,0.1,9.8,4.523987,3.35541,0,0,Mavic Mini,1SDCH7G0169R0K,1SFLH6Q0AB03DJ,1SRCH7F014TAHX,1U5X071EXP5ZJG,DJI Fly,,1.12.8,4CAC23FE-809E-8155-77BE-5DA74EF42E7C,1SDCH7G0169R0K,,,,,,,,,
2/13/2024,25:13.3,4m 54.5s,294.5,6.974701119,79.91481292,0,0,0.3,68,0.2,0,0,0,0,0,0,0,0,0.3,-0.5,164.9,164.9,,Manual Takeoff,Auto Landing,Takeoff (RC Assisted),10,4,TRUE,,Mavic Mini,TRUE,FALSE,,Smart,RC,TRUE,TRUE,FALSE,,,TRUE,,FALSE,FALSE,FALSE,FALSE,FALSE,FALSE,FALSE,FALSE,FALSE,FALSE,0,Follow Yaw,-1.4,0,166.6,166.6,FALSE,FALSE,FALSE,FALSE,FALSE,FALSE,,TRUE,Normal,,100,1024,1024,1024,1024,2,FALSE,FALSE,FALSE,FALSE,FALSE,0,FALSE,FALSE,FALSE,FALSE,76,7.872,1558,2054,7.869,FALSE,3.937,3.935,0.002,FALSE,FALSE,NA,107.4,107.4,107.4,0,5,0,0,5,2559.5,639.87,,Idle,0,20,FALSE,5,TRUE,8,Go Home,FALSE,FALSE,FALSE,FALSE,FALSE,FALSE,FALSE,FALSE,FALSE,FALSE,FALSE,FALSE,6.97468995,79.91482314,5.5,113.7,328,TRUE,1,1,FALSE,FALSE,FALSE,FALSE,,TRUE,FALSE,FALSE,Course Lock,246,303.7,16.4,Calm,23,,1.12.8,Mavic Mini,1SDCH7G0169R0K,1SFLH6Q0AB03DJ,1SRCH7F014TAHX,1U5X071EXP5ZJG,97.9,0.1,9.8,4.523987,3.35541,0,0,Mavic Mini,1SDCH7G0169R0K,1SFLH6Q0AB03DJ,1SRCH7F014TAHX,1U5X071EXP5ZJG,DJI Fly,,1.12.8,4CAC23FE-809E-8155-77BE-5DA74EF42E7C,1SDCH7G0169R0K,,,,,,,,Flight mode changed to Manual Takeoff.,
2/13/2024,25:13.4,4m 54.6s,294.6,6.974701153,79.914813,0,0,0.3,68,0.2,0,0,0,0,0,0,0,0,0.3,-0.6,165,165,,Manual Takeoff,Auto Landing,Takeoff (RC Assisted),10,4,TRUE,,Mavic Mini,TRUE,FALSE,,Smart,RC,TRUE,TRUE,FALSE,,,TRUE,,FALSE,FALSE,FALSE,FALSE,FALSE,FALSE,FALSE,FALSE,FALSE,FALSE,0,Follow Yaw,-1.4,0,166.6,166.6,FALSE,FALSE,FALSE,FALSE,FALSE,FALSE,,TRUE,Normal,,100,1024,1024,1024,1024,2,FALSE,FALSE,FALSE,FALSE,FALSE,0,FALSE,FALSE,FALSE,FALSE,76,7.872,1558,2054,7.869,FALSE,3.937,3.935,0.002,FALSE,FALSE,NA,107.4,107.4,107.4,0,5,0,0,5,2559.5,639.87,,Idle,0,20,FALSE,5,TRUE,8,Go Home,FALSE,FALSE,FALSE,FALSE,FALSE,FALSE,FALSE,FALSE,FALSE,FALSE,FALSE,FALSE,6.97468995,79.91482314,5.4,113.7,328,TRUE,1,1,FALSE,FALSE,FALSE,FALSE,,TRUE,FALSE,FALSE,Course Lock,246,303.7,16.4,Calm,23,,1.12.8,Mavic Mini,1SDCH7G0169R0K,1SFLH6Q0AB03DJ,1SRCH7F014TAHX,1U5X071EXP5ZJG,97.9,0.1,9.8,4.523987,3.35541,0,0,Mavic Mini,1SDCH7G0169R0K,1SFLH6Q0AB03DJ,1SRCH7F014TAHX,1U5X071EXP5ZJG,DJI Fly,,1.12.8,4CAC23FE-809E-8155-77BE-5DA74EF42E7C,1SDCH7G0169R0K,,,,,,,,,
2/13/2024,25:13.5,4m 54.7s,294.7,6.974701207,79.91481303,0,0,0.3,68,0.2,0,0,0,0,0,0,0,0,0.3,-0.5,165,165,,Manual Takeoff,Auto Landing,Takeoff (RC Assisted),10,4,TRUE,,Mavic Mini,TRUE,FALSE,,Smart,RC,TRUE,TRUE,FALSE,,,TRUE,,FALSE,FALSE,FALSE,FALSE,FALSE,FALSE,FALSE,FALSE,FALSE,FALSE,0,Follow Yaw,-1.4,0,166.5,166.5,FALSE,FALSE,FALSE,FALSE,FALSE,FALSE,,TRUE,Normal,,100,1024,1024,1024,1024,2,FALSE,FALSE,FALSE,FALSE,FALSE,0,FALSE,FALSE,FALSE,FALSE,76,7.872,1558,2054,7.869,FALSE,3.937,3.935,0.002,FALSE,FALSE,NA,107.4,107.4,107.4,0,5,0,0,5,2559.5,639.87,,Idle,0,20,FALSE,5,TRUE,8,Go Home,FALSE,FALSE,FALSE,FALSE,FALSE,FALSE,FALSE,FALSE,FALSE,FALSE,FALSE,FALSE,6.97468995,79.91482314,5.5,113.7,328,TRUE,1,1,FALSE,FALSE,FALSE,FALSE,,TRUE,FALSE,FALSE,Course Lock,246,303.7,16.4,Calm,23,,1.12.8,Mavic Mini,1SDCH7G0169R0K,1SFLH6Q0AB03DJ,1SRCH7F014TAHX,1U5X071EXP5ZJG,97.9,0.1,9.8,4.523987,3.35541,0,0,Mavic Mini,1SDCH7G0169R0K,1SFLH6Q0AB03DJ,1SRCH7F014TAHX,1U5X071EXP5ZJG,DJI Fly,,1.12.8,4CAC23FE-809E-8155-77BE-5DA74EF42E7C,1SDCH7G0169R0K,,,,,,,,,
2/13/2024,25:13.6,4m 54.8s,294.8,6.974701288,79.91481314,0,0,0.3,68,0.3,0,0,0,0,0,0,0,0,0.3,-0.6,165,165,,Manual Takeoff,Auto Landing,Takeoff (RC Assisted),10,4,TRUE,,Mavic Mini,TRUE,FALSE,,Smart,RC,TRUE,TRUE,FALSE,,,TRUE,,FALSE,FALSE,FALSE,FALSE,FALSE,FALSE,FALSE,FALSE,FALSE,FALSE,0,Follow Yaw,-1.4,0,166.5,166.5,FALSE,FALSE,FALSE,FALSE,FALSE,FALSE,,TRUE,Normal,,100,1024,1024,1024,1024,2,FALSE,FALSE,FALSE,FALSE,FALSE,0,FALSE,FALSE,FALSE,FALSE,76,7.853,1557,2054,7.869,FALSE,3.927,3.926,0.002,FALSE,FALSE,NA,107.6,107.4,107.6,0,5,0,0,5,2559.5,639.87,,Idle,0,20,FALSE,5,TRUE,8,Go Home,FALSE,FALSE,FALSE,FALSE,FALSE,FALSE,FALSE,FALSE,FALSE,FALSE,FALSE,FALSE,6.97468995,79.91482314,5.4,113.7,328,TRUE,1,1,FALSE,FALSE,FALSE,FALSE,,TRUE,FALSE,FALSE,Course Lock,246,303.7,16.4,Calm,23,,1.12.8,Mavic Mini,1SDCH7G0169R0K,1SFLH6Q0AB03DJ,1SRCH7F014TAHX,1U5X071EXP5ZJG,97.9,0.1,9.8,4.523987,3.35541,0,0,Mavic Mini,1SDCH7G0169R0K,1SFLH6Q0AB03DJ,1SRCH7F014TAHX,1U5X071EXP5ZJG,DJI Fly,,1.12.8,4CAC23FE-809E-8155-77BE-5DA74EF42E7C,1SDCH7G0169R0K,,,,,,,,,
2/13/2024,25:13.8,4m 54.9s,294.9,6.974701305,79.91481312,0,0,0.3,68,0.3,0,0,0,0,0,0,0,0,0.3,-0.6,165,165,,Manual Takeoff,Auto Landing,Takeoff (RC Assisted),10,4,TRUE,,Mavic Mini,TRUE,FALSE,,Smart,RC,TRUE,TRUE,FALSE,,,TRUE,,FALSE,FALSE,FALSE,FALSE,FALSE,FALSE,FALSE,FALSE,FALSE,FALSE,0,Follow Yaw,-1.4,0,166.5,166.5,FALSE,FALSE,FALSE,FALSE,FALSE,FALSE,,TRUE,Normal,,100,1024,1024,1024,1024,2,FALSE,FALSE,FALSE,FALSE,FALSE,0,FALSE,FALSE,FALSE,FALSE,76,7.853,1557,2054,7.869,FALSE,3.927,3.926,0.002,FALSE,FALSE,NA,107.6,107.4,107.6,0,5,0,0,5,2559.5,639.87,,Idle,0,20,FALSE,5,TRUE,8,Go Home,FALSE,FALSE,FALSE,FALSE,FALSE,FALSE,FALSE,FALSE,FALSE,FALSE,FALSE,FALSE,6.97468995,79.91482314,5.5,113.7,328,TRUE,1,1,FALSE,FALSE,FALSE,FALSE,,TRUE,FALSE,FALSE,Course Lock,246,303.7,16.4,Calm,23,,1.12.8,Mavic Mini,1SDCH7G0169R0K,1SFLH6Q0AB03DJ,1SRCH7F014TAHX,1U5X071EXP5ZJG,97.9,0.1,9.8,4.523987,3.35541,0,0,Mavic Mini,1SDCH7G0169R0K,1SFLH6Q0AB03DJ,1SRCH7F014TAHX,1U5X071EXP5ZJG,DJI Fly,,1.12.8,4CAC23FE-809E-8155-77BE-5DA74EF42E7C,1SDCH7G0169R0K,,,,,,,,,
2/13/2024,25:13.9,4m 55.0s,295,6.974701312,79.91481313,0,0,0.3,68,0.3,0,0,0,0,0,0,0,0,0.3,-0.6,165,165,,Manual Takeoff,Auto Landing,Takeoff (RC Assisted),10,4,TRUE,,Mavic Mini,TRUE,FALSE,,Smart,RC,TRUE,TRUE,FALSE,,,TRUE,,FALSE,FALSE,FALSE,FALSE,FALSE,FALSE,FALSE,FALSE,FALSE,FALSE,0,Follow Yaw,-1.4,0,166.6,166.6,FALSE,FALSE,FALSE,FALSE,FALSE,FALSE,,TRUE,Normal,,100,1024,1024,1024,1024,2,FALSE,FALSE,FALSE,FALSE,FALSE,0,FALSE,FALSE,FALSE,FALSE,76,7.853,1557,2054,7.869,FALSE,3.927,3.926,0.002,FALSE,FALSE,NA,107.6,107.4,107.6,0,5,0,0,5,2559.5,639.87,,Idle,0,20,FALSE,5,TRUE,8,Go Home,FALSE,FALSE,FALSE,FALSE,FALSE,FALSE,FALSE,FALSE,FALSE,FALSE,FALSE,FALSE,6.97468995,79.91482314,5.5,113.7,328,TRUE,1,1,FALSE,FALSE,FALSE,FALSE,,TRUE,FALSE,FALSE,Course Lock,246,303.7,16.4,Calm,23,,1.12.8,Mavic Mini,1SDCH7G0169R0K,1SFLH6Q0AB03DJ,1SRCH7F014TAHX,1U5X071EXP5ZJG,97.9,0.1,9.8,4.523987,3.35541,0,0,Mavic Mini,1SDCH7G0169R0K,1SFLH6Q0AB03DJ,1SRCH7F014TAHX,1U5X071EXP5ZJG,DJI Fly,,1.12.8,4CAC23FE-809E-8155-77BE-5DA74EF42E7C,1SDCH7G0169R0K,,,,,,,,,
2/13/2024,25:14.0,4m 55.1s,295.1,6.974701313,79.91481317,0,0,0.3,68,0.3,0,0,0,0,0,0,0,0,0.3,-0.5,165,165,,Manual Takeoff,Auto Landing,Takeoff (RC Assisted),10,4,TRUE,,Mavic Mini,TRUE,FALSE,,Smart,RC,TRUE,TRUE,FALSE,,,TRUE,,FALSE,FALSE,FALSE,FALSE,FALSE,FALSE,FALSE,FALSE,FALSE,FALSE,0,Follow Yaw,-1.4,0,166.6,166.6,FALSE,FALSE,FALSE,FALSE,FALSE,FALSE,,TRUE,Normal,,100,1024,1024,1024,1024,2,FALSE,FALSE,FALSE,FALSE,FALSE,0,FALSE,FALSE,FALSE,FALSE,76,7.853,1557,2054,7.869,FALSE,3.927,3.926,0.002,FALSE,FALSE,NA,107.6,107.4,107.6,0,5,0,0,5,2559.5,639.87,,Idle,0,20,FALSE,5,TRUE,8,Go Home,FALSE,FALSE,FALSE,FALSE,FALSE,FALSE,FALSE,FALSE,FALSE,FALSE,FALSE,FALSE,6.97468995,79.91482314,5.4,113.7,328,TRUE,1,1,FALSE,FALSE,FALSE,FALSE,,TRUE,FALSE,FALSE,Course Lock,246,303.7,16.4,Calm,23,,1.12.8,Mavic Mini,1SDCH7G0169R0K,1SFLH6Q0AB03DJ,1SRCH7F014TAHX,1U5X071EXP5ZJG,97.9,0.1,9.8,4.523987,3.35541,0,0,Mavic Mini,1SDCH7G0169R0K,1SFLH6Q0AB03DJ,1SRCH7F014TAHX,1U5X071EXP5ZJG,DJI Fly,,1.12.8,4CAC23FE-809E-8155-77BE-5DA74EF42E7C,1SDCH7G0169R0K,,,,,,,,,
2/13/2024,25:14.1,4m 55.2s,295.2,6.97470126,79.91481314,0,0,0.3,68,0.3,0,0,0,0,0,0,0,0,0.3,-0.6,165,165,,Manual Takeoff,Auto Landing,Takeoff (RC Assisted),10,4,TRUE,,Mavic Mini,TRUE,FALSE,,Smart,RC,TRUE,TRUE,FALSE,,,TRUE,,FALSE,FALSE,FALSE,FALSE,FALSE,FALSE,FALSE,FALSE,FALSE,FALSE,0,Follow Yaw,-1.4,0,166.6,166.6,FALSE,FALSE,FALSE,FALSE,FALSE,FALSE,,TRUE,Normal,,100,1024,1024,1024,1024,2,FALSE,FALSE,FALSE,FALSE,FALSE,0,FALSE,FALSE,FALSE,FALSE,76,7.853,1557,2054,7.863,FALSE,3.927,3.926,0.002,FALSE,FALSE,NA,107.6,107.4,107.6,0,5,0,0,5,2607.4,651.86,,Idle,0,20,FALSE,5,TRUE,8,Go Home,FALSE,FALSE,FALSE,FALSE,FALSE,FALSE,FALSE,FALSE,FALSE,FALSE,FALSE,FALSE,6.97468995,79.91482314,5.4,113.7,328,TRUE,1,1,FALSE,FALSE,FALSE,FALSE,,TRUE,FALSE,FALSE,Course Lock,246,303.7,16.4,Calm,23,,1.12.8,Mavic Mini,1SDCH7G0169R0K,1SFLH6Q0AB03DJ,1SRCH7F014TAHX,1U5X071EXP5ZJG,97.9,0.1,9.8,4.523987,3.35541,0,0,Mavic Mini,1SDCH7G0169R0K,1SFLH6Q0AB03DJ,1SRCH7F014TAHX,1U5X071EXP5ZJG,DJI Fly,,1.12.8,4CAC23FE-809E-8155-77BE-5DA74EF42E7C,1SDCH7G0169R0K,,,,,,,,,
2/13/2024,25:14.2,4m 55.3s,295.3,6.97470131,79.9148132,0,0,0.3,68,0.3,0,0,0,0,0,0,0,0,0.3,-0.6,165,165,,Manual Takeoff,Auto Landing,Takeoff (RC Assisted),10,4,TRUE,,Mavic Mini,TRUE,FALSE,,Smart,RC,TRUE,TRUE,FALSE,,,TRUE,,FALSE,FALSE,FALSE,FALSE,FALSE,FALSE,FALSE,FALSE,FALSE,FALSE,0,Follow Yaw,-1.4,0,166.6,166.6,FALSE,FALSE,FALSE,FALSE,FALSE,FALSE,,TRUE,Normal,,100,1024,1024,1024,1024,2,FALSE,FALSE,FALSE,FALSE,FALSE,0,FALSE,FALSE,FALSE,FALSE,76,7.853,1557,2054,7.863,FALSE,3.927,3.926,0.002,FALSE,FALSE,NA,107.6,107.4,107.6,0,5,0,0,5,2607.4,651.86,,Idle,0,20,FALSE,5,TRUE,8,Go Home,FALSE,FALSE,FALSE,FALSE,FALSE,FALSE,FALSE,FALSE,FALSE,FALSE,FALSE,FALSE,6.97468995,79.91482314,5.4,113.7,328,TRUE,1,1,FALSE,FALSE,FALSE,FALSE,,TRUE,FALSE,FALSE,Course Lock,246,303.7,16.4,Calm,23,,1.12.8,Mavic Mini,1SDCH7G0169R0K,1SFLH6Q0AB03DJ,1SRCH7F014TAHX,1U5X071EXP5ZJG,97.9,0.1,9.8,4.523987,3.35541,0,0,Mavic Mini,1SDCH7G0169R0K,1SFLH6Q0AB03DJ,1SRCH7F014TAHX,1U5X071EXP5ZJG,DJI Fly,,1.12.8,4CAC23FE-809E-8155-77BE-5DA74EF42E7C,1SDCH7G0169R0K,,,,,6.97471553,79.91478506,5,,
2/13/2024,25:14.3,4m 55.4s,295.4,6.974701341,79.91481323,0,0,0.3,68,0.4,0,0,0,0,0,0,0,0,0.3,-0.5,165,165,,Manual Takeoff,Auto Landing,Takeoff (RC Assisted),10,4,TRUE,,Mavic Mini,TRUE,FALSE,,Smart,RC,TRUE,TRUE,FALSE,,,TRUE,,FALSE,FALSE,FALSE,FALSE,FALSE,FALSE,FALSE,FALSE,FALSE,FALSE,0,Follow Yaw,-1.4,0,166.5,166.5,FALSE,FALSE,FALSE,FALSE,FALSE,FALSE,,TRUE,Normal,,100,1024,1024,1024,1024,2,FALSE,FALSE,FALSE,FALSE,FALSE,0,FALSE,FALSE,FALSE,FALSE,76,7.853,1557,2054,7.863,FALSE,3.927,3.926,0.002,FALSE,FALSE,NA,107.6,107.4,107.6,0,5,0,0,5,2607.4,651.86,,Idle,0,20,FALSE,5,TRUE,8,Go Home,FALSE,FALSE,FALSE,FALSE,FALSE,FALSE,FALSE,FALSE,FALSE,FALSE,FALSE,FALSE,6.97468995,79.91482314,5.4,113.7,328,TRUE,1,1,FALSE,FALSE,FALSE,FALSE,,TRUE,FALSE,FALSE,Course Lock,246,303.7,16.4,Calm,23,,1.12.8,Mavic Mini,1SDCH7G0169R0K,1SFLH6Q0AB03DJ,1SRCH7F014TAHX,1U5X071EXP5ZJG,97.9,0.1,9.8,4.523987,3.35541,0,0,Mavic Mini,1SDCH7G0169R0K,1SFLH6Q0AB03DJ,1SRCH7F014TAHX,1U5X071EXP5ZJG,DJI Fly,,1.12.8,4CAC23FE-809E-8155-77BE-5DA74EF42E7C,1SDCH7G0169R0K,,,,,6.97471553,79.91478506,5,,
2/13/2024,25:14.4,4m 55.5s,295.5,6.974701356,79.91481323,0,0,0.3,68,0.4,0,0,0,0,0,0,0,0,0.3,-0.5,165,165,,Manual Takeoff,Auto Landing,Takeoff (RC Assisted),10,4,TRUE,,Mavic Mini,TRUE,FALSE,,Smart,RC,TRUE,TRUE,FALSE,,,TRUE,,FALSE,FALSE,FALSE,FALSE,FALSE,FALSE,FALSE,FALSE,FALSE,FALSE,0,Follow Yaw,-1.4,0,166.5,166.5,FALSE,FALSE,FALSE,FALSE,FALSE,FALSE,,TRUE,Normal,,100,1024,1024,1024,1024,2,FALSE,FALSE,FALSE,FALSE,FALSE,0,FALSE,FALSE,FALSE,FALSE,76,7.853,1557,2054,7.863,FALSE,3.927,3.926,0.002,FALSE,FALSE,NA,107.6,107.4,107.6,0,5,0,0,5,2607.4,651.86,,Idle,0,20,FALSE,5,TRUE,8,Go Home,FALSE,FALSE,FALSE,FALSE,FALSE,FALSE,FALSE,FALSE,FALSE,FALSE,FALSE,FALSE,6.97468995,79.91482314,5.4,113.7,328,TRUE,1,1,FALSE,FALSE,FALSE,FALSE,,TRUE,FALSE,FALSE,Course Lock,246,303.7,16.4,Calm,23,,1.12.8,Mavic Mini,1SDCH7G0169R0K,1SFLH6Q0AB03DJ,1SRCH7F014TAHX,1U5X071EXP5ZJG,97.9,0.1,9.8,4.523987,3.35541,0,0,Mavic Mini,1SDCH7G0169R0K,1SFLH6Q0AB03DJ,1SRCH7F014TAHX,1U5X071EXP5ZJG,DJI Fly,,1.12.8,4CAC23FE-809E-8155-77BE-5DA74EF42E7C,1SDCH7G0169R0K,,,,,6.97471553,79.91478506,5,,
2/13/2024,25:14.5,4m 55.6s,295.6,6.97470132,79.91481327,0,0,0.3,68,0.4,0,0,0,0,0,0,0,0,0.3,-0.5,164.9,164.9,,Manual Takeoff,Auto Landing,Takeoff (RC Assisted),10,4,TRUE,,Mavic Mini,TRUE,FALSE,,Smart,RC,TRUE,TRUE,FALSE,,,TRUE,,FALSE,FALSE,FALSE,FALSE,FALSE,FALSE,FALSE,FALSE,FALSE,FALSE,0,Follow Yaw,-1.4,0,166.5,166.5,FALSE,FALSE,FALSE,FALSE,FALSE,FALSE,,TRUE,Normal,,100,1024,1024,1024,1024,2,FALSE,FALSE,FALSE,FALSE,FALSE,0,FALSE,FALSE,FALSE,FALSE,76,7.853,1557,2054,7.863,FALSE,3.927,3.926,0.002,FALSE,FALSE,NA,107.6,107.4,107.6,0,5,0,0,5,2607.4,651.86,,Idle,0,20,FALSE,5,TRUE,8,Go Home,FALSE,FALSE,FALSE,FALSE,FALSE,FALSE,FALSE,FALSE,FALSE,FALSE,FALSE,FALSE,6.97468995,79.91482314,5.4,113.7,328,TRUE,1,1,FALSE,FALSE,FALSE,FALSE,,TRUE,FALSE,FALSE,Course Lock,246,303.7,16.4,Calm,23,,1.12.8,Mavic Mini,1SDCH7G0169R0K,1SFLH6Q0AB03DJ,1SRCH7F014TAHX,1U5X071EXP5ZJG,97.9,0.1,9.8,4.523987,3.35541,0,0,Mavic Mini,1SDCH7G0169R0K,1SFLH6Q0AB03DJ,1SRCH7F014TAHX,1U5X071EXP5ZJG,DJI Fly,,1.12.8,4CAC23FE-809E-8155-77BE-5DA74EF42E7C,1SDCH7G0169R0K,,,,,6.97471553,79.91478506,5,,
2/13/2024,25:14.5,4m 55.7s,295.7,6.974701319,79.91481331,0,0,0.3,68,0.4,0,0,0,0,0,0,0,0,0.3,-0.5,164.9,164.9,,Manual Takeoff,Auto Landing,Takeoff (RC Assisted),10,4,TRUE,,Mavic Mini,TRUE,FALSE,,Smart,RC,TRUE,TRUE,FALSE,,,TRUE,,FALSE,FALSE,FALSE,FALSE,FALSE,FALSE,FALSE,FALSE,FALSE,FALSE,0,Follow Yaw,-1.4,0,166.5,166.5,FALSE,FALSE,FALSE,FALSE,FALSE,FALSE,,TRUE,Normal,,100,1024,1024,1024,1024,2,FALSE,FALSE,FALSE,FALSE,FALSE,0,FALSE,FALSE,FALSE,FALSE,76,7.853,1557,2054,7.863,FALSE,3.927,3.926,0.002,FALSE,FALSE,NA,107.6,107.4,107.6,0,5,0,0,5,2607.4,651.86,,Idle,0,20,FALSE,5,TRUE,8,Go Home,FALSE,FALSE,FALSE,FALSE,FALSE,FALSE,FALSE,FALSE,FALSE,FALSE,FALSE,FALSE,6.97468995,79.91482314,5.4,113.7,328,TRUE,1,1,FALSE,FALSE,FALSE,FALSE,,TRUE,FALSE,FALSE,Course Lock,246,303.7,16.4,Calm,23,,1.12.8,Mavic Mini,1SDCH7G0169R0K,1SFLH6Q0AB03DJ,1SRCH7F014TAHX,1U5X071EXP5ZJG,97.9,0.1,9.8,4.523987,3.35541,0,0,Mavic Mini,1SDCH7G0169R0K,1SFLH6Q0AB03DJ,1SRCH7F014TAHX,1U5X071EXP5ZJG,DJI Fly,,1.12.8,4CAC23FE-809E-8155-77BE-5DA74EF42E7C,1SDCH7G0169R0K,,,,,6.97471553,79.91478506,5,,
2/13/2024,25:14.7,4m 55.8s,295.8,6.974701341,79.91481333,0,0,0.3,68,0.4,0,0,0,0,0,0,0,0,0.3,-0.6,164.9,164.9,,Manual Takeoff,Auto Landing,Takeoff (RC Assisted),10,4,TRUE,,Mavic Mini,TRUE,FALSE,,Smart,RC,TRUE,TRUE,FALSE,,,TRUE,,FALSE,FALSE,FALSE,FALSE,FALSE,FALSE,FALSE,FALSE,FALSE,FALSE,0,Follow Yaw,-1.4,0,166.5,166.5,FALSE,FALSE,FALSE,FALSE,FALSE,FALSE,,TRUE,Normal,,100,1024,1024,1024,1024,2,FALSE,FALSE,FALSE,FALSE,FALSE,0,FALSE,FALSE,FALSE,FALSE,76,7.853,1557,2054,7.863,FALSE,3.927,3.926,0.002,FALSE,FALSE,NA,107.6,107.4,107.6,0,5,0,0,5,2607.4,651.86,,Idle,0,20,FALSE,5,TRUE,8,Go Home,FALSE,FALSE,FALSE,FALSE,FALSE,FALSE,FALSE,FALSE,FALSE,FALSE,FALSE,FALSE,6.97468995,79.91482314,5.4,113.7,328,TRUE,1,1,FALSE,FALSE,FALSE,FALSE,,TRUE,FALSE,FALSE,Course Lock,246,303.7,16.4,Calm,23,,1.12.8,Mavic Mini,1SDCH7G0169R0K,1SFLH6Q0AB03DJ,1SRCH7F014TAHX,1U5X071EXP5ZJG,97.9,0.1,9.8,4.523987,3.35541,0,0,Mavic Mini,1SDCH7G0169R0K,1SFLH6Q0AB03DJ,1SRCH7F014TAHX,1U5X071EXP5ZJG,DJI Fly,,1.12.8,4CAC23FE-809E-8155-77BE-5DA74EF42E7C,1SDCH7G0169R0K,,,,,6.97471553,79.91478506,5,,
2/13/2024,25:14.8,4m 55.9s,295.9,6.974701388,79.91481333,0,0,0.3,68,0.4,0,0,0,0,0,0,0,0,0.3,-0.5,164.9,164.9,,Manual Takeoff,Auto Landing,Takeoff (RC Assisted),10,4,TRUE,,Mavic Mini,TRUE,FALSE,,Smart,RC,TRUE,TRUE,FALSE,,,TRUE,,FALSE,FALSE,FALSE,FALSE,FALSE,FALSE,FALSE,FALSE,FALSE,FALSE,0,Follow Yaw,-1.4,0,166.5,166.5,FALSE,FALSE,FALSE,FALSE,FALSE,FALSE,,TRUE,Normal,,100,1024,1024,1024,1024,2,FALSE,FALSE,FALSE,FALSE,FALSE,0,FALSE,FALSE,FALSE,FALSE,76,7.864,1557,2054,7.863,FALSE,3.933,3.931,0.002,FALSE,FALSE,NA,107.6,107.4,107.6,0,5,0,0,5,2607.4,651.86,,Idle,0,20,FALSE,5,TRUE,8,Go Home,FALSE,FALSE,FALSE,FALSE,FALSE,FALSE,FALSE,FALSE,FALSE,FALSE,FALSE,FALSE,6.97468995,79.91482314,5.4,113.7,328,TRUE,1,1,FALSE,FALSE,FALSE,FALSE,,TRUE,FALSE,FALSE,Course Lock,246,303.7,16.4,Calm,23,,1.12.8,Mavic Mini,1SDCH7G0169R0K,1SFLH6Q0AB03DJ,1SRCH7F014TAHX,1U5X071EXP5ZJG,97.9,0.1,9.8,4.523987,3.35541,0,0,Mavic Mini,1SDCH7G0169R0K,1SFLH6Q0AB03DJ,1SRCH7F014TAHX,1U5X071EXP5ZJG,DJI Fly,,1.12.8,4CAC23FE-809E-8155-77BE-5DA74EF42E7C,1SDCH7G0169R0K,,,,,6.97471553,79.91478506,5,,
2/13/2024,25:14.9,4m 56.0s,296,6.974701434,79.91481336,0,0,0.3,68,0.4,0,0,0,0,0,0,0,0,0.3,-0.5,165,165,,Manual Takeoff,Auto Landing,Takeoff (RC Assisted),10,4,TRUE,,Mavic Mini,TRUE,FALSE,,Smart,RC,TRUE,TRUE,FALSE,,,TRUE,,FALSE,FALSE,FALSE,FALSE,FALSE,FALSE,FALSE,FALSE,FALSE,FALSE,0,Follow Yaw,-1.4,0,166.5,166.5,FALSE,FALSE,FALSE,FALSE,FALSE,FALSE,,TRUE,Normal,,100,1024,1024,1024,1024,2,FALSE,FALSE,FALSE,FALSE,FALSE,0,FALSE,FALSE,FALSE,FALSE,76,7.864,1557,2054,7.863,FALSE,3.933,3.931,0.002,FALSE,FALSE,NA,107.6,107.4,107.6,0,5,0,0,5,2607.4,651.86,,Idle,0,20,FALSE,5,TRUE,8,Go Home,FALSE,FALSE,FALSE,FALSE,FALSE,FALSE,FALSE,FALSE,FALSE,FALSE,FALSE,FALSE,6.97468995,79.91482314,5.4,113.7,328,TRUE,1,1,FALSE,FALSE,FALSE,FALSE,,TRUE,FALSE,FALSE,Course Lock,246,303.7,16.4,Calm,23,,1.12.8,Mavic Mini,1SDCH7G0169R0K,1SFLH6Q0AB03DJ,1SRCH7F014TAHX,1U5X071EXP5ZJG,97.9,0.1,9.8,4.523987,3.35541,0,0,Mavic Mini,1SDCH7G0169R0K,1SFLH6Q0AB03DJ,1SRCH7F014TAHX,1U5X071EXP5ZJG,DJI Fly,,1.12.8,4CAC23FE-809E-8155-77BE-5DA74EF42E7C,1SDCH7G0169R0K,,,,,6.97471553,79.91478506,5,,
2/13/2024,25:14.9,4m 56.1s,296.1,6.974701449,79.9148134,0,0,0.3,68,0.5,0,0,0,0,0,0,0,0,0.3,-0.5,164.9,164.9,,Manual Takeoff,Auto Landing,Takeoff (RC Assisted),10,4,TRUE,,Mavic Mini,TRUE,FALSE,,Smart,RC,TRUE,TRUE,FALSE,,,TRUE,,FALSE,FALSE,FALSE,FALSE,FALSE,FALSE,FALSE,FALSE,FALSE,FALSE,0,Follow Yaw,-1.4,0,166.5,166.5,FALSE,FALSE,FALSE,FALSE,FALSE,FALSE,,TRUE,Normal,,100,1024,1024,1024,1024,2,FALSE,FALSE,FALSE,FALSE,FALSE,0,FALSE,FALSE,FALSE,FALSE,76,7.864,1557,2054,7.863,FALSE,3.933,3.931,0.002,FALSE,FALSE,NA,107.6,107.4,107.6,0,5,0,0,5,2607.4,651.86,,Idle,0,20,FALSE,5,TRUE,8,Go Home,FALSE,FALSE,FALSE,FALSE,FALSE,FALSE,FALSE,FALSE,FALSE,FALSE,FALSE,FALSE,6.97468995,79.91482314,5.4,113.7,328,TRUE,1,1,FALSE,FALSE,FALSE,FALSE,,TRUE,FALSE,FALSE,Course Lock,246,303.7,16.4,Calm,23,,1.12.8,Mavic Mini,1SDCH7G0169R0K,1SFLH6Q0AB03DJ,1SRCH7F014TAHX,1U5X071EXP5ZJG,97.9,0.1,9.8,4.523987,3.35541,0,0,Mavic Mini,1SDCH7G0169R0K,1SFLH6Q0AB03DJ,1SRCH7F014TAHX,1U5X071EXP5ZJG,DJI Fly,,1.12.8,4CAC23FE-809E-8155-77BE-5DA74EF42E7C,1SDCH7G0169R0K,,,,,6.97471553,79.91478506,5,,
2/13/2024,25:15.0,4m 56.2s,296.2,6.974701482,79.91481343,0,0,0.3,68,0.5,0,0,0,0,0,0,0,0,0.3,-0.5,164.9,164.9,,Manual Takeoff,Auto Landing,Takeoff (RC Assisted),10,4,TRUE,,Mavic Mini,TRUE,FALSE,,Smart,RC,TRUE,TRUE,FALSE,,,TRUE,,FALSE,FALSE,FALSE,FALSE,FALSE,FALSE,FALSE,FALSE,FALSE,FALSE,0,Follow Yaw,-1.4,0,166.6,166.6,FALSE,FALSE,FALSE,FALSE,FALSE,FALSE,,TRUE,Normal,,100,1024,1024,1024,1024,2,FALSE,FALSE,FALSE,FALSE,FALSE,0,FALSE,FALSE,FALSE,FALSE,76,7.864,1557,2054,7.852,FALSE,3.933,3.931,0.002,FALSE,FALSE,NA,107.6,107.4,107.6,0,5,0,0,5,2745.2,686.31,,Idle,0,20,FALSE,5,TRUE,8,Go Home,FALSE,FALSE,FALSE,FALSE,FALSE,FALSE,FALSE,FALSE,FALSE,FALSE,FALSE,FALSE,6.97468995,79.91482314,5.4,113.7,328,TRUE,1,1,FALSE,FALSE,FALSE,FALSE,,TRUE,FALSE,FALSE,Course Lock,246,303.7,16.4,Calm,23,,1.12.8,Mavic Mini,1SDCH7G0169R0K,1SFLH6Q0AB03DJ,1SRCH7F014TAHX,1U5X071EXP5ZJG,97.9,0.1,9.8,4.523987,3.35541,0,0,Mavic Mini,1SDCH7G0169R0K,1SFLH6Q0AB03DJ,1SRCH7F014TAHX,1U5X071EXP5ZJG,DJI Fly,,1.12.8,4CAC23FE-809E-8155-77BE-5DA74EF42E7C,1SDCH7G0169R0K,,,,,6.97471553,79.91478506,5,,
2/13/2024,25:15.1,4m 56.3s,296.3,6.974701533,79.91481343,0,0,0.3,68,0.5,0,0,0,0,0,0,0,0,0.3,-0.5,164.9,164.9,,Manual Takeoff,Auto Landing,Takeoff (RC Assisted),10,4,TRUE,,Mavic Mini,TRUE,FALSE,,Smart,RC,TRUE,TRUE,FALSE,,,TRUE,,FALSE,FALSE,FALSE,FALSE,FALSE,FALSE,FALSE,FALSE,FALSE,FALSE,0,Follow Yaw,-1.4,0,166.6,166.6,FALSE,FALSE,FALSE,FALSE,FALSE,FALSE,,TRUE,Normal,,100,1024,1024,1024,1024,2,FALSE,FALSE,FALSE,FALSE,FALSE,0,FALSE,FALSE,FALSE,FALSE,76,7.864,1557,2054,7.852,FALSE,3.933,3.931,0.002,FALSE,FALSE,NA,107.6,107.4,107.6,0,5,0,0,5,2745.2,686.31,,Idle,0,20,FALSE,5,TRUE,8,Go Home,FALSE,FALSE,FALSE,FALSE,FALSE,FALSE,FALSE,FALSE,FALSE,FALSE,FALSE,FALSE,6.97468995,79.91482314,5.4,113.7,328,TRUE,1,1,FALSE,FALSE,FALSE,FALSE,,TRUE,FALSE,FALSE,Course Lock,246,303.7,16.4,Calm,23,,1.12.8,Mavic Mini,1SDCH7G0169R0K,1SFLH6Q0AB03DJ,1SRCH7F014TAHX,1U5X071EXP5ZJG,97.9,0.1,9.8,4.523987,3.35541,0,0,Mavic Mini,1SDCH7G0169R0K,1SFLH6Q0AB03DJ,1SRCH7F014TAHX,1U5X071EXP5ZJG,DJI Fly,,1.12.8,4CAC23FE-809E-8155-77BE-5DA74EF42E7C,1SDCH7G0169R0K,,,,,6.97471553,79.91478506,5,,
2/13/2024,25:15.2,4m 56.4s,296.4,6.974701564,79.91481346,0,0,0.3,68,0.5,0,0,0,0,0,0,0,0,0.3,-0.5,165,165,,Manual Takeoff,Auto Landing,Takeoff (RC Assisted),10,4,TRUE,,Mavic Mini,TRUE,FALSE,,Smart,RC,TRUE,TRUE,FALSE,,,TRUE,,FALSE,FALSE,FALSE,FALSE,FALSE,FALSE,FALSE,FALSE,FALSE,FALSE,0,Follow Yaw,-1.4,0,166.6,166.6,FALSE,FALSE,FALSE,FALSE,FALSE,FALSE,,TRUE,Normal,,100,1024,1024,1024,1024,2,FALSE,FALSE,FALSE,FALSE,FALSE,0,FALSE,FALSE,FALSE,FALSE,76,7.864,1557,2054,7.852,FALSE,3.933,3.931,0.002,FALSE,FALSE,NA,107.6,107.4,107.6,0,5,0,0,5,2745.2,686.31,,Idle,0,20,FALSE,5,TRUE,8,Go Home,FALSE,FALSE,FALSE,FALSE,FALSE,FALSE,FALSE,FALSE,FALSE,FALSE,FALSE,FALSE,6.97468995,79.91482314,5.5,113.7,328,TRUE,1,1,FALSE,FALSE,FALSE,FALSE,,TRUE,FALSE,FALSE,Course Lock,246,303.7,16.4,Calm,23,,1.12.8,Mavic Mini,1SDCH7G0169R0K,1SFLH6Q0AB03DJ,1SRCH7F014TAHX,1U5X071EXP5ZJG,97.9,0.1,9.8,4.523987,3.35541,0,0,Mavic Mini,1SDCH7G0169R0K,1SFLH6Q0AB03DJ,1SRCH7F014TAHX,1U5X071EXP5ZJG,DJI Fly,,1.12.8,4CAC23FE-809E-8155-77BE-5DA74EF42E7C,1SDCH7G0169R0K,,,,,6.97471553,79.91478506,5,,
2/13/2024,25:15.3,4m 56.5s,296.5,6.974701571,79.91481348,0,0,0.3,68,0.5,0,0,0,0,0,0,0,0,0.3,-0.5,165,165,,Manual Takeoff,Auto Landing,Takeoff (RC Assisted),10,4,TRUE,,Mavic Mini,TRUE,FALSE,,Smart,RC,TRUE,TRUE,FALSE,,,TRUE,,FALSE,FALSE,FALSE,FALSE,FALSE,FALSE,FALSE,FALSE,FALSE,FALSE,0,Follow Yaw,-1.4,0,166.6,166.6,FALSE,FALSE,FALSE,FALSE,FALSE,FALSE,,TRUE,Normal,,100,1024,1024,1024,1024,2,FALSE,FALSE,FALSE,FALSE,FALSE,0,FALSE,FALSE,FALSE,FALSE,76,7.864,1557,2054,7.852,FALSE,3.933,3.931,0.002,FALSE,FALSE,NA,107.6,107.4,107.6,0,5,0,0,5,2745.2,686.31,,Idle,0,20,FALSE,5,TRUE,8,Go Home,FALSE,FALSE,FALSE,FALSE,FALSE,FALSE,FALSE,FALSE,FALSE,FALSE,FALSE,FALSE,6.97468995,79.91482314,5.4,113.7,328,TRUE,1,1,FALSE,FALSE,FALSE,FALSE,,TRUE,FALSE,FALSE,Course Lock,246,303.7,16.4,Calm,23,,1.12.8,Mavic Mini,1SDCH7G0169R0K,1SFLH6Q0AB03DJ,1SRCH7F014TAHX,1U5X071EXP5ZJG,97.9,0.1,9.8,4.523987,3.35541,0,0,Mavic Mini,1SDCH7G0169R0K,1SFLH6Q0AB03DJ,1SRCH7F014TAHX,1U5X071EXP5ZJG,DJI Fly,,1.12.8,4CAC23FE-809E-8155-77BE-5DA74EF42E7C,1SDCH7G0169R0K,,,,,6.97471553,79.91478506,5,,
2/13/2024,25:15.5,4m 56.6s,296.6,6.974701599,79.9148135,0,0,0.3,68,0.5,0,0,0,0,0,0,0,0,0.3,-0.6,165,165,,Manual Takeoff,Auto Landing,Takeoff (RC Assisted),10,4,TRUE,,Mavic Mini,TRUE,FALSE,,Smart,RC,TRUE,TRUE,FALSE,,,TRUE,,FALSE,FALSE,FALSE,FALSE,FALSE,FALSE,FALSE,FALSE,FALSE,FALSE,0,Follow Yaw,-1.4,0,166.6,166.6,FALSE,FALSE,FALSE,FALSE,FALSE,FALSE,,TRUE,Normal,,100,1024,1024,1024,1024,2,FALSE,FALSE,FALSE,FALSE,FALSE,0,FALSE,FALSE,FALSE,FALSE,76,7.864,1557,2054,7.852,FALSE,3.933,3.931,0.002,FALSE,FALSE,NA,107.6,107.4,107.6,0,5,0,0,5,2745.2,686.31,,Idle,0,20,FALSE,5,TRUE,8,Go Home,FALSE,FALSE,FALSE,FALSE,FALSE,FALSE,FALSE,FALSE,FALSE,FALSE,FALSE,FALSE,6.97468995,79.91482314,5.5,113.7,328,TRUE,1,1,FALSE,FALSE,FALSE,FALSE,,TRUE,FALSE,FALSE,Course Lock,246,303.7,16.4,Calm,23,,1.12.8,Mavic Mini,1SDCH7G0169R0K,1SFLH6Q0AB03DJ,1SRCH7F014TAHX,1U5X071EXP5ZJG,97.9,0.1,9.8,4.523987,3.35541,0,0,Mavic Mini,1SDCH7G0169R0K,1SFLH6Q0AB03DJ,1SRCH7F014TAHX,1U5X071EXP5ZJG,DJI Fly,,1.12.8,4CAC23FE-809E-8155-77BE-5DA74EF42E7C,1SDCH7G0169R0K,,,,,6.97471553,79.91478506,5,,
2/13/2024,25:15.6,4m 56.7s,296.7,6.974701646,79.9148135,0,0,0.3,68,0.5,0,0,0,0,0,0,0,0,0.3,-0.6,165,165,,Manual Takeoff,Auto Landing,Takeoff (RC Assisted),10,4,TRUE,,Mavic Mini,TRUE,FALSE,,Smart,RC,TRUE,TRUE,FALSE,,,TRUE,,FALSE,FALSE,FALSE,FALSE,FALSE,FALSE,FALSE,FALSE,FALSE,FALSE,0,Follow Yaw,-1.4,0,166.6,166.6,FALSE,FALSE,FALSE,FALSE,FALSE,FALSE,,TRUE,Normal,,100,1024,1024,1024,1024,2,FALSE,FALSE,FALSE,FALSE,FALSE,0,FALSE,FALSE,FALSE,FALSE,76,7.864,1557,2054,7.852,FALSE,3.933,3.931,0.002,FALSE,FALSE,NA,107.6,107.4,107.6,0,5,0,0,5,2745.2,686.31,,Idle,0,20,FALSE,5,TRUE,8,Go Home,FALSE,FALSE,FALSE,FALSE,FALSE,FALSE,FALSE,FALSE,FALSE,FALSE,FALSE,FALSE,6.97468995,79.91482314,5.5,113.7,328,TRUE,1,1,FALSE,FALSE,FALSE,FALSE,,TRUE,FALSE,FALSE,Course Lock,246,303.7,16.4,Calm,23,,1.12.8,Mavic Mini,1SDCH7G0169R0K,1SFLH6Q0AB03DJ,1SRCH7F014TAHX,1U5X071EXP5ZJG,97.9,0.1,9.8,4.523987,3.35541,0,0,Mavic Mini,1SDCH7G0169R0K,1SFLH6Q0AB03DJ,1SRCH7F014TAHX,1U5X071EXP5ZJG,DJI Fly,,1.12.8,4CAC23FE-809E-8155-77BE-5DA74EF42E7C,1SDCH7G0169R0K,,,,,6.97471553,79.91478506,5,,
2/13/2024,25:15.7,4m 56.8s,296.8,6.974701673,79.91481352,0,0,0.3,68,0.6,0,0,0,0,0,0,0,0,0.3,-0.5,164.9,164.9,,Manual Takeoff,Auto Landing,Takeoff (RC Assisted),10,4,TRUE,,Mavic Mini,TRUE,FALSE,,Smart,RC,TRUE,TRUE,FALSE,,,TRUE,,FALSE,FALSE,FALSE,FALSE,FALSE,FALSE,FALSE,FALSE,FALSE,FALSE,0,Follow Yaw,-1.4,0,166.6,166.6,FALSE,FALSE,FALSE,FALSE,FALSE,FALSE,,TRUE,Normal,,100,1024,1024,1024,1024,2,FALSE,FALSE,FALSE,FALSE,FALSE,0,FALSE,FALSE,FALSE,FALSE,76,7.864,1557,2054,7.852,FALSE,3.933,3.931,0.002,FALSE,FALSE,NA,107.6,107.4,107.6,0,5,0,0,5,2745.2,686.31,,Idle,0,20,FALSE,5,TRUE,8,Go Home,FALSE,FALSE,FALSE,FALSE,FALSE,FALSE,FALSE,FALSE,FALSE,FALSE,FALSE,FALSE,6.97468995,79.91482314,5.5,113.7,328,TRUE,1,1,FALSE,FALSE,FALSE,FALSE,,TRUE,FALSE,FALSE,Course Lock,246,303.7,16.4,Calm,23,,1.12.8,Mavic Mini,1SDCH7G0169R0K,1SFLH6Q0AB03DJ,1SRCH7F014TAHX,1U5X071EXP5ZJG,97.9,0.1,9.8,4.523987,3.35541,0,0,Mavic Mini,1SDCH7G0169R0K,1SFLH6Q0AB03DJ,1SRCH7F014TAHX,1U5X071EXP5ZJG,DJI Fly,,1.12.8,4CAC23FE-809E-8155-77BE-5DA74EF42E7C,1SDCH7G0169R0K,,,,,6.97471553,79.91478506,5,,
2/13/2024,25:15.8,4m 56.9s,296.9,6.97470167,79.91481358,0,0,0.3,68,0.6,0,0,0,0,0,0,0,0,0.3,-0.5,164.9,164.9,,Manual Takeoff,Auto Landing,Takeoff (RC Assisted),10,4,TRUE,,Mavic Mini,TRUE,FALSE,,Smart,RC,TRUE,TRUE,FALSE,,,TRUE,,FALSE,FALSE,FALSE,FALSE,FALSE,FALSE,FALSE,FALSE,FALSE,FALSE,0,Follow Yaw,-1.4,0,166.6,166.6,FALSE,FALSE,FALSE,FALSE,FALSE,FALSE,,TRUE,Normal,,100,1024,1024,1024,1024,2,FALSE,FALSE,FALSE,FALSE,FALSE,0,FALSE,FALSE,FALSE,FALSE,76,7.864,1557,2054,7.852,FALSE,3.933,3.931,0.002,FALSE,FALSE,NA,107.6,107.4,107.6,0,5,0,0,5,2745.2,686.31,,Idle,0,20,FALSE,5,TRUE,8,Go Home,FALSE,FALSE,FALSE,FALSE,FALSE,FALSE,FALSE,FALSE,FALSE,FALSE,FALSE,FALSE,6.97468995,79.91482314,5.5,113.7,328,TRUE,1,1,FALSE,FALSE,FALSE,FALSE,,TRUE,FALSE,FALSE,Course Lock,246,303.7,16.4,Calm,23,,1.12.8,Mavic Mini,1SDCH7G0169R0K,1SFLH6Q0AB03DJ,1SRCH7F014TAHX,1U5X071EXP5ZJG,97.9,0.1,9.8,4.523987,3.35541,0,0,Mavic Mini,1SDCH7G0169R0K,1SFLH6Q0AB03DJ,1SRCH7F014TAHX,1U5X071EXP5ZJG,DJI Fly,,1.12.8,4CAC23FE-809E-8155-77BE-5DA74EF42E7C,1SDCH7G0169R0K,,,,,6.97471553,79.91478506,5,,
2/13/2024,25:15.9,4m 57.0s,297,6.974701697,79.91481358,0,0,0.3,68,0.6,0,0,0,0,0,0,0,0,0.3,-0.5,165,165,,Manual Takeoff,Auto Landing,Takeoff (RC Assisted),10,4,TRUE,,Mavic Mini,TRUE,FALSE,,Smart,RC,TRUE,TRUE,FALSE,,,TRUE,,FALSE,FALSE,FALSE,FALSE,FALSE,FALSE,FALSE,FALSE,FALSE,FALSE,0,Follow Yaw,-1.4,0,166.6,166.6,FALSE,FALSE,FALSE,FALSE,FALSE,FALSE,,TRUE,Normal,,100,1024,1024,1024,1024,2,FALSE,FALSE,FALSE,FALSE,FALSE,0,FALSE,FALSE,FALSE,FALSE,76,7.864,1557,2054,7.852,FALSE,3.933,3.931,0.002,FALSE,FALSE,NA,107.6,107.4,107.6,0,5,0,0,5,2745.2,686.31,,Idle,0,20,FALSE,5,TRUE,8,Go Home,FALSE,FALSE,FALSE,FALSE,FALSE,FALSE,FALSE,FALSE,FALSE,FALSE,FALSE,FALSE,6.97468995,79.91482314,5.5,113.7,328,TRUE,1,1,FALSE,FALSE,FALSE,FALSE,,TRUE,FALSE,FALSE,Course Lock,246,303.7,16.4,Calm,23,,1.12.8,Mavic Mini,1SDCH7G0169R0K,1SFLH6Q0AB03DJ,1SRCH7F014TAHX,1U5X071EXP5ZJG,97.9,0.1,9.8,4.523987,3.35541,0,0,Mavic Mini,1SDCH7G0169R0K,1SFLH6Q0AB03DJ,1SRCH7F014TAHX,1U5X071EXP5ZJG,DJI Fly,,1.12.8,4CAC23FE-809E-8155-77BE-5DA74EF42E7C,1SDCH7G0169R0K,,,,,6.97471553,79.91478506,5,,
2/13/2024,25:16.0,4m 57.1s,297.1,6.974701744,79.91481354,0,0,0.3,68,0.6,0,0,0,0,0,0,0,0,0.3,-0.5,164.9,164.9,,Manual Takeoff,Auto Landing,Takeoff (RC Assisted),10,4,TRUE,,Mavic Mini,TRUE,FALSE,,Smart,RC,TRUE,TRUE,FALSE,,,TRUE,,FALSE,FALSE,FALSE,FALSE,FALSE,FALSE,FALSE,FALSE,FALSE,FALSE,0,Follow Yaw,-1.4,0,166.6,166.6,FALSE,FALSE,FALSE,FALSE,FALSE,FALSE,,TRUE,Normal,,100,1024,1024,1024,1024,2,FALSE,FALSE,FALSE,FALSE,FALSE,0,FALSE,FALSE,FALSE,FALSE,76,7.863,1557,2054,7.852,FALSE,3.932,3.931,0.002,FALSE,FALSE,NA,107.6,107.4,107.6,0,5,0,0,5,2745.2,686.31,,Idle,0,20,FALSE,5,TRUE,8,Go Home,FALSE,FALSE,FALSE,FALSE,FALSE,FALSE,FALSE,FALSE,FALSE,FALSE,FALSE,FALSE,6.97468995,79.91482314,5.5,113.7,328,TRUE,1,1,FALSE,FALSE,FALSE,FALSE,,TRUE,FALSE,FALSE,Course Lock,246,303.7,16.4,Calm,23,,1.12.8,Mavic Mini,1SDCH7G0169R0K,1SFLH6Q0AB03DJ,1SRCH7F014TAHX,1U5X071EXP5ZJG,97.9,0.1,9.8,4.523987,3.35541,0,0,Mavic Mini,1SDCH7G0169R0K,1SFLH6Q0AB03DJ,1SRCH7F014TAHX,1U5X071EXP5ZJG,DJI Fly,,1.12.8,4CAC23FE-809E-8155-77BE-5DA74EF42E7C,1SDCH7G0169R0K,,,,,6.97471553,79.91478506,5,,
2/13/2024,25:16.1,4m 57.2s,297.2,6.974701771,79.9148135,0,0,0.3,68,0.6,0,0,0,0,0,0,0,0,0.3,-0.5,164.9,164.9,,Manual Takeoff,Auto Landing,Takeoff (RC Assisted),10,4,TRUE,,Mavic Mini,TRUE,FALSE,,Smart,RC,TRUE,TRUE,FALSE,,,TRUE,,FALSE,FALSE,FALSE,FALSE,FALSE,FALSE,FALSE,FALSE,FALSE,FALSE,0,Follow Yaw,-1.4,0,166.6,166.6,FALSE,FALSE,FALSE,FALSE,FALSE,FALSE,,TRUE,Normal,,100,1024,1024,1040,1024,2,FALSE,FALSE,FALSE,FALSE,FALSE,0,FALSE,FALSE,FALSE,FALSE,76,7.863,1557,2054,7.864,FALSE,3.932,3.931,0.002,FALSE,FALSE,NA,107.6,107.4,107.6,0,5,0,0,5,2930,732.5,,Idle,0,20,FALSE,5,TRUE,8,Go Home,FALSE,FALSE,FALSE,FALSE,FALSE,FALSE,FALSE,FALSE,FALSE,FALSE,FALSE,FALSE,6.97468995,79.91482314,5.5,113.7,328,TRUE,1,1,FALSE,FALSE,FALSE,FALSE,,TRUE,FALSE,FALSE,Course Lock,246,303.7,16.4,Calm,23,,1.12.8,Mavic Mini,1SDCH7G0169R0K,1SFLH6Q0AB03DJ,1SRCH7F014TAHX,1U5X071EXP5ZJG,97.9,0.1,9.8,4.523987,3.35541,0,0,Mavic Mini,1SDCH7G0169R0K,1SFLH6Q0AB03DJ,1SRCH7F014TAHX,1U5X071EXP5ZJG,DJI Fly,,1.12.8,4CAC23FE-809E-8155-77BE-5DA74EF42E7C,1SDCH7G0169R0K,,,,,6.97471553,79.91478506,5,,
2/13/2024,25:16.2,4m 57.3s,297.3,6.974701763,79.91481333,0,0,0.3,68,0.7,0,0,0,0,0,0,0,0,0.3,-0.5,164.9,164.9,,Manual Takeoff,Auto Landing,Takeoff (RC Assisted),10,4,TRUE,,Mavic Mini,TRUE,FALSE,,Smart,RC,TRUE,TRUE,FALSE,,,TRUE,,FALSE,FALSE,FALSE,FALSE,FALSE,FALSE,FALSE,FALSE,FALSE,FALSE,0,Follow Yaw,-1.4,0,166.5,166.5,FALSE,FALSE,FALSE,FALSE,FALSE,FALSE,,TRUE,Normal,,100,1024,1024,1099,1024,2,FALSE,FALSE,FALSE,FALSE,FALSE,0,FALSE,FALSE,FALSE,FALSE,76,7.863,1557,2054,7.864,FALSE,3.932,3.931,0.002,FALSE,FALSE,NA,107.6,107.4,107.6,0,5,0,0,5,2930,732.5,,Idle,0,20,FALSE,5,TRUE,8,Go Home,FALSE,FALSE,FALSE,FALSE,FALSE,FALSE,FALSE,FALSE,FALSE,FALSE,FALSE,FALSE,6.97468995,79.91482314,5.5,113.7,328,TRUE,1,1,FALSE,FALSE,FALSE,FALSE,,TRUE,FALSE,FALSE,Course Lock,246,303.7,16.4,Calm,23,,1.12.8,Mavic Mini,1SDCH7G0169R0K,1SFLH6Q0AB03DJ,1SRCH7F014TAHX,1U5X071EXP5ZJG,97.9,0.1,9.8,4.523987,3.35541,0,0,Mavic Mini,1SDCH7G0169R0K,1SFLH6Q0AB03DJ,1SRCH7F014TAHX,1U5X071EXP5ZJG,DJI Fly,,1.12.8,4CAC23FE-809E-8155-77BE-5DA74EF42E7C,1SDCH7G0169R0K,,,,,6.974717458,79.91478371,10,,
2/13/2024,25:16.3,4m 57.4s,297.4,6.97470179,79.91481332,0,0,0.3,68,0.7,0,0,0,0,0,0,0,0,0.3,-0.5,164.9,164.9,,Manual Takeoff,Auto Landing,Takeoff (RC Assisted),10,4,TRUE,,Mavic Mini,TRUE,FALSE,,Smart,RC,TRUE,TRUE,FALSE,,,TRUE,,FALSE,FALSE,FALSE,FALSE,FALSE,FALSE,FALSE,FALSE,FALSE,FALSE,0,Follow Yaw,-1.4,0,166.6,166.6,FALSE,FALSE,FALSE,FALSE,FALSE,FALSE,,TRUE,Normal,,100,1024,1024,1145,1024,2,FALSE,FALSE,FALSE,FALSE,FALSE,0,FALSE,FALSE,FALSE,FALSE,76,7.863,1557,2054,7.864,FALSE,3.932,3.931,0.002,FALSE,FALSE,NA,107.6,107.4,107.6,0,5,0,0,5,2930,732.5,,Idle,0,20,FALSE,5,TRUE,8,Go Home,FALSE,FALSE,FALSE,FALSE,FALSE,FALSE,FALSE,FALSE,FALSE,FALSE,FALSE,FALSE,6.97468995,79.91482314,5.5,113.7,328,TRUE,1,1,FALSE,FALSE,FALSE,FALSE,,TRUE,FALSE,FALSE,Course Lock,246,303.7,16.4,Calm,23,,1.12.8,Mavic Mini,1SDCH7G0169R0K,1SFLH6Q0AB03DJ,1SRCH7F014TAHX,1U5X071EXP5ZJG,97.9,0.1,9.8,4.523987,3.35541,0,0,Mavic Mini,1SDCH7G0169R0K,1SFLH6Q0AB03DJ,1SRCH7F014TAHX,1U5X071EXP5ZJG,DJI Fly,,1.12.8,4CAC23FE-809E-8155-77BE-5DA74EF42E7C,1SDCH7G0169R0K,,,,,6.974717458,79.91478371,10,,
2/13/2024,25:16.3,4m 57.5s,297.5,6.974701837,79.91481331,0,0,0.3,68,0.7,0,0,0,0,0,0,0,0,0.3,-0.5,165,165,,Manual Takeoff,Auto Landing,Takeoff (RC Assisted),10,4,TRUE,,Mavic Mini,TRUE,FALSE,,Smart,RC,TRUE,TRUE,FALSE,,,TRUE,,FALSE,FALSE,FALSE,FALSE,FALSE,FALSE,FALSE,FALSE,FALSE,FALSE,0,Follow Yaw,-1.4,0,166.6,166.6,FALSE,FALSE,FALSE,FALSE,FALSE,FALSE,,TRUE,Normal,,100,1024,1024,1217,1024,2,FALSE,FALSE,FALSE,FALSE,FALSE,0,FALSE,FALSE,FALSE,FALSE,76,7.863,1557,2054,7.864,FALSE,3.932,3.931,0.002,FALSE,FALSE,NA,107.6,107.4,107.6,0,5,0,0,5,2930,732.5,,Idle,0,20,FALSE,5,TRUE,8,Go Home,FALSE,FALSE,FALSE,FALSE,FALSE,FALSE,FALSE,FALSE,FALSE,FALSE,FALSE,FALSE,6.97468995,79.91482314,5.6,113.7,328,TRUE,1,1,FALSE,FALSE,FALSE,FALSE,,TRUE,FALSE,FALSE,Course Lock,246,303.7,16.4,Calm,23,,1.12.8,Mavic Mini,1SDCH7G0169R0K,1SFLH6Q0AB03DJ,1SRCH7F014TAHX,1U5X071EXP5ZJG,97.9,0.1,9.8,4.523987,3.35541,0,0,Mavic Mini,1SDCH7G0169R0K,1SFLH6Q0AB03DJ,1SRCH7F014TAHX,1U5X071EXP5ZJG,DJI Fly,,1.12.8,4CAC23FE-809E-8155-77BE-5DA74EF42E7C,1SDCH7G0169R0K,,,,,6.974717458,79.91478371,10,,
2/13/2024,25:16.4,4m 57.6s,297.6,6.97470189,79.91481333,0,0,0.3,68,0.7,0,0,0,0,0,0,0,0,0.2,-0.5,165,165,,Manual Takeoff,Auto Landing,Takeoff (RC Assisted),10,4,TRUE,,Mavic Mini,TRUE,FALSE,,Smart,RC,TRUE,TRUE,FALSE,,,TRUE,,FALSE,FALSE,FALSE,FALSE,FALSE,FALSE,FALSE,FALSE,FALSE,FALSE,0,Follow Yaw,-1.4,0,166.6,166.6,FALSE,FALSE,FALSE,FALSE,FALSE,FALSE,,TRUE,Normal,,100,1024,1024,1243,1024,2,FALSE,FALSE,FALSE,FALSE,FALSE,0,FALSE,FALSE,FALSE,FALSE,76,7.863,1557,2054,7.864,FALSE,3.932,3.931,0.002,FALSE,FALSE,NA,107.6,107.4,107.6,0,5,0,0,5,2930,732.5,,Idle,0,20,FALSE,5,TRUE,8,Go Home,FALSE,FALSE,FALSE,FALSE,FALSE,FALSE,FALSE,FALSE,FALSE,FALSE,FALSE,FALSE,6.97468995,79.91482314,5.6,113.7,328,TRUE,1,1,FALSE,FALSE,FALSE,FALSE,,TRUE,FALSE,FALSE,Course Lock,246,303.7,16.4,Calm,23,,1.12.8,Mavic Mini,1SDCH7G0169R0K,1SFLH6Q0AB03DJ,1SRCH7F014TAHX,1U5X071EXP5ZJG,97.9,0.1,9.8,4.523987,3.35541,0,0,Mavic Mini,1SDCH7G0169R0K,1SFLH6Q0AB03DJ,1SRCH7F014TAHX,1U5X071EXP5ZJG,DJI Fly,,1.12.8,4CAC23FE-809E-8155-77BE-5DA74EF42E7C,1SDCH7G0169R0K,,,,,6.974717458,79.91478371,10,,
2/13/2024,25:16.6,4m 57.7s,297.7,6.974702019,79.91481348,0,0,0.3,68,0.8,0,0,0,0,0,0,0,0,0.2,-0.5,164.9,164.9,,Manual Takeoff,Auto Landing,Takeoff (RC Assisted),10,4,TRUE,,Mavic Mini,TRUE,FALSE,,Smart,RC,TRUE,TRUE,FALSE,,,TRUE,,FALSE,FALSE,FALSE,FALSE,FALSE,FALSE,FALSE,FALSE,FALSE,FALSE,0,Follow Yaw,-1.4,0,166.6,166.6,FALSE,FALSE,FALSE,FALSE,FALSE,FALSE,,TRUE,Normal,,100,1024,1024,1272,1024,2,FALSE,FALSE,FALSE,FALSE,FALSE,0,FALSE,FALSE,FALSE,FALSE,76,7.863,1557,2054,7.864,FALSE,3.932,3.931,0.002,FALSE,FALSE,NA,107.6,107.4,107.6,0,5,0,0,5,2930,732.5,,Idle,0,20,FALSE,5,TRUE,8,Go Home,FALSE,FALSE,FALSE,FALSE,FALSE,FALSE,FALSE,FALSE,FALSE,FALSE,FALSE,FALSE,6.97468995,79.91482314,5.6,113.7,328,TRUE,1,1,FALSE,FALSE,FALSE,FALSE,,TRUE,FALSE,FALSE,Course Lock,246,303.7,16.4,Calm,23,,1.12.8,Mavic Mini,1SDCH7G0169R0K,1SFLH6Q0AB03DJ,1SRCH7F014TAHX,1U5X071EXP5ZJG,97.9,0.1,9.8,4.523987,3.35541,0,0,Mavic Mini,1SDCH7G0169R0K,1SFLH6Q0AB03DJ,1SRCH7F014TAHX,1U5X071EXP5ZJG,DJI Fly,,1.12.8,4CAC23FE-809E-8155-77BE-5DA74EF42E7C,1SDCH7G0169R0K,,,,,6.974717458,79.91478371,10,,
2/13/2024,25:16.7,4m 57.8s,297.8,6.974702048,79.91481351,0,0,0.3,68,0.8,0,0,0,0,0,0,0,0,0.2,-0.6,164.9,164.9,,Manual Takeoff,Auto Landing,Takeoff (RC Assisted),10,4,TRUE,,Mavic Mini,TRUE,FALSE,,Smart,RC,TRUE,TRUE,FALSE,,,TRUE,,FALSE,FALSE,FALSE,FALSE,FALSE,FALSE,FALSE,FALSE,FALSE,FALSE,0,Follow Yaw,-1.4,0,166.6,166.6,FALSE,FALSE,FALSE,FALSE,FALSE,FALSE,,TRUE,Normal,,100,1024,1024,1343,1024,2,FALSE,FALSE,FALSE,FALSE,FALSE,0,FALSE,FALSE,FALSE,FALSE,76,7.863,1557,2054,7.864,FALSE,3.932,3.931,0.002,FALSE,FALSE,NA,107.6,107.4,107.6,0,5,0,0,5,2930,732.5,,Idle,0,20,FALSE,5,TRUE,8,Go Home,FALSE,FALSE,FALSE,FALSE,FALSE,FALSE,FALSE,FALSE,FALSE,FALSE,FALSE,FALSE,6.97468995,79.91482314,5.6,113.7,328,TRUE,1,1,FALSE,FALSE,FALSE,FALSE,,TRUE,FALSE,FALSE,Course Lock,246,303.7,16.4,Calm,23,,1.12.8,Mavic Mini,1SDCH7G0169R0K,1SFLH6Q0AB03DJ,1SRCH7F014TAHX,1U5X071EXP5ZJG,97.9,0.1,9.8,4.523987,3.35541,0,0,Mavic Mini,1SDCH7G0169R0K,1SFLH6Q0AB03DJ,1SRCH7F014TAHX,1U5X071EXP5ZJG,DJI Fly,,1.12.8,4CAC23FE-809E-8155-77BE-5DA74EF42E7C,1SDCH7G0169R0K,,,,,6.974717458,79.91478371,10,,
2/13/2024,25:16.8,4m 57.9s,297.9,6.974702054,79.91481353,0,0,0.3,68,0.8,0,0,0,0,0,0,0,0,0.2,-0.5,163.9,163.9,,Manual Takeoff,Auto Landing,Takeoff (RC Assisted),10,4,TRUE,,Mavic Mini,TRUE,FALSE,,Smart,RC,TRUE,TRUE,FALSE,,,TRUE,,FALSE,FALSE,FALSE,FALSE,FALSE,FALSE,FALSE,FALSE,FALSE,FALSE,0,Follow Yaw,-1.4,0,166.5,166.5,FALSE,FALSE,FALSE,FALSE,FALSE,FALSE,,TRUE,Normal,,100,1024,1024,1366,1024,2,FALSE,FALSE,FALSE,FALSE,FALSE,0,FALSE,FALSE,FALSE,FALSE,76,7.863,1557,2054,7.864,FALSE,3.932,3.931,0.002,FALSE,FALSE,NA,107.6,107.4,107.6,0,5,0,0,5,2930,732.5,,Idle,0,20,FALSE,5,TRUE,8,Go Home,FALSE,FALSE,FALSE,FALSE,FALSE,FALSE,FALSE,FALSE,FALSE,FALSE,FALSE,FALSE,6.97468995,79.91482314,5.6,113.7,328,TRUE,1,1,FALSE,FALSE,FALSE,FALSE,,TRUE,FALSE,FALSE,Course Lock,246,303.7,16.4,Calm,23,,1.12.8,Mavic Mini,1SDCH7G0169R0K,1SFLH6Q0AB03DJ,1SRCH7F014TAHX,1U5X071EXP5ZJG,97.9,0.1,9.8,4.523987,3.35541,0,0,Mavic Mini,1SDCH7G0169R0K,1SFLH6Q0AB03DJ,1SRCH7F014TAHX,1U5X071EXP5ZJG,DJI Fly,,1.12.8,4CAC23FE-809E-8155-77BE-5DA74EF42E7C,1SDCH7G0169R0K,,,,,6.974717458,79.91478371,10,,
2/13/2024,25:16.9,4m 58.0s,298,6.974702028,79.91481356,0,0,0.3,68,0.8,0,0,0,0,0,0,0,0,0.2,-0.4,162.4,162.4,,Manual Takeoff,Auto Landing,Takeoff (RC Assisted),10,4,TRUE,,Mavic Mini,TRUE,FALSE,,Smart,RC,TRUE,TRUE,FALSE,,,TRUE,,FALSE,FALSE,FALSE,FALSE,FALSE,FALSE,FALSE,FALSE,FALSE,FALSE,0,Follow Yaw,-1.4,0,166.2,166.2,FALSE,FALSE,FALSE,FALSE,FALSE,FALSE,,TRUE,Normal,,100,1024,1024,1366,1024,2,FALSE,FALSE,FALSE,FALSE,FALSE,0,FALSE,FALSE,FALSE,FALSE,76,7.863,1557,2054,7.864,FALSE,3.932,3.931,0.002,FALSE,FALSE,NA,107.6,107.4,107.6,0,5,0,0,5,2930,732.5,,Idle,0,20,FALSE,5,TRUE,8,Go Home,FALSE,FALSE,FALSE,FALSE,FALSE,FALSE,FALSE,FALSE,FALSE,FALSE,FALSE,FALSE,6.97468995,79.91482314,5.6,113.7,328,TRUE,1,1,FALSE,FALSE,FALSE,FALSE,,TRUE,FALSE,FALSE,Course Lock,246,303.7,16.4,Calm,23,,1.12.8,Mavic Mini,1SDCH7G0169R0K,1SFLH6Q0AB03DJ,1SRCH7F014TAHX,1U5X071EXP5ZJG,97.9,0.1,9.8,4.523987,3.35541,0,0,Mavic Mini,1SDCH7G0169R0K,1SFLH6Q0AB03DJ,1SRCH7F014TAHX,1U5X071EXP5ZJG,DJI Fly,,1.12.8,4CAC23FE-809E-8155-77BE-5DA74EF42E7C,1SDCH7G0169R0K,,,,,6.974717458,79.91478371,10,,
2/13/2024,25:17.1,4m 58.1s,298.1,6.974701968,79.9148136,0,0,0.3,68,0.9,0,0,0,0,0,0,0,0,-1.1,-0.9,161.6,161.6,,Manual Takeoff,Auto Landing,Takeoff (RC Assisted),10,4,TRUE,,Mavic Mini,TRUE,FALSE,,Smart,RC,TRUE,TRUE,FALSE,,,TRUE,,FALSE,FALSE,FALSE,FALSE,FALSE,FALSE,FALSE,FALSE,FALSE,FALSE,0,Follow Yaw,-1.4,0,165.8,165.8,FALSE,FALSE,FALSE,FALSE,FALSE,FALSE,,TRUE,Normal,,100,1024,1024,1372,1024,2,FALSE,FALSE,FALSE,FALSE,FALSE,0,FALSE,FALSE,FALSE,FALSE,76,7.863,1557,2054,7.864,FALSE,3.932,3.931,0.002,FALSE,FALSE,NA,107.6,107.4,107.6,0,5,0,0,5,2930,732.5,,Idle,0,20,FALSE,5,TRUE,8,Go Home,FALSE,FALSE,FALSE,FALSE,FALSE,FALSE,FALSE,FALSE,FALSE,FALSE,FALSE,FALSE,6.97468995,79.91482314,5.5,113.7,328,TRUE,1,1,FALSE,FALSE,FALSE,FALSE,,TRUE,FALSE,FALSE,Course Lock,246,303.7,16.4,Calm,23,,1.12.8,Mavic Mini,1SDCH7G0169R0K,1SFLH6Q0AB03DJ,1SRCH7F014TAHX,1U5X071EXP5ZJG,97.9,0.1,9.8,4.523987,3.35541,0,0,Mavic Mini,1SDCH7G0169R0K,1SFLH6Q0AB03DJ,1SRCH7F014TAHX,1U5X071EXP5ZJG,DJI Fly,,1.12.8,4CAC23FE-809E-8155-77BE-5DA74EF42E7C,1SDCH7G0169R0K,,,,,6.974717458,79.91478371,10,,
2/13/2024,25:17.1,4m 58.2s,298.2,6.974701799,79.9148136,0,0,0.3,68,0.9,0.223694,0.223694,-0.223694,0,0,0,-0.223694,0,-0.4,-1.7,161,161,180.1,Manual Takeoff,Auto Landing,,10,4,TRUE,,Mavic Mini,TRUE,FALSE,,Smart,RC,FALSE,TRUE,FALSE,,,TRUE,,FALSE,FALSE,FALSE,FALSE,FALSE,FALSE,FALSE,FALSE,FALSE,FALSE,0,Follow Yaw,-1.4,0,165.4,165.4,FALSE,FALSE,FALSE,FALSE,FALSE,FALSE,,TRUE,Normal,,100,1024,1024,1371,1024,2,FALSE,FALSE,FALSE,FALSE,FALSE,0,FALSE,FALSE,FALSE,FALSE,76,7.759,1556,2054,7.826,FALSE,3.882,3.877,0.005,FALSE,FALSE,NA,107.6,107.4,107.6,0,0,0,0,5,2930,732.5,,Idle,0,20,FALSE,5,TRUE,8,Go Home,FALSE,FALSE,FALSE,FALSE,FALSE,FALSE,FALSE,FALSE,FALSE,FALSE,FALSE,FALSE,6.974701799,79.9148136,0,113.7,328,TRUE,1,1,FALSE,FALSE,FALSE,FALSE,,TRUE,FALSE,FALSE,Course Lock,246,303.7,16.4,Calm,23,,1.12.8,Mavic Mini,1SDCH7G0169R0K,1SFLH6Q0AB03DJ,1SRCH7F014TAHX,1U5X071EXP5ZJG,97.9,0.1,9.8,4.523987,3.35541,0,0,Mavic Mini,1SDCH7G0169R0K,1SFLH6Q0AB03DJ,1SRCH7F014TAHX,1U5X071EXP5ZJG,DJI Fly,,1.12.8,4CAC23FE-809E-8155-77BE-5DA74EF42E7C,1SDCH7G0169R0K,,,,,6.974717458,79.91478371,10,Home Point Updated.,
2/13/2024,25:17.2,4m 58.3s,298.3,6.974701717,79.91481363,0,0,0.3,68,1,0.316351,0.316351,-0.223694,0,0.223694,0.223694,-0.447388,0,1.6,-1.2,160.7,160.7,165,Tripod,Auto Landing,,10,4,TRUE,,Mavic Mini,TRUE,FALSE,,Smart,RC,FALSE,TRUE,FALSE,,,TRUE,,FALSE,FALSE,FALSE,FALSE,FALSE,FALSE,FALSE,FALSE,FALSE,FALSE,0,Follow Yaw,-1.4,0,165.1,165.1,FALSE,FALSE,FALSE,FALSE,FALSE,FALSE,,TRUE,Normal,,100,1024,1024,1371,1024,2,FALSE,FALSE,FALSE,FALSE,FALSE,0,FALSE,FALSE,FALSE,FALSE,76,7.759,1556,2054,7.826,FALSE,3.882,3.877,0.005,FALSE,FALSE,NA,107.6,107.4,107.6,0,0,0,0,5,2930,732.5,,Idle,0,20,FALSE,5,TRUE,8,Go Home,FALSE,FALSE,FALSE,FALSE,FALSE,FALSE,FALSE,FALSE,FALSE,FALSE,FALSE,FALSE,6.974701799,79.9148136,0,113.7,328,TRUE,1,1,FALSE,FALSE,FALSE,FALSE,,TRUE,FALSE,FALSE,Course Lock,246,303.7,16.4,Calm,23,,1.12.8,Mavic Mini,1SDCH7G0169R0K,1SFLH6Q0AB03DJ,1SRCH7F014TAHX,1U5X071EXP5ZJG,97.9,0.1,9.8,4.523987,3.35541,0,0,Mavic Mini,1SDCH7G0169R0K,1SFLH6Q0AB03DJ,1SRCH7F014TAHX,1U5X071EXP5ZJG,DJI Fly,,1.12.8,4CAC23FE-809E-8155-77BE-5DA74EF42E7C,1SDCH7G0169R0K,,,,,6.974717458,79.91478371,10,Home Point updated. RTH altitude adjusted to 75 m! (Code: 120852).; Flight mode changed to Tripod.,
2/13/2024,25:17.3,4m 58.4s,298.4,6.974701646,79.91481369,0,0,0.3,68,1,0.316351,0.316351,-0.223694,0,0.223694,0.223694,-0.671082,0,2.5,0.2,160.8,160.8,146,Tripod,Auto Landing,,10,4,TRUE,,Mavic Mini,TRUE,FALSE,,Smart,RC,FALSE,TRUE,FALSE,,,TRUE,,FALSE,FALSE,FALSE,FALSE,FALSE,FALSE,FALSE,FALSE,FALSE,FALSE,0,Follow Yaw,-1.4,0,164.9,164.9,FALSE,FALSE,FALSE,FALSE,FALSE,FALSE,,TRUE,Normal,,100,1024,1024,1389,1024,2,FALSE,FALSE,FALSE,FALSE,FALSE,0,FALSE,FALSE,FALSE,FALSE,76,7.759,1556,2054,7.826,FALSE,3.882,3.877,0.005,FALSE,FALSE,NA,107.6,107.4,107.6,0,0,0,0,5,2930,732.5,,Idle,0,20,FALSE,5,TRUE,8,Go Home,FALSE,FALSE,FALSE,FALSE,FALSE,FALSE,FALSE,FALSE,FALSE,FALSE,FALSE,FALSE,6.974701799,79.9148136,0,113.7,328,TRUE,1,1,FALSE,FALSE,FALSE,FALSE,,TRUE,FALSE,FALSE,Course Lock,246,303.7,16.4,Calm,23,,1.12.8,Mavic Mini,1SDCH7G0169R0K,1SFLH6Q0AB03DJ,1SRCH7F014TAHX,1U5X071EXP5ZJG,97.9,0.1,9.8,4.523987,3.35541,0,0,Mavic Mini,1SDCH7G0169R0K,1SFLH6Q0AB03DJ,1SRCH7F014TAHX,1U5X071EXP5ZJG,DJI Fly,,1.12.8,4CAC23FE-809E-8155-77BE-5DA74EF42E7C,1SDCH7G0169R0K,,,,,6.974717458,79.91478371,10,,
2/13/2024,25:17.4,4m 58.5s,298.5,6.974701588,79.91481377,0,0,0.6,68,1,0.316351,0.316351,-0.223694,0,0.223694,0.223694,-0.894776,0,2.6,0.3,160.8,160.8,133.6,Tripod,Auto Landing,,10,4,TRUE,,Mavic Mini,TRUE,FALSE,,Smart,RC,FALSE,TRUE,FALSE,,,TRUE,,FALSE,FALSE,FALSE,FALSE,FALSE,FALSE,FALSE,FALSE,FALSE,FALSE,0,Follow Yaw,-1.4,0,164.7,164.7,FALSE,FALSE,FALSE,FALSE,FALSE,FALSE,,TRUE,Normal,,100,1024,1024,1408,1024,2,FALSE,FALSE,FALSE,FALSE,FALSE,0,FALSE,FALSE,FALSE,FALSE,76,7.759,1556,2054,7.826,FALSE,3.882,3.877,0.005,FALSE,FALSE,NA,107.6,107.4,107.6,0,0,0,0,5,2930,732.5,,Idle,0,20,FALSE,5,TRUE,8,Go Home,FALSE,FALSE,FALSE,FALSE,FALSE,FALSE,FALSE,FALSE,FALSE,FALSE,FALSE,FALSE,6.974701799,79.9148136,0,113.7,328,TRUE,1,1,FALSE,FALSE,FALSE,FALSE,,TRUE,FALSE,FALSE,Course Lock,246,303.7,16.4,Calm,23,,1.12.8,Mavic Mini,1SDCH7G0169R0K,1SFLH6Q0AB03DJ,1SRCH7F014TAHX,1U5X071EXP5ZJG,97.9,0.1,9.8,4.523987,3.35541,0,0,Mavic Mini,1SDCH7G0169R0K,1SFLH6Q0AB03DJ,1SRCH7F014TAHX,1U5X071EXP5ZJG,DJI Fly,,1.12.8,4CAC23FE-809E-8155-77BE-5DA74EF42E7C,1SDCH7G0169R0K,,,,,6.974717458,79.91478371,10,,
