CUSTOM.date [local],CUSTOM.updateTime [local],OSD.flyTime,OSD.flyTime [s],OSD.latitude,OSD.longitude,OSD.height [ft],OSD.heightMax [ft],OSD.vpsHeight [ft],OSD.altitude [ft],OSD.mileage [ft],OSD.hSpeed [MPH],OSD.hSpeedMax [MPH],OSD.xSpeed [MPH],OSD.xSpeedMax [MPH],OSD.ySpeed [MPH],OSD.ySpeedMax [MPH],OSD.zSpeed [MPH],OSD.zSpeedMax [MPH],OSD.pitch,OSD.roll,OSD.yaw,OSD.yaw [360],OSD.directionOfTravel,OSD.flycState,OSD.flycCommand,OSD.flightAction,OSD.gpsNum,OSD.gpsLevel,OSD.isGPSUsed,OSD.nonGPSCause,OSD.droneType,OSD.isSwaveWork,OSD.waveError,OSD.goHomeStatus,OSD.batteryType,OSD.ctrlDevice,OSD.isOnGround,OSD.isMotorOn,OSD.isMotorBlocked,OSD.motorStartFailedCause,OSD.motorFailReason,OSD.isImuPreheated,OSD.imuInitFailReason,OSD.isAcceletorOverRange,OSD.isBarometerDeadInAir,OSD.isCompassError,OSD.isGoHomeHeightModified,OSD.canIOCWork,OSD.isNotEnoughForce,OSD.isOutOfLimit,OSD.isPropellerCatapult,OSD.isVibrating,OSD.isVisionUsed,OSD.voltageWarning,GIMBAL.mode,GIMBAL.pitch,GIMBAL.roll,GIMBAL.yaw,GIMBAL.yaw [360],GIMBAL.isPitchAtLimit,GIMBAL.isRollAtLimit,GIMBAL.isYawAtLimit,GIMBAL.isStuck,CAMERA.isPhoto,CAMERA.isVideo,CAMERA.filename,CAMERA.sdCardIsInserted,CAMERA.sdCardState,RC.downlinkSignal,RC.uplinkSignal,RC.aileron,RC.elevator,RC.throttle,RC.rudder,RC.mode,RC.goHomeDepressed,RC.recordDepressed,RC.shutterDepressed,RC.playbackDepressed,RC.wheelDepressed,RC.wheelOffset,RC.custom1Depressed,RC.custom2Depressed,RC.custom3Depressed,RC.custom4Depressed,BATTERY.chargeLevel,BATTERY.currentPV [V],BATTERY.currentCapacity [mAh],BATTERY.fullCapacity [mAh],BATTERY.voltage [V],BATTERY.isCellVoltageEstimated,BATTERY.cellVoltage1 [V],BATTERY.cellVoltage2 [V],BATTERY.maxCellVoltageDeviation,BATTERY.isCellVoltageDeviationHigh,BATTERY.isVoltageLow,BATTERY.current [A],BATTERY.temperature [F],BATTERY.minTemperature [F],BATTERY.maxTemperature [F],BATTERY.usefulTime [s],BATTERY.goHomeTime [s],BATTERY.landTime [s],BATTERY.goHomeBattery,BATTERY.landBattery,BATTERY.safeFlyRadius,BATTERY.volumeConsume,BATTERY.status,BATTERY.goHomeStatus,BATTERY.goHomeCountdown,BATTERY.lowWarning,BATTERY.lowWarningGoHome,BATTERY.seriousLowWarning,BATTERY.seriousLowWarningLanding,BATTERY.timesCharged,MC.failSafeAction,MC.isObstacleAvoidanceEnabled,MC.isCollisionAvoidanceEnabled,MC.isRthObstacleAvoidanceEnabled,MC.isBraking,MC.isAvoidingObstacle,MC.isAvoidingActiveObstacle,MC.isAscentLimitedByObstacle,MC.isLandingConfirmationNeeded,MC.atLowAltitudeLimit,MC.atDistanceLimit,MC.atAirportAltitudeLimit,MC.atAirportBoundary,HOME.latitude,HOME.longitude,HOME.distance [ft],HOME.height [ft],HOME.heightLimit [ft],HOME.isHomeRecord,HOME.goHomeMode,HOME.aircraftHeadDirection,HOME.isDynamicHomePointEnabled,HOME.isReachedLimitDistance,HOME.isReachedLimitHeight,HOME.isCompassCalibrating,HOME.compassCalibrationState,HOME.isMultipleFlightModeEnabled,HOME.isBeginnerMode,HOME.isIOCEnabled,HOME.iocMode,HOME.goHomeHeight [ft],HOME.courseLockAngle,HOME.forceLandingHeight [ft],HOME.wind,HOME.dataRecorderFileIndex,RECOVER.appType,RECOVER.appVersion,RECOVER.aircraftName,RECOVER.aircraftSerial,RECOVER.cameraSerial,RECOVER.rcSerial,RECOVER.batterySerial,DETAILS.totalTime [s],DETAILS.totalDistance [ft],DETAILS.maxHeight [ft],DETAILS.maxHorizontalSpeed [MPH],DETAILS.maxVerticalSpeed [MPH],DETAILS.photoNum,DETAILS.videoTime [s],DETAILS.aircraftName,DETAILS.aircraftSerial,DETAILS.cameraSerial,DETAILS.rcSerial,DETAILS.batterySerial,DETAILS.appName,DETAILS.appType,DETAILS.appVersion,DETAILS.guid,SERIAL.flightController,SERIAL.camera,SERIAL.gimbal,SERIAL.rc,SERIAL.battery,APPGPS.latitude,APPGPS.longitude,APPGPS.accuracy,APP.tip,APP.warning
3/2/2024,56:45.5,9m 17.0s,557,6.972886329,79.91593776,0,0,0.3,57,0,0,0,0,0,0,0,0,0,3,3.7,-48.9,311.1,,P-GPS,Auto Fly,Takeoff (RC Assisted),15,5,TRUE,,Mavic Mini,FALSE,FALSE,,Smart,RC,TRUE,TRUE,FALSE,,,TRUE,,FALSE,FALSE,FALSE,FALSE,FALSE,FALSE,FALSE,FALSE,FALSE,FALSE,0,Follow Yaw,0,0,-45.1,314.9,FALSE,FALSE,FALSE,FALSE,FALSE,FALSE,,FALSE,Normal,,100,1024,1024,1024,1024,1,FALSE,FALSE,FALSE,FALSE,FALSE,0,FALSE,FALSE,FALSE,FALSE,58,7.571,1209,2075,7.571,FALSE,3.789,3.782,0.007,FALSE,FALSE,NA,113.5,113.5,113.5,,,,,,,,,Idle,,,TRUE,,FALSE,7,Hover,FALSE,FALSE,FALSE,FALSE,FALSE,FALSE,FALSE,FALSE,FALSE,FALSE,FALSE,FALSE,,,,,,FALSE,,,FALSE,FALSE,FALSE,FALSE,,FALSE,FALSE,FALSE,,,,,Calm,,,,,,,,,76.4,0.2,19.6,10.739548,2.684328,0,376,Mavic Mini,1SDCH7G0169R0K,1SFLH6Q0AB03DJ,1SRCH7F014TAHX,1U5X071EXP6C8G,DJI Fly,,1.12.8,686EAC12-D5FF-E04B-40FA-00D801D5B796,1SDCH7G0169R0K,,,,,,,,Flight mode changed to P-GPS.,
3/2/2024,56:45.6,9m 17.1s,557.1,6.972886326,79.91593776,0,0,0.3,57,0,0,0,0,0,0,0,0,0,3,3.7,-48.9,311.1,,Starting Motors,Auto Fly,Takeoff (RC Assisted),15,5,TRUE,,Mavic Mini,FALSE,FALSE,,Smart,RC,TRUE,TRUE,FALSE,,,TRUE,,FALSE,FALSE,FALSE,FALSE,FALSE,FALSE,FALSE,FALSE,FALSE,FALSE,0,Follow Yaw,0,0,-45.1,314.9,FALSE,FALSE,FALSE,FALSE,FALSE,FALSE,,TRUE,Normal,,100,1024,1024,1024,1024,1,FALSE,FALSE,FALSE,FALSE,FALSE,0,FALSE,FALSE,FALSE,FALSE,58,7.571,1209,2075,7.571,FALSE,3.789,3.782,0.007,FALSE,FALSE,NA,113.5,113.5,113.5,,,,,,,,,Idle,,,TRUE,,FALSE,7,Go Home,FALSE,FALSE,FALSE,FALSE,FALSE,FALSE,FALSE,FALSE,FALSE,FALSE,FALSE,FALSE,,,,,,FALSE,,,FALSE,FALSE,FALSE,FALSE,,FALSE,FALSE,FALSE,,,,,Calm,,,1.12.8,Mavic Mini,1SDCH7G0169R0K,1SFLH6Q0AB03DJ,1SRCH7F014TAHX,1U5X071EXP6C8G,76.4,0.2,19.6,10.739548,2.684328,0,376,Mavic Mini,1SDCH7G0169R0K,1SFLH6Q0AB03DJ,1SRCH7F014TAHX,1U5X071EXP6C8G,DJI Fly,,1.12.8,686EAC12-D5FF-E04B-40FA-00D801D5B796,1SDCH7G0169R0K,,,,,,,,Flight mode changed to Starting Motors.,
3/2/2024,47:28.7,9m 17.2s,557.2,6.972886324,79.91593776,0,0,0.3,57,0,0,0,0,0,0,0,0,0,3,3.7,-48.9,311.1,,Starting Motors,Auto Fly,Takeoff (RC Assisted),15,5,TRUE,,Mavic Mini,TRUE,FALSE,,Smart,RC,TRUE,TRUE,FALSE,,,TRUE,,FALSE,FALSE,FALSE,FALSE,FALSE,FALSE,FALSE,FALSE,FALSE,FALSE,0,Follow Yaw,0,0,-45,315,FALSE,FALSE,FALSE,FALSE,FALSE,FALSE,,TRUE,Normal,,100,1024,1024,1024,1024,1,FALSE,FALSE,FALSE,FALSE,FALSE,0,FALSE,FALSE,FALSE,FALSE,58,7.571,1209,2075,7.571,FALSE,3.789,3.782,0.007,FALSE,FALSE,NA,113.5,113.5,113.5,,,,,,,,,Idle,,,TRUE,,FALSE,7,Go Home,FALSE,FALSE,FALSE,FALSE,FALSE,FALSE,FALSE,FALSE,FALSE,FALSE,FALSE,FALSE,,,,,,FALSE,,,FALSE,FALSE,FALSE,FALSE,,FALSE,FALSE,FALSE,,,,,Calm,,,1.12.8,Mavic Mini,1SDCH7G0169R0K,1SFLH6Q0AB03DJ,1SRCH7F014TAHX,1U5X071EXP6C8G,76.4,0.2,19.6,10.739548,2.684328,0,376,Mavic Mini,1SDCH7G0169R0K,1SFLH6Q0AB03DJ,1SRCH7F014TAHX,1U5X071EXP6C8G,DJI Fly,,1.12.8,686EAC12-D5FF-E04B-40FA-00D801D5B796,1SDCH7G0169R0K,,,,,,,,,
3/2/2024,47:28.8,9m 17.3s,557.3,6.972886322,79.91593771,0,0,0.3,57,0,0,0,0,0,0,0,0,0,2.9,3.8,-48.9,311.1,,Starting Motors,Auto Fly,Takeoff (RC Assisted),15,5,TRUE,,Mavic Mini,TRUE,FALSE,,Smart,RC,TRUE,TRUE,FALSE,,,TRUE,,FALSE,FALSE,FALSE,FALSE,FALSE,FALSE,FALSE,FALSE,FALSE,FALSE,0,Follow Yaw,0,0,-45,315,FALSE,FALSE,FALSE,FALSE,FALSE,FALSE,,TRUE,Normal,,100,1024,1024,1024,1024,1,FALSE,FALSE,FALSE,FALSE,FALSE,0,FALSE,FALSE,FALSE,FALSE,58,7.571,1209,2075,7.571,FALSE,3.789,3.782,0.007,FALSE,FALSE,NA,113.5,113.5,113.5,,,,,,,,,Idle,,,TRUE,,FALSE,7,Go Home,FALSE,FALSE,FALSE,FALSE,FALSE,FALSE,FALSE,FALSE,FALSE,FALSE,FALSE,FALSE,,,,,,FALSE,,,FALSE,FALSE,FALSE,FALSE,,FALSE,FALSE,FALSE,,,,,Calm,,,1.12.8,Mavic Mini,1SDCH7G0169R0K,1SFLH6Q0AB03DJ,1SRCH7F014TAHX,1U5X071EXP6C8G,76.4,0.2,19.6,10.739548,2.684328,0,376,Mavic Mini,1SDCH7G0169R0K,1SFLH6Q0AB03DJ,1SRCH7F014TAHX,1U5X071EXP6C8G,DJI Fly,,1.12.8,686EAC12-D5FF-E04B-40FA-00D801D5B796,1SDCH7G0169R0K,,,,,,,,,
3/2/2024,47:28.9,9m 17.4s,557.4,6.97288632,79.91593767,0,0,0.3,57,0,0,0,0,0,0,0,0,0,2.9,3.8,-48.9,311.1,,Starting Motors,Auto Fly,Takeoff (RC Assisted),15,5,TRUE,,Mavic Mini,TRUE,FALSE,,Smart,RC,TRUE,TRUE,FALSE,,,TRUE,,FALSE,FALSE,FALSE,FALSE,FALSE,FALSE,FALSE,FALSE,FALSE,FALSE,0,Follow Yaw,0,0,-45,315,FALSE,FALSE,FALSE,FALSE,FALSE,FALSE,,TRUE,Normal,,100,1024,1024,1024,1024,1,FALSE,FALSE,FALSE,FALSE,FALSE,0,FALSE,FALSE,FALSE,FALSE,58,7.571,1209,2075,7.571,FALSE,3.789,3.782,0.007,FALSE,FALSE,NA,113.5,113.5,113.5,,,,,,,,,Idle,,,TRUE,,FALSE,7,Go Home,FALSE,FALSE,FALSE,FALSE,FALSE,FALSE,FALSE,FALSE,FALSE,FALSE,FALSE,FALSE,,,,,,FALSE,,,FALSE,FALSE,FALSE,FALSE,,FALSE,FALSE,FALSE,,,,,Calm,,,1.12.8,Mavic Mini,1SDCH7G0169R0K,1SFLH6Q0AB03DJ,1SRCH7F014TAHX,1U5X071EXP6C8G,76.4,0.2,19.6,10.739548,2.684328,0,376,Mavic Mini,1SDCH7G0169R0K,1SFLH6Q0AB03DJ,1SRCH7F014TAHX,1U5X071EXP6C8G,DJI Fly,,1.12.8,686EAC12-D5FF-E04B-40FA-00D801D5B796,1SDCH7G0169R0K,,,,,,,,,
3/2/2024,47:29.0,9m 17.5s,557.5,6.972886336,79.91593763,0,0,0.3,57,0,0,0,0,0,0,0,0,0,3,3.7,-48.9,311.1,,Starting Motors,Auto Fly,Takeoff (RC Assisted),15,5,TRUE,,Mavic Mini,TRUE,FALSE,,Smart,RC,TRUE,TRUE,FALSE,,,TRUE,,FALSE,FALSE,FALSE,FALSE,FALSE,FALSE,FALSE,FALSE,FALSE,FALSE,0,Follow Yaw,0,0,-45,315,FALSE,FALSE,FALSE,FALSE,FALSE,FALSE,,TRUE,Normal,,100,1024,1024,1024,1024,1,FALSE,FALSE,FALSE,FALSE,FALSE,0,FALSE,FALSE,FALSE,FALSE,58,7.571,1209,2075,7.571,FALSE,3.789,3.782,0.007,FALSE,FALSE,NA,113.5,113.5,113.5,,,,,,,,,Idle,,,TRUE,,FALSE,7,Go Home,FALSE,FALSE,FALSE,FALSE,FALSE,FALSE,FALSE,FALSE,FALSE,FALSE,FALSE,FALSE,,,,,,FALSE,,,FALSE,FALSE,FALSE,FALSE,,FALSE,FALSE,FALSE,,,,,Calm,,,1.12.8,Mavic Mini,1SDCH7G0169R0K,1SFLH6Q0AB03DJ,1SRCH7F014TAHX,1U5X071EXP6C8G,76.4,0.2,19.6,10.739548,2.684328,0,376,Mavic Mini,1SDCH7G0169R0K,1SFLH6Q0AB03DJ,1SRCH7F014TAHX,1U5X071EXP6C8G,DJI Fly,,1.12.8,686EAC12-D5FF-E04B-40FA-00D801D5B796,1SDCH7G0169R0K,,,,,,,,,
3/2/2024,47:29.1,9m 17.6s,557.6,6.972886335,79.91593762,0,0,0.3,57,0,0,0,0,0,0,0,0,0,3,3.7,-49.1,310.9,,Starting Motors,Auto Fly,Takeoff (RC Assisted),15,5,TRUE,,Mavic Mini,TRUE,FALSE,,Smart,RC,TRUE,TRUE,FALSE,,,TRUE,,FALSE,FALSE,FALSE,FALSE,FALSE,FALSE,FALSE,FALSE,FALSE,FALSE,0,Follow Yaw,0,0,-45,315,FALSE,FALSE,FALSE,FALSE,FALSE,FALSE,,TRUE,Normal,,100,1024,1024,1024,1024,1,FALSE,FALSE,FALSE,FALSE,FALSE,0,FALSE,FALSE,FALSE,FALSE,58,7.571,1209,2075,7.571,FALSE,3.789,3.782,0.007,FALSE,FALSE,NA,113.5,113.5,113.5,,,,,,,,,Idle,,,TRUE,,FALSE,7,Go Home,FALSE,FALSE,FALSE,FALSE,FALSE,FALSE,FALSE,FALSE,FALSE,FALSE,FALSE,FALSE,,,,,,FALSE,,,FALSE,FALSE,FALSE,FALSE,,FALSE,FALSE,FALSE,,,,,Calm,,,1.12.8,Mavic Mini,1SDCH7G0169R0K,1SFLH6Q0AB03DJ,1SRCH7F014TAHX,1U5X071EXP6C8G,76.4,0.2,19.6,10.739548,2.684328,0,376,Mavic Mini,1SDCH7G0169R0K,1SFLH6Q0AB03DJ,1SRCH7F014TAHX,1U5X071EXP6C8G,DJI Fly,,1.12.8,686EAC12-D5FF-E04B-40FA-00D801D5B796,1SDCH7G0169R0K,,,,,,,,,
3/2/2024,47:29.2,9m 17.7s,557.7,6.972886335,79.91593763,0,0,0.3,57,0,0,0,0,0,0,0,0,0,3,3.7,-49.3,310.7,,Starting Motors,Auto Fly,Takeoff (RC Assisted),15,5,TRUE,,Mavic Mini,TRUE,FALSE,,Smart,RC,TRUE,TRUE,FALSE,,,TRUE,,FALSE,FALSE,FALSE,FALSE,FALSE,FALSE,FALSE,FALSE,FALSE,FALSE,0,Follow Yaw,0,0,-45.1,314.9,FALSE,FALSE,FALSE,FALSE,FALSE,FALSE,,TRUE,Normal,,100,1024,1024,1024,1024,1,FALSE,FALSE,FALSE,FALSE,FALSE,0,FALSE,FALSE,FALSE,FALSE,58,7.571,1209,2075,7.563,FALSE,3.789,3.782,0.007,FALSE,FALSE,NA,113.5,113.5,113.5,0,1,0,0,5,2127.3,531.84,,Idle,0,20,FALSE,5,TRUE,7,Go Home,FALSE,FALSE,FALSE,FALSE,FALSE,FALSE,FALSE,FALSE,FALSE,FALSE,FALSE,FALSE,6.972882553,79.91592823,3.6,122.8,328,TRUE,1,1,FALSE,FALSE,FALSE,FALSE,,TRUE,FALSE,FALSE,Course Lock,49.2,14.3,16.4,Calm,40,,1.12.8,Mavic Mini,1SDCH7G0169R0K,1SFLH6Q0AB03DJ,1SRCH7F014TAHX,1U5X071EXP6C8G,76.4,0.2,19.6,10.739548,2.684328,0,376,Mavic Mini,1SDCH7G0169R0K,1SFLH6Q0AB03DJ,1SRCH7F014TAHX,1U5X071EXP6C8G,DJI Fly,,1.12.8,686EAC12-D5FF-E04B-40FA-00D801D5B796,1SDCH7G0169R0K,,,,,,,,Data Recorder File Index is 40.; Set Return to Home (RTH) altitude to 15 m (49 ft).; Set maximum flight altitude to 100 m (328 ft).,
3/2/2024,47:29.3,9m 17.8s,557.8,6.972886333,79.91593762,0,0,0.3,57,0,0,0,0,0,0,0,0,0,3,3.7,-49.3,310.7,,Starting Motors,Auto Fly,Takeoff (RC Assisted),15,5,TRUE,,Mavic Mini,TRUE,FALSE,,Smart,RC,TRUE,TRUE,FALSE,,,TRUE,,FALSE,FALSE,FALSE,FALSE,FALSE,FALSE,FALSE,FALSE,FALSE,FALSE,0,Follow Yaw,0,0,-45.3,314.7,FALSE,FALSE,FALSE,FALSE,FALSE,FALSE,,TRUE,Normal,,100,1024,1024,1024,1024,1,FALSE,FALSE,FALSE,FALSE,FALSE,0,FALSE,FALSE,FALSE,FALSE,58,7.571,1209,2075,7.563,FALSE,3.789,3.782,0.007,FALSE,FALSE,NA,113.5,113.5,113.5,0,1,0,0,5,2127.3,531.84,,Idle,0,20,FALSE,5,TRUE,7,Go Home,FALSE,FALSE,FALSE,FALSE,FALSE,FALSE,FALSE,FALSE,FALSE,FALSE,FALSE,FALSE,6.972882553,79.91592823,3.6,122.8,328,TRUE,1,1,FALSE,FALSE,FALSE,FALSE,,TRUE,FALSE,FALSE,Course Lock,49.2,14.3,16.4,Calm,40,,1.12.8,Mavic Mini,1SDCH7G0169R0K,1SFLH6Q0AB03DJ,1SRCH7F014TAHX,1U5X071EXP6C8G,76.4,0.2,19.6,10.739548,2.684328,0,376,Mavic Mini,1SDCH7G0169R0K,1SFLH6Q0AB03DJ,1SRCH7F014TAHX,1U5X071EXP6C8G,DJI Fly,,1.12.8,686EAC12-D5FF-E04B-40FA-00D801D5B796,1SDCH7G0169R0K,,,,,,,,,
3/2/2024,47:29.4,9m 17.9s,557.9,6.972886339,79.91593757,0,0,0.3,57,0,0,0,0,0,0,0,0,0,3,3.7,-49.3,310.7,,Starting Motors,Auto Fly,Takeoff (RC Assisted),15,5,TRUE,,Mavic Mini,TRUE,FALSE,,Smart,RC,TRUE,TRUE,FALSE,,,TRUE,,FALSE,FALSE,FALSE,FALSE,FALSE,FALSE,FALSE,FALSE,FALSE,FALSE,0,Follow Yaw,0,0,-45.3,314.7,FALSE,FALSE,FALSE,FALSE,FALSE,FALSE,,TRUE,Normal,,100,1024,1024,1024,1024,1,FALSE,FALSE,FALSE,FALSE,FALSE,0,FALSE,FALSE,FALSE,FALSE,58,7.571,1209,2075,7.563,FALSE,3.789,3.782,0.007,FALSE,FALSE,NA,113.5,113.5,113.5,0,1,0,0,5,2127.3,531.84,,Idle,0,20,FALSE,5,TRUE,7,Go Home,FALSE,FALSE,FALSE,FALSE,FALSE,FALSE,FALSE,FALSE,FALSE,FALSE,FALSE,FALSE,6.972882553,79.91592823,3.6,122.8,328,TRUE,1,1,FALSE,FALSE,FALSE,FALSE,,TRUE,FALSE,FALSE,Course Lock,49.2,14.3,16.4,Calm,40,,1.12.8,Mavic Mini,1SDCH7G0169R0K,1SFLH6Q0AB03DJ,1SRCH7F014TAHX,1U5X071EXP6C8G,76.4,0.2,19.6,10.739548,2.684328,0,376,Mavic Mini,1SDCH7G0169R0K,1SFLH6Q0AB03DJ,1SRCH7F014TAHX,1U5X071EXP6C8G,DJI Fly,,1.12.8,686EAC12-D5FF-E04B-40FA-00D801D5B796,1SDCH7G0169R0K,,,,,,,,,
3/2/2024,47:29.4,9m 18.0s,558,6.972886336,79.91593753,0,0,0.3,57,0,0,0,0,0,0,0,0,0,3,3.7,-49.3,310.7,,Starting Motors,Auto Fly,Takeoff (RC Assisted),15,5,TRUE,,Mavic Mini,TRUE,FALSE,,Smart,RC,TRUE,TRUE,FALSE,,,TRUE,,FALSE,FALSE,FALSE,FALSE,FALSE,FALSE,FALSE,FALSE,FALSE,FALSE,0,Follow Yaw,0,0,-45.3,314.7,FALSE,FALSE,FALSE,FALSE,FALSE,FALSE,,TRUE,Normal,,100,1024,1024,1024,1024,1,FALSE,FALSE,FALSE,FALSE,FALSE,0,FALSE,FALSE,FALSE,FALSE,58,7.571,1209,2075,7.563,FALSE,3.789,3.782,0.007,FALSE,FALSE,NA,113.5,113.5,113.5,0,1,0,0,5,2127.3,531.84,,Idle,0,20,FALSE,5,TRUE,7,Go Home,FALSE,FALSE,FALSE,FALSE,FALSE,FALSE,FALSE,FALSE,FALSE,FALSE,FALSE,FALSE,6.972882553,79.91592823,3.6,122.8,328,TRUE,1,1,FALSE,FALSE,FALSE,FALSE,,TRUE,FALSE,FALSE,Course Lock,49.2,14.3,16.4,Calm,40,,1.12.8,Mavic Mini,1SDCH7G0169R0K,1SFLH6Q0AB03DJ,1SRCH7F014TAHX,1U5X071EXP6C8G,76.4,0.2,19.6,10.739548,2.684328,0,376,Mavic Mini,1SDCH7G0169R0K,1SFLH6Q0AB03DJ,1SRCH7F014TAHX,1U5X071EXP6C8G,DJI Fly,,1.12.8,686EAC12-D5FF-E04B-40FA-00D801D5B796,1SDCH7G0169R0K,,,,,,,,,
3/2/2024,47:29.5,9m 18.1s,558.1,6.972886333,79.91593752,0,0,0.3,57,0,0,0,0,0,0,0,0,0,3,3.7,-49.3,310.7,,Starting Motors,Auto Fly,Takeoff (RC Assisted),15,5,TRUE,,Mavic Mini,TRUE,FALSE,,Smart,RC,TRUE,TRUE,FALSE,,,TRUE,,FALSE,FALSE,FALSE,FALSE,FALSE,FALSE,FALSE,FALSE,FALSE,FALSE,0,Follow Yaw,0,0,-45.4,314.6,FALSE,FALSE,FALSE,FALSE,FALSE,FALSE,,TRUE,Normal,,100,1024,1024,1024,1024,1,FALSE,FALSE,FALSE,FALSE,FALSE,0,FALSE,FALSE,FALSE,FALSE,58,7.571,1209,2075,7.563,FALSE,3.789,3.782,0.007,FALSE,FALSE,NA,113.5,113.5,113.5,0,1,0,0,5,2127.3,531.84,,Idle,0,20,FALSE,5,TRUE,7,Go Home,FALSE,FALSE,FALSE,FALSE,FALSE,FALSE,FALSE,FALSE,FALSE,FALSE,FALSE,FALSE,6.972882553,79.91592823,3.6,122.8,328,TRUE,1,1,FALSE,FALSE,FALSE,FALSE,,TRUE,FALSE,FALSE,Course Lock,49.2,14.3,16.4,Calm,40,,1.12.8,Mavic Mini,1SDCH7G0169R0K,1SFLH6Q0AB03DJ,1SRCH7F014TAHX,1U5X071EXP6C8G,76.4,0.2,19.6,10.739548,2.684328,0,376,Mavic Mini,1SDCH7G0169R0K,1SFLH6Q0AB03DJ,1SRCH7F014TAHX,1U5X071EXP6C8G,DJI Fly,,1.12.8,686EAC12-D5FF-E04B-40FA-00D801D5B796,1SDCH7G0169R0K,,,,,,,,,
3/2/2024,47:29.6,9m 18.2s,558.2,6.972886338,79.91593751,0,0,0.3,57,0,0,0,0,0,0,0,0,0,3,3.7,-49.3,310.7,,Manual Takeoff,Auto Fly,Takeoff (RC Assisted),15,5,TRUE,,Mavic Mini,TRUE,FALSE,,Smart,RC,TRUE,TRUE,FALSE,,,TRUE,,FALSE,FALSE,FALSE,FALSE,FALSE,FALSE,FALSE,FALSE,FALSE,FALSE,0,Follow Yaw,0,0,-45.4,314.6,FALSE,FALSE,FALSE,FALSE,FALSE,FALSE,,TRUE,Normal,,100,1024,1024,1024,1024,1,FALSE,FALSE,FALSE,FALSE,FALSE,0,FALSE,FALSE,FALSE,FALSE,58,7.563,1209,2075,7.563,FALSE,3.784,3.779,0.007,FALSE,FALSE,NA,113.7,113.5,113.7,0,1,0,0,5,2127.3,531.84,,Idle,0,20,FALSE,5,TRUE,7,Go Home,FALSE,FALSE,FALSE,FALSE,FALSE,FALSE,FALSE,FALSE,FALSE,FALSE,FALSE,FALSE,6.972882553,79.91592823,3.6,122.8,328,TRUE,1,1,FALSE,FALSE,FALSE,FALSE,,TRUE,FALSE,FALSE,Course Lock,49.2,14.3,16.4,Calm,40,,1.12.8,Mavic Mini,1SDCH7G0169R0K,1SFLH6Q0AB03DJ,1SRCH7F014TAHX,1U5X071EXP6C8G,76.4,0.2,19.6,10.739548,2.684328,0,376,Mavic Mini,1SDCH7G0169R0K,1SFLH6Q0AB03DJ,1SRCH7F014TAHX,1U5X071EXP6C8G,DJI Fly,,1.12.8,686EAC12-D5FF-E04B-40FA-00D801D5B796,1SDCH7G0169R0K,,,,,,,,Flight mode changed to Manual Takeoff.,
3/2/2024,47:29.7,9m 18.3s,558.3,6.972886475,79.91593757,0,0,0.3,57,0.1,0,0,0,0,0,0,0,0,3,3.7,-49.3,310.7,,Manual Takeoff,Auto Fly,Takeoff (RC Assisted),15,5,TRUE,,Mavic Mini,TRUE,FALSE,,Smart,RC,TRUE,TRUE,FALSE,,,TRUE,,FALSE,FALSE,FALSE,FALSE,FALSE,FALSE,FALSE,FALSE,FALSE,FALSE,0,Follow Yaw,0,0,-45.4,314.6,FALSE,FALSE,FALSE,FALSE,FALSE,FALSE,,TRUE,Normal,,100,1024,1024,1024,1024,1,FALSE,FALSE,FALSE,FALSE,FALSE,0,FALSE,FALSE,FALSE,FALSE,58,7.563,1209,2075,7.563,FALSE,3.784,3.779,0.007,FALSE,FALSE,NA,113.7,113.5,113.7,0,1,0,0,5,2127.3,531.84,,Idle,0,20,FALSE,5,TRUE,7,Go Home,FALSE,FALSE,FALSE,FALSE,FALSE,FALSE,FALSE,FALSE,FALSE,FALSE,FALSE,FALSE,6.972882553,79.91592823,3.6,122.8,328,TRUE,1,1,FALSE,FALSE,FALSE,FALSE,,TRUE,FALSE,FALSE,Course Lock,49.2,14.3,16.4,Calm,40,,1.12.8,Mavic Mini,1SDCH7G0169R0K,1SFLH6Q0AB03DJ,1SRCH7F014TAHX,1U5X071EXP6C8G,76.4,0.2,19.6,10.739548,2.684328,0,376,Mavic Mini,1SDCH7G0169R0K,1SFLH6Q0AB03DJ,1SRCH7F014TAHX,1U5X071EXP6C8G,DJI Fly,,1.12.8,686EAC12-D5FF-E04B-40FA-00D801D5B796,1SDCH7G0169R0K,,,,,,,,,
3/2/2024,47:29.8,9m 18.4s,558.4,6.972886518,79.91593758,0,0,0.3,57,0.1,0,0,0,0,0,0,0,0,3,3.7,-49.3,310.7,,Manual Takeoff,Auto Fly,Takeoff (RC Assisted),15,5,TRUE,,Mavic Mini,TRUE,FALSE,,Smart,RC,TRUE,TRUE,FALSE,,,TRUE,,FALSE,FALSE,FALSE,FALSE,FALSE,FALSE,FALSE,FALSE,FALSE,FALSE,0,Follow Yaw,0,0,-45.4,314.6,FALSE,FALSE,FALSE,FALSE,FALSE,FALSE,,TRUE,Normal,,100,1024,1024,1024,1024,1,FALSE,FALSE,FALSE,FALSE,FALSE,0,FALSE,FALSE,FALSE,FALSE,58,7.563,1209,2075,7.563,FALSE,3.784,3.779,0.007,FALSE,FALSE,NA,113.7,113.5,113.7,0,1,0,0,5,2127.3,531.84,,Idle,0,20,FALSE,5,TRUE,7,Go Home,FALSE,FALSE,FALSE,FALSE,FALSE,FALSE,FALSE,FALSE,FALSE,FALSE,FALSE,FALSE,6.972882553,79.91592823,3.6,122.8,328,TRUE,1,1,FALSE,FALSE,FALSE,FALSE,,TRUE,FALSE,FALSE,Course Lock,49.2,14.3,16.4,Calm,40,,1.12.8,Mavic Mini,1SDCH7G0169R0K,1SFLH6Q0AB03DJ,1SRCH7F014TAHX,1U5X071EXP6C8G,76.4,0.2,19.6,10.739548,2.684328,0,376,Mavic Mini,1SDCH7G0169R0K,1SFLH6Q0AB03DJ,1SRCH7F014TAHX,1U5X071EXP6C8G,DJI Fly,,1.12.8,686EAC12-D5FF-E04B-40FA-00D801D5B796,1SDCH7G0169R0K,,,,,,,,,
3/2/2024,47:29.9,9m 18.5s,558.5,6.972886533,79.91593759,0,0,0.3,57,0.1,0,0,0,0,0,0,0,0,3,3.7,-49.3,310.7,,Manual Takeoff,Auto Fly,Takeoff (RC Assisted),15,5,TRUE,,Mavic Mini,TRUE,FALSE,,Smart,RC,TRUE,TRUE,FALSE,,,TRUE,,FALSE,FALSE,FALSE,FALSE,FALSE,FALSE,FALSE,FALSE,FALSE,FALSE,0,Follow Yaw,0,0,-45.4,314.6,FALSE,FALSE,FALSE,FALSE,FALSE,FALSE,,TRUE,Normal,,100,1024,1024,1024,1024,1,FALSE,FALSE,FALSE,FALSE,FALSE,0,FALSE,FALSE,FALSE,FALSE,58,7.563,1209,2075,7.563,FALSE,3.784,3.779,0.007,FALSE,FALSE,NA,113.7,113.5,113.7,0,1,0,0,5,2127.3,531.84,,Idle,0,20,FALSE,5,TRUE,7,Go Home,FALSE,FALSE,FALSE,FALSE,FALSE,FALSE,FALSE,FALSE,FALSE,FALSE,FALSE,FALSE,6.972882553,79.91592823,3.6,122.8,328,TRUE,1,1,FALSE,FALSE,FALSE,FALSE,,TRUE,FALSE,FALSE,Course Lock,49.2,14.3,16.4,Calm,40,,1.12.8,Mavic Mini,1SDCH7G0169R0K,1SFLH6Q0AB03DJ,1SRCH7F014TAHX,1U5X071EXP6C8G,76.4,0.2,19.6,10.739548,2.684328,0,376,Mavic Mini,1SDCH7G0169R0K,1SFLH6Q0AB03DJ,1SRCH7F014TAHX,1U5X071EXP6C8G,DJI Fly,,1.12.8,686EAC12-D5FF-E04B-40FA-00D801D5B796,1SDCH7G0169R0K,,,,,,,,,
3/2/2024,47:30.1,9m 18.6s,558.6,6.972886545,79.91593759,0,0,0.3,57,0.1,0,0,0,0,0,0,0,0,3,3.7,-49.3,310.7,,Manual Takeoff,Auto Fly,Takeoff (RC Assisted),15,5,TRUE,,Mavic Mini,TRUE,FALSE,,Smart,RC,TRUE,TRUE,FALSE,,,TRUE,,FALSE,FALSE,FALSE,FALSE,FALSE,FALSE,FALSE,FALSE,FALSE,FALSE,0,Follow Yaw,0,0,-45.4,314.6,FALSE,FALSE,FALSE,FALSE,FALSE,FALSE,,TRUE,Normal,,100,1024,1024,1024,1024,1,FALSE,FALSE,FALSE,FALSE,FALSE,0,FALSE,FALSE,FALSE,FALSE,58,7.563,1209,2075,7.563,FALSE,3.784,3.779,0.007,FALSE,FALSE,NA,113.7,113.5,113.7,0,1,0,0,5,2127.3,531.84,,Idle,0,20,FALSE,5,TRUE,7,Go Home,FALSE,FALSE,FALSE,FALSE,FALSE,FALSE,FALSE,FALSE,FALSE,FALSE,FALSE,FALSE,6.972882553,79.91592823,3.6,122.8,328,TRUE,1,1,FALSE,FALSE,FALSE,FALSE,,TRUE,FALSE,FALSE,Course Lock,49.2,14.3,16.4,Calm,40,,1.12.8,Mavic Mini,1SDCH7G0169R0K,1SFLH6Q0AB03DJ,1SRCH7F014TAHX,1U5X071EXP6C8G,76.4,0.2,19.6,10.739548,2.684328,0,376,Mavic Mini,1SDCH7G0169R0K,1SFLH6Q0AB03DJ,1SRCH7F014TAHX,1U5X071EXP6C8G,DJI Fly,,1.12.8,686EAC12-D5FF-E04B-40FA-00D801D5B796,1SDCH7G0169R0K,,,,,,,,,
3/2/2024,47:30.2,9m 18.7s,558.7,6.972886528,79.91593763,0,0,0.3,57,0.1,0,0,0,0,0,0,0,0,3,3.7,-49.3,310.7,,Manual Takeoff,Auto Fly,Takeoff (RC Assisted),15,5,TRUE,,Mavic Mini,TRUE,FALSE,,Smart,RC,TRUE,TRUE,FALSE,,,TRUE,,FALSE,FALSE,FALSE,FALSE,FALSE,FALSE,FALSE,FALSE,FALSE,FALSE,0,Follow Yaw,0,0,-45.4,314.6,FALSE,FALSE,FALSE,FALSE,FALSE,FALSE,,TRUE,Normal,,100,1024,1024,1024,1024,1,FALSE,FALSE,FALSE,FALSE,FALSE,0,FALSE,FALSE,FALSE,FALSE,58,7.563,1209,2075,7.57,FALSE,3.784,3.779,0.007,FALSE,FALSE,NA,113.7,113.5,113.7,0,1,0,0,5,2183.2,545.82,,Idle,0,20,FALSE,5,TRUE,7,Go Home,FALSE,FALSE,FALSE,FALSE,FALSE,FALSE,FALSE,FALSE,FALSE,FALSE,FALSE,FALSE,6.972882553,79.91592823,3.7,122.8,328,TRUE,1,1,FALSE,FALSE,FALSE,FALSE,,TRUE,FALSE,FALSE,Course Lock,49.2,14.3,16.4,Calm,40,,1.12.8,Mavic Mini,1SDCH7G0169R0K,1SFLH6Q0AB03DJ,1SRCH7F014TAHX,1U5X071EXP6C8G,76.4,0.2,19.6,10.739548,2.684328,0,376,Mavic Mini,1SDCH7G0169R0K,1SFLH6Q0AB03DJ,1SRCH7F014TAHX,1U5X071EXP6C8G,DJI Fly,,1.12.8,686EAC12-D5FF-E04B-40FA-00D801D5B796,1SDCH7G0169R0K,,,,,,,,,
3/2/2024,47:30.3,9m 18.8s,558.8,6.972886526,79.91593763,0,0,0.3,57,0.1,0,0,0,0,0,0,0,0,3,3.7,-49.3,310.7,,Manual Takeoff,Auto Fly,Takeoff (RC Assisted),15,5,TRUE,,Mavic Mini,TRUE,FALSE,,Smart,RC,TRUE,TRUE,FALSE,,,TRUE,,FALSE,FALSE,FALSE,FALSE,FALSE,FALSE,FALSE,FALSE,FALSE,FALSE,0,Follow Yaw,0,0,-45.4,314.6,FALSE,FALSE,FALSE,FALSE,FALSE,FALSE,,TRUE,Normal,,100,1024,1024,1024,1024,1,FALSE,FALSE,FALSE,FALSE,FALSE,0,FALSE,FALSE,FALSE,FALSE,58,7.563,1209,2075,7.57,FALSE,3.784,3.779,0.007,FALSE,FALSE,NA,113.7,113.5,113.7,0,1,0,0,5,2183.2,545.82,,Idle,0,20,FALSE,5,TRUE,7,Go Home,FALSE,FALSE,FALSE,FALSE,FALSE,FALSE,FALSE,FALSE,FALSE,FALSE,FALSE,FALSE,6.972882553,79.91592823,3.6,122.8,328,TRUE,1,1,FALSE,FALSE,FALSE,FALSE,,TRUE,FALSE,FALSE,Course Lock,49.2,14.3,16.4,Calm,40,,1.12.8,Mavic Mini,1SDCH7G0169R0K,1SFLH6Q0AB03DJ,1SRCH7F014TAHX,1U5X071EXP6C8G,76.4,0.2,19.6,10.739548,2.684328,0,376,Mavic Mini,1SDCH7G0169R0K,1SFLH6Q0AB03DJ,1SRCH7F014TAHX,1U5X071EXP6C8G,DJI Fly,,1.12.8,686EAC12-D5FF-E04B-40FA-00D801D5B796,1SDCH7G0169R0K,,,,,,,,,
3/2/2024,47:30.4,9m 18.9s,558.9,6.97288652,79.91593758,0,0,0.3,57,0.2,0,0,0,0,0,0,0,0,3,3.7,-49.3,310.7,,Manual Takeoff,Auto Fly,Takeoff (RC Assisted),15,5,TRUE,,Mavic Mini,TRUE,FALSE,,Smart,RC,TRUE,TRUE,FALSE,,,TRUE,,FALSE,FALSE,FALSE,FALSE,FALSE,FALSE,FALSE,FALSE,FALSE,FALSE,0,Follow Yaw,0,0,-45.4,314.6,FALSE,FALSE,FALSE,FALSE,FALSE,FALSE,,TRUE,Normal,,100,1024,1024,1126,1024,1,FALSE,FALSE,FALSE,FALSE,FALSE,0,FALSE,FALSE,FALSE,FALSE,58,7.563,1209,2075,7.57,FALSE,3.784,3.779,0.007,FALSE,FALSE,NA,113.7,113.5,113.7,0,1,0,0,5,2183.2,545.82,,Idle,0,20,FALSE,5,TRUE,7,Go Home,FALSE,FALSE,FALSE,FALSE,FALSE,FALSE,FALSE,FALSE,FALSE,FALSE,FALSE,FALSE,6.972882553,79.91592823,3.6,122.8,328,TRUE,1,1,FALSE,FALSE,FALSE,FALSE,,TRUE,FALSE,FALSE,Course Lock,49.2,14.3,16.4,Calm,40,,1.12.8,Mavic Mini,1SDCH7G0169R0K,1SFLH6Q0AB03DJ,1SRCH7F014TAHX,1U5X071EXP6C8G,76.4,0.2,19.6,10.739548,2.684328,0,376,Mavic Mini,1SDCH7G0169R0K,1SFLH6Q0AB03DJ,1SRCH7F014TAHX,1U5X071EXP6C8G,DJI Fly,,1.12.8,686EAC12-D5FF-E04B-40FA-00D801D5B796,1SDCH7G0169R0K,,,,,,,,,
3/2/2024,47:30.5,9m 19.0s,559,6.972886514,79.91593753,0,0,0.3,57,0.2,0,0,0,0,0,0,0,0,3,3.7,-49.3,310.7,,Manual Takeoff,Auto Fly,Takeoff (RC Assisted),15,5,TRUE,,Mavic Mini,TRUE,FALSE,,Smart,RC,TRUE,TRUE,FALSE,,,TRUE,,FALSE,FALSE,FALSE,FALSE,FALSE,FALSE,FALSE,FALSE,FALSE,FALSE,0,Follow Yaw,0,0,-45.4,314.6,FALSE,FALSE,FALSE,FALSE,FALSE,FALSE,,TRUE,Normal,,100,1024,1024,1163,1024,1,FALSE,FALSE,FALSE,FALSE,FALSE,0,FALSE,FALSE,FALSE,FALSE,58,7.563,1209,2075,7.57,FALSE,3.784,3.779,0.007,FALSE,FALSE,NA,113.7,113.5,113.7,0,1,0,0,5,2183.2,545.82,,Idle,0,20,FALSE,5,TRUE,7,Go Home,FALSE,FALSE,FALSE,FALSE,FALSE,FALSE,FALSE,FALSE,FALSE,FALSE,FALSE,FALSE,6.972882553,79.91592823,3.6,122.8,328,TRUE,1,1,FALSE,FALSE,FALSE,FALSE,,TRUE,FALSE,FALSE,Course Lock,49.2,14.3,16.4,Calm,40,,1.12.8,Mavic Mini,1SDCH7G0169R0K,1SFLH6Q0AB03DJ,1SRCH7F014TAHX,1U5X071EXP6C8G,76.4,0.2,19.6,10.739548,2.684328,0,376,Mavic Mini,1SDCH7G0169R0K,1SFLH6Q0AB03DJ,1SRCH7F014TAHX,1U5X071EXP6C8G,DJI Fly,,1.12.8,686EAC12-D5FF-E04B-40FA-00D801D5B796,1SDCH7G0169R0K,,,,,,,,,
3/2/2024,47:30.6,9m 19.1s,559.1,6.972886508,79.91593751,0,0,0.3,57,0.2,0,0,0,0,0,0,0,0,3,3.6,-49.3,310.7,,Manual Takeoff,Auto Fly,Takeoff (RC Assisted),15,5,TRUE,,Mavic Mini,TRUE,FALSE,,Smart,RC,TRUE,TRUE,FALSE,,,TRUE,,FALSE,FALSE,FALSE,FALSE,FALSE,FALSE,FALSE,FALSE,FALSE,FALSE,0,Follow Yaw,0,0,-45.4,314.6,FALSE,FALSE,FALSE,FALSE,FALSE,FALSE,,TRUE,Normal,,100,1024,1024,1392,1024,1,FALSE,FALSE,FALSE,FALSE,FALSE,0,FALSE,FALSE,FALSE,FALSE,58,7.563,1209,2075,7.57,FALSE,3.784,3.779,0.007,FALSE,FALSE,NA,113.7,113.5,113.7,0,1,0,0,5,2183.2,545.82,,Idle,0,20,FALSE,5,TRUE,7,Go Home,FALSE,FALSE,FALSE,FALSE,FALSE,FALSE,FALSE,FALSE,FALSE,FALSE,FALSE,FALSE,6.972882553,79.91592823,3.6,122.8,328,TRUE,1,1,FALSE,FALSE,FALSE,FALSE,,TRUE,FALSE,FALSE,Course Lock,49.2,14.3,16.4,Calm,40,,1.12.8,Mavic Mini,1SDCH7G0169R0K,1SFLH6Q0AB03DJ,1SRCH7F014TAHX,1U5X071EXP6C8G,76.4,0.2,19.6,10.739548,2.684328,0,376,Mavic Mini,1SDCH7G0169R0K,1SFLH6Q0AB03DJ,1SRCH7F014TAHX,1U5X071EXP6C8G,DJI Fly,,1.12.8,686EAC12-D5FF-E04B-40FA-00D801D5B796,1SDCH7G0169R0K,,,,,6.972843935,79.91593773,5,,
3/2/2024,47:30.7,9m 19.2s,559.2,6.972886459,79.91593743,0,0,0.3,57,0.2,0,0,0,0,0,0,0,0,2.8,3,-49.4,310.6,,Manual Takeoff,Auto Fly,Takeoff (RC Assisted),15,5,TRUE,,Mavic Mini,TRUE,FALSE,,Smart,RC,TRUE,TRUE,FALSE,,,TRUE,,FALSE,FALSE,FALSE,FALSE,FALSE,FALSE,FALSE,FALSE,FALSE,FALSE,0,Follow Yaw,0,0,-45.4,314.6,FALSE,FALSE,FALSE,FALSE,FALSE,FALSE,,TRUE,Normal,,100,1024,1024,1443,1024,1,FALSE,FALSE,FALSE,FALSE,FALSE,0,FALSE,FALSE,FALSE,FALSE,58,7.563,1209,2075,7.57,FALSE,3.784,3.779,0.007,FALSE,FALSE,NA,113.7,113.5,113.7,0,1,0,0,5,2183.2,545.82,,Idle,0,20,FALSE,5,TRUE,7,Go Home,FALSE,FALSE,FALSE,FALSE,FALSE,FALSE,FALSE,FALSE,FALSE,FALSE,FALSE,FALSE,6.972882553,79.91592823,3.6,122.8,328,TRUE,1,1,FALSE,FALSE,FALSE,FALSE,,TRUE,FALSE,FALSE,Course Lock,49.2,14.3,16.4,Calm,40,,1.12.8,Mavic Mini,1SDCH7G0169R0K,1SFLH6Q0AB03DJ,1SRCH7F014TAHX,1U5X071EXP6C8G,76.4,0.2,19.6,10.739548,2.684328,0,376,Mavic Mini,1SDCH7G0169R0K,1SFLH6Q0AB03DJ,1SRCH7F014TAHX,1U5X071EXP6C8G,DJI Fly,,1.12.8,686EAC12-D5FF-E04B-40FA-00D801D5B796,1SDCH7G0169R0K,,,,,6.972843935,79.91593773,5,,
3/2/2024,47:30.8,9m 19.3s,559.3,6.972886447,79.91593742,0,0,0.3,57,0.2,0,0,0,0,0,0,0,0,2.4,1.4,-49.5,310.5,,Manual Takeoff,Auto Fly,Takeoff (RC Assisted),15,5,TRUE,,Mavic Mini,TRUE,FALSE,,Smart,RC,TRUE,TRUE,FALSE,,,TRUE,,FALSE,FALSE,FALSE,FALSE,FALSE,FALSE,FALSE,FALSE,FALSE,FALSE,0,Follow Yaw,0,0,-45.4,314.6,FALSE,FALSE,FALSE,FALSE,FALSE,FALSE,,TRUE,Normal,,100,1024,1024,1443,1024,1,FALSE,FALSE,FALSE,FALSE,FALSE,0,FALSE,FALSE,FALSE,FALSE,58,7.552,1209,2075,7.57,FALSE,3.781,3.771,0.01,FALSE,FALSE,NA,113.7,113.5,113.7,0,1,0,0,5,2183.2,545.82,,Idle,0,20,FALSE,5,TRUE,7,Go Home,FALSE,FALSE,FALSE,FALSE,FALSE,FALSE,FALSE,FALSE,FALSE,FALSE,FALSE,FALSE,6.972882553,79.91592823,3.6,122.8,328,TRUE,1,1,FALSE,FALSE,FALSE,FALSE,,TRUE,FALSE,FALSE,Course Lock,49.2,14.3,16.4,Calm,40,,1.12.8,Mavic Mini,1SDCH7G0169R0K,1SFLH6Q0AB03DJ,1SRCH7F014TAHX,1U5X071EXP6C8G,76.4,0.2,19.6,10.739548,2.684328,0,376,Mavic Mini,1SDCH7G0169R0K,1SFLH6Q0AB03DJ,1SRCH7F014TAHX,1U5X071EXP6C8G,DJI Fly,,1.12.8,686EAC12-D5FF-E04B-40FA-00D801D5B796,1SDCH7G0169R0K,,,,,6.972843935,79.91593773,5,,
3/2/2024,47:30.8,9m 19.4s,559.4,6.97288644,79.91593741,0,0,0.3,57,0.2,0,0,0,0,0,0,0,0,2.4,0.5,-49.6,310.4,,Manual Takeoff,Auto Fly,Takeoff (RC Assisted),15,5,TRUE,,Mavic Mini,TRUE,FALSE,,Smart,RC,TRUE,TRUE,FALSE,,,TRUE,,FALSE,FALSE,FALSE,FALSE,FALSE,FALSE,FALSE,FALSE,FALSE,FALSE,0,Follow Yaw,0,0,-45.4,314.6,FALSE,FALSE,FALSE,FALSE,FALSE,FALSE,,TRUE,Normal,,100,1024,1024,1470,1024,1,FALSE,FALSE,FALSE,FALSE,FALSE,0,FALSE,FALSE,FALSE,FALSE,58,7.552,1209,2075,7.57,FALSE,3.781,3.771,0.01,FALSE,FALSE,NA,113.7,113.5,113.7,0,1,0,0,5,2183.2,545.82,,Idle,0,20,FALSE,5,TRUE,7,Go Home,FALSE,FALSE,FALSE,FALSE,FALSE,FALSE,FALSE,FALSE,FALSE,FALSE,FALSE,FALSE,6.972882553,79.91592823,3.6,122.8,328,TRUE,1,1,FALSE,FALSE,FALSE,FALSE,,TRUE,FALSE,FALSE,Course Lock,49.2,14.3,16.4,Calm,40,,1.12.8,Mavic Mini,1SDCH7G0169R0K,1SFLH6Q0AB03DJ,1SRCH7F014TAHX,1U5X071EXP6C8G,76.4,0.2,19.6,10.739548,2.684328,0,376,Mavic Mini,1SDCH7G0169R0K,1SFLH6Q0AB03DJ,1SRCH7F014TAHX,1U5X071EXP6C8G,DJI Fly,,1.12.8,686EAC12-D5FF-E04B-40FA-00D801D5B796,1SDCH7G0169R0K,,,,,6.972843935,79.91593773,5,,
3/2/2024,47:30.9,9m 19.5s,559.5,6.972886478,79.91593735,0,0,0.3,57,0.3,0,0,0,0,0,0,0,0,2.3,-0.2,-50.2,309.8,,Manual Takeoff,Auto Fly,Takeoff (RC Assisted),15,5,TRUE,,Mavic Mini,TRUE,FALSE,,Smart,RC,TRUE,TRUE,FALSE,,,TRUE,,FALSE,FALSE,FALSE,FALSE,FALSE,FALSE,FALSE,FALSE,FALSE,FALSE,0,Follow Yaw,0,0,-45.5,314.5,FALSE,FALSE,FALSE,FALSE,FALSE,FALSE,,TRUE,Normal,,100,1024,1024,1483,1024,1,FALSE,FALSE,FALSE,FALSE,FALSE,0,FALSE,FALSE,FALSE,FALSE,58,7.552,1209,2075,7.57,FALSE,3.781,3.771,0.01,FALSE,FALSE,NA,113.7,113.5,113.7,0,1,0,0,5,2183.2,545.82,,Idle,0,20,FALSE,5,TRUE,7,Go Home,FALSE,FALSE,FALSE,FALSE,FALSE,FALSE,FALSE,FALSE,FALSE,FALSE,FALSE,FALSE,6.972882553,79.91592823,3.5,122.8,328,TRUE,1,1,FALSE,FALSE,FALSE,FALSE,,TRUE,FALSE,FALSE,Course Lock,49.2,14.3,16.4,Calm,40,,1.12.8,Mavic Mini,1SDCH7G0169R0K,1SFLH6Q0AB03DJ,1SRCH7F014TAHX,1U5X071EXP6C8G,76.4,0.2,19.6,10.739548,2.684328,0,376,Mavic Mini,1SDCH7G0169R0K,1SFLH6Q0AB03DJ,1SRCH7F014TAHX,1U5X071EXP6C8G,DJI Fly,,1.12.8,686EAC12-D5FF-E04B-40FA-00D801D5B796,1SDCH7G0169R0K,,,,,6.972843935,79.91593773,5,,
3/2/2024,47:31.0,9m 19.6s,559.6,6.972886592,79.91593727,0,0,0.3,57,0.3,0,0,0,0,0,0,0,0,2.2,-0.4,-51,309,,Manual Takeoff,Auto Fly,Takeoff (RC Assisted),15,5,TRUE,,Mavic Mini,TRUE,FALSE,,Smart,RC,TRUE,TRUE,FALSE,,,TRUE,,FALSE,FALSE,FALSE,FALSE,FALSE,FALSE,FALSE,FALSE,FALSE,FALSE,0,Follow Yaw,0,0,-46,314,FALSE,FALSE,FALSE,FALSE,FALSE,FALSE,,TRUE,Normal,,100,1024,1024,1483,1024,1,FALSE,FALSE,FALSE,FALSE,FALSE,0,FALSE,FALSE,FALSE,FALSE,58,7.552,1209,2075,7.57,FALSE,3.781,3.771,0.01,FALSE,FALSE,NA,113.7,113.5,113.7,0,1,0,0,5,2183.2,545.82,,Idle,0,20,FALSE,5,TRUE,7,Go Home,FALSE,FALSE,FALSE,FALSE,FALSE,FALSE,FALSE,FALSE,FALSE,FALSE,FALSE,FALSE,6.972882553,79.91592823,3.5,122.8,328,TRUE,1,1,FALSE,FALSE,FALSE,FALSE,,TRUE,FALSE,FALSE,Course Lock,49.2,14.3,16.4,Calm,40,,1.12.8,Mavic Mini,1SDCH7G0169R0K,1SFLH6Q0AB03DJ,1SRCH7F014TAHX,1U5X071EXP6C8G,76.4,0.2,19.6,10.739548,2.684328,0,376,Mavic Mini,1SDCH7G0169R0K,1SFLH6Q0AB03DJ,1SRCH7F014TAHX,1U5X071EXP6C8G,DJI Fly,,1.12.8,686EAC12-D5FF-E04B-40FA-00D801D5B796,1SDCH7G0169R0K,,,,,6.972843935,79.91593773,5,,
3/2/2024,47:31.1,9m 19.7s,559.7,6.972886598,79.91593725,0,0,0.3,57,0.3,0,0,0,0,0,0,0,0,2.2,-0.8,-51.8,308.2,,Manual Takeoff,Auto Fly,Takeoff (RC Assisted),15,5,TRUE,,Mavic Mini,TRUE,FALSE,,Smart,RC,TRUE,TRUE,FALSE,,,TRUE,,FALSE,FALSE,FALSE,FALSE,FALSE,FALSE,FALSE,FALSE,FALSE,FALSE,0,Follow Yaw,0,0,-46.7,313.3,FALSE,FALSE,FALSE,FALSE,FALSE,FALSE,,TRUE,Normal,,100,1024,1024,1482,1024,1,FALSE,FALSE,FALSE,FALSE,FALSE,0,FALSE,FALSE,FALSE,FALSE,58,7.552,1209,2075,7.528,FALSE,3.781,3.771,0.01,FALSE,FALSE,NA,113.7,113.5,113.7,0,1,0,0,5,2369.6,592.41,,Idle,0,20,FALSE,5,TRUE,7,Go Home,FALSE,FALSE,FALSE,FALSE,FALSE,FALSE,FALSE,FALSE,FALSE,FALSE,FALSE,FALSE,6.972882553,79.91592823,3.5,122.8,328,TRUE,1,1,FALSE,FALSE,FALSE,FALSE,,TRUE,FALSE,FALSE,Course Lock,49.2,14.3,16.4,Calm,40,,1.12.8,Mavic Mini,1SDCH7G0169R0K,1SFLH6Q0AB03DJ,1SRCH7F014TAHX,1U5X071EXP6C8G,76.4,0.2,19.6,10.739548,2.684328,0,376,Mavic Mini,1SDCH7G0169R0K,1SFLH6Q0AB03DJ,1SRCH7F014TAHX,1U5X071EXP6C8G,DJI Fly,,1.12.8,686EAC12-D5FF-E04B-40FA-00D801D5B796,1SDCH7G0169R0K,,,,,6.972843935,79.91593773,5,,
3/2/2024,47:31.3,9m 19.8s,559.8,6.972886599,79.91593722,0,0,0.3,57,0.3,0,0,0,0,0,0,0,0,0.2,-1.6,-53,307,,Manual Takeoff,Auto Fly,Takeoff (RC Assisted),15,5,TRUE,,Mavic Mini,TRUE,FALSE,,Smart,RC,TRUE,TRUE,FALSE,,,TRUE,,FALSE,FALSE,FALSE,FALSE,FALSE,FALSE,FALSE,FALSE,FALSE,FALSE,0,Follow Yaw,0,0,-47.6,312.4,FALSE,FALSE,FALSE,FALSE,FALSE,FALSE,,TRUE,Normal,,100,1024,1024,1483,1024,1,FALSE,FALSE,FALSE,FALSE,FALSE,0,FALSE,FALSE,FALSE,FALSE,58,7.552,1209,2075,7.528,FALSE,3.781,3.771,0.01,FALSE,FALSE,NA,113.7,113.5,113.7,0,1,0,0,5,2369.6,592.41,,Idle,0,20,FALSE,5,TRUE,7,Go Home,FALSE,FALSE,FALSE,FALSE,FALSE,FALSE,FALSE,FALSE,FALSE,FALSE,FALSE,FALSE,6.972882553,79.91592823,3.5,122.8,328,TRUE,1,1,FALSE,FALSE,FALSE,FALSE,,TRUE,FALSE,FALSE,Course Lock,49.2,14.3,16.4,Calm,40,,1.12.8,Mavic Mini,1SDCH7G0169R0K,1SFLH6Q0AB03DJ,1SRCH7F014TAHX,1U5X071EXP6C8G,76.4,0.2,19.6,10.739548,2.684328,0,376,Mavic Mini,1SDCH7G0169R0K,1SFLH6Q0AB03DJ,1SRCH7F014TAHX,1U5X071EXP6C8G,DJI Fly,,1.12.8,686EAC12-D5FF-E04B-40FA-00D801D5B796,1SDCH7G0169R0K,,,,,6.972843935,79.91593773,5,,
3/2/2024,47:31.4,9m 19.9s,559.9,6.972886583,79.91593719,0,0,0.3,57,0.3,0,0,0,0,0,0,0,0,-0.8,-1.9,-54.5,305.5,,Manual Takeoff,Auto Fly,Takeoff (RC Assisted),15,5,TRUE,,Mavic Mini,TRUE,FALSE,,Smart,RC,TRUE,TRUE,FALSE,,,TRUE,,FALSE,FALSE,FALSE,FALSE,FALSE,FALSE,FALSE,FALSE,FALSE,FALSE,0,Follow Yaw,0,0,-49,311,FALSE,FALSE,FALSE,FALSE,FALSE,FALSE,,TRUE,Normal,,100,1024,1024,1483,1024,1,FALSE,FALSE,FALSE,FALSE,FALSE,0,FALSE,FALSE,FALSE,FALSE,58,7.552,1209,2075,7.528,FALSE,3.781,3.771,0.01,FALSE,FALSE,NA,113.7,113.5,113.7,0,1,0,0,5,2369.6,592.41,,Idle,0,20,FALSE,5,TRUE,7,Go Home,FALSE,FALSE,FALSE,FALSE,FALSE,FALSE,FALSE,FALSE,FALSE,FALSE,FALSE,FALSE,6.972882553,79.91592823,3.5,122.8,328,TRUE,1,1,FALSE,FALSE,FALSE,FALSE,,TRUE,FALSE,FALSE,Course Lock,49.2,14.3,16.4,Calm,40,,1.12.8,Mavic Mini,1SDCH7G0169R0K,1SFLH6Q0AB03DJ,1SRCH7F014TAHX,1U5X071EXP6C8G,76.4,0.2,19.6,10.739548,2.684328,0,376,Mavic Mini,1SDCH7G0169R0K,1SFLH6Q0AB03DJ,1SRCH7F014TAHX,1U5X071EXP6C8G,DJI Fly,,1.12.8,686EAC12-D5FF-E04B-40FA-00D801D5B796,1SDCH7G0169R0K,,,,,6.972843935,79.91593773,5,,
3/2/2024,47:31.6,9m 20.0s,560,6.972886546,79.9159372,0,0,0.3,57,0.4,0.223694,0.223694,0,0,-0.223694,0,-0.223694,0,-1.6,-2.4,-55.7,304.3,169.8,Manual Takeoff,Auto Fly,Takeoff (RC Assisted),15,5,TRUE,,Mavic Mini,TRUE,FALSE,,Smart,RC,FALSE,TRUE,FALSE,,,TRUE,,FALSE,FALSE,FALSE,FALSE,FALSE,FALSE,FALSE,FALSE,FALSE,FALSE,0,Follow Yaw,0,0,-50.4,309.6,FALSE,FALSE,FALSE,FALSE,FALSE,FALSE,,TRUE,Normal,,100,1024,1024,1485,1024,1,FALSE,FALSE,FALSE,FALSE,FALSE,0,FALSE,FALSE,FALSE,FALSE,58,7.552,1209,2075,7.528,FALSE,3.781,3.771,0.01,FALSE,FALSE,NA,113.7,113.5,113.7,0,1,0,0,5,2369.6,592.41,,Idle,0,20,FALSE,5,TRUE,7,Go Home,FALSE,FALSE,FALSE,FALSE,FALSE,FALSE,FALSE,FALSE,FALSE,FALSE,FALSE,FALSE,6.972882553,79.91592823,3.5,122.8,328,TRUE,1,1,FALSE,FALSE,FALSE,FALSE,,TRUE,FALSE,FALSE,Course Lock,49.2,14.3,16.4,Calm,40,,1.12.8,Mavic Mini,1SDCH7G0169R0K,1SFLH6Q0AB03DJ,1SRCH7F014TAHX,1U5X071EXP6C8G,76.4,0.2,19.6,10.739548,2.684328,0,376,Mavic Mini,1SDCH7G0169R0K,1SFLH6Q0AB03DJ,1SRCH7F014TAHX,1U5X071EXP6C8G,DJI Fly,,1.12.8,686EAC12-D5FF-E04B-40FA-00D801D5B796,1SDCH7G0169R0K,,,,,6.972843935,79.91593773,5,,
3/2/2024,47:31.7,9m 20.1s,560.1,6.972886501,79.91593707,0,0,0.3,57,0.4,0.223694,0.223694,0,0,-0.223694,0,-0.671082,0,-0.1,-1.4,-55.9,304.1,245.8,P-GPS,Auto Fly,,15,5,TRUE,,Mavic Mini,TRUE,FALSE,,Smart,RC,FALSE,TRUE,FALSE,,,TRUE,,FALSE,FALSE,FALSE,FALSE,FALSE,FALSE,FALSE,FALSE,FALSE,FALSE,0,Follow Yaw,0,0,-51,309,FALSE,FALSE,FALSE,FALSE,FALSE,FALSE,,TRUE,Normal,,100,1024,1024,1484,1024,1,FALSE,FALSE,FALSE,FALSE,FALSE,0,FALSE,FALSE,FALSE,FALSE,58,7.552,1209,2075,7.528,FALSE,3.781,3.771,0.01,FALSE,FALSE,NA,113.7,113.5,113.7,0,1,0,0,5,2369.6,592.41,,Idle,0,20,FALSE,5,TRUE,7,Go Home,FALSE,FALSE,FALSE,FALSE,FALSE,FALSE,FALSE,FALSE,FALSE,FALSE,FALSE,FALSE,6.972882553,79.91592823,3.5,122.8,328,TRUE,1,1,FALSE,FALSE,FALSE,FALSE,,TRUE,FALSE,FALSE,Course Lock,49.2,14.3,16.4,Calm,40,,1.12.8,Mavic Mini,1SDCH7G0169R0K,1SFLH6Q0AB03DJ,1SRCH7F014TAHX,1U5X071EXP6C8G,76.4,0.2,19.6,10.739548,2.684328,0,376,Mavic Mini,1SDCH7G0169R0K,1SFLH6Q0AB03DJ,1SRCH7F014TAHX,1U5X071EXP6C8G,DJI Fly,,1.12.8,686EAC12-D5FF-E04B-40FA-00D801D5B796,1SDCH7G0169R0K,,,,,6.972843935,79.91593773,5,Flight mode changed to P-GPS.,
3/2/2024,47:31.7,9m 20.2s,560.2,6.972886452,79.9159369,0,0,0.6,57,0.5,0.447388,0.447388,0,0,-0.447388,0,-1.11847,0,1.2,0.8,-55.8,304.2,249.7,P-GPS,Auto Fly,,15,5,TRUE,,Mavic Mini,TRUE,FALSE,,Smart,RC,FALSE,TRUE,FALSE,,,TRUE,,FALSE,FALSE,FALSE,FALSE,FALSE,FALSE,FALSE,FALSE,FALSE,FALSE,0,Follow Yaw,0,0,-51,309,FALSE,FALSE,FALSE,FALSE,FALSE,FALSE,,TRUE,Normal,,100,1024,1024,1484,1024,1,FALSE,FALSE,FALSE,FALSE,FALSE,0,FALSE,FALSE,FALSE,FALSE,58,7.552,1209,2075,7.528,FALSE,3.781,3.771,0.01,FALSE,FALSE,NA,113.7,113.5,113.7,0,1,0,0,5,2369.6,592.41,,Idle,0,20,FALSE,5,TRUE,7,Go Home,FALSE,FALSE,FALSE,FALSE,FALSE,FALSE,FALSE,FALSE,FALSE,FALSE,FALSE,FALSE,6.972882553,79.91592823,3.4,122.8,328,TRUE,1,1,FALSE,FALSE,FALSE,FALSE,,TRUE,FALSE,FALSE,Course Lock,49.2,14.3,16.4,Calm,40,,1.12.8,Mavic Mini,1SDCH7G0169R0K,1SFLH6Q0AB03DJ,1SRCH7F014TAHX,1U5X071EXP6C8G,76.4,0.2,19.6,10.739548,2.684328,0,376,Mavic Mini,1SDCH7G0169R0K,1SFLH6Q0AB03DJ,1SRCH7F014TAHX,1U5X071EXP6C8G,DJI Fly,,1.12.8,686EAC12-D5FF-E04B-40FA-00D801D5B796,1SDCH7G0169R0K,,,,,6.972843935,79.91593773,5,,
3/2/2024,47:31.8,9m 20.3s,560.3,6.972886413,79.91593667,0,0,0.6,57,0.6,0.447388,0.447388,0,0,-0.447388,0,-1.565858,0,2.2,1.4,-55.6,304.4,257.6,P-GPS,Auto Fly,,15,5,TRUE,,Mavic Mini,TRUE,FALSE,,Smart,RC,FALSE,TRUE,FALSE,,,TRUE,,FALSE,FALSE,FALSE,FALSE,FALSE,FALSE,FALSE,FALSE,FALSE,FALSE,0,Follow Yaw,0,0,-51,309,FALSE,FALSE,FALSE,FALSE,FALSE,FALSE,,TRUE,Normal,,100,1024,1024,1484,1024,1,FALSE,FALSE,FALSE,FALSE,FALSE,0,FALSE,FALSE,FALSE,FALSE,58,7.552,1209,2075,7.528,FALSE,3.781,3.771,0.01,FALSE,FALSE,NA,113.7,113.5,113.7,0,1,0,0,5,2369.6,592.41,,Idle,0,20,FALSE,5,TRUE,7,Go Home,FALSE,FALSE,FALSE,FALSE,FALSE,FALSE,FALSE,FALSE,FALSE,FALSE,FALSE,FALSE,6.972882553,79.91592823,3.3,122.8,328,TRUE,1,1,FALSE,FALSE,FALSE,FALSE,,TRUE,FALSE,FALSE,Course Lock,49.2,14.3,16.4,Calm,40,,1.12.8,Mavic Mini,1SDCH7G0169R0K,1SFLH6Q0AB03DJ,1SRCH7F014TAHX,1U5X071EXP6C8G,76.4,0.2,19.6,10.739548,2.684328,0,376,Mavic Mini,1SDCH7G0169R0K,1SFLH6Q0AB03DJ,1SRCH7F014TAHX,1U5X071EXP6C8G,DJI Fly,,1.12.8,686EAC12-D5FF-E04B-40FA-00D801D5B796,1SDCH7G0169R0K,,,,,6.972843935,79.91593773,5,,
3/2/2024,47:31.9,9m 20.4s,560.4,6.972886328,79.91593649,0.3,0.3,0.9,57,0.6,0.223694,0.447388,0,0,-0.223694,0,-1.789552,0,2.3,1.5,-55.4,304.6,238.9,P-GPS,Auto Fly,,15,5,TRUE,,Mavic Mini,TRUE,FALSE,,Smart,RC,FALSE,TRUE,FALSE,,,TRUE,,FALSE,FALSE,FALSE,FALSE,FALSE,FALSE,FALSE,FALSE,FALSE,FALSE,0,Follow Yaw,0,0,-51,309,FALSE,FALSE,FALSE,FALSE,FALSE,FALSE,,TRUE,Normal,,100,1024,1024,1481,1024,1,FALSE,FALSE,FALSE,FALSE,FALSE,0,FALSE,FALSE,FALSE,FALSE,58,7.552,1209,2075,7.528,FALSE,3.781,3.771,0.01,FALSE,FALSE,NA,113.7,113.5,113.7,0,1,0,0,5,2369.6,592.41,,Idle,0,20,FALSE,5,TRUE,7,Go Home,FALSE,FALSE,FALSE,FALSE,FALSE,FALSE,FALSE,FALSE,FALSE,FALSE,FALSE,FALSE,6.972882553,79.91592823,3.2,122.8,328,TRUE,1,1,FALSE,FALSE,FALSE,FALSE,,TRUE,FALSE,FALSE,Course Lock,49.2,14.3,16.4,Calm,40,,1.12.8,Mavic Mini,1SDCH7G0169R0K,1SFLH6Q0AB03DJ,1SRCH7F014TAHX,1U5X071EXP6C8G,76.4,0.2,19.6,10.739548,2.684328,0,376,Mavic Mini,1SDCH7G0169R0K,1SFLH6Q0AB03DJ,1SRCH7F014TAHX,1U5X071EXP6C8G,DJI Fly,,1.12.8,686EAC12-D5FF-E04B-40FA-00D801D5B796,1SDCH7G0169R0K,,,,,6.972843935,79.91593773,5,,
3/2/2024,47:32.0,9m 20.5s,560.5,6.972886285,79.91593634,0.6,0.6,1.3,57,0.7,0.223694,0.447388,0,0,-0.223694,0,-2.23694,0,1.9,1.2,-55.4,304.6,248.4,P-GPS,Auto Fly,,15,5,TRUE,,Mavic Mini,TRUE,FALSE,,Smart,RC,FALSE,TRUE,FALSE,,,TRUE,,FALSE,FALSE,FALSE,FALSE,FALSE,FALSE,FALSE,FALSE,FALSE,FALSE,0,Follow Yaw,0,0,-51,309,FALSE,FALSE,FALSE,FALSE,FALSE,FALSE,,TRUE,Normal,,100,1024,1024,1434,1024,1,FALSE,FALSE,FALSE,FALSE,FALSE,0,FALSE,FALSE,FALSE,FALSE,58,7.353,1208,2075,7.528,FALSE,3.679,3.675,0.01,FALSE,FALSE,NA,113.7,113.5,113.7,0,1,0,0,5,2369.6,592.41,,Idle,0,20,FALSE,5,TRUE,7,Go Home,FALSE,FALSE,FALSE,FALSE,FALSE,FALSE,FALSE,FALSE,FALSE,FALSE,FALSE,FALSE,6.972882553,79.91592823,3.2,122.8,328,TRUE,1,1,FALSE,FALSE,FALSE,FALSE,,TRUE,FALSE,FALSE,Course Lock,49.2,14.3,16.4,Calm,40,,1.12.8,Mavic Mini,1SDCH7G0169R0K,1SFLH6Q0AB03DJ,1SRCH7F014TAHX,1U5X071EXP6C8G,76.4,0.2,19.6,10.739548,2.684328,0,376,Mavic Mini,1SDCH7G0169R0K,1SFLH6Q0AB03DJ,1SRCH7F014TAHX,1U5X071EXP6C8G,DJI Fly,,1.12.8,686EAC12-D5FF-E04B-40FA-00D801D5B796,1SDCH7G0169R0K,,,,,6.972843935,79.91593773,5,,
3/2/2024,47:32.1,9m 20.6s,560.6,6.972886257,79.91593623,0.9,0.9,1.6,58,0.7,0.223694,0.447388,0,0,-0.223694,0,-2.460634,0,2.3,1.4,-55.4,304.6,253,P-GPS,Auto Fly,,16,5,TRUE,,Mavic Mini,TRUE,FALSE,,Smart,RC,FALSE,TRUE,FALSE,,,TRUE,,FALSE,FALSE,FALSE,FALSE,FALSE,FALSE,FALSE,FALSE,FALSE,FALSE,0,Follow Yaw,0,0,-51,309,FALSE,FALSE,FALSE,FALSE,FALSE,FALSE,,TRUE,Normal,,100,1024,1024,1240,1024,1,FALSE,FALSE,FALSE,FALSE,FALSE,0,FALSE,FALSE,FALSE,FALSE,58,7.353,1208,2075,7.528,FALSE,3.679,3.675,0.01,FALSE,FALSE,NA,113.7,113.5,113.7,0,1,0,0,5,2369.6,592.41,,Idle,0,20,FALSE,5,TRUE,7,Go Home,FALSE,FALSE,FALSE,FALSE,FALSE,FALSE,FALSE,FALSE,FALSE,FALSE,FALSE,FALSE,6.972882553,79.91592823,3.1,122.8,328,TRUE,1,1,FALSE,FALSE,FALSE,FALSE,,TRUE,FALSE,FALSE,Course Lock,49.2,14.3,16.4,Calm,40,,1.12.8,Mavic Mini,1SDCH7G0169R0K,1SFLH6Q0AB03DJ,1SRCH7F014TAHX,1U5X071EXP6C8G,76.4,0.2,19.6,10.739548,2.684328,0,376,Mavic Mini,1SDCH7G0169R0K,1SFLH6Q0AB03DJ,1SRCH7F014TAHX,1U5X071EXP6C8G,DJI Fly,,1.12.8,686EAC12-D5FF-E04B-40FA-00D801D5B796,1SDCH7G0169R0K,,,,,6.972843935,79.91593773,5,,
3/2/2024,47:32.2,9m 20.7s,560.7,6.972886256,79.91593605,1.3,1.3,1.9,58,0.8,0,0.447388,0,0,0,0,-2.684328,0,1.7,1.1,-55.4,304.6,,P-GPS,Auto Fly,,16,5,TRUE,,Mavic Mini,TRUE,FALSE,,Smart,RC,FALSE,TRUE,FALSE,,,TRUE,,FALSE,FALSE,FALSE,FALSE,FALSE,FALSE,FALSE,FALSE,FALSE,FALSE,0,Follow Yaw,0,0,-51,309,FALSE,FALSE,FALSE,FALSE,FALSE,FALSE,,TRUE,Normal,,100,1024,1024,1024,1024,1,FALSE,FALSE,FALSE,FALSE,FALSE,0,FALSE,FALSE,FALSE,FALSE,58,7.353,1208,2075,7.489,FALSE,3.679,3.675,0.01,FALSE,FALSE,NA,113.7,113.5,113.7,0,0,1,0,5,2947.2,736.8,,Idle,0,20,FALSE,5,TRUE,7,Go Home,FALSE,FALSE,FALSE,FALSE,FALSE,FALSE,FALSE,FALSE,FALSE,FALSE,FALSE,FALSE,6.97288654,79.91593719,0.4,122.8,328,TRUE,1,1,FALSE,FALSE,FALSE,FALSE,,TRUE,FALSE,FALSE,Course Lock,49.2,14.3,16.4,Calm,40,,1.12.8,Mavic Mini,1SDCH7G0169R0K,1SFLH6Q0AB03DJ,1SRCH7F014TAHX,1U5X071EXP6C8G,76.4,0.2,19.6,10.739548,2.684328,0,376,Mavic Mini,1SDCH7G0169R0K,1SFLH6Q0AB03DJ,1SRCH7F014TAHX,1U5X071EXP6C8G,DJI Fly,,1.12.8,686EAC12-D5FF-E04B-40FA-00D801D5B796,1SDCH7G0169R0K,,,,,6.972843935,79.91593773,5,Home Point Updated.,
3/2/2024,47:32.3,9m 20.8s,560.8,6.972886273,79.91593592,1.6,1.6,2.2,58,0.8,0,0.447388,0,0,0,0,-2.460634,0,2.1,0.5,-55.4,304.6,,P-GPS,Auto Fly,,15,5,TRUE,,Mavic Mini,TRUE,FALSE,,Smart,RC,FALSE,TRUE,FALSE,,,TRUE,,FALSE,FALSE,FALSE,FALSE,FALSE,FALSE,FALSE,FALSE,FALSE,FALSE,0,Follow Yaw,0,0,-51,309,FALSE,FALSE,FALSE,FALSE,FALSE,FALSE,,TRUE,Normal,,100,1024,1024,1024,1024,1,FALSE,FALSE,FALSE,FALSE,FALSE,0,FALSE,FALSE,FALSE,FALSE,58,7.353,1208,2075,7.489,FALSE,3.679,3.675,0.01,FALSE,FALSE,NA,113.7,113.5,113.7,0,0,1,0,5,2947.2,736.8,,Idle,0,20,FALSE,5,TRUE,7,Go Home,FALSE,FALSE,FALSE,FALSE,FALSE,FALSE,FALSE,FALSE,FALSE,FALSE,FALSE,FALSE,6.97288654,79.91593719,0.4,122.8,328,TRUE,1,1,FALSE,FALSE,FALSE,FALSE,,TRUE,FALSE,FALSE,Course Lock,49.2,14.3,16.4,Calm,40,,1.12.8,Mavic Mini,1SDCH7G0169R0K,1SFLH6Q0AB03DJ,1SRCH7F014TAHX,1U5X071EXP6C8G,76.4,0.2,19.6,10.739548,2.684328,0,376,Mavic Mini,1SDCH7G0169R0K,1SFLH6Q0AB03DJ,1SRCH7F014TAHX,1U5X071EXP6C8G,DJI Fly,,1.12.8,686EAC12-D5FF-E04B-40FA-00D801D5B796,1SDCH7G0169R0K,,,,,6.972843935,79.91593773,5,Home Point updated. RTH altitude adjusted to 15 m! (Code: 120852).,
3/2/2024,47:32.4,9m 20.9s,560.9,6.972886405,79.9159357,1.9,1.9,2.6,59,0.9,0,0.447388,0,0,0,0,-2.013246,0,2.4,0.4,-55.4,304.6,,P-GPS,Auto Fly,,15,5,TRUE,,Mavic Mini,TRUE,FALSE,,Smart,RC,FALSE,TRUE,FALSE,,,TRUE,,FALSE,FALSE,FALSE,FALSE,FALSE,FALSE,FALSE,FALSE,FALSE,FALSE,0,Follow Yaw,0,0,-51,309,FALSE,FALSE,FALSE,FALSE,FALSE,FALSE,,TRUE,Normal,,100,1024,1024,1024,1024,1,FALSE,FALSE,FALSE,FALSE,FALSE,0,FALSE,FALSE,FALSE,FALSE,58,7.353,1208,2075,7.489,FALSE,3.679,3.675,0.01,FALSE,FALSE,NA,113.7,113.5,113.7,0,0,1,0,5,2947.2,736.8,,Idle,0,20,FALSE,5,TRUE,7,Go Home,FALSE,FALSE,FALSE,FALSE,FALSE,FALSE,FALSE,FALSE,FALSE,FALSE,FALSE,FALSE,6.97288654,79.91593719,0.5,122.8,328,TRUE,1,1,FALSE,FALSE,FALSE,FALSE,,TRUE,FALSE,FALSE,Course Lock,49.2,14.3,16.4,Calm,40,,1.12.8,Mavic Mini,1SDCH7G0169R0K,1SFLH6Q0AB03DJ,1SRCH7F014TAHX,1U5X071EXP6C8G,76.4,0.2,19.6,10.739548,2.684328,0,376,Mavic Mini,1SDCH7G0169R0K,1SFLH6Q0AB03DJ,1SRCH7F014TAHX,1U5X071EXP6C8G,DJI Fly,,1.12.8,686EAC12-D5FF-E04B-40FA-00D801D5B796,1SDCH7G0169R0K,,,,,6.972843935,79.91593773,5,,
3/2/2024,47:32.4,9m 21.0s,561,6.972886466,79.91593566,2.2,2.2,2.9,59,1,0,0.447388,0,0,0,0,-1.565858,0,2.3,0.1,-55.4,304.6,,P-GPS,Auto Fly,,14,5,TRUE,,Mavic Mini,TRUE,FALSE,,Smart,RC,FALSE,TRUE,FALSE,,,TRUE,,FALSE,FALSE,FALSE,FALSE,FALSE,FALSE,FALSE,FALSE,FALSE,FALSE,0,Follow Yaw,0,0,-51,309,FALSE,FALSE,FALSE,FALSE,FALSE,FALSE,,TRUE,Normal,,100,1024,1024,1024,1024,1,FALSE,FALSE,FALSE,FALSE,FALSE,0,FALSE,FALSE,FALSE,FALSE,58,7.353,1208,2075,7.489,FALSE,3.679,3.675,0.01,FALSE,FALSE,NA,113.7,113.5,113.7,0,0,1,0,5,2947.2,736.8,,Idle,0,20,FALSE,5,TRUE,7,Go Home,FALSE,FALSE,FALSE,FALSE,FALSE,FALSE,FALSE,FALSE,FALSE,FALSE,FALSE,FALSE,6.97288654,79.91593719,0.5,122.8,328,TRUE,1,1,FALSE,FALSE,FALSE,FALSE,,TRUE,FALSE,FALSE,Course Lock,49.2,14.3,16.4,Calm,40,,1.12.8,Mavic Mini,1SDCH7G0169R0K,1SFLH6Q0AB03DJ,1SRCH7F014TAHX,1U5X071EXP6C8G,76.4,0.2,19.6,10.739548,2.684328,0,376,Mavic Mini,1SDCH7G0169R0K,1SFLH6Q0AB03DJ,1SRCH7F014TAHX,1U5X071EXP6C8G,DJI Fly,,1.12.8,686EAC12-D5FF-E04B-40FA-00D801D5B796,1SDCH7G0169R0K,,,,,6.972843935,79.91593773,5,,
3/2/2024,47:32.6,9m 21.1s,561.1,6.972886517,79.91593572,2.2,2.2,3.2,59,1,0,0.447388,0,0,0,0,-1.11847,0,2.3,-0.2,-55.3,304.7,,P-GPS,Auto Fly,,14,5,TRUE,,Mavic Mini,TRUE,FALSE,,Smart,RC,FALSE,TRUE,FALSE,,,TRUE,,FALSE,FALSE,FALSE,FALSE,FALSE,FALSE,FALSE,FALSE,FALSE,FALSE,0,Follow Yaw,0,0,-51,309,FALSE,FALSE,FALSE,FALSE,FALSE,FALSE,,TRUE,Normal,,100,1024,1024,1024,1024,1,FALSE,FALSE,FALSE,FALSE,FALSE,0,FALSE,FALSE,FALSE,FALSE,58,7.353,1208,2075,7.489,FALSE,3.679,3.675,0.01,FALSE,FALSE,NA,113.7,113.5,113.7,0,0,1,0,5,2947.2,736.8,,Idle,0,20,FALSE,5,TRUE,7,Go Home,FALSE,FALSE,FALSE,FALSE,FALSE,FALSE,FALSE,FALSE,FALSE,FALSE,FALSE,FALSE,6.97288654,79.91593719,0.5,122.8,328,TRUE,1,1,FALSE,FALSE,FALSE,FALSE,,TRUE,FALSE,FALSE,Course Lock,49.2,14.3,16.4,Calm,40,,1.12.8,Mavic Mini,1SDCH7G0169R0K,1SFLH6Q0AB03DJ,1SRCH7F014TAHX,1U5X071EXP6C8G,76.4,0.2,19.6,10.739548,2.684328,0,376,Mavic Mini,1SDCH7G0169R0K,1SFLH6Q0AB03DJ,1SRCH7F014TAHX,1U5X071EXP6C8G,DJI Fly,,1.12.8,686EAC12-D5FF-E04B-40FA-00D801D5B796,1SDCH7G0169R0K,,,,,6.972843809,79.91594402,5,,
3/2/2024,47:32.6,9m 21.2s,561.2,6.972886545,79.91593578,2.6,2.6,3.2,59,1,0,0.447388,0,0,0,0,-0.671082,0,2.2,0,-55.3,304.7,,P-GPS,Auto Fly,,14,5,TRUE,,Mavic Mini,TRUE,FALSE,,Smart,RC,FALSE,TRUE,FALSE,,,TRUE,,FALSE,FALSE,FALSE,FALSE,FALSE,FALSE,FALSE,FALSE,FALSE,FALSE,0,Follow Yaw,0,0,-51,309,FALSE,FALSE,FALSE,FALSE,FALSE,FALSE,,TRUE,Normal,,100,1024,1024,1024,1024,1,FALSE,FALSE,FALSE,FALSE,FALSE,0,FALSE,FALSE,FALSE,FALSE,58,7.353,1208,2075,7.489,FALSE,3.679,3.675,0.01,FALSE,FALSE,NA,113.7,113.5,113.7,0,0,1,0,5,2947.2,736.8,,Idle,0,20,FALSE,5,TRUE,7,Go Home,FALSE,FALSE,FALSE,FALSE,FALSE,FALSE,FALSE,FALSE,FALSE,FALSE,FALSE,FALSE,6.97288654,79.91593719,0.5,122.8,328,TRUE,1,1,FALSE,FALSE,FALSE,FALSE,,TRUE,FALSE,FALSE,Course Lock,49.2,14.3,16.4,Calm,40,,1.12.8,Mavic Mini,1SDCH7G0169R0K,1SFLH6Q0AB03DJ,1SRCH7F014TAHX,1U5X071EXP6C8G,76.4,0.2,19.6,10.739548,2.684328,0,376,Mavic Mini,1SDCH7G0169R0K,1SFLH6Q0AB03DJ,1SRCH7F014TAHX,1U5X071EXP6C8G,DJI Fly,,1.12.8,686EAC12-D5FF-E04B-40FA-00D801D5B796,1SDCH7G0169R0K,,,,,6.972843809,79.91594402,5,,
3/2/2024,47:32.7,9m 21.3s,561.3,6.972886422,79.91593595,2.6,2.6,3.2,59,1.1,0,0.447388,0,0,0,0,-0.223694,0,2.3,0.1,-55.3,304.7,,P-GPS,Auto Fly,,14,5,TRUE,,Mavic Mini,TRUE,FALSE,,Smart,RC,FALSE,TRUE,FALSE,,,TRUE,,FALSE,FALSE,FALSE,FALSE,FALSE,FALSE,FALSE,FALSE,FALSE,FALSE,0,Follow Yaw,0,0,-51,309,FALSE,FALSE,FALSE,FALSE,FALSE,FALSE,,TRUE,Normal,,100,1024,1024,1024,1024,1,FALSE,FALSE,FALSE,FALSE,FALSE,0,FALSE,FALSE,FALSE,FALSE,58,7.353,1208,2075,7.489,FALSE,3.679,3.675,0.01,FALSE,FALSE,NA,113.7,113.5,113.7,0,0,1,0,5,2947.2,736.8,,Idle,0,20,FALSE,5,TRUE,7,Go Home,FALSE,FALSE,FALSE,FALSE,FALSE,FALSE,FALSE,FALSE,FALSE,FALSE,FALSE,FALSE,6.97288654,79.91593719,0.4,122.8,328,TRUE,1,1,FALSE,FALSE,FALSE,FALSE,,TRUE,FALSE,FALSE,Course Lock,49.2,14.3,16.4,Calm,40,,1.12.8,Mavic Mini,1SDCH7G0169R0K,1SFLH6Q0AB03DJ,1SRCH7F014TAHX,1U5X071EXP6C8G,76.4,0.2,19.6,10.739548,2.684328,0,376,Mavic Mini,1SDCH7G0169R0K,1SFLH6Q0AB03DJ,1SRCH7F014TAHX,1U5X071EXP6C8G,DJI Fly,,1.12.8,686EAC12-D5FF-E04B-40FA-00D801D5B796,1SDCH7G0169R0K,,,,,6.972843809,79.91594402,5,,
3/2/2024,47:32.8,9m 21.4s,561.4,6.972886385,79.915936,2.6,2.6,3.2,59,1.1,0,0.447388,0,0,0,0,0,0,2.1,0,-55.4,304.6,,P-GPS,Auto Fly,,14,5,TRUE,,Mavic Mini,TRUE,FALSE,,Smart,RC,FALSE,TRUE,FALSE,,,TRUE,,FALSE,FALSE,FALSE,FALSE,FALSE,FALSE,FALSE,FALSE,FALSE,FALSE,0,Follow Yaw,0,0,-51,309,FALSE,FALSE,FALSE,FALSE,FALSE,FALSE,,TRUE,Normal,,100,1024,1024,1024,1024,1,FALSE,FALSE,FALSE,FALSE,FALSE,0,FALSE,FALSE,FALSE,FALSE,58,7.353,1208,2075,7.489,FALSE,3.679,3.675,0.01,FALSE,FALSE,NA,113.7,113.5,113.7,0,0,1,0,5,2947.2,736.8,,Idle,0,20,FALSE,5,TRUE,7,Go Home,FALSE,FALSE,FALSE,FALSE,FALSE,FALSE,FALSE,FALSE,FALSE,FALSE,FALSE,FALSE,6.97288654,79.91593719,0.4,122.8,328,TRUE,1,1,FALSE,FALSE,FALSE,FALSE,,TRUE,FALSE,FALSE,Course Lock,49.2,14.3,16.4,Calm,40,,1.12.8,Mavic Mini,1SDCH7G0169R0K,1SFLH6Q0AB03DJ,1SRCH7F014TAHX,1U5X071EXP6C8G,76.4,0.2,19.6,10.739548,2.684328,0,376,Mavic Mini,1SDCH7G0169R0K,1SFLH6Q0AB03DJ,1SRCH7F014TAHX,1U5X071EXP6C8G,DJI Fly,,1.12.8,686EAC12-D5FF-E04B-40FA-00D801D5B796,1SDCH7G0169R0K,,,,,6.972843809,79.91594402,5,,
3/2/2024,47:33.0,9m 21.5s,561.5,6.972886394,79.91593605,2.6,2.6,3.2,59,1.1,0,0.447388,0,0,0,0,0,0,1.9,0,-55.4,304.6,,P-GPS,Auto Fly,,14,5,TRUE,,Mavic Mini,TRUE,FALSE,,Smart,RC,FALSE,TRUE,FALSE,,,TRUE,,FALSE,FALSE,FALSE,FALSE,FALSE,FALSE,FALSE,FALSE,FALSE,FALSE,0,Follow Yaw,0,0,-51,309,FALSE,FALSE,FALSE,FALSE,FALSE,FALSE,,TRUE,Normal,,100,1024,1024,1024,1024,1,FALSE,FALSE,FALSE,FALSE,FALSE,0,FALSE,FALSE,FALSE,FALSE,58,7.353,1208,2075,7.489,FALSE,3.679,3.675,0.01,FALSE,FALSE,NA,113.7,113.5,113.7,0,0,1,0,5,2947.2,736.8,,Idle,0,20,FALSE,5,TRUE,7,Go Home,FALSE,FALSE,FALSE,FALSE,FALSE,FALSE,FALSE,FALSE,FALSE,FALSE,FALSE,FALSE,6.97288654,79.91593719,0.4,122.8,328,TRUE,1,1,FALSE,FALSE,FALSE,FALSE,,TRUE,FALSE,FALSE,Course Lock,49.2,14.3,16.4,Calm,40,,1.12.8,Mavic Mini,1SDCH7G0169R0K,1SFLH6Q0AB03DJ,1SRCH7F014TAHX,1U5X071EXP6C8G,76.4,0.2,19.6,10.739548,2.684328,0,376,Mavic Mini,1SDCH7G0169R0K,1SFLH6Q0AB03DJ,1SRCH7F014TAHX,1U5X071EXP6C8G,DJI Fly,,1.12.8,686EAC12-D5FF-E04B-40FA-00D801D5B796,1SDCH7G0169R0K,,,,,6.972843809,79.91594402,5,,
3/2/2024,47:33.1,9m 21.6s,561.6,6.972886404,79.9159361,2.6,2.6,3.2,59,1.1,0,0.447388,0,0,0,0,0,0,1.6,-0.1,-55.5,304.5,,P-GPS,Auto Fly,,14,5,TRUE,,Mavic Mini,TRUE,FALSE,,Smart,RC,FALSE,TRUE,FALSE,,,TRUE,,FALSE,FALSE,FALSE,FALSE,FALSE,FALSE,FALSE,FALSE,FALSE,FALSE,0,Follow Yaw,0,0,-51,309,FALSE,FALSE,FALSE,FALSE,FALSE,FALSE,,TRUE,Normal,,100,1024,1024,1024,1024,1,FALSE,FALSE,FALSE,FALSE,FALSE,0,FALSE,FALSE,FALSE,FALSE,58,7.412,1207,2075,7.489,FALSE,3.711,3.701,0.01,FALSE,FALSE,NA,113.5,113.5,113.7,0,0,1,0,5,2947.2,736.8,,Idle,0,20,FALSE,5,TRUE,7,Go Home,FALSE,FALSE,FALSE,FALSE,FALSE,FALSE,FALSE,FALSE,FALSE,FALSE,FALSE,FALSE,6.97288654,79.91593719,0.3,122.8,328,TRUE,1,1,FALSE,FALSE,FALSE,FALSE,,TRUE,FALSE,FALSE,Course Lock,49.2,14.3,16.4,Calm,40,,1.12.8,Mavic Mini,1SDCH7G0169R0K,1SFLH6Q0AB03DJ,1SRCH7F014TAHX,1U5X071EXP6C8G,76.4,0.2,19.6,10.739548,2.684328,0,376,Mavic Mini,1SDCH7G0169R0K,1SFLH6Q0AB03DJ,1SRCH7F014TAHX,1U5X071EXP6C8G,DJI Fly,,1.12.8,686EAC12-D5FF-E04B-40FA-00D801D5B796,1SDCH7G0169R0K,,,,,6.972843809,79.91594402,5,,
3/2/2024,47:33.2,9m 21.7s,561.7,6.972886512,79.91593614,2.6,2.6,3.2,59,1.2,0,0.447388,0,0,0,0,0,0,1.4,-0.2,-55.5,304.5,,P-GPS,Auto Fly,,14,5,TRUE,,Mavic Mini,TRUE,FALSE,,Smart,RC,FALSE,TRUE,FALSE,,,TRUE,,FALSE,FALSE,FALSE,FALSE,FALSE,FALSE,FALSE,FALSE,FALSE,FALSE,0,Follow Yaw,0,0,-51,309,FALSE,FALSE,FALSE,FALSE,FALSE,FALSE,,TRUE,Normal,,100,1024,1024,1024,1024,1,FALSE,FALSE,FALSE,FALSE,FALSE,0,FALSE,FALSE,FALSE,FALSE,58,7.412,1207,2075,7.346,FALSE,3.711,3.701,0.01,FALSE,FALSE,NA,113.5,113.5,113.7,0,0,1,0,5,4332.7,1083.19,,Idle,0,20,FALSE,5,TRUE,7,Go Home,FALSE,FALSE,FALSE,FALSE,FALSE,FALSE,FALSE,FALSE,FALSE,FALSE,FALSE,FALSE,6.97288654,79.91593719,0.3,122.8,328,TRUE,1,1,FALSE,FALSE,FALSE,FALSE,,TRUE,FALSE,FALSE,Course Lock,49.2,14.3,16.4,Calm,40,,1.12.8,Mavic Mini,1SDCH7G0169R0K,1SFLH6Q0AB03DJ,1SRCH7F014TAHX,1U5X071EXP6C8G,76.4,0.2,19.6,10.739548,2.684328,0,376,Mavic Mini,1SDCH7G0169R0K,1SFLH6Q0AB03DJ,1SRCH7F014TAHX,1U5X071EXP6C8G,DJI Fly,,1.12.8,686EAC12-D5FF-E04B-40FA-00D801D5B796,1SDCH7G0169R0K,,,,,6.972843809,79.91594402,5,,
3/2/2024,47:33.3,9m 21.8s,561.8,6.972886531,79.9159362,2.2,2.6,3.2,59,1.2,0,0.447388,0,0,0,0,0,0,0.9,-0.3,-55.4,304.6,,P-GPS,Auto Fly,,14,5,TRUE,,Mavic Mini,TRUE,FALSE,,Smart,RC,FALSE,TRUE,FALSE,,,TRUE,,FALSE,FALSE,FALSE,FALSE,FALSE,FALSE,FALSE,FALSE,FALSE,FALSE,0,Follow Yaw,0,0,-51,309,FALSE,FALSE,FALSE,FALSE,FALSE,FALSE,,TRUE,Normal,,100,1024,1024,1024,1024,1,FALSE,FALSE,FALSE,FALSE,FALSE,0,FALSE,FALSE,FALSE,FALSE,58,7.412,1207,2075,7.346,FALSE,3.711,3.701,0.01,FALSE,FALSE,NA,113.5,113.5,113.7,0,0,1,0,5,4332.7,1083.19,,Idle,0,20,FALSE,5,TRUE,7,Go Home,FALSE,FALSE,FALSE,FALSE,FALSE,FALSE,FALSE,FALSE,FALSE,FALSE,FALSE,FALSE,6.97288654,79.91593719,0.3,122.8,328,TRUE,1,1,FALSE,FALSE,FALSE,FALSE,,TRUE,FALSE,FALSE,Course Lock,49.2,14.3,16.4,Calm,40,,1.12.8,Mavic Mini,1SDCH7G0169R0K,1SFLH6Q0AB03DJ,1SRCH7F014TAHX,1U5X071EXP6C8G,76.4,0.2,19.6,10.739548,2.684328,0,376,Mavic Mini,1SDCH7G0169R0K,1SFLH6Q0AB03DJ,1SRCH7F014TAHX,1U5X071EXP6C8G,DJI Fly,,1.12.8,686EAC12-D5FF-E04B-40FA-00D801D5B796,1SDCH7G0169R0K,,,,,6.972843809,79.91594402,5,,
3/2/2024,47:33.4,9m 21.9s,561.9,6.972886477,79.91593629,2.2,2.6,3.2,59,1.2,0,0.447388,0,0,0,0,0,0,0.9,-0.2,-55.4,304.6,,P-GPS,Auto Fly,,14,5,TRUE,,Mavic Mini,TRUE,FALSE,,Smart,RC,FALSE,TRUE,FALSE,,,TRUE,,FALSE,FALSE,FALSE,FALSE,FALSE,FALSE,FALSE,FALSE,FALSE,FALSE,0,Follow Yaw,0,0,-51,309,FALSE,FALSE,FALSE,FALSE,FALSE,FALSE,,TRUE,Normal,,100,1024,1024,1024,1024,1,FALSE,FALSE,FALSE,FALSE,FALSE,0,FALSE,FALSE,FALSE,FALSE,58,7.412,1207,2075,7.346,FALSE,3.711,3.701,0.01,FALSE,FALSE,NA,113.5,113.5,113.7,0,0,1,0,5,4332.7,1083.19,,Idle,0,20,FALSE,5,TRUE,7,Go Home,FALSE,FALSE,FALSE,FALSE,FALSE,FALSE,FALSE,FALSE,FALSE,FALSE,FALSE,FALSE,6.97288654,79.91593719,0.3,122.8,328,TRUE,1,1,FALSE,FALSE,FALSE,FALSE,,TRUE,FALSE,FALSE,Course Lock,49.2,14.3,16.4,Calm,40,,1.12.8,Mavic Mini,1SDCH7G0169R0K,1SFLH6Q0AB03DJ,1SRCH7F014TAHX,1U5X071EXP6C8G,76.4,0.2,19.6,10.739548,2.684328,0,376,Mavic Mini,1SDCH7G0169R0K,1SFLH6Q0AB03DJ,1SRCH7F014TAHX,1U5X071EXP6C8G,DJI Fly,,1.12.8,686EAC12-D5FF-E04B-40FA-00D801D5B796,1SDCH7G0169R0K,,,,,6.972843809,79.91594402,5,,
3/2/2024,47:33.5,9m 22.0s,562,6.972886428,79.91593636,2.2,2.6,3.2,59,1.3,0,0.447388,0,0,0,0,0,0,0.6,-0.3,-55.4,304.6,,P-GPS,Auto Fly,,15,5,TRUE,,Mavic Mini,TRUE,FALSE,,Smart,RC,FALSE,TRUE,FALSE,,,TRUE,,FALSE,FALSE,FALSE,FALSE,FALSE,FALSE,FALSE,FALSE,FALSE,FALSE,0,Follow Yaw,0,0,-51,309,FALSE,FALSE,FALSE,FALSE,FALSE,FALSE,,TRUE,Normal,,100,1024,1024,1024,1024,1,FALSE,FALSE,FALSE,FALSE,FALSE,0,FALSE,FALSE,FALSE,FALSE,58,7.412,1207,2075,7.346,FALSE,3.711,3.701,0.01,FALSE,FALSE,NA,113.5,113.5,113.7,0,0,1,0,5,4332.7,1083.19,,Idle,0,20,FALSE,5,TRUE,7,Go Home,FALSE,FALSE,FALSE,FALSE,FALSE,FALSE,FALSE,FALSE,FALSE,FALSE,FALSE,FALSE,6.97288654,79.91593719,0.3,122.8,328,TRUE,1,1,FALSE,FALSE,FALSE,FALSE,,TRUE,FALSE,FALSE,Course Lock,49.2,14.3,16.4,Calm,40,,1.12.8,Mavic Mini,1SDCH7G0169R0K,1SFLH6Q0AB03DJ,1SRCH7F014TAHX,1U5X071EXP6C8G,76.4,0.2,19.6,10.739548,2.684328,0,376,Mavic Mini,1SDCH7G0169R0K,1SFLH6Q0AB03DJ,1SRCH7F014TAHX,1U5X071EXP6C8G,DJI Fly,,1.12.8,686EAC12-D5FF-E04B-40FA-00D801D5B796,1SDCH7G0169R0K,,,,,6.972843809,79.91594402,5,,
3/2/2024,47:33.6,9m 22.1s,562.1,6.972886298,79.91593643,2.2,2.6,3.2,59,1.3,0,0.447388,0,0,0,0,0,0,0.7,-0.3,-55.4,304.6,,P-GPS,Auto Fly,,15,5,TRUE,,Mavic Mini,TRUE,FALSE,,Smart,RC,FALSE,TRUE,FALSE,,,TRUE,,FALSE,FALSE,FALSE,FALSE,FALSE,FALSE,FALSE,FALSE,FALSE,FALSE,0,Follow Yaw,0,0,-51,309,FALSE,FALSE,FALSE,FALSE,FALSE,FALSE,,TRUE,Normal,,100,1024,1024,1024,1024,1,FALSE,FALSE,FALSE,FALSE,FALSE,0,FALSE,FALSE,FALSE,FALSE,58,7.412,1207,2075,7.346,FALSE,3.711,3.701,0.01,FALSE,FALSE,NA,113.5,113.5,113.7,0,0,1,0,5,4332.7,1083.19,,Idle,0,20,FALSE,5,TRUE,7,Go Home,FALSE,FALSE,FALSE,FALSE,FALSE,FALSE,FALSE,FALSE,FALSE,FALSE,FALSE,FALSE,6.97288654,79.91593719,0.2,122.8,328,TRUE,1,1,FALSE,FALSE,FALSE,FALSE,,TRUE,FALSE,FALSE,Course Lock,49.2,14.3,16.4,Calm,40,,1.12.8,Mavic Mini,1SDCH7G0169R0K,1SFLH6Q0AB03DJ,1SRCH7F014TAHX,1U5X071EXP6C8G,76.4,0.2,19.6,10.739548,2.684328,0,376,Mavic Mini,1SDCH7G0169R0K,1SFLH6Q0AB03DJ,1SRCH7F014TAHX,1U5X071EXP6C8G,DJI Fly,,1.12.8,686EAC12-D5FF-E04B-40FA-00D801D5B796,1SDCH7G0169R0K,,,,,6.972843809,79.91594402,5,,
3/2/2024,47:33.7,9m 22.2s,562.2,6.972886282,79.91593646,2.2,2.6,3.2,59,1.3,0,0.447388,0,0,0,0,0,0,0.2,-0.4,-55.3,304.7,,P-GPS,Auto Fly,,15,5,TRUE,,Mavic Mini,TRUE,FALSE,,Smart,RC,FALSE,TRUE,FALSE,,,TRUE,,FALSE,FALSE,FALSE,FALSE,FALSE,FALSE,FALSE,FALSE,FALSE,FALSE,0,Follow Yaw,0,0,-51,309,FALSE,FALSE,FALSE,FALSE,FALSE,FALSE,,TRUE,Normal,,100,1024,1024,1024,1024,1,FALSE,FALSE,FALSE,FALSE,FALSE,0,FALSE,FALSE,FALSE,FALSE,58,7.412,1207,2075,7.346,FALSE,3.711,3.701,0.01,FALSE,FALSE,NA,113.5,113.5,113.7,0,0,1,0,5,4332.7,1083.19,,Idle,0,20,FALSE,5,TRUE,7,Go Home,FALSE,FALSE,FALSE,FALSE,FALSE,FALSE,FALSE,FALSE,FALSE,FALSE,FALSE,FALSE,6.97288654,79.91593719,0.2,122.8,328,TRUE,1,1,FALSE,FALSE,FALSE,FALSE,,TRUE,FALSE,FALSE,Course Lock,49.2,14.3,16.4,Calm,40,,1.12.8,Mavic Mini,1SDCH7G0169R0K,1SFLH6Q0AB03DJ,1SRCH7F014TAHX,1U5X071EXP6C8G,76.4,0.2,19.6,10.739548,2.684328,0,376,Mavic Mini,1SDCH7G0169R0K,1SFLH6Q0AB03DJ,1SRCH7F014TAHX,1U5X071EXP6C8G,DJI Fly,,1.12.8,686EAC12-D5FF-E04B-40FA-00D801D5B796,1SDCH7G0169R0K,,,,,6.972843809,79.91594402,5,,
