CUSTOM.date [local],CUSTOM.updateTime [local],OSD.flyTime,OSD.flyTime [s],OSD.latitude,OSD.longitude,OSD.height [ft],OSD.heightMax [ft],OSD.vpsHeight [ft],OSD.altitude [ft],OSD.mileage [ft],OSD.hSpeed [MPH],OSD.hSpeedMax [MPH],OSD.xSpeed [MPH],OSD.xSpeedMax [MPH],OSD.ySpeed [MPH],OSD.ySpeedMax [MPH],OSD.zSpeed [MPH],OSD.zSpeedMax [MPH],OSD.pitch,OSD.roll,OSD.yaw,OSD.yaw [360],OSD.directionOfTravel,OSD.flycState,OSD.flycCommand,OSD.flightAction,OSD.gpsNum,OSD.gpsLevel,OSD.isGPSUsed,OSD.nonGPSCause,OSD.droneType,OSD.isSwaveWork,OSD.waveError,OSD.goHomeStatus,OSD.batteryType,OSD.ctrlDevice,OSD.isOnGround,OSD.isMotorOn,OSD.isMotorBlocked,OSD.motorStartFailedCause,OSD.motorFailReason,OSD.isImuPreheated,OSD.imuInitFailReason,OSD.isAcceletorOverRange,OSD.isBarometerDeadInAir,OSD.isCompassError,OSD.isGoHomeHeightModified,OSD.canIOCWork,OSD.isNotEnoughForce,OSD.isOutOfLimit,OSD.isPropellerCatapult,OSD.isVibrating,OSD.isVisionUsed,OSD.voltageWarning,GIMBAL.mode,GIMBAL.pitch,GIMBAL.roll,GIMBAL.yaw,GIMBAL.yaw [360],GIMBAL.isPitchAtLimit,GIMBAL.isRollAtLimit,GIMBAL.isYawAtLimit,GIMBAL.isStuck,CAMERA.isPhoto,CAMERA.isVideo,CAMERA.filename,CAMERA.sdCardIsInserted,CAMERA.sdCardState,RC.downlinkSignal,RC.uplinkSignal,RC.aileron,RC.elevator,RC.throttle,RC.rudder,RC.mode,RC.goHomeDepressed,RC.recordDepressed,RC.shutterDepressed,RC.playbackDepressed,RC.wheelDepressed,RC.wheelOffset,RC.custom1Depressed,RC.custom2Depressed,RC.custom3Depressed,RC.custom4Depressed,BATTERY.chargeLevel,BATTERY.currentPV [V],BATTERY.currentCapacity [mAh],BATTERY.fullCapacity [mAh],BATTERY.voltage [V],BATTERY.isCellVoltageEstimated,BATTERY.cellVoltage1 [V],BATTERY.cellVoltage2 [V],BATTERY.maxCellVoltageDeviation,BATTERY.isCellVoltageDeviationHigh,BATTERY.isVoltageLow,BATTERY.current [A],BATTERY.temperature [F],BATTERY.minTemperature [F],BATTERY.maxTemperature [F],BATTERY.usefulTime [s],BATTERY.goHomeTime [s],BATTERY.landTime [s],BATTERY.goHomeBattery,BATTERY.landBattery,BATTERY.safeFlyRadius,BATTERY.volumeConsume,BATTERY.status,BATTERY.goHomeStatus,BATTERY.goHomeCountdown,BATTERY.lowWarning,BATTERY.lowWarningGoHome,BATTERY.seriousLowWarning,BATTERY.seriousLowWarningLanding,BATTERY.timesCharged,MC.failSafeAction,MC.isObstacleAvoidanceEnabled,MC.isCollisionAvoidanceEnabled,MC.isRthObstacleAvoidanceEnabled,MC.isBraking,MC.isAvoidingObstacle,MC.isAvoidingActiveObstacle,MC.isAscentLimitedByObstacle,MC.isLandingConfirmationNeeded,MC.atLowAltitudeLimit,MC.atDistanceLimit,MC.atAirportAltitudeLimit,MC.atAirportBoundary,HOME.latitude,HOME.longitude,HOME.distance [ft],HOME.height [ft],HOME.heightLimit [ft],HOME.isHomeRecord,HOME.goHomeMode,HOME.aircraftHeadDirection,HOME.isDynamicHomePointEnabled,HOME.isReachedLimitDistance,HOME.isReachedLimitHeight,HOME.isCompassCalibrating,HOME.compassCalibrationState,HOME.isMultipleFlightModeEnabled,HOME.isBeginnerMode,HOME.isIOCEnabled,HOME.iocMode,HOME.goHomeHeight [ft],HOME.courseLockAngle,HOME.forceLandingHeight [ft],HOME.wind,HOME.dataRecorderFileIndex,RECOVER.appType,RECOVER.appVersion,RECOVER.aircraftName,RECOVER.aircraftSerial,RECOVER.cameraSerial,RECOVER.rcSerial,RECOVER.batterySerial,DETAILS.totalTime [s],DETAILS.totalDistance [ft],DETAILS.maxHeight [ft],DETAILS.maxHorizontalSpeed [MPH],DETAILS.maxVerticalSpeed [MPH],DETAILS.photoNum,DETAILS.videoTime [s],DETAILS.aircraftName,DETAILS.aircraftSerial,DETAILS.cameraSerial,DETAILS.rcSerial,DETAILS.batterySerial,DETAILS.appName,DETAILS.appType,DETAILS.appVersion,DETAILS.guid,SERIAL.flightController,SERIAL.camera,SERIAL.gimbal,SERIAL.rc,SERIAL.battery,APPGPS.latitude,APPGPS.longitude,APPGPS.accuracy,APP.tip,APP.warning
3/2/2024,50:48.8,6m 39.9s,399.9,6.972886295,79.91593894,0,0,0.3,57,0,0,0,0,0,0,0,0,0,1.4,0.9,-38.7,321.3,,Starting Motors,Auto Fly,Takeoff (RC Assisted),15,4,TRUE,,Mavic Mini,FALSE,FALSE,,Smart,RC,TRUE,TRUE,FALSE,,,TRUE,,FALSE,FALSE,FALSE,FALSE,FALSE,FALSE,FALSE,FALSE,FALSE,FALSE,0,Follow Yaw,0,0,-34.6,325.4,FALSE,FALSE,FALSE,FALSE,FALSE,TRUE,,TRUE,Normal,,,1024,1024,1024,1024,1,FALSE,FALSE,FALSE,FALSE,FALSE,0,FALSE,FALSE,FALSE,FALSE,70,7.698,1438,2075,7.698,TRUE,3.849,3.849,,FALSE,FALSE,NA,108.3,108.3,108.3,,,,,,,,,Idle,,,TRUE,,FALSE,7,Go Home,FALSE,FALSE,FALSE,FALSE,FALSE,FALSE,FALSE,FALSE,FALSE,FALSE,FALSE,FALSE,,,,,,FALSE,,,FALSE,FALSE,FALSE,FALSE,,FALSE,FALSE,FALSE,,,,,Calm,,,1.12.8,Mavic Mini,1SDCH7G0169R0K,1SFLH6Q0AB03DJ,1SRCH7F014TAHX,1U5X071EXP6C8G,69.9,0.4,78.7,17.129815,4.47388,0,4273,Mavic Mini,1SDCH7G0169R0K,1SFLH6Q0AB03DJ,1SRCH7F014TAHX,1U5X071EXP6C8G,DJI Fly,,1.12.8,F88FFE5F-2386-E18D-BEBE-FDFF58614B96,1SDCH7G0169R0K,,,,,,,,Flight mode changed to Starting Motors.,
3/2/2024,50:48.9,6m 40.0s,400,6.972886329,79.91593892,0,0,0.3,57,0,0,0,0,0,0,0,0,0,1.4,0.9,-38.7,321.3,,Starting Motors,Auto Fly,Takeoff (RC Assisted),15,4,TRUE,,Mavic Mini,FALSE,FALSE,,Smart,RC,TRUE,TRUE,FALSE,,,TRUE,,FALSE,FALSE,FALSE,FALSE,FALSE,FALSE,FALSE,FALSE,FALSE,FALSE,0,Follow Yaw,0,0,-34.6,325.4,FALSE,FALSE,FALSE,FALSE,FALSE,TRUE,,TRUE,Normal,,100,1024,1024,1024,1024,1,FALSE,FALSE,FALSE,FALSE,FALSE,0,FALSE,FALSE,FALSE,FALSE,70,7.698,1438,2075,7.698,TRUE,3.849,3.849,,FALSE,FALSE,NA,108.3,108.3,108.3,,,,,,,,,Idle,,,TRUE,,FALSE,7,Go Home,FALSE,FALSE,FALSE,FALSE,FALSE,FALSE,FALSE,FALSE,FALSE,FALSE,FALSE,FALSE,,,,,,FALSE,,,FALSE,FALSE,FALSE,FALSE,,FALSE,FALSE,FALSE,,,,,Calm,,,1.12.8,Mavic Mini,1SDCH7G0169R0K,1SFLH6Q0AB03DJ,1SRCH7F014TAHX,1U5X071EXP6C8G,69.9,0.4,78.7,17.129815,4.47388,0,4273,Mavic Mini,1SDCH7G0169R0K,1SFLH6Q0AB03DJ,1SRCH7F014TAHX,1U5X071EXP6C8G,DJI Fly,,1.12.8,F88FFE5F-2386-E18D-BEBE-FDFF58614B96,1SDCH7G0169R0K,,,,,,,,,
3/2/2024,44:09.1,6m 40.1s,400.1,6.972886405,79.91593889,0,0,0.3,57,0,0,0,0,0,0,0,0,0,1.4,0.8,-38.7,321.3,,Starting Motors,Auto Fly,Takeoff (RC Assisted),15,4,TRUE,,Mavic Mini,TRUE,FALSE,,Smart,RC,TRUE,TRUE,FALSE,,,TRUE,,FALSE,FALSE,FALSE,FALSE,FALSE,FALSE,FALSE,FALSE,FALSE,FALSE,0,Follow Yaw,0,0,-34.6,325.4,FALSE,FALSE,FALSE,FALSE,FALSE,TRUE,,TRUE,Normal,,100,1024,1024,1024,1024,1,FALSE,FALSE,FALSE,FALSE,FALSE,0,FALSE,FALSE,FALSE,FALSE,70,7.698,1438,2075,7.692,TRUE,3.846,3.846,,FALSE,FALSE,NA,108.3,108.3,108.3,0,0,0,0,5,3892.3,973.07,,Idle,0,20,FALSE,5,TRUE,7,Go Home,FALSE,FALSE,FALSE,FALSE,FALSE,FALSE,FALSE,FALSE,FALSE,FALSE,FALSE,FALSE,6.972887123,79.91594268,1.4,123.9,328,TRUE,1,1,FALSE,FALSE,FALSE,FALSE,,TRUE,FALSE,FALSE,Course Lock,49.2,14.3,16.4,Calm,40,,1.12.8,Mavic Mini,1SDCH7G0169R0K,1SFLH6Q0AB03DJ,1SRCH7F014TAHX,1U5X071EXP6C8G,69.9,0.4,78.7,17.129815,4.47388,0,4273,Mavic Mini,1SDCH7G0169R0K,1SFLH6Q0AB03DJ,1SRCH7F014TAHX,1U5X071EXP6C8G,DJI Fly,,1.12.8,F88FFE5F-2386-E18D-BEBE-FDFF58614B96,1SDCH7G0169R0K,,,,,,,,Data Recorder File Index is 40.; Set Return to Home (RTH) altitude to 15 m (49 ft).; Set maximum flight altitude to 100 m (328 ft).,
3/2/2024,44:09.2,6m 40.2s,400.2,6.972886421,79.91593887,0,0,0.3,57,0,0,0,0,0,0,0,0,0,1.5,0.9,-38.7,321.3,,Starting Motors,Auto Fly,Takeoff (RC Assisted),15,4,TRUE,,Mavic Mini,TRUE,FALSE,,Smart,RC,TRUE,TRUE,FALSE,,,TRUE,,FALSE,FALSE,FALSE,FALSE,FALSE,FALSE,FALSE,FALSE,FALSE,FALSE,0,Follow Yaw,0,0,-34.6,325.4,FALSE,FALSE,FALSE,FALSE,FALSE,TRUE,,TRUE,Normal,,100,1024,1024,1024,1024,1,FALSE,FALSE,FALSE,FALSE,FALSE,0,FALSE,FALSE,FALSE,FALSE,70,7.696,1437,2075,7.692,FALSE,3.851,3.845,0.006,FALSE,FALSE,NA,108.5,108.3,108.5,0,0,0,0,5,3892.3,973.07,,Idle,0,20,FALSE,5,TRUE,7,Go Home,FALSE,FALSE,FALSE,FALSE,FALSE,FALSE,FALSE,FALSE,FALSE,FALSE,FALSE,FALSE,6.972887123,79.91594268,1.4,123.9,328,TRUE,1,1,FALSE,FALSE,FALSE,FALSE,,TRUE,FALSE,FALSE,Course Lock,49.2,14.3,16.4,Calm,40,,1.12.8,Mavic Mini,1SDCH7G0169R0K,1SFLH6Q0AB03DJ,1SRCH7F014TAHX,1U5X071EXP6C8G,69.9,0.4,78.7,17.129815,4.47388,0,4273,Mavic Mini,1SDCH7G0169R0K,1SFLH6Q0AB03DJ,1SRCH7F014TAHX,1U5X071EXP6C8G,DJI Fly,,1.12.8,F88FFE5F-2386-E18D-BEBE-FDFF58614B96,1SDCH7G0169R0K,,,,,,,,,
3/2/2024,44:09.2,6m 40.3s,400.3,6.972886433,79.91593887,0,0,0.3,57,0,0,0,0,0,0,0,0,0,1.5,0.9,-38.7,321.3,,Starting Motors,Auto Fly,Takeoff (RC Assisted),15,5,TRUE,,Mavic Mini,TRUE,FALSE,,Smart,RC,TRUE,TRUE,FALSE,,,TRUE,,FALSE,FALSE,FALSE,FALSE,FALSE,FALSE,FALSE,FALSE,FALSE,FALSE,0,Follow Yaw,0,0,-34.6,325.4,FALSE,FALSE,FALSE,FALSE,FALSE,TRUE,,TRUE,Normal,,100,1024,1024,1024,1024,1,FALSE,FALSE,FALSE,FALSE,FALSE,0,FALSE,FALSE,FALSE,FALSE,70,7.696,1437,2075,7.692,FALSE,3.851,3.845,0.006,FALSE,FALSE,NA,108.5,108.3,108.5,0,0,0,0,5,3892.3,973.07,,Idle,0,20,FALSE,5,TRUE,7,Go Home,FALSE,FALSE,FALSE,FALSE,FALSE,FALSE,FALSE,FALSE,FALSE,FALSE,FALSE,FALSE,6.972887123,79.91594268,1.4,123.9,328,TRUE,1,1,FALSE,FALSE,FALSE,FALSE,,TRUE,FALSE,FALSE,Course Lock,49.2,14.3,16.4,Calm,40,,1.12.8,Mavic Mini,1SDCH7G0169R0K,1SFLH6Q0AB03DJ,1SRCH7F014TAHX,1U5X071EXP6C8G,69.9,0.4,78.7,17.129815,4.47388,0,4273,Mavic Mini,1SDCH7G0169R0K,1SFLH6Q0AB03DJ,1SRCH7F014TAHX,1U5X071EXP6C8G,DJI Fly,,1.12.8,F88FFE5F-2386-E18D-BEBE-FDFF58614B96,1SDCH7G0169R0K,,,,,,,,,
3/2/2024,44:09.4,6m 40.4s,400.4,6.972886431,79.91593887,0,0,0.3,57,0,0,0,0,0,0,0,0,0,1.4,0.8,-38.7,321.3,,Starting Motors,Auto Fly,Takeoff (RC Assisted),15,5,TRUE,,Mavic Mini,TRUE,FALSE,,Smart,RC,TRUE,TRUE,FALSE,,,TRUE,,FALSE,FALSE,FALSE,FALSE,FALSE,FALSE,FALSE,FALSE,FALSE,FALSE,0,Follow Yaw,0,0,-34.6,325.4,FALSE,FALSE,FALSE,FALSE,FALSE,TRUE,,TRUE,Normal,,100,1024,1024,1024,1024,1,FALSE,FALSE,FALSE,FALSE,FALSE,0,FALSE,FALSE,FALSE,FALSE,70,7.696,1437,2075,7.692,FALSE,3.851,3.845,0.006,FALSE,FALSE,NA,108.5,108.3,108.5,0,0,0,0,5,3892.3,973.07,,Idle,0,20,FALSE,5,TRUE,7,Go Home,FALSE,FALSE,FALSE,FALSE,FALSE,FALSE,FALSE,FALSE,FALSE,FALSE,FALSE,FALSE,6.972887123,79.91594268,1.4,123.9,328,TRUE,1,1,FALSE,FALSE,FALSE,FALSE,,TRUE,FALSE,FALSE,Course Lock,49.2,14.3,16.4,Calm,40,,1.12.8,Mavic Mini,1SDCH7G0169R0K,1SFLH6Q0AB03DJ,1SRCH7F014TAHX,1U5X071EXP6C8G,69.9,0.4,78.7,17.129815,4.47388,0,4273,Mavic Mini,1SDCH7G0169R0K,1SFLH6Q0AB03DJ,1SRCH7F014TAHX,1U5X071EXP6C8G,DJI Fly,,1.12.8,F88FFE5F-2386-E18D-BEBE-FDFF58614B96,1SDCH7G0169R0K,,,,,,,,,
3/2/2024,44:09.5,6m 40.5s,400.5,6.972886427,79.91593888,0,0,0.3,57,0,0,0,0,0,0,0,0,0,1.4,0.8,-38.6,321.4,,Starting Motors,Auto Fly,Takeoff (RC Assisted),15,5,TRUE,,Mavic Mini,TRUE,FALSE,,Smart,RC,TRUE,TRUE,FALSE,,,TRUE,,FALSE,FALSE,FALSE,FALSE,FALSE,FALSE,FALSE,FALSE,FALSE,FALSE,0,Follow Yaw,0,0,-34.6,325.4,FALSE,FALSE,FALSE,FALSE,FALSE,TRUE,,TRUE,Normal,,100,1024,1024,1024,1024,1,FALSE,FALSE,FALSE,FALSE,FALSE,0,FALSE,FALSE,FALSE,FALSE,70,7.696,1437,2075,7.692,FALSE,3.851,3.845,0.006,FALSE,FALSE,NA,108.5,108.3,108.5,0,0,0,0,5,3892.3,973.07,,Idle,0,20,FALSE,5,TRUE,7,Go Home,FALSE,FALSE,FALSE,FALSE,FALSE,FALSE,FALSE,FALSE,FALSE,FALSE,FALSE,FALSE,6.972887123,79.91594268,1.4,123.9,328,TRUE,1,1,FALSE,FALSE,FALSE,FALSE,,TRUE,FALSE,FALSE,Course Lock,49.2,14.3,16.4,Calm,40,,1.12.8,Mavic Mini,1SDCH7G0169R0K,1SFLH6Q0AB03DJ,1SRCH7F014TAHX,1U5X071EXP6C8G,69.9,0.4,78.7,17.129815,4.47388,0,4273,Mavic Mini,1SDCH7G0169R0K,1SFLH6Q0AB03DJ,1SRCH7F014TAHX,1U5X071EXP6C8G,DJI Fly,,1.12.8,F88FFE5F-2386-E18D-BEBE-FDFF58614B96,1SDCH7G0169R0K,,,,,,,,,
3/2/2024,44:09.6,6m 40.6s,400.6,6.972886386,79.91593885,0,0,0.3,57,0,0,0,0,0,0,0,0,0,1.4,0.6,-38.6,321.4,,Starting Motors,Auto Fly,Takeoff (RC Assisted),15,5,TRUE,,Mavic Mini,TRUE,FALSE,,Smart,RC,TRUE,TRUE,FALSE,,,TRUE,,FALSE,FALSE,FALSE,FALSE,FALSE,FALSE,FALSE,FALSE,FALSE,FALSE,0,Follow Yaw,0,0,-34.6,325.4,FALSE,FALSE,FALSE,FALSE,FALSE,TRUE,,TRUE,Normal,,100,1024,1024,1024,1024,1,FALSE,FALSE,FALSE,FALSE,FALSE,0,FALSE,FALSE,FALSE,FALSE,70,7.696,1437,2075,7.692,FALSE,3.851,3.845,0.006,FALSE,FALSE,NA,108.5,108.3,108.5,0,0,0,0,5,3892.3,973.07,,Idle,0,20,FALSE,5,TRUE,7,Go Home,FALSE,FALSE,FALSE,FALSE,FALSE,FALSE,FALSE,FALSE,FALSE,FALSE,FALSE,FALSE,6.972887123,79.91594268,1.4,123.9,328,TRUE,1,1,FALSE,FALSE,FALSE,FALSE,,TRUE,FALSE,FALSE,Course Lock,49.2,14.3,16.4,Calm,40,,1.12.8,Mavic Mini,1SDCH7G0169R0K,1SFLH6Q0AB03DJ,1SRCH7F014TAHX,1U5X071EXP6C8G,69.9,0.4,78.7,17.129815,4.47388,0,4273,Mavic Mini,1SDCH7G0169R0K,1SFLH6Q0AB03DJ,1SRCH7F014TAHX,1U5X071EXP6C8G,DJI Fly,,1.12.8,F88FFE5F-2386-E18D-BEBE-FDFF58614B96,1SDCH7G0169R0K,,,,,,,,,
3/2/2024,44:09.7,6m 40.7s,400.7,6.972886375,79.91593885,0,0,0.3,57,0,0,0,0,0,0,0,0,0,1.3,0.5,-38.6,321.4,,Starting Motors,Auto Fly,Takeoff (RC Assisted),15,5,TRUE,,Mavic Mini,TRUE,FALSE,,Smart,RC,TRUE,TRUE,FALSE,,,TRUE,,FALSE,FALSE,FALSE,FALSE,FALSE,FALSE,FALSE,FALSE,FALSE,FALSE,0,Follow Yaw,0,0,-34.6,325.4,FALSE,FALSE,FALSE,FALSE,FALSE,TRUE,,TRUE,Normal,,100,1024,1024,1024,1024,1,FALSE,FALSE,FALSE,FALSE,FALSE,0,FALSE,FALSE,FALSE,FALSE,70,7.696,1437,2075,7.692,FALSE,3.851,3.845,0.006,FALSE,FALSE,NA,108.5,108.3,108.5,0,0,0,0,5,3892.3,973.07,,Idle,0,20,FALSE,5,TRUE,7,Go Home,FALSE,FALSE,FALSE,FALSE,FALSE,FALSE,FALSE,FALSE,FALSE,FALSE,FALSE,FALSE,6.972887123,79.91594268,1.4,123.9,328,TRUE,1,1,FALSE,FALSE,FALSE,FALSE,,TRUE,FALSE,FALSE,Course Lock,49.2,14.3,16.4,Calm,40,,1.12.8,Mavic Mini,1SDCH7G0169R0K,1SFLH6Q0AB03DJ,1SRCH7F014TAHX,1U5X071EXP6C8G,69.9,0.4,78.7,17.129815,4.47388,0,4273,Mavic Mini,1SDCH7G0169R0K,1SFLH6Q0AB03DJ,1SRCH7F014TAHX,1U5X071EXP6C8G,DJI Fly,,1.12.8,F88FFE5F-2386-E18D-BEBE-FDFF58614B96,1SDCH7G0169R0K,,,,,,,,,
3/2/2024,44:09.8,6m 40.8s,400.8,6.972886367,79.91593882,0,0,0.3,57,0,0,0,0,0,0,0,0,0,1.3,0.5,-38.6,321.4,,Starting Motors,Auto Fly,Takeoff (RC Assisted),15,5,TRUE,,Mavic Mini,TRUE,FALSE,,Smart,RC,TRUE,TRUE,FALSE,,,TRUE,,FALSE,FALSE,FALSE,FALSE,FALSE,FALSE,FALSE,FALSE,FALSE,FALSE,0,Follow Yaw,0,0,-34.6,325.4,FALSE,FALSE,FALSE,FALSE,FALSE,TRUE,,TRUE,Normal,,100,1024,1024,1024,1024,1,FALSE,FALSE,FALSE,FALSE,FALSE,0,FALSE,FALSE,FALSE,FALSE,70,7.696,1437,2075,7.692,FALSE,3.851,3.845,0.006,FALSE,FALSE,NA,108.5,108.3,108.5,0,0,0,0,5,3892.3,973.07,,Idle,0,20,FALSE,5,TRUE,7,Go Home,FALSE,FALSE,FALSE,FALSE,FALSE,FALSE,FALSE,FALSE,FALSE,FALSE,FALSE,FALSE,6.972887123,79.91594268,1.4,123.9,328,TRUE,1,1,FALSE,FALSE,FALSE,FALSE,,TRUE,FALSE,FALSE,Course Lock,49.2,14.3,16.4,Calm,40,,1.12.8,Mavic Mini,1SDCH7G0169R0K,1SFLH6Q0AB03DJ,1SRCH7F014TAHX,1U5X071EXP6C8G,69.9,0.4,78.7,17.129815,4.47388,0,4273,Mavic Mini,1SDCH7G0169R0K,1SFLH6Q0AB03DJ,1SRCH7F014TAHX,1U5X071EXP6C8G,DJI Fly,,1.12.8,F88FFE5F-2386-E18D-BEBE-FDFF58614B96,1SDCH7G0169R0K,,,,,,,,,
3/2/2024,44:09.9,6m 40.9s,400.9,6.972886357,79.91593877,0,0,0.3,57,0,0,0,0,0,0,0,0,0,1.4,0.5,-38.6,321.4,,Starting Motors,Auto Fly,Takeoff (RC Assisted),15,5,TRUE,,Mavic Mini,TRUE,FALSE,,Smart,RC,TRUE,TRUE,FALSE,,,TRUE,,FALSE,FALSE,FALSE,FALSE,FALSE,FALSE,FALSE,FALSE,FALSE,FALSE,0,Follow Yaw,0,0,-34.6,325.4,FALSE,FALSE,FALSE,FALSE,FALSE,TRUE,,TRUE,Normal,,100,1024,1024,1024,1024,1,FALSE,FALSE,FALSE,FALSE,FALSE,0,FALSE,FALSE,FALSE,FALSE,70,7.696,1437,2075,7.692,FALSE,3.851,3.845,0.006,FALSE,FALSE,NA,108.5,108.3,108.5,0,0,0,0,5,3892.3,973.07,,Idle,0,20,FALSE,5,TRUE,7,Go Home,FALSE,FALSE,FALSE,FALSE,FALSE,FALSE,FALSE,FALSE,FALSE,FALSE,FALSE,FALSE,6.972887123,79.91594268,1.4,123.9,328,TRUE,1,1,FALSE,FALSE,FALSE,FALSE,,TRUE,FALSE,FALSE,Course Lock,49.2,14.3,16.4,Calm,40,,1.12.8,Mavic Mini,1SDCH7G0169R0K,1SFLH6Q0AB03DJ,1SRCH7F014TAHX,1U5X071EXP6C8G,69.9,0.4,78.7,17.129815,4.47388,0,4273,Mavic Mini,1SDCH7G0169R0K,1SFLH6Q0AB03DJ,1SRCH7F014TAHX,1U5X071EXP6C8G,DJI Fly,,1.12.8,F88FFE5F-2386-E18D-BEBE-FDFF58614B96,1SDCH7G0169R0K,,,,,,,,,
3/2/2024,44:10.0,6m 41.0s,401,6.97288644,79.91593868,0,0,0.3,57,0.1,0,0,0,0,0,0,0,0,1.4,0.6,-38.6,321.4,,Manual Takeoff,Auto Fly,Takeoff (RC Assisted),15,5,TRUE,,Mavic Mini,TRUE,FALSE,,Smart,RC,TRUE,TRUE,FALSE,,,TRUE,,FALSE,FALSE,FALSE,FALSE,FALSE,FALSE,FALSE,FALSE,FALSE,FALSE,0,Follow Yaw,0,0,-34.6,325.4,FALSE,FALSE,FALSE,FALSE,FALSE,TRUE,,TRUE,Normal,,100,1024,1024,1024,1024,1,FALSE,FALSE,FALSE,FALSE,FALSE,0,FALSE,FALSE,FALSE,FALSE,70,7.696,1437,2075,7.692,FALSE,3.851,3.845,0.006,FALSE,FALSE,NA,108.5,108.3,108.5,0,0,0,0,5,3892.3,973.07,,Idle,0,20,FALSE,5,TRUE,7,Go Home,FALSE,FALSE,FALSE,FALSE,FALSE,FALSE,FALSE,FALSE,FALSE,FALSE,FALSE,FALSE,6.972887123,79.91594268,1.4,123.9,328,TRUE,1,1,FALSE,FALSE,FALSE,FALSE,,TRUE,FALSE,FALSE,Course Lock,49.2,14.3,16.4,Calm,40,,1.12.8,Mavic Mini,1SDCH7G0169R0K,1SFLH6Q0AB03DJ,1SRCH7F014TAHX,1U5X071EXP6C8G,69.9,0.4,78.7,17.129815,4.47388,0,4273,Mavic Mini,1SDCH7G0169R0K,1SFLH6Q0AB03DJ,1SRCH7F014TAHX,1U5X071EXP6C8G,DJI Fly,,1.12.8,F88FFE5F-2386-E18D-BEBE-FDFF58614B96,1SDCH7G0169R0K,,,,,,,,Flight mode changed to Manual Takeoff.,
3/2/2024,44:10.1,6m 41.1s,401.1,6.972886483,79.91593868,0,0,0.3,57,0.1,0,0,0,0,0,0,0,0,1.4,0.6,-38.6,321.4,,Manual Takeoff,Auto Fly,Takeoff (RC Assisted),15,5,TRUE,,Mavic Mini,TRUE,FALSE,,Smart,RC,TRUE,TRUE,FALSE,,,TRUE,,FALSE,FALSE,FALSE,FALSE,FALSE,FALSE,FALSE,FALSE,FALSE,FALSE,0,Follow Yaw,0,0,-34.6,325.4,FALSE,FALSE,FALSE,FALSE,FALSE,TRUE,,TRUE,Normal,,100,1024,1024,1024,1024,1,FALSE,FALSE,FALSE,FALSE,FALSE,0,FALSE,FALSE,FALSE,FALSE,70,7.696,1437,2075,7.702,FALSE,3.851,3.845,0.006,FALSE,FALSE,NA,108.5,108.3,108.5,0,0,0,0,5,3281.1,820.27,,Idle,0,20,FALSE,5,TRUE,7,Go Home,FALSE,FALSE,FALSE,FALSE,FALSE,FALSE,FALSE,FALSE,FALSE,FALSE,FALSE,FALSE,6.972887123,79.91594268,1.4,123.9,328,TRUE,1,1,FALSE,FALSE,FALSE,FALSE,,TRUE,FALSE,FALSE,Course Lock,49.2,14.3,16.4,Calm,40,,1.12.8,Mavic Mini,1SDCH7G0169R0K,1SFLH6Q0AB03DJ,1SRCH7F014TAHX,1U5X071EXP6C8G,69.9,0.4,78.7,17.129815,4.47388,0,4273,Mavic Mini,1SDCH7G0169R0K,1SFLH6Q0AB03DJ,1SRCH7F014TAHX,1U5X071EXP6C8G,DJI Fly,,1.12.8,F88FFE5F-2386-E18D-BEBE-FDFF58614B96,1SDCH7G0169R0K,,,,,,,,,
3/2/2024,44:10.2,6m 41.2s,401.2,6.972886452,79.91593869,0,0,0.3,57,0.1,0,0,0,0,0,0,0,0,1.4,0.6,-38.6,321.4,,Manual Takeoff,Auto Fly,Takeoff (RC Assisted),15,5,TRUE,,Mavic Mini,TRUE,FALSE,,Smart,RC,TRUE,TRUE,FALSE,,,TRUE,,FALSE,FALSE,FALSE,FALSE,FALSE,FALSE,FALSE,FALSE,FALSE,FALSE,0,Follow Yaw,0,0,-34.6,325.4,FALSE,FALSE,FALSE,FALSE,FALSE,TRUE,,TRUE,Normal,,100,1024,1024,1024,1024,1,FALSE,FALSE,FALSE,FALSE,FALSE,0,FALSE,FALSE,FALSE,FALSE,70,7.696,1437,2075,7.702,FALSE,3.851,3.845,0.006,FALSE,FALSE,NA,108.5,108.3,108.5,0,0,0,0,5,3281.1,820.27,,Idle,0,20,FALSE,5,TRUE,7,Go Home,FALSE,FALSE,FALSE,FALSE,FALSE,FALSE,FALSE,FALSE,FALSE,FALSE,FALSE,FALSE,6.972887123,79.91594268,1.4,123.9,328,TRUE,1,1,FALSE,FALSE,FALSE,FALSE,,TRUE,FALSE,FALSE,Course Lock,49.2,14.3,16.4,Calm,40,,1.12.8,Mavic Mini,1SDCH7G0169R0K,1SFLH6Q0AB03DJ,1SRCH7F014TAHX,1U5X071EXP6C8G,69.9,0.4,78.7,17.129815,4.47388,0,4273,Mavic Mini,1SDCH7G0169R0K,1SFLH6Q0AB03DJ,1SRCH7F014TAHX,1U5X071EXP6C8G,DJI Fly,,1.12.8,F88FFE5F-2386-E18D-BEBE-FDFF58614B96,1SDCH7G0169R0K,,,,,,,,,
3/2/2024,44:10.3,6m 41.3s,401.3,6.972886412,79.9159387,0,0,0.3,57,0.1,0,0,0,0,0,0,0,0,1.4,0.6,-38.6,321.4,,Manual Takeoff,Auto Fly,Takeoff (RC Assisted),15,5,TRUE,,Mavic Mini,TRUE,FALSE,,Smart,RC,TRUE,TRUE,FALSE,,,TRUE,,FALSE,FALSE,FALSE,FALSE,FALSE,FALSE,FALSE,FALSE,FALSE,FALSE,0,Follow Yaw,0,0,-34.6,325.4,FALSE,FALSE,FALSE,FALSE,FALSE,TRUE,,TRUE,Normal,,100,1024,1024,1024,1024,1,FALSE,FALSE,FALSE,FALSE,FALSE,0,FALSE,FALSE,FALSE,FALSE,70,7.691,1437,2075,7.702,FALSE,3.852,3.839,0.013,FALSE,FALSE,NA,108.5,108.3,108.5,0,0,0,0,5,3281.1,820.27,,Idle,0,20,FALSE,5,TRUE,7,Go Home,FALSE,FALSE,FALSE,FALSE,FALSE,FALSE,FALSE,FALSE,FALSE,FALSE,FALSE,FALSE,6.972887123,79.91594268,1.4,123.9,328,TRUE,1,1,FALSE,FALSE,FALSE,FALSE,,TRUE,FALSE,FALSE,Course Lock,49.2,14.3,16.4,Calm,40,,1.12.8,Mavic Mini,1SDCH7G0169R0K,1SFLH6Q0AB03DJ,1SRCH7F014TAHX,1U5X071EXP6C8G,69.9,0.4,78.7,17.129815,4.47388,0,4273,Mavic Mini,1SDCH7G0169R0K,1SFLH6Q0AB03DJ,1SRCH7F014TAHX,1U5X071EXP6C8G,DJI Fly,,1.12.8,F88FFE5F-2386-E18D-BEBE-FDFF58614B96,1SDCH7G0169R0K,,,,,,,,,
3/2/2024,44:10.5,6m 41.4s,401.4,6.972886299,79.91593874,0,0,0.3,57,0.2,0,0,0,0,0,0,0,0,1.4,0.6,-38.6,321.4,,Manual Takeoff,Auto Fly,Takeoff (RC Assisted),15,5,TRUE,,Mavic Mini,TRUE,FALSE,,Smart,RC,TRUE,TRUE,FALSE,,,TRUE,,FALSE,FALSE,FALSE,FALSE,FALSE,FALSE,FALSE,FALSE,FALSE,FALSE,0,Follow Yaw,0,0,-34.6,325.4,FALSE,FALSE,FALSE,FALSE,FALSE,TRUE,,TRUE,Normal,,100,1024,1024,1024,1024,1,FALSE,FALSE,FALSE,FALSE,FALSE,0,FALSE,FALSE,FALSE,FALSE,70,7.691,1437,2075,7.702,FALSE,3.852,3.839,0.013,FALSE,FALSE,NA,108.5,108.3,108.5,0,0,0,0,5,3281.1,820.27,,Idle,0,20,FALSE,5,TRUE,7,Go Home,FALSE,FALSE,FALSE,FALSE,FALSE,FALSE,FALSE,FALSE,FALSE,FALSE,FALSE,FALSE,6.972887123,79.91594268,1.4,123.9,328,TRUE,1,1,FALSE,FALSE,FALSE,FALSE,,TRUE,FALSE,FALSE,Course Lock,49.2,14.3,16.4,Calm,40,,1.12.8,Mavic Mini,1SDCH7G0169R0K,1SFLH6Q0AB03DJ,1SRCH7F014TAHX,1U5X071EXP6C8G,69.9,0.4,78.7,17.129815,4.47388,0,4273,Mavic Mini,1SDCH7G0169R0K,1SFLH6Q0AB03DJ,1SRCH7F014TAHX,1U5X071EXP6C8G,DJI Fly,,1.12.8,F88FFE5F-2386-E18D-BEBE-FDFF58614B96,1SDCH7G0169R0K,,,,,,,,,
3/2/2024,44:10.5,6m 41.5s,401.5,6.972886278,79.91593876,0,0,0.3,57,0.2,0,0,0,0,0,0,0,0,1.4,0.6,-38.6,321.4,,Manual Takeoff,Auto Fly,Takeoff (RC Assisted),15,5,TRUE,,Mavic Mini,TRUE,FALSE,,Smart,RC,TRUE,TRUE,FALSE,,,TRUE,,FALSE,FALSE,FALSE,FALSE,FALSE,FALSE,FALSE,FALSE,FALSE,FALSE,0,Follow Yaw,0,0,-34.6,325.4,FALSE,FALSE,FALSE,FALSE,FALSE,TRUE,,TRUE,Normal,,100,1024,1024,1024,1024,1,FALSE,FALSE,FALSE,FALSE,FALSE,0,FALSE,FALSE,FALSE,FALSE,70,7.691,1437,2075,7.702,FALSE,3.852,3.839,0.013,FALSE,FALSE,NA,108.5,108.3,108.5,0,0,0,0,5,3281.1,820.27,,Idle,0,20,FALSE,5,TRUE,7,Go Home,FALSE,FALSE,FALSE,FALSE,FALSE,FALSE,FALSE,FALSE,FALSE,FALSE,FALSE,FALSE,6.972887123,79.91594268,1.4,123.9,328,TRUE,1,1,FALSE,FALSE,FALSE,FALSE,,TRUE,FALSE,FALSE,Course Lock,49.2,14.3,16.4,Calm,40,,1.12.8,Mavic Mini,1SDCH7G0169R0K,1SFLH6Q0AB03DJ,1SRCH7F014TAHX,1U5X071EXP6C8G,69.9,0.4,78.7,17.129815,4.47388,0,4273,Mavic Mini,1SDCH7G0169R0K,1SFLH6Q0AB03DJ,1SRCH7F014TAHX,1U5X071EXP6C8G,DJI Fly,,1.12.8,F88FFE5F-2386-E18D-BEBE-FDFF58614B96,1SDCH7G0169R0K,,,,,,,,,
3/2/2024,44:10.6,6m 41.6s,401.6,6.97288627,79.91593872,0,0,0.3,57,0.2,0,0,0,0,0,0,0,0,1.4,0.6,-38.6,321.4,,Manual Takeoff,Auto Fly,Takeoff (RC Assisted),15,5,TRUE,,Mavic Mini,TRUE,FALSE,,Smart,RC,TRUE,TRUE,FALSE,,,TRUE,,FALSE,FALSE,FALSE,FALSE,FALSE,FALSE,FALSE,FALSE,FALSE,FALSE,0,Follow Yaw,0,0,-34.5,325.5,FALSE,FALSE,FALSE,FALSE,FALSE,TRUE,,TRUE,Normal,,100,1024,1024,1024,1024,1,FALSE,FALSE,FALSE,FALSE,FALSE,0,FALSE,FALSE,FALSE,FALSE,70,7.691,1437,2075,7.702,FALSE,3.852,3.839,0.013,FALSE,FALSE,NA,108.5,108.3,108.5,0,0,0,0,5,3281.1,820.27,,Idle,0,20,FALSE,5,TRUE,7,Go Home,FALSE,FALSE,FALSE,FALSE,FALSE,FALSE,FALSE,FALSE,FALSE,FALSE,FALSE,FALSE,6.972887123,79.91594268,1.4,123.9,328,TRUE,1,1,FALSE,FALSE,FALSE,FALSE,,TRUE,FALSE,FALSE,Course Lock,49.2,14.3,16.4,Calm,40,,1.12.8,Mavic Mini,1SDCH7G0169R0K,1SFLH6Q0AB03DJ,1SRCH7F014TAHX,1U5X071EXP6C8G,69.9,0.4,78.7,17.129815,4.47388,0,4273,Mavic Mini,1SDCH7G0169R0K,1SFLH6Q0AB03DJ,1SRCH7F014TAHX,1U5X071EXP6C8G,DJI Fly,,1.12.8,F88FFE5F-2386-E18D-BEBE-FDFF58614B96,1SDCH7G0169R0K,,,,,,,,,
3/2/2024,44:10.6,6m 41.7s,401.7,6.972886262,79.91593869,0,0,0.3,57,0.2,0,0,0,0,0,0,0,0,1.4,0.6,-38.6,321.4,,Manual Takeoff,Auto Fly,Takeoff (RC Assisted),15,5,TRUE,,Mavic Mini,TRUE,FALSE,,Smart,RC,TRUE,TRUE,FALSE,,,TRUE,,FALSE,FALSE,FALSE,FALSE,FALSE,FALSE,FALSE,FALSE,FALSE,FALSE,0,Follow Yaw,0,0,-34.6,325.4,FALSE,FALSE,FALSE,FALSE,FALSE,TRUE,,TRUE,Normal,,100,1024,1024,1024,1024,1,FALSE,FALSE,FALSE,FALSE,FALSE,0,FALSE,FALSE,FALSE,FALSE,70,7.691,1437,2075,7.702,FALSE,3.852,3.839,0.013,FALSE,FALSE,NA,108.5,108.3,108.5,0,0,0,0,5,3281.1,820.27,,Idle,0,20,FALSE,5,TRUE,7,Go Home,FALSE,FALSE,FALSE,FALSE,FALSE,FALSE,FALSE,FALSE,FALSE,FALSE,FALSE,FALSE,6.972887123,79.91594268,1.4,123.9,328,TRUE,1,1,FALSE,FALSE,FALSE,FALSE,,TRUE,FALSE,FALSE,Course Lock,49.2,14.3,16.4,Calm,40,,1.12.8,Mavic Mini,1SDCH7G0169R0K,1SFLH6Q0AB03DJ,1SRCH7F014TAHX,1U5X071EXP6C8G,69.9,0.4,78.7,17.129815,4.47388,0,4273,Mavic Mini,1SDCH7G0169R0K,1SFLH6Q0AB03DJ,1SRCH7F014TAHX,1U5X071EXP6C8G,DJI Fly,,1.12.8,F88FFE5F-2386-E18D-BEBE-FDFF58614B96,1SDCH7G0169R0K,,,,,,,,,
3/2/2024,44:10.8,6m 41.8s,401.8,6.972886284,79.91593859,0,0,0.3,57,0.3,0,0,0,0,0,0,0,0,1.4,0.6,-38.6,321.4,,Manual Takeoff,Auto Fly,Takeoff (RC Assisted),15,5,TRUE,,Mavic Mini,TRUE,FALSE,,Smart,RC,TRUE,TRUE,FALSE,,,TRUE,,FALSE,FALSE,FALSE,FALSE,FALSE,FALSE,FALSE,FALSE,FALSE,FALSE,0,Follow Yaw,0,0,-34.6,325.4,FALSE,FALSE,FALSE,FALSE,FALSE,TRUE,,TRUE,Normal,,100,1024,1024,1024,1024,1,FALSE,FALSE,FALSE,FALSE,FALSE,0,FALSE,FALSE,FALSE,FALSE,70,7.691,1437,2075,7.702,FALSE,3.852,3.839,0.013,FALSE,FALSE,NA,108.5,108.3,108.5,0,0,0,0,5,3281.1,820.27,,Idle,0,20,FALSE,5,TRUE,7,Go Home,FALSE,FALSE,FALSE,FALSE,FALSE,FALSE,FALSE,FALSE,FALSE,FALSE,FALSE,FALSE,6.972887123,79.91594268,1.5,123.9,328,TRUE,1,1,FALSE,FALSE,FALSE,FALSE,,TRUE,FALSE,FALSE,Course Lock,49.2,14.3,16.4,Calm,40,,1.12.8,Mavic Mini,1SDCH7G0169R0K,1SFLH6Q0AB03DJ,1SRCH7F014TAHX,1U5X071EXP6C8G,69.9,0.4,78.7,17.129815,4.47388,0,4273,Mavic Mini,1SDCH7G0169R0K,1SFLH6Q0AB03DJ,1SRCH7F014TAHX,1U5X071EXP6C8G,DJI Fly,,1.12.8,F88FFE5F-2386-E18D-BEBE-FDFF58614B96,1SDCH7G0169R0K,,,,,,,,,
3/2/2024,44:10.9,6m 41.9s,401.9,6.972886282,79.91593858,0,0,0.3,57,0.3,0,0,0,0,0,0,0,0,1.4,0.6,-38.6,321.4,,Manual Takeoff,Auto Fly,Takeoff (RC Assisted),15,5,TRUE,,Mavic Mini,TRUE,FALSE,,Smart,RC,TRUE,TRUE,FALSE,,,TRUE,,FALSE,FALSE,FALSE,FALSE,FALSE,FALSE,FALSE,FALSE,FALSE,FALSE,0,Follow Yaw,0,0,-34.6,325.4,FALSE,FALSE,FALSE,FALSE,FALSE,TRUE,,TRUE,Normal,,100,1024,1024,1024,1024,1,FALSE,FALSE,FALSE,FALSE,FALSE,0,FALSE,FALSE,FALSE,FALSE,70,7.691,1437,2075,7.702,FALSE,3.852,3.839,0.013,FALSE,FALSE,NA,108.5,108.3,108.5,0,0,0,0,5,3281.1,820.27,,Idle,0,20,FALSE,5,TRUE,7,Go Home,FALSE,FALSE,FALSE,FALSE,FALSE,FALSE,FALSE,FALSE,FALSE,FALSE,FALSE,FALSE,6.972887123,79.91594268,1.5,123.9,328,TRUE,1,1,FALSE,FALSE,FALSE,FALSE,,TRUE,FALSE,FALSE,Course Lock,49.2,14.3,16.4,Calm,40,,1.12.8,Mavic Mini,1SDCH7G0169R0K,1SFLH6Q0AB03DJ,1SRCH7F014TAHX,1U5X071EXP6C8G,69.9,0.4,78.7,17.129815,4.47388,0,4273,Mavic Mini,1SDCH7G0169R0K,1SFLH6Q0AB03DJ,1SRCH7F014TAHX,1U5X071EXP6C8G,DJI Fly,,1.12.8,F88FFE5F-2386-E18D-BEBE-FDFF58614B96,1SDCH7G0169R0K,,,,,,,,,
3/2/2024,44:11.0,6m 42.0s,402,6.972886282,79.91593859,0,0,0.3,57,0.3,0,0,0,0,0,0,0,0,1.3,0.6,-38.6,321.4,,Manual Takeoff,Auto Fly,Takeoff (RC Assisted),15,5,TRUE,,Mavic Mini,TRUE,FALSE,,Smart,RC,TRUE,TRUE,FALSE,,,TRUE,,FALSE,FALSE,FALSE,FALSE,FALSE,FALSE,FALSE,FALSE,FALSE,FALSE,0,Follow Yaw,0,0,-34.5,325.5,FALSE,FALSE,FALSE,FALSE,FALSE,TRUE,,TRUE,Normal,,100,1024,1024,1024,1024,1,FALSE,FALSE,FALSE,FALSE,FALSE,0,FALSE,FALSE,FALSE,FALSE,70,7.691,1437,2075,7.702,FALSE,3.852,3.839,0.013,FALSE,FALSE,NA,108.5,108.3,108.5,0,0,0,0,5,3281.1,820.27,,Idle,0,20,FALSE,5,TRUE,7,Go Home,FALSE,FALSE,FALSE,FALSE,FALSE,FALSE,FALSE,FALSE,FALSE,FALSE,FALSE,FALSE,6.972887123,79.91594268,1.5,123.9,328,TRUE,1,1,FALSE,FALSE,FALSE,FALSE,,TRUE,FALSE,FALSE,Course Lock,49.2,14.3,16.4,Calm,40,,1.12.8,Mavic Mini,1SDCH7G0169R0K,1SFLH6Q0AB03DJ,1SRCH7F014TAHX,1U5X071EXP6C8G,69.9,0.4,78.7,17.129815,4.47388,0,4273,Mavic Mini,1SDCH7G0169R0K,1SFLH6Q0AB03DJ,1SRCH7F014TAHX,1U5X071EXP6C8G,DJI Fly,,1.12.8,F88FFE5F-2386-E18D-BEBE-FDFF58614B96,1SDCH7G0169R0K,,,,,6.972851185,79.9159436,5,,
3/2/2024,44:11.1,6m 42.1s,402.1,6.972886282,79.9159386,0,0,0.3,57,0.3,0,0,0,0,0,0,0,0,1.4,0.6,-38.6,321.4,,Manual Takeoff,Auto Fly,Takeoff (RC Assisted),15,5,TRUE,,Mavic Mini,TRUE,FALSE,,Smart,RC,TRUE,TRUE,FALSE,,,TRUE,,FALSE,FALSE,FALSE,FALSE,FALSE,FALSE,FALSE,FALSE,FALSE,FALSE,0,Follow Yaw,0,0,-34.5,325.5,FALSE,FALSE,FALSE,FALSE,FALSE,TRUE,,TRUE,Normal,,100,1024,1024,1024,1024,1,FALSE,FALSE,FALSE,FALSE,FALSE,0,FALSE,FALSE,FALSE,FALSE,70,7.691,1437,2075,7.695,FALSE,3.852,3.839,0.013,FALSE,FALSE,NA,108.5,108.3,108.5,0,0,0,0,5,2938.7,734.68,,Idle,0,20,FALSE,5,TRUE,7,Go Home,FALSE,FALSE,FALSE,FALSE,FALSE,FALSE,FALSE,FALSE,FALSE,FALSE,FALSE,FALSE,6.972887123,79.91594268,1.5,123.9,328,TRUE,1,1,FALSE,FALSE,FALSE,FALSE,,TRUE,FALSE,FALSE,Course Lock,49.2,14.3,16.4,Calm,40,,1.12.8,Mavic Mini,1SDCH7G0169R0K,1SFLH6Q0AB03DJ,1SRCH7F014TAHX,1U5X071EXP6C8G,69.9,0.4,78.7,17.129815,4.47388,0,4273,Mavic Mini,1SDCH7G0169R0K,1SFLH6Q0AB03DJ,1SRCH7F014TAHX,1U5X071EXP6C8G,DJI Fly,,1.12.8,F88FFE5F-2386-E18D-BEBE-FDFF58614B96,1SDCH7G0169R0K,,,,,6.972851185,79.9159436,5,,
3/2/2024,44:11.2,6m 42.2s,402.2,6.972886282,79.91593862,0,0,0.3,57,0.3,0,0,0,0,0,0,0,0,1.4,0.6,-38.6,321.4,,Manual Takeoff,Auto Fly,Takeoff (RC Assisted),15,5,TRUE,,Mavic Mini,TRUE,FALSE,,Smart,RC,TRUE,TRUE,FALSE,,,TRUE,,FALSE,FALSE,FALSE,FALSE,FALSE,FALSE,FALSE,FALSE,FALSE,FALSE,0,Follow Yaw,0,0,-34.5,325.5,FALSE,FALSE,FALSE,FALSE,FALSE,TRUE,,TRUE,Normal,,100,1024,1024,1024,1024,1,FALSE,FALSE,FALSE,FALSE,FALSE,0,FALSE,FALSE,FALSE,FALSE,70,7.691,1437,2075,7.695,FALSE,3.852,3.839,0.013,FALSE,FALSE,NA,108.5,108.3,108.5,0,0,0,0,5,2938.7,734.68,,Idle,0,20,FALSE,5,TRUE,7,Go Home,FALSE,FALSE,FALSE,FALSE,FALSE,FALSE,FALSE,FALSE,FALSE,FALSE,FALSE,FALSE,6.972887123,79.91594268,1.5,123.9,328,TRUE,1,1,FALSE,FALSE,FALSE,FALSE,,TRUE,FALSE,FALSE,Course Lock,49.2,14.3,16.4,Calm,40,,1.12.8,Mavic Mini,1SDCH7G0169R0K,1SFLH6Q0AB03DJ,1SRCH7F014TAHX,1U5X071EXP6C8G,69.9,0.4,78.7,17.129815,4.47388,0,4273,Mavic Mini,1SDCH7G0169R0K,1SFLH6Q0AB03DJ,1SRCH7F014TAHX,1U5X071EXP6C8G,DJI Fly,,1.12.8,F88FFE5F-2386-E18D-BEBE-FDFF58614B96,1SDCH7G0169R0K,,,,,6.972851185,79.9159436,5,,
3/2/2024,44:11.3,6m 42.3s,402.3,6.972886316,79.91593865,0,0,0.3,57,0.3,0,0,0,0,0,0,0,0,1.4,0.6,-38.6,321.4,,Manual Takeoff,Auto Fly,Takeoff (RC Assisted),15,5,TRUE,,Mavic Mini,TRUE,FALSE,,Smart,RC,TRUE,TRUE,FALSE,,,TRUE,,FALSE,FALSE,FALSE,FALSE,FALSE,FALSE,FALSE,FALSE,FALSE,FALSE,0,Follow Yaw,0,0,-34.5,325.5,FALSE,FALSE,FALSE,FALSE,FALSE,TRUE,,TRUE,Normal,,100,1024,1024,1024,1024,1,FALSE,FALSE,FALSE,FALSE,FALSE,0,FALSE,FALSE,FALSE,FALSE,70,7.691,1437,2075,7.695,FALSE,3.852,3.839,0.013,FALSE,FALSE,NA,108.5,108.3,108.5,0,0,0,0,5,2938.7,734.68,,Idle,0,20,FALSE,5,TRUE,7,Go Home,FALSE,FALSE,FALSE,FALSE,FALSE,FALSE,FALSE,FALSE,FALSE,FALSE,FALSE,FALSE,6.972887123,79.91594268,1.4,123.9,328,TRUE,1,1,FALSE,FALSE,FALSE,FALSE,,TRUE,FALSE,FALSE,Course Lock,49.2,14.3,16.4,Calm,40,,1.12.8,Mavic Mini,1SDCH7G0169R0K,1SFLH6Q0AB03DJ,1SRCH7F014TAHX,1U5X071EXP6C8G,69.9,0.4,78.7,17.129815,4.47388,0,4273,Mavic Mini,1SDCH7G0169R0K,1SFLH6Q0AB03DJ,1SRCH7F014TAHX,1U5X071EXP6C8G,DJI Fly,,1.12.8,F88FFE5F-2386-E18D-BEBE-FDFF58614B96,1SDCH7G0169R0K,,,,,6.972851185,79.9159436,5,,
3/2/2024,44:11.4,6m 42.4s,402.4,6.972886317,79.91593866,0,0,0.3,57,0.3,0,0,0,0,0,0,0,0,1.4,0.6,-38.6,321.4,,Manual Takeoff,Auto Fly,Takeoff (RC Assisted),15,5,TRUE,,Mavic Mini,TRUE,FALSE,,Smart,RC,TRUE,TRUE,FALSE,,,TRUE,,FALSE,FALSE,FALSE,FALSE,FALSE,FALSE,FALSE,FALSE,FALSE,FALSE,0,Follow Yaw,0,0,-34.5,325.5,FALSE,FALSE,FALSE,FALSE,FALSE,TRUE,,TRUE,Normal,,100,1024,1024,1149,1024,1,FALSE,FALSE,FALSE,FALSE,FALSE,0,FALSE,FALSE,FALSE,FALSE,70,7.695,1437,2075,7.695,FALSE,3.851,3.844,0.013,FALSE,FALSE,NA,108.5,108.3,108.5,0,0,0,0,5,2938.7,734.68,,Idle,0,20,FALSE,5,TRUE,7,Go Home,FALSE,FALSE,FALSE,FALSE,FALSE,FALSE,FALSE,FALSE,FALSE,FALSE,FALSE,FALSE,6.972887123,79.91594268,1.4,123.9,328,TRUE,1,1,FALSE,FALSE,FALSE,FALSE,,TRUE,FALSE,FALSE,Course Lock,49.2,14.3,16.4,Calm,40,,1.12.8,Mavic Mini,1SDCH7G0169R0K,1SFLH6Q0AB03DJ,1SRCH7F014TAHX,1U5X071EXP6C8G,69.9,0.4,78.7,17.129815,4.47388,0,4273,Mavic Mini,1SDCH7G0169R0K,1SFLH6Q0AB03DJ,1SRCH7F014TAHX,1U5X071EXP6C8G,DJI Fly,,1.12.8,F88FFE5F-2386-E18D-BEBE-FDFF58614B96,1SDCH7G0169R0K,,,,,6.972851185,79.9159436,5,,
3/2/2024,44:11.5,6m 42.5s,402.5,6.972886318,79.91593867,0,0,0.3,57,0.3,0,0,0,0,0,0,0,0,1.4,0.5,-38.6,321.4,,Manual Takeoff,Auto Fly,Takeoff (RC Assisted),15,5,TRUE,,Mavic Mini,TRUE,FALSE,,Smart,RC,TRUE,TRUE,FALSE,,,TRUE,,FALSE,FALSE,FALSE,FALSE,FALSE,FALSE,FALSE,FALSE,FALSE,FALSE,0,Follow Yaw,0,0,-34.5,325.5,FALSE,FALSE,FALSE,FALSE,FALSE,TRUE,,TRUE,Normal,,100,1024,1024,1149,1024,1,FALSE,FALSE,FALSE,FALSE,FALSE,0,FALSE,FALSE,FALSE,FALSE,70,7.695,1437,2075,7.695,FALSE,3.851,3.844,0.013,FALSE,FALSE,NA,108.5,108.3,108.5,0,0,0,0,5,2938.7,734.68,,Idle,0,20,FALSE,5,TRUE,7,Go Home,FALSE,FALSE,FALSE,FALSE,FALSE,FALSE,FALSE,FALSE,FALSE,FALSE,FALSE,FALSE,6.972887123,79.91594268,1.4,123.9,328,TRUE,1,1,FALSE,FALSE,FALSE,FALSE,,TRUE,FALSE,FALSE,Course Lock,49.2,14.3,16.4,Calm,40,,1.12.8,Mavic Mini,1SDCH7G0169R0K,1SFLH6Q0AB03DJ,1SRCH7F014TAHX,1U5X071EXP6C8G,69.9,0.4,78.7,17.129815,4.47388,0,4273,Mavic Mini,1SDCH7G0169R0K,1SFLH6Q0AB03DJ,1SRCH7F014TAHX,1U5X071EXP6C8G,DJI Fly,,1.12.8,F88FFE5F-2386-E18D-BEBE-FDFF58614B96,1SDCH7G0169R0K,,,,,6.972851185,79.9159436,5,,
3/2/2024,44:11.6,6m 42.6s,402.6,6.972886317,79.91593868,0,0,0.3,57,0.3,0,0,0,0,0,0,0,0,1.4,0.5,-38.6,321.4,,Manual Takeoff,Auto Fly,Takeoff (RC Assisted),15,5,TRUE,,Mavic Mini,TRUE,FALSE,,Smart,RC,TRUE,TRUE,FALSE,,,TRUE,,FALSE,FALSE,FALSE,FALSE,FALSE,FALSE,FALSE,FALSE,FALSE,FALSE,0,Follow Yaw,0,0,-34.5,325.5,FALSE,FALSE,FALSE,FALSE,FALSE,TRUE,,TRUE,Normal,,100,1024,1024,1406,1024,1,FALSE,FALSE,FALSE,FALSE,FALSE,0,FALSE,FALSE,FALSE,FALSE,70,7.695,1437,2075,7.695,FALSE,3.851,3.844,0.013,FALSE,FALSE,NA,108.5,108.3,108.5,0,0,0,0,5,2938.7,734.68,,Idle,0,20,FALSE,5,TRUE,7,Go Home,FALSE,FALSE,FALSE,FALSE,FALSE,FALSE,FALSE,FALSE,FALSE,FALSE,FALSE,FALSE,6.972887123,79.91594268,1.4,123.9,328,TRUE,1,1,FALSE,FALSE,FALSE,FALSE,,TRUE,FALSE,FALSE,Course Lock,49.2,14.3,16.4,Calm,40,,1.12.8,Mavic Mini,1SDCH7G0169R0K,1SFLH6Q0AB03DJ,1SRCH7F014TAHX,1U5X071EXP6C8G,69.9,0.4,78.7,17.129815,4.47388,0,4273,Mavic Mini,1SDCH7G0169R0K,1SFLH6Q0AB03DJ,1SRCH7F014TAHX,1U5X071EXP6C8G,DJI Fly,,1.12.8,F88FFE5F-2386-E18D-BEBE-FDFF58614B96,1SDCH7G0169R0K,,,,,6.972851185,79.9159436,5,,
3/2/2024,44:11.7,6m 42.7s,402.7,6.972886317,79.91593868,0,0,0.3,57,0.3,0,0,0,0,0,0,0,0,1.3,0.3,-38.6,321.4,,Manual Takeoff,Auto Fly,Takeoff (RC Assisted),15,5,TRUE,,Mavic Mini,TRUE,FALSE,,Smart,RC,TRUE,TRUE,FALSE,,,TRUE,,FALSE,FALSE,FALSE,FALSE,FALSE,FALSE,FALSE,FALSE,FALSE,FALSE,0,Follow Yaw,0,0,-34.5,325.5,FALSE,FALSE,FALSE,FALSE,FALSE,TRUE,,TRUE,Normal,,100,1024,1024,1486,1024,1,FALSE,FALSE,FALSE,FALSE,FALSE,0,FALSE,FALSE,FALSE,FALSE,70,7.695,1437,2075,7.695,FALSE,3.851,3.844,0.013,FALSE,FALSE,NA,108.5,108.3,108.5,0,0,0,0,5,2938.7,734.68,,Idle,0,20,FALSE,5,TRUE,7,Go Home,FALSE,FALSE,FALSE,FALSE,FALSE,FALSE,FALSE,FALSE,FALSE,FALSE,FALSE,FALSE,6.972887123,79.91594268,1.4,123.9,328,TRUE,1,1,FALSE,FALSE,FALSE,FALSE,,TRUE,FALSE,FALSE,Course Lock,49.2,14.3,16.4,Calm,40,,1.12.8,Mavic Mini,1SDCH7G0169R0K,1SFLH6Q0AB03DJ,1SRCH7F014TAHX,1U5X071EXP6C8G,69.9,0.4,78.7,17.129815,4.47388,0,4273,Mavic Mini,1SDCH7G0169R0K,1SFLH6Q0AB03DJ,1SRCH7F014TAHX,1U5X071EXP6C8G,DJI Fly,,1.12.8,F88FFE5F-2386-E18D-BEBE-FDFF58614B96,1SDCH7G0169R0K,,,,,6.972851185,79.9159436,5,,
3/2/2024,44:11.7,6m 42.8s,402.8,6.972886268,79.91593863,0,0,0.3,57,0.3,0,0,0,0,0,0,0,0,1.2,0,-38.6,321.4,,Manual Takeoff,Auto Fly,Takeoff (RC Assisted),15,5,TRUE,,Mavic Mini,TRUE,FALSE,,Smart,RC,TRUE,TRUE,FALSE,,,TRUE,,FALSE,FALSE,FALSE,FALSE,FALSE,FALSE,FALSE,FALSE,FALSE,FALSE,0,Follow Yaw,0,0,-34.5,325.5,FALSE,FALSE,FALSE,FALSE,FALSE,TRUE,,TRUE,Normal,,100,1024,1024,1684,1024,1,FALSE,FALSE,FALSE,FALSE,FALSE,0,FALSE,FALSE,FALSE,FALSE,70,7.695,1437,2075,7.695,FALSE,3.851,3.844,0.013,FALSE,FALSE,NA,108.5,108.3,108.5,0,0,0,0,5,2938.7,734.68,,Idle,0,20,FALSE,5,TRUE,7,Go Home,FALSE,FALSE,FALSE,FALSE,FALSE,FALSE,FALSE,FALSE,FALSE,FALSE,FALSE,FALSE,6.972887123,79.91594268,1.4,123.9,328,TRUE,1,1,FALSE,FALSE,FALSE,FALSE,,TRUE,FALSE,FALSE,Course Lock,49.2,14.3,16.4,Calm,40,,1.12.8,Mavic Mini,1SDCH7G0169R0K,1SFLH6Q0AB03DJ,1SRCH7F014TAHX,1U5X071EXP6C8G,69.9,0.4,78.7,17.129815,4.47388,0,4273,Mavic Mini,1SDCH7G0169R0K,1SFLH6Q0AB03DJ,1SRCH7F014TAHX,1U5X071EXP6C8G,DJI Fly,,1.12.8,F88FFE5F-2386-E18D-BEBE-FDFF58614B96,1SDCH7G0169R0K,,,,,6.972851185,79.9159436,5,,
3/2/2024,44:11.9,6m 42.9s,402.9,6.97288621,79.91593858,0,0,0.3,57,0.3,0,0,0,0,0,0,0,0,1.1,-0.2,-38.6,321.4,,Manual Takeoff,Auto Fly,Takeoff (RC Assisted),15,5,TRUE,,Mavic Mini,TRUE,FALSE,,Smart,RC,TRUE,TRUE,FALSE,,,TRUE,,FALSE,FALSE,FALSE,FALSE,FALSE,FALSE,FALSE,FALSE,FALSE,FALSE,0,Follow Yaw,0,0,-34.5,325.5,FALSE,FALSE,FALSE,FALSE,FALSE,TRUE,,TRUE,Normal,,100,1024,1024,1684,1024,1,FALSE,FALSE,FALSE,FALSE,FALSE,0,FALSE,FALSE,FALSE,FALSE,70,7.695,1437,2075,7.695,FALSE,3.851,3.844,0.013,FALSE,FALSE,NA,108.5,108.3,108.5,0,0,0,0,5,2938.7,734.68,,Idle,0,20,FALSE,5,TRUE,7,Go Home,FALSE,FALSE,FALSE,FALSE,FALSE,FALSE,FALSE,FALSE,FALSE,FALSE,FALSE,FALSE,6.972887123,79.91594268,1.5,123.9,328,TRUE,1,1,FALSE,FALSE,FALSE,FALSE,,TRUE,FALSE,FALSE,Course Lock,49.2,14.3,16.4,Calm,40,,1.12.8,Mavic Mini,1SDCH7G0169R0K,1SFLH6Q0AB03DJ,1SRCH7F014TAHX,1U5X071EXP6C8G,69.9,0.4,78.7,17.129815,4.47388,0,4273,Mavic Mini,1SDCH7G0169R0K,1SFLH6Q0AB03DJ,1SRCH7F014TAHX,1U5X071EXP6C8G,DJI Fly,,1.12.8,F88FFE5F-2386-E18D-BEBE-FDFF58614B96,1SDCH7G0169R0K,,,,,6.972851185,79.9159436,5,,
3/2/2024,44:12.1,6m 43.0s,403,6.972886183,79.91593852,0,0,0.3,57,0.4,0,0,0,0,0,0,0,0,1.1,-0.9,-39,321,,Manual Takeoff,Auto Fly,Takeoff (RC Assisted),15,5,TRUE,,Mavic Mini,TRUE,FALSE,,Smart,RC,TRUE,TRUE,FALSE,,,TRUE,,FALSE,FALSE,FALSE,FALSE,FALSE,FALSE,FALSE,FALSE,FALSE,FALSE,0,Follow Yaw,0,0,-34.6,325.4,FALSE,FALSE,FALSE,FALSE,FALSE,TRUE,,TRUE,Normal,,100,1024,1024,1684,1024,1,FALSE,FALSE,FALSE,FALSE,FALSE,0,FALSE,FALSE,FALSE,FALSE,70,7.695,1437,2075,7.695,FALSE,3.851,3.844,0.013,FALSE,FALSE,NA,108.5,108.3,108.5,0,0,0,0,5,2938.7,734.68,,Idle,0,20,FALSE,5,TRUE,7,Go Home,FALSE,FALSE,FALSE,FALSE,FALSE,FALSE,FALSE,FALSE,FALSE,FALSE,FALSE,FALSE,6.972887123,79.91594268,1.5,123.9,328,TRUE,1,1,FALSE,FALSE,FALSE,FALSE,,TRUE,FALSE,FALSE,Course Lock,49.2,14.3,16.4,Calm,40,,1.12.8,Mavic Mini,1SDCH7G0169R0K,1SFLH6Q0AB03DJ,1SRCH7F014TAHX,1U5X071EXP6C8G,69.9,0.4,78.7,17.129815,4.47388,0,4273,Mavic Mini,1SDCH7G0169R0K,1SFLH6Q0AB03DJ,1SRCH7F014TAHX,1U5X071EXP6C8G,DJI Fly,,1.12.8,F88FFE5F-2386-E18D-BEBE-FDFF58614B96,1SDCH7G0169R0K,,,,,6.972851185,79.9159436,5,,
3/2/2024,44:12.1,6m 43.1s,403.1,6.972886095,79.91593827,0,0,0.3,57,0.5,0,0,0,0,0,0,0,0,0.9,-1.5,-39.6,320.4,,Manual Takeoff,Auto Fly,Takeoff (RC Assisted),15,5,TRUE,,Mavic Mini,TRUE,FALSE,,Smart,RC,TRUE,TRUE,FALSE,,,TRUE,,FALSE,FALSE,FALSE,FALSE,FALSE,FALSE,FALSE,FALSE,FALSE,FALSE,0,Follow Yaw,0,0,-34.8,325.2,FALSE,FALSE,FALSE,FALSE,FALSE,TRUE,,TRUE,Normal,,100,1024,1024,1684,1024,1,FALSE,FALSE,FALSE,FALSE,FALSE,0,FALSE,FALSE,FALSE,FALSE,70,7.695,1437,2075,7.662,FALSE,3.851,3.844,0.013,FALSE,FALSE,NA,108.5,108.3,108.5,0,0,0,0,5,2849.9,712.49,,Idle,0,20,FALSE,5,TRUE,7,Go Home,FALSE,FALSE,FALSE,FALSE,FALSE,FALSE,FALSE,FALSE,FALSE,FALSE,FALSE,FALSE,6.972887123,79.91594268,1.6,123.9,328,TRUE,1,1,FALSE,FALSE,FALSE,FALSE,,TRUE,FALSE,FALSE,Course Lock,49.2,14.3,16.4,Calm,40,,1.12.8,Mavic Mini,1SDCH7G0169R0K,1SFLH6Q0AB03DJ,1SRCH7F014TAHX,1U5X071EXP6C8G,69.9,0.4,78.7,17.129815,4.47388,0,4273,Mavic Mini,1SDCH7G0169R0K,1SFLH6Q0AB03DJ,1SRCH7F014TAHX,1U5X071EXP6C8G,DJI Fly,,1.12.8,F88FFE5F-2386-E18D-BEBE-FDFF58614B96,1SDCH7G0169R0K,,,,,6.972851185,79.9159436,5,,
3/2/2024,44:12.2,6m 43.2s,403.2,6.972886084,79.91593819,0,0,0.3,57,0.5,0,0,0,0,0,0,0,0,0.7,-1.9,-40,320,,Manual Takeoff,Auto Fly,Takeoff (RC Assisted),15,5,TRUE,,Mavic Mini,TRUE,FALSE,,Smart,RC,TRUE,TRUE,FALSE,,,TRUE,,FALSE,FALSE,FALSE,FALSE,FALSE,FALSE,FALSE,FALSE,FALSE,FALSE,0,Follow Yaw,0,0,-35.1,324.9,FALSE,FALSE,FALSE,FALSE,FALSE,TRUE,,TRUE,Normal,,100,1024,1024,1684,1024,1,FALSE,FALSE,FALSE,FALSE,FALSE,0,FALSE,FALSE,FALSE,FALSE,70,7.695,1437,2075,7.662,FALSE,3.851,3.844,0.013,FALSE,FALSE,NA,108.5,108.3,108.5,0,0,0,0,5,2849.9,712.49,,Idle,0,20,FALSE,5,TRUE,7,Go Home,FALSE,FALSE,FALSE,FALSE,FALSE,FALSE,FALSE,FALSE,FALSE,FALSE,FALSE,FALSE,6.972887123,79.91594268,1.6,123.9,328,TRUE,1,1,FALSE,FALSE,FALSE,FALSE,,TRUE,FALSE,FALSE,Course Lock,49.2,14.3,16.4,Calm,40,,1.12.8,Mavic Mini,1SDCH7G0169R0K,1SFLH6Q0AB03DJ,1SRCH7F014TAHX,1U5X071EXP6C8G,69.9,0.4,78.7,17.129815,4.47388,0,4273,Mavic Mini,1SDCH7G0169R0K,1SFLH6Q0AB03DJ,1SRCH7F014TAHX,1U5X071EXP6C8G,DJI Fly,,1.12.8,F88FFE5F-2386-E18D-BEBE-FDFF58614B96,1SDCH7G0169R0K,,,,,6.972851185,79.9159436,5,,
3/2/2024,44:12.3,6m 43.3s,403.3,6.972886063,79.91593809,0,0,0.3,57,0.5,0,0,0,0,0,0,0,0,-0.4,-2,-40.5,319.5,,Manual Takeoff,Auto Fly,Takeoff (RC Assisted),15,5,TRUE,,Mavic Mini,TRUE,FALSE,,Smart,RC,TRUE,TRUE,FALSE,,,TRUE,,FALSE,FALSE,FALSE,FALSE,FALSE,FALSE,FALSE,FALSE,FALSE,FALSE,0,Follow Yaw,0,0,-35.5,324.5,FALSE,FALSE,FALSE,FALSE,FALSE,TRUE,,TRUE,Normal,,100,1024,1024,1684,1024,1,FALSE,FALSE,FALSE,FALSE,FALSE,0,FALSE,FALSE,FALSE,FALSE,70,7.695,1437,2075,7.662,FALSE,3.851,3.844,0.013,FALSE,FALSE,NA,108.5,108.3,108.5,0,0,0,0,5,2849.9,712.49,,Idle,0,20,FALSE,5,TRUE,7,Go Home,FALSE,FALSE,FALSE,FALSE,FALSE,FALSE,FALSE,FALSE,FALSE,FALSE,FALSE,FALSE,6.972887123,79.91594268,1.7,123.9,328,TRUE,1,1,FALSE,FALSE,FALSE,FALSE,,TRUE,FALSE,FALSE,Course Lock,49.2,14.3,16.4,Calm,40,,1.12.8,Mavic Mini,1SDCH7G0169R0K,1SFLH6Q0AB03DJ,1SRCH7F014TAHX,1U5X071EXP6C8G,69.9,0.4,78.7,17.129815,4.47388,0,4273,Mavic Mini,1SDCH7G0169R0K,1SFLH6Q0AB03DJ,1SRCH7F014TAHX,1U5X071EXP6C8G,DJI Fly,,1.12.8,F88FFE5F-2386-E18D-BEBE-FDFF58614B96,1SDCH7G0169R0K,,,,,6.972851185,79.9159436,5,,
3/2/2024,44:12.4,6m 43.4s,403.4,6.972886036,79.91593799,0,0,0.3,57,0.6,0.223694,0.223694,0,0,-0.223694,0,-0.223694,0,-0.1,-2.1,-41.2,318.8,249.7,Manual Takeoff,Auto Fly,Takeoff (RC Assisted),15,5,TRUE,,Mavic Mini,TRUE,FALSE,,Smart,RC,TRUE,TRUE,FALSE,,,TRUE,,FALSE,FALSE,FALSE,FALSE,FALSE,FALSE,FALSE,FALSE,FALSE,FALSE,0,Follow Yaw,0,0,-36,324,FALSE,FALSE,FALSE,FALSE,FALSE,TRUE,,TRUE,Normal,,100,1024,1024,1684,1024,1,FALSE,FALSE,FALSE,FALSE,FALSE,0,FALSE,FALSE,FALSE,FALSE,70,7.695,1437,2075,7.662,FALSE,3.851,3.844,0.013,FALSE,FALSE,NA,108.5,108.3,108.5,0,0,0,0,5,2849.9,712.49,,Idle,0,20,FALSE,5,TRUE,7,Go Home,FALSE,FALSE,FALSE,FALSE,FALSE,FALSE,FALSE,FALSE,FALSE,FALSE,FALSE,FALSE,6.972887123,79.91594268,1.7,123.9,328,TRUE,1,1,FALSE,FALSE,FALSE,FALSE,,TRUE,FALSE,FALSE,Course Lock,49.2,14.3,16.4,Calm,40,,1.12.8,Mavic Mini,1SDCH7G0169R0K,1SFLH6Q0AB03DJ,1SRCH7F014TAHX,1U5X071EXP6C8G,69.9,0.4,78.7,17.129815,4.47388,0,4273,Mavic Mini,1SDCH7G0169R0K,1SFLH6Q0AB03DJ,1SRCH7F014TAHX,1U5X071EXP6C8G,DJI Fly,,1.12.8,F88FFE5F-2386-E18D-BEBE-FDFF58614B96,1SDCH7G0169R0K,,,,,6.972851185,79.9159436,5,,
3/2/2024,44:12.5,6m 43.5s,403.5,6.972886057,79.91593784,0,0,0.3,57,0.6,0.223694,0.223694,0,0,-0.223694,0,-0.447388,0,-0.6,-1.9,-41.6,318.4,280.3,P-GPS,Auto Fly,,15,5,TRUE,,Mavic Mini,TRUE,FALSE,,Smart,RC,FALSE,TRUE,FALSE,,,TRUE,,FALSE,FALSE,FALSE,FALSE,FALSE,FALSE,FALSE,FALSE,FALSE,FALSE,0,Follow Yaw,0,0,-36.5,323.5,FALSE,FALSE,FALSE,FALSE,FALSE,TRUE,,TRUE,Normal,,100,1024,1024,1684,1024,1,FALSE,FALSE,FALSE,FALSE,FALSE,0,FALSE,FALSE,FALSE,FALSE,70,7.695,1437,2075,7.662,FALSE,3.851,3.844,0.013,FALSE,FALSE,NA,108.5,108.3,108.5,0,0,0,0,5,2849.9,712.49,,Idle,0,20,FALSE,5,TRUE,7,Go Home,FALSE,FALSE,FALSE,FALSE,FALSE,FALSE,FALSE,FALSE,FALSE,FALSE,FALSE,FALSE,6.972887123,79.91594268,1.7,123.9,328,TRUE,1,1,FALSE,FALSE,FALSE,FALSE,,TRUE,FALSE,FALSE,Course Lock,49.2,14.3,16.4,Calm,40,,1.12.8,Mavic Mini,1SDCH7G0169R0K,1SFLH6Q0AB03DJ,1SRCH7F014TAHX,1U5X071EXP6C8G,69.9,0.4,78.7,17.129815,4.47388,0,4273,Mavic Mini,1SDCH7G0169R0K,1SFLH6Q0AB03DJ,1SRCH7F014TAHX,1U5X071EXP6C8G,DJI Fly,,1.12.8,F88FFE5F-2386-E18D-BEBE-FDFF58614B96,1SDCH7G0169R0K,,,,,6.972851185,79.9159436,5,Flight mode changed to P-GPS.,
3/2/2024,44:12.6,6m 43.6s,403.6,6.972886009,79.91593762,0,0,0.6,57,0.7,0.447388,0.447388,0,0,-0.447388,0,-0.894776,0,1,0.7,-41.8,318.2,254.1,P-GPS,Auto Fly,,15,5,TRUE,,Mavic Mini,TRUE,FALSE,,Smart,RC,FALSE,TRUE,FALSE,,,TRUE,,FALSE,FALSE,FALSE,FALSE,FALSE,FALSE,FALSE,FALSE,FALSE,FALSE,0,Follow Yaw,0,0,-36.8,323.2,FALSE,FALSE,FALSE,FALSE,FALSE,TRUE,,TRUE,Normal,,100,1024,1024,1684,1024,1,FALSE,FALSE,FALSE,FALSE,FALSE,0,FALSE,FALSE,FALSE,FALSE,70,7.569,1436,2075,7.662,FALSE,3.789,3.78,0.013,FALSE,FALSE,NA,108.5,108.3,108.5,0,0,0,0,5,2849.9,712.49,,Idle,0,20,FALSE,5,TRUE,7,Go Home,FALSE,FALSE,FALSE,FALSE,FALSE,FALSE,FALSE,FALSE,FALSE,FALSE,FALSE,FALSE,6.972887123,79.91594268,1.8,123.9,328,TRUE,1,1,FALSE,FALSE,FALSE,FALSE,,TRUE,FALSE,FALSE,Course Lock,49.2,14.3,16.4,Calm,40,,1.12.8,Mavic Mini,1SDCH7G0169R0K,1SFLH6Q0AB03DJ,1SRCH7F014TAHX,1U5X071EXP6C8G,69.9,0.4,78.7,17.129815,4.47388,0,4273,Mavic Mini,1SDCH7G0169R0K,1SFLH6Q0AB03DJ,1SRCH7F014TAHX,1U5X071EXP6C8G,DJI Fly,,1.12.8,F88FFE5F-2386-E18D-BEBE-FDFF58614B96,1SDCH7G0169R0K,,,,,6.972851185,79.9159436,5,,
3/2/2024,44:12.7,6m 43.7s,403.7,6.972885966,79.91593738,0.3,0.3,0.6,57,0.8,0.447388,0.447388,0,0,-0.447388,0,-1.342164,0,2.1,1.4,-41.5,318.5,256.9,P-GPS,Auto Fly,,15,5,TRUE,,Mavic Mini,TRUE,FALSE,,Smart,RC,FALSE,TRUE,FALSE,,,TRUE,,FALSE,FALSE,FALSE,FALSE,FALSE,FALSE,FALSE,FALSE,FALSE,FALSE,0,Follow Yaw,0,0,-36.8,323.2,FALSE,FALSE,FALSE,FALSE,FALSE,TRUE,,TRUE,Normal,,100,1024,1024,1684,1024,1,FALSE,FALSE,FALSE,FALSE,FALSE,0,FALSE,FALSE,FALSE,FALSE,70,7.569,1436,2075,7.662,FALSE,3.789,3.78,0.013,FALSE,FALSE,NA,108.5,108.3,108.5,0,0,0,0,5,2849.9,712.49,,Idle,0,20,FALSE,5,TRUE,7,Go Home,FALSE,FALSE,FALSE,FALSE,FALSE,FALSE,FALSE,FALSE,FALSE,FALSE,FALSE,FALSE,6.972887123,79.91594268,1.9,123.9,328,TRUE,1,1,FALSE,FALSE,FALSE,FALSE,,TRUE,FALSE,FALSE,Course Lock,49.2,14.3,16.4,Calm,40,,1.12.8,Mavic Mini,1SDCH7G0169R0K,1SFLH6Q0AB03DJ,1SRCH7F014TAHX,1U5X071EXP6C8G,69.9,0.4,78.7,17.129815,4.47388,0,4273,Mavic Mini,1SDCH7G0169R0K,1SFLH6Q0AB03DJ,1SRCH7F014TAHX,1U5X071EXP6C8G,DJI Fly,,1.12.8,F88FFE5F-2386-E18D-BEBE-FDFF58614B96,1SDCH7G0169R0K,,,,,6.972851185,79.9159436,5,,
3/2/2024,44:12.8,6m 43.8s,403.8,6.972885895,79.91593719,0.3,0.3,0.9,57,0.9,0.223694,0.447388,0,0,-0.223694,0,-2.013246,0,1.7,1.3,-41.3,318.7,243.7,P-GPS,Auto Fly,,15,5,TRUE,,Mavic Mini,TRUE,FALSE,,Smart,RC,FALSE,TRUE,FALSE,,,TRUE,,FALSE,FALSE,FALSE,FALSE,FALSE,FALSE,FALSE,FALSE,FALSE,FALSE,0,Follow Yaw,0,0,-36.8,323.2,FALSE,FALSE,FALSE,FALSE,FALSE,TRUE,,TRUE,Normal,,100,1024,1024,1684,1024,1,FALSE,FALSE,FALSE,FALSE,FALSE,0,FALSE,FALSE,FALSE,FALSE,70,7.569,1436,2075,7.662,FALSE,3.789,3.78,0.013,FALSE,FALSE,NA,108.5,108.3,108.5,0,0,0,0,5,2849.9,712.49,,Idle,0,20,FALSE,5,TRUE,7,Go Home,FALSE,FALSE,FALSE,FALSE,FALSE,FALSE,FALSE,FALSE,FALSE,FALSE,FALSE,FALSE,6.972887123,79.91594268,2,123.9,328,TRUE,1,1,FALSE,FALSE,FALSE,FALSE,,TRUE,FALSE,FALSE,Course Lock,49.2,14.3,16.4,Calm,40,,1.12.8,Mavic Mini,1SDCH7G0169R0K,1SFLH6Q0AB03DJ,1SRCH7F014TAHX,1U5X071EXP6C8G,69.9,0.4,78.7,17.129815,4.47388,0,4273,Mavic Mini,1SDCH7G0169R0K,1SFLH6Q0AB03DJ,1SRCH7F014TAHX,1U5X071EXP6C8G,DJI Fly,,1.12.8,F88FFE5F-2386-E18D-BEBE-FDFF58614B96,1SDCH7G0169R0K,,,,,6.972851185,79.9159436,5,,
3/2/2024,44:12.9,6m 43.9s,403.9,6.972885818,79.91593704,0.6,0.6,1.3,57,0.9,0.223694,0.447388,0,0,-0.223694,0,-2.460634,0,1.1,2,-41.2,318.8,237.8,P-GPS,Auto Fly,,15,5,TRUE,,Mavic Mini,TRUE,FALSE,,Smart,RC,FALSE,TRUE,FALSE,,,TRUE,,FALSE,FALSE,FALSE,FALSE,FALSE,FALSE,FALSE,FALSE,FALSE,FALSE,0,Follow Yaw,0,0,-36.8,323.2,FALSE,FALSE,FALSE,FALSE,FALSE,TRUE,,TRUE,Normal,,100,1024,1024,1684,1024,1,FALSE,FALSE,FALSE,FALSE,FALSE,0,FALSE,FALSE,FALSE,FALSE,70,7.569,1436,2075,7.662,FALSE,3.789,3.78,0.013,FALSE,FALSE,NA,108.5,108.3,108.5,0,0,0,0,5,2849.9,712.49,,Idle,0,20,FALSE,5,TRUE,7,Go Home,FALSE,FALSE,FALSE,FALSE,FALSE,FALSE,FALSE,FALSE,FALSE,FALSE,FALSE,FALSE,6.972887123,79.91594268,2,123.9,328,TRUE,1,1,FALSE,FALSE,FALSE,FALSE,,TRUE,FALSE,FALSE,Course Lock,49.2,14.3,16.4,Calm,40,,1.12.8,Mavic Mini,1SDCH7G0169R0K,1SFLH6Q0AB03DJ,1SRCH7F014TAHX,1U5X071EXP6C8G,69.9,0.4,78.7,17.129815,4.47388,0,4273,Mavic Mini,1SDCH7G0169R0K,1SFLH6Q0AB03DJ,1SRCH7F014TAHX,1U5X071EXP6C8G,DJI Fly,,1.12.8,F88FFE5F-2386-E18D-BEBE-FDFF58614B96,1SDCH7G0169R0K,,,,,6.972851185,79.9159436,5,,
3/2/2024,44:13.1,6m 44.0s,404,6.972885753,79.9159369,0.9,0.9,1.6,58,1,0,0.447388,0,0,0,0,-3.131716,0,1,1.7,-41.2,318.8,,P-GPS,Auto Fly,,15,5,TRUE,,Mavic Mini,TRUE,FALSE,,Smart,RC,FALSE,TRUE,FALSE,,,TRUE,,FALSE,FALSE,FALSE,FALSE,FALSE,FALSE,FALSE,FALSE,FALSE,FALSE,0,Follow Yaw,0,0,-36.8,323.2,FALSE,FALSE,FALSE,FALSE,FALSE,TRUE,,TRUE,Normal,,100,1024,1024,1684,1024,1,FALSE,FALSE,FALSE,FALSE,FALSE,0,FALSE,FALSE,FALSE,FALSE,70,7.569,1436,2075,7.662,FALSE,3.789,3.78,0.013,FALSE,FALSE,NA,108.5,108.3,108.5,0,0,0,0,5,2849.9,712.49,,Idle,0,20,FALSE,5,TRUE,7,Go Home,FALSE,FALSE,FALSE,FALSE,FALSE,FALSE,FALSE,FALSE,FALSE,FALSE,FALSE,FALSE,6.972887123,79.91594268,2.1,123.9,328,TRUE,1,1,FALSE,FALSE,FALSE,FALSE,,TRUE,FALSE,FALSE,Course Lock,49.2,14.3,16.4,Calm,40,,1.12.8,Mavic Mini,1SDCH7G0169R0K,1SFLH6Q0AB03DJ,1SRCH7F014TAHX,1U5X071EXP6C8G,69.9,0.4,78.7,17.129815,4.47388,0,4273,Mavic Mini,1SDCH7G0169R0K,1SFLH6Q0AB03DJ,1SRCH7F014TAHX,1U5X071EXP6C8G,DJI Fly,,1.12.8,F88FFE5F-2386-E18D-BEBE-FDFF58614B96,1SDCH7G0169R0K,,,,,6.972849425,79.91594251,5,,
3/2/2024,44:13.1,6m 44.1s,404.1,6.972885734,79.91593681,1.6,1.6,2.2,58,1,0,0.447388,0,0,0,0,-3.579104,0,0.8,0.7,-41.2,318.8,,P-GPS,Auto Fly,,15,5,TRUE,,Mavic Mini,TRUE,FALSE,,Smart,RC,FALSE,TRUE,FALSE,,,TRUE,,FALSE,FALSE,FALSE,FALSE,FALSE,FALSE,FALSE,FALSE,FALSE,FALSE,0,Follow Yaw,0,0,-36.8,323.2,FALSE,FALSE,FALSE,FALSE,FALSE,TRUE,,TRUE,Normal,,100,1024,1024,1684,1024,1,FALSE,FALSE,FALSE,FALSE,FALSE,0,FALSE,FALSE,FALSE,FALSE,70,7.569,1436,2075,7.563,FALSE,3.789,3.78,0.013,FALSE,FALSE,NA,108.5,108.3,108.5,0,0,0,0,5,3092.9,773.23,,Idle,0,20,FALSE,5,TRUE,7,Go Home,FALSE,FALSE,FALSE,FALSE,FALSE,FALSE,FALSE,FALSE,FALSE,FALSE,FALSE,FALSE,6.97288602,79.91593794,0.4,123.9,328,TRUE,1,1,FALSE,FALSE,FALSE,FALSE,,TRUE,FALSE,FALSE,Course Lock,49.2,14.3,16.4,Calm,40,,1.12.8,Mavic Mini,1SDCH7G0169R0K,1SFLH6Q0AB03DJ,1SRCH7F014TAHX,1U5X071EXP6C8G,69.9,0.4,78.7,17.129815,4.47388,0,4273,Mavic Mini,1SDCH7G0169R0K,1SFLH6Q0AB03DJ,1SRCH7F014TAHX,1U5X071EXP6C8G,DJI Fly,,1.12.8,F88FFE5F-2386-E18D-BEBE-FDFF58614B96,1SDCH7G0169R0K,,,,,6.972849425,79.91594251,5,Home Point Updated.,
3/2/2024,44:13.2,6m 44.2s,404.2,6.972885793,79.91593674,2.2,2.2,2.9,59,1.1,0,0.447388,0,0,0,0,-4.026492,0,1,0.4,-41.2,318.8,,P-GPS,Auto Fly,,15,5,TRUE,,Mavic Mini,TRUE,FALSE,,Smart,RC,FALSE,TRUE,FALSE,,,TRUE,,FALSE,FALSE,FALSE,FALSE,FALSE,FALSE,FALSE,FALSE,FALSE,FALSE,0,Follow Yaw,0,0,-36.8,323.2,FALSE,FALSE,FALSE,FALSE,FALSE,TRUE,,TRUE,Normal,,100,1024,1024,1684,1024,1,FALSE,FALSE,FALSE,FALSE,FALSE,0,FALSE,FALSE,FALSE,FALSE,70,7.569,1436,2075,7.563,FALSE,3.789,3.78,0.013,FALSE,FALSE,NA,108.5,108.3,108.5,0,0,0,0,5,3092.9,773.23,,Idle,0,20,FALSE,5,TRUE,7,Go Home,FALSE,FALSE,FALSE,FALSE,FALSE,FALSE,FALSE,FALSE,FALSE,FALSE,FALSE,FALSE,6.97288602,79.91593794,0.4,123.9,328,TRUE,1,1,FALSE,FALSE,FALSE,FALSE,,TRUE,FALSE,FALSE,Course Lock,49.2,14.3,16.4,Calm,40,,1.12.8,Mavic Mini,1SDCH7G0169R0K,1SFLH6Q0AB03DJ,1SRCH7F014TAHX,1U5X071EXP6C8G,69.9,0.4,78.7,17.129815,4.47388,0,4273,Mavic Mini,1SDCH7G0169R0K,1SFLH6Q0AB03DJ,1SRCH7F014TAHX,1U5X071EXP6C8G,DJI Fly,,1.12.8,F88FFE5F-2386-E18D-BEBE-FDFF58614B96,1SDCH7G0169R0K,,,,,6.972849425,79.91594251,5,Home Point updated. RTH altitude adjusted to 15 m! (Code: 120852).,
3/2/2024,44:13.4,6m 44.3s,404.3,6.972885871,79.91593667,2.6,2.6,3.6,59,1.1,0,0.447388,0,0,0,0,-4.47388,0,1.1,0.1,-41.2,318.8,,P-GPS,Auto Fly,,15,5,TRUE,,Mavic Mini,TRUE,FALSE,,Smart,RC,FALSE,TRUE,FALSE,,,TRUE,,FALSE,FALSE,FALSE,FALSE,FALSE,FALSE,FALSE,FALSE,FALSE,FALSE,0,Follow Yaw,0,0,-36.8,323.2,FALSE,FALSE,FALSE,FALSE,FALSE,TRUE,,TRUE,Normal,,100,1024,1024,1684,1024,1,FALSE,FALSE,FALSE,FALSE,FALSE,0,FALSE,FALSE,FALSE,FALSE,70,7.569,1436,2075,7.563,FALSE,3.789,3.78,0.013,FALSE,FALSE,NA,108.5,108.3,108.5,0,0,0,0,5,3092.9,773.23,,Idle,0,20,FALSE,5,TRUE,7,Go Home,FALSE,FALSE,FALSE,FALSE,FALSE,FALSE,FALSE,FALSE,FALSE,FALSE,FALSE,FALSE,6.97288602,79.91593794,0.4,123.9,328,TRUE,1,1,FALSE,FALSE,FALSE,FALSE,,TRUE,FALSE,FALSE,Course Lock,49.2,14.3,16.4,Calm,40,,1.12.8,Mavic Mini,1SDCH7G0169R0K,1SFLH6Q0AB03DJ,1SRCH7F014TAHX,1U5X071EXP6C8G,69.9,0.4,78.7,17.129815,4.47388,0,4273,Mavic Mini,1SDCH7G0169R0K,1SFLH6Q0AB03DJ,1SRCH7F014TAHX,1U5X071EXP6C8G,DJI Fly,,1.12.8,F88FFE5F-2386-E18D-BEBE-FDFF58614B96,1SDCH7G0169R0K,,,,,6.972849425,79.91594251,5,,
3/2/2024,44:13.4,6m 44.4s,404.4,6.972885904,79.91593664,3.2,3.2,4.2,60,1.1,0,0.447388,0,0,0,0,-4.47388,0,2.2,0.7,-41.1,318.9,,P-GPS,Auto Fly,,15,5,TRUE,,Mavic Mini,TRUE,FALSE,,Smart,RC,FALSE,TRUE,FALSE,,,TRUE,,FALSE,FALSE,FALSE,FALSE,FALSE,FALSE,FALSE,FALSE,FALSE,FALSE,0,Follow Yaw,0,0,-36.8,323.2,FALSE,FALSE,FALSE,FALSE,FALSE,TRUE,,TRUE,Normal,,100,1024,1024,1684,1024,1,FALSE,FALSE,FALSE,FALSE,FALSE,0,FALSE,FALSE,FALSE,FALSE,70,7.569,1436,2075,7.563,FALSE,3.789,3.78,0.013,FALSE,FALSE,NA,108.5,108.3,108.5,0,0,0,0,5,3092.9,773.23,,Idle,0,20,FALSE,5,TRUE,7,Go Home,FALSE,FALSE,FALSE,FALSE,FALSE,FALSE,FALSE,FALSE,FALSE,FALSE,FALSE,FALSE,6.97288602,79.91593794,0.4,123.9,328,TRUE,1,1,FALSE,FALSE,FALSE,FALSE,,TRUE,FALSE,FALSE,Course Lock,49.2,14.3,16.4,Calm,40,,1.12.8,Mavic Mini,1SDCH7G0169R0K,1SFLH6Q0AB03DJ,1SRCH7F014TAHX,1U5X071EXP6C8G,69.9,0.4,78.7,17.129815,4.47388,0,4273,Mavic Mini,1SDCH7G0169R0K,1SFLH6Q0AB03DJ,1SRCH7F014TAHX,1U5X071EXP6C8G,DJI Fly,,1.12.8,F88FFE5F-2386-E18D-BEBE-FDFF58614B96,1SDCH7G0169R0K,,,,,6.972849425,79.91594251,5,,
3/2/2024,44:13.5,6m 44.5s,404.5,6.972885885,79.91593664,3.9,3.9,4.9,61,1.1,0,0.447388,0,0,0,0,-4.47388,0,1.7,0.6,-41.1,318.9,,P-GPS,Auto Fly,,15,5,TRUE,,Mavic Mini,TRUE,FALSE,,Smart,RC,FALSE,TRUE,FALSE,,,TRUE,,FALSE,FALSE,FALSE,FALSE,FALSE,FALSE,FALSE,FALSE,FALSE,FALSE,0,Follow Yaw,0,0,-36.8,323.2,FALSE,FALSE,FALSE,FALSE,FALSE,TRUE,,TRUE,Normal,,100,1024,1024,1684,1024,1,FALSE,FALSE,FALSE,FALSE,FALSE,0,FALSE,FALSE,FALSE,FALSE,70,7.569,1436,2075,7.563,FALSE,3.789,3.78,0.013,FALSE,FALSE,NA,108.5,108.3,108.5,0,0,0,0,5,3092.9,773.23,,Idle,0,20,FALSE,5,TRUE,7,Go Home,FALSE,FALSE,FALSE,FALSE,FALSE,FALSE,FALSE,FALSE,FALSE,FALSE,FALSE,FALSE,6.97288602,79.91593794,0.4,123.9,328,TRUE,1,1,FALSE,FALSE,FALSE,FALSE,,TRUE,FALSE,FALSE,Course Lock,49.2,14.3,16.4,Calm,40,,1.12.8,Mavic Mini,1SDCH7G0169R0K,1SFLH6Q0AB03DJ,1SRCH7F014TAHX,1U5X071EXP6C8G,69.9,0.4,78.7,17.129815,4.47388,0,4273,Mavic Mini,1SDCH7G0169R0K,1SFLH6Q0AB03DJ,1SRCH7F014TAHX,1U5X071EXP6C8G,DJI Fly,,1.12.8,F88FFE5F-2386-E18D-BEBE-FDFF58614B96,1SDCH7G0169R0K,,,,,6.972849425,79.91594251,5,,
3/2/2024,44:13.6,6m 44.6s,404.6,6.972885892,79.91593662,4.5,4.5,5.5,61,1.1,0,0.447388,0,0,0,0,-4.47388,0,1.3,0.8,-41.1,318.9,,P-GPS,Auto Fly,,15,5,TRUE,,Mavic Mini,TRUE,FALSE,,Smart,RC,FALSE,TRUE,FALSE,,,TRUE,,FALSE,FALSE,FALSE,FALSE,FALSE,FALSE,FALSE,FALSE,FALSE,FALSE,0,Follow Yaw,0,0,-36.8,323.2,FALSE,FALSE,FALSE,FALSE,FALSE,TRUE,,TRUE,Normal,,100,1024,1024,1684,1024,1,FALSE,FALSE,FALSE,FALSE,FALSE,0,FALSE,FALSE,FALSE,FALSE,70,7.569,1436,2075,7.563,FALSE,3.789,3.78,0.013,FALSE,FALSE,NA,108.5,108.3,108.5,0,0,0,0,5,3092.9,773.23,,Idle,0,20,FALSE,5,TRUE,7,Go Home,FALSE,FALSE,FALSE,FALSE,FALSE,FALSE,FALSE,FALSE,FALSE,FALSE,FALSE,FALSE,6.97288602,79.91593794,0.4,123.9,328,TRUE,1,1,FALSE,FALSE,FALSE,FALSE,,TRUE,FALSE,FALSE,Course Lock,49.2,14.3,16.4,Calm,40,,1.12.8,Mavic Mini,1SDCH7G0169R0K,1SFLH6Q0AB03DJ,1SRCH7F014TAHX,1U5X071EXP6C8G,69.9,0.4,78.7,17.129815,4.47388,0,4273,Mavic Mini,1SDCH7G0169R0K,1SFLH6Q0AB03DJ,1SRCH7F014TAHX,1U5X071EXP6C8G,DJI Fly,,1.12.8,F88FFE5F-2386-E18D-BEBE-FDFF58614B96,1SDCH7G0169R0K,,,,,6.972849425,79.91594251,5,,
3/2/2024,44:13.7,6m 44.7s,404.7,6.972885911,79.91593661,5.2,5.2,6.2,62,1.1,0,0.447388,0,0,0,0,-4.47388,0,1.5,0.5,-41,319,,P-GPS,Auto Fly,,15,5,TRUE,,Mavic Mini,TRUE,FALSE,,Smart,RC,FALSE,TRUE,FALSE,,,TRUE,,FALSE,FALSE,FALSE,FALSE,FALSE,FALSE,FALSE,FALSE,FALSE,FALSE,0,Follow Yaw,0,0,-36.8,323.2,FALSE,FALSE,FALSE,FALSE,FALSE,TRUE,,TRUE,Normal,,100,1024,1024,1684,1024,1,FALSE,FALSE,FALSE,FALSE,FALSE,0,FALSE,FALSE,FALSE,FALSE,70,7.482,1434,2075,7.563,FALSE,3.745,3.737,0.013,FALSE,FALSE,NA,108.5,108.3,108.5,0,0,0,0,5,3092.9,773.23,,Idle,0,20,FALSE,5,TRUE,7,Go Home,FALSE,FALSE,FALSE,FALSE,FALSE,FALSE,FALSE,FALSE,FALSE,FALSE,FALSE,FALSE,6.97288602,79.91593794,0.4,123.9,328,TRUE,1,1,FALSE,FALSE,FALSE,FALSE,,TRUE,FALSE,FALSE,Course Lock,49.2,14.3,16.4,Calm,40,,1.12.8,Mavic Mini,1SDCH7G0169R0K,1SFLH6Q0AB03DJ,1SRCH7F014TAHX,1U5X071EXP6C8G,69.9,0.4,78.7,17.129815,4.47388,0,4273,Mavic Mini,1SDCH7G0169R0K,1SFLH6Q0AB03DJ,1SRCH7F014TAHX,1U5X071EXP6C8G,DJI Fly,,1.12.8,F88FFE5F-2386-E18D-BEBE-FDFF58614B96,1SDCH7G0169R0K,,,,,6.972849425,79.91594251,5,,
3/2/2024,44:13.8,6m 44.8s,404.8,6.97288617,79.9159367,5.9,5.9,6.8,63,1.2,0,0.447388,0,0,0,0,-4.47388,0,3,0.4,-41,319,,P-GPS,Auto Fly,,15,5,TRUE,,Mavic Mini,TRUE,FALSE,,Smart,RC,FALSE,TRUE,FALSE,,,TRUE,,FALSE,FALSE,FALSE,FALSE,FALSE,FALSE,FALSE,FALSE,FALSE,FALSE,0,Follow Yaw,0,0,-36.8,323.2,FALSE,FALSE,FALSE,FALSE,FALSE,TRUE,,TRUE,Normal,,100,1024,1024,1684,1024,1,FALSE,FALSE,FALSE,FALSE,FALSE,0,FALSE,FALSE,FALSE,FALSE,70,7.482,1434,2075,7.563,FALSE,3.745,3.737,0.013,FALSE,FALSE,NA,108.5,108.3,108.5,0,0,0,0,5,3092.9,773.23,,Idle,0,20,FALSE,5,TRUE,7,Go Home,FALSE,FALSE,FALSE,FALSE,FALSE,FALSE,FALSE,FALSE,FALSE,FALSE,FALSE,FALSE,6.97288602,79.91593794,0.4,123.9,328,TRUE,1,1,FALSE,FALSE,FALSE,FALSE,,TRUE,FALSE,FALSE,Course Lock,49.2,14.3,16.4,Calm,40,,1.12.8,Mavic Mini,1SDCH7G0169R0K,1SFLH6Q0AB03DJ,1SRCH7F014TAHX,1U5X071EXP6C8G,69.9,0.4,78.7,17.129815,4.47388,0,4273,Mavic Mini,1SDCH7G0169R0K,1SFLH6Q0AB03DJ,1SRCH7F014TAHX,1U5X071EXP6C8G,DJI Fly,,1.12.8,F88FFE5F-2386-E18D-BEBE-FDFF58614B96,1SDCH7G0169R0K,,,,,6.972849425,79.91594251,5,,
3/2/2024,44:13.9,6m 44.9s,404.9,6.972886285,79.9159368,6.5,6.5,7.5,63,1.3,0,0.447388,0,0,0,0,-4.47388,0,3.2,0.5,-41.1,318.9,,P-GPS,Auto Fly,,15,5,TRUE,,Mavic Mini,TRUE,FALSE,,Smart,RC,FALSE,TRUE,FALSE,,,TRUE,,FALSE,FALSE,FALSE,FALSE,FALSE,FALSE,FALSE,FALSE,FALSE,FALSE,0,Follow Yaw,0,0,-36.8,323.2,FALSE,FALSE,FALSE,FALSE,FALSE,TRUE,,TRUE,Normal,,100,1024,1024,1684,1024,1,FALSE,FALSE,FALSE,FALSE,FALSE,0,FALSE,FALSE,FALSE,FALSE,70,7.482,1434,2075,7.563,FALSE,3.745,3.737,0.013,FALSE,FALSE,NA,108.5,108.3,108.5,0,0,0,0,5,3092.9,773.23,,Idle,0,20,FALSE,5,TRUE,7,Go Home,FALSE,FALSE,FALSE,FALSE,FALSE,FALSE,FALSE,FALSE,FALSE,FALSE,FALSE,FALSE,6.97288602,79.91593794,0.4,123.9,328,TRUE,1,1,FALSE,FALSE,FALSE,FALSE,,TRUE,FALSE,FALSE,Course Lock,49.2,14.3,16.4,Calm,40,,1.12.8,Mavic Mini,1SDCH7G0169R0K,1SFLH6Q0AB03DJ,1SRCH7F014TAHX,1U5X071EXP6C8G,69.9,0.4,78.7,17.129815,4.47388,0,4273,Mavic Mini,1SDCH7G0169R0K,1SFLH6Q0AB03DJ,1SRCH7F014TAHX,1U5X071EXP6C8G,DJI Fly,,1.12.8,F88FFE5F-2386-E18D-BEBE-FDFF58614B96,1SDCH7G0169R0K,,,,,6.972849425,79.91594251,5,,
3/2/2024,44:14.0,6m 45.0s,405,6.972886314,79.91593683,7.2,7.2,8.2,64,1.3,0,0.447388,0,0,0,0,-4.47388,0,3.2,0.3,-41.1,318.9,,P-GPS,Auto Fly,,15,5,TRUE,,Mavic Mini,TRUE,FALSE,,Smart,RC,FALSE,TRUE,FALSE,,,TRUE,,FALSE,FALSE,FALSE,FALSE,FALSE,FALSE,FALSE,FALSE,FALSE,FALSE,0,Follow Yaw,0,0,-36.8,323.2,FALSE,FALSE,FALSE,FALSE,FALSE,TRUE,,TRUE,Normal,,100,1024,1024,1684,1024,1,FALSE,FALSE,FALSE,FALSE,FALSE,0,FALSE,FALSE,FALSE,FALSE,70,7.482,1434,2075,7.563,FALSE,3.745,3.737,0.013,FALSE,FALSE,NA,108.5,108.3,108.5,0,0,0,0,5,3092.9,773.23,,Idle,0,20,FALSE,5,TRUE,7,Go Home,FALSE,FALSE,FALSE,FALSE,FALSE,FALSE,FALSE,FALSE,FALSE,FALSE,FALSE,FALSE,6.97288602,79.91593794,0.4,123.9,328,TRUE,1,1,FALSE,FALSE,FALSE,FALSE,,TRUE,FALSE,FALSE,Course Lock,49.2,14.3,16.4,Calm,40,,1.12.8,Mavic Mini,1SDCH7G0169R0K,1SFLH6Q0AB03DJ,1SRCH7F014TAHX,1U5X071EXP6C8G,69.9,0.4,78.7,17.129815,4.47388,0,4273,Mavic Mini,1SDCH7G0169R0K,1SFLH6Q0AB03DJ,1SRCH7F014TAHX,1U5X071EXP6C8G,DJI Fly,,1.12.8,F88FFE5F-2386-E18D-BEBE-FDFF58614B96,1SDCH7G0169R0K,,,,,6.972849425,79.91594251,5,,
3/2/2024,44:14.0,6m 45.1s,405.1,6.972886317,79.91593688,7.8,7.8,8.8,65,1.3,0,0.447388,0,0,0,0,-4.47388,0,2.8,0.1,-41,319,,P-GPS,Auto Fly,,15,5,TRUE,,Mavic Mini,TRUE,FALSE,,Smart,RC,FALSE,TRUE,FALSE,,,TRUE,,FALSE,FALSE,FALSE,FALSE,FALSE,FALSE,FALSE,FALSE,FALSE,FALSE,0,Follow Yaw,0,0,-36.8,323.2,FALSE,FALSE,FALSE,FALSE,FALSE,TRUE,,TRUE,Normal,,100,1024,1024,1684,1024,1,FALSE,FALSE,FALSE,FALSE,FALSE,0,FALSE,FALSE,FALSE,FALSE,70,7.482,1434,2075,7.497,FALSE,3.745,3.737,0.013,FALSE,FALSE,NA,108.5,108.3,108.5,0,0,1,0,5,4157.3,1039.33,,Idle,0,20,FALSE,5,TRUE,7,Go Home,FALSE,FALSE,FALSE,FALSE,FALSE,FALSE,FALSE,FALSE,FALSE,FALSE,FALSE,FALSE,6.97288602,79.91593794,0.3,123.9,328,TRUE,1,1,FALSE,FALSE,FALSE,FALSE,,TRUE,FALSE,FALSE,Course Lock,49.2,14.3,16.4,Calm,40,,1.12.8,Mavic Mini,1SDCH7G0169R0K,1SFLH6Q0AB03DJ,1SRCH7F014TAHX,1U5X071EXP6C8G,69.9,0.4,78.7,17.129815,4.47388,0,4273,Mavic Mini,1SDCH7G0169R0K,1SFLH6Q0AB03DJ,1SRCH7F014TAHX,1U5X071EXP6C8G,DJI Fly,,1.12.8,F88FFE5F-2386-E18D-BEBE-FDFF58614B96,1SDCH7G0169R0K,,,,,6.972849425,79.91594251,5,,
