CUSTOM.date [local],CUSTOM.updateTime [local],OSD.flyTime,OSD.flyTime [s],OSD.latitude,OSD.longitude,OSD.height [ft],OSD.heightMax [ft],OSD.vpsHeight [ft],OSD.altitude [ft],OSD.mileage [ft],OSD.hSpeed [MPH],OSD.hSpeedMax [MPH],OSD.xSpeed [MPH],OSD.xSpeedMax [MPH],OSD.ySpeed [MPH],OSD.ySpeedMax [MPH],OSD.zSpeed [MPH],OSD.zSpeedMax [MPH],OSD.pitch,OSD.roll,OSD.yaw,OSD.yaw [360],OSD.directionOfTravel,OSD.flycState,OSD.flycCommand,OSD.flightAction,OSD.gpsNum,OSD.gpsLevel,OSD.isGPSUsed,OSD.nonGPSCause,OSD.droneType,OSD.isSwaveWork,OSD.waveError,OSD.goHomeStatus,OSD.batteryType,OSD.ctrlDevice,OSD.isOnGround,OSD.isMotorOn,OSD.isMotorBlocked,OSD.motorStartFailedCause,OSD.motorFailReason,OSD.isImuPreheated,OSD.imuInitFailReason,OSD.isAcceletorOverRange,OSD.isBarometerDeadInAir,OSD.isCompassError,OSD.isGoHomeHeightModified,OSD.canIOCWork,OSD.isNotEnoughForce,OSD.isOutOfLimit,OSD.isPropellerCatapult,OSD.isVibrating,OSD.isVisionUsed,OSD.voltageWarning,GIMBAL.mode,GIMBAL.pitch,GIMBAL.roll,GIMBAL.yaw,GIMBAL.yaw [360],GIMBAL.isPitchAtLimit,GIMBAL.isRollAtLimit,GIMBAL.isYawAtLimit,GIMBAL.isStuck,CAMERA.isPhoto,CAMERA.isVideo,CAMERA.filename,CAMERA.sdCardIsInserted,CAMERA.sdCardState,RC.downlinkSignal,RC.uplinkSignal,RC.aileron,RC.elevator,RC.throttle,RC.rudder,RC.mode,RC.goHomeDepressed,RC.recordDepressed,RC.shutterDepressed,RC.playbackDepressed,RC.wheelDepressed,RC.wheelOffset,RC.custom1Depressed,RC.custom2Depressed,RC.custom3Depressed,RC.custom4Depressed,BATTERY.chargeLevel,BATTERY.currentPV [V],BATTERY.currentCapacity [mAh],BATTERY.fullCapacity [mAh],BATTERY.voltage [V],BATTERY.isCellVoltageEstimated,BATTERY.cellVoltage1 [V],BATTERY.cellVoltage2 [V],BATTERY.maxCellVoltageDeviation,BATTERY.isCellVoltageDeviationHigh,BATTERY.isVoltageLow,BATTERY.current [A],BATTERY.temperature [F],BATTERY.minTemperature [F],BATTERY.maxTemperature [F],BATTERY.usefulTime [s],BATTERY.goHomeTime [s],BATTERY.landTime [s],BATTERY.goHomeBattery,BATTERY.landBattery,BATTERY.safeFlyRadius,BATTERY.volumeConsume,BATTERY.status,BATTERY.goHomeStatus,BATTERY.goHomeCountdown,BATTERY.lowWarning,BATTERY.lowWarningGoHome,BATTERY.seriousLowWarning,BATTERY.seriousLowWarningLanding,BATTERY.timesCharged,MC.failSafeAction,MC.isObstacleAvoidanceEnabled,MC.isCollisionAvoidanceEnabled,MC.isRthObstacleAvoidanceEnabled,MC.isBraking,MC.isAvoidingObstacle,MC.isAvoidingActiveObstacle,MC.isAscentLimitedByObstacle,MC.isLandingConfirmationNeeded,MC.atLowAltitudeLimit,MC.atDistanceLimit,MC.atAirportAltitudeLimit,MC.atAirportBoundary,HOME.latitude,HOME.longitude,HOME.distance [ft],HOME.height [ft],HOME.heightLimit [ft],HOME.isHomeRecord,HOME.goHomeMode,HOME.aircraftHeadDirection,HOME.isDynamicHomePointEnabled,HOME.isReachedLimitDistance,HOME.isReachedLimitHeight,HOME.isCompassCalibrating,HOME.compassCalibrationState,HOME.isMultipleFlightModeEnabled,HOME.isBeginnerMode,HOME.isIOCEnabled,HOME.iocMode,HOME.goHomeHeight [ft],HOME.courseLockAngle,HOME.forceLandingHeight [ft],HOME.wind,HOME.dataRecorderFileIndex,RECOVER.appType,RECOVER.appVersion,RECOVER.aircraftName,RECOVER.aircraftSerial,RECOVER.cameraSerial,RECOVER.rcSerial,RECOVER.batterySerial,DETAILS.totalTime [s],DETAILS.totalDistance [ft],DETAILS.maxHeight [ft],DETAILS.maxHorizontalSpeed [MPH],DETAILS.maxVerticalSpeed [MPH],DETAILS.photoNum,DETAILS.videoTime [s],DETAILS.aircraftName,DETAILS.aircraftSerial,DETAILS.cameraSerial,DETAILS.rcSerial,DETAILS.batterySerial,DETAILS.appName,DETAILS.appType,DETAILS.appVersion,DETAILS.guid,SERIAL.flightController,SERIAL.camera,SERIAL.gimbal,SERIAL.rc,SERIAL.battery,APPGPS.latitude,APPGPS.longitude,APPGPS.accuracy,APP.tip,APP.warning
2/14/2024,08:11.3,3m 23.4s,203.4,6.974259515,79.91402181,0,0,,50,0,0,0,0,0,0,0,0,0,2,0.7,-53.4,306.6,,Tripod,Other,Takeoff (RC Assisted),13,5,TRUE,,Mavic Mini,FALSE,FALSE,,Smart,RC,TRUE,TRUE,FALSE,,,TRUE,,FALSE,FALSE,FALSE,FALSE,FALSE,FALSE,FALSE,FALSE,FALSE,FALSE,0,Follow Yaw,0,0,-25.5,334.5,FALSE,FALSE,FALSE,FALSE,FALSE,FALSE,,TRUE,Normal,,,1024,1024,1024,1024,2,FALSE,FALSE,FALSE,FALSE,FALSE,0,FALSE,FALSE,FALSE,FALSE,22,7.062,456,2095,7.062,TRUE,3.531,3.531,,FALSE,FALSE,NA,100.2,100.2,100.2,,,,,,,,,Idle,,,TRUE,,FALSE,9,Go Home,FALSE,FALSE,FALSE,FALSE,FALSE,FALSE,FALSE,FALSE,FALSE,FALSE,FALSE,FALSE,,,,,,FALSE,,,FALSE,FALSE,FALSE,FALSE,,FALSE,FALSE,FALSE,,,,,Calm,,,1.12.8,Mavic Mini,1SDCH7G0169R0K,1SFLH6Q0AB03DJ,1SRCH7F014TAHX,1U5X071EXP5ZJG,50.5,0.1,3.2,4.74522,1.342164,0,0,Mavic Mini,1SDCH7G0169R0K,1SFLH6Q0AB03DJ,1SRCH7F014TAHX,1U5X071EXP5ZJG,DJI Fly,,1.12.8,55817739-9594-6368-F069-6BE3ED0D69A6,1SDCH7G0169R0K,,,,,,,,Flight mode changed to Tripod.,
2/14/2024,04:48.0,3m 23.5s,203.5,6.974259494,79.91402183,0,0,,50,0,0,0,0,0,0,0,0,0,2,0.7,-53.4,306.6,,Starting Motors,Other,Takeoff (RC Assisted),13,5,TRUE,,Mavic Mini,FALSE,FALSE,,Smart,RC,TRUE,TRUE,FALSE,,,TRUE,,FALSE,FALSE,FALSE,FALSE,FALSE,FALSE,FALSE,FALSE,FALSE,FALSE,0,Follow Yaw,0,0,-25.5,334.5,FALSE,FALSE,FALSE,FALSE,FALSE,FALSE,,TRUE,Normal,,,1024,1024,1024,1024,2,FALSE,FALSE,FALSE,FALSE,FALSE,0,FALSE,FALSE,FALSE,FALSE,22,7.062,456,2095,7.062,TRUE,3.531,3.531,,FALSE,FALSE,NA,100.2,100.2,100.2,,,,,,,,,Idle,,,TRUE,,FALSE,9,Go Home,FALSE,FALSE,FALSE,FALSE,FALSE,FALSE,FALSE,FALSE,FALSE,FALSE,FALSE,FALSE,,,,,,FALSE,,,FALSE,FALSE,FALSE,FALSE,,FALSE,FALSE,FALSE,,,,,Calm,,,1.12.8,Mavic Mini,1SDCH7G0169R0K,1SFLH6Q0AB03DJ,1SRCH7F014TAHX,1U5X071EXP5ZJG,50.5,0.1,3.2,4.74522,1.342164,0,0,Mavic Mini,1SDCH7G0169R0K,1SFLH6Q0AB03DJ,1SRCH7F014TAHX,1U5X071EXP5ZJG,DJI Fly,,1.12.8,55817739-9594-6368-F069-6BE3ED0D69A6,1SDCH7G0169R0K,,,,,,,,Flight mode changed to Starting Motors.,
2/14/2024,04:48.2,3m 23.6s,203.6,6.974259455,79.91402182,0,0,0.3,50,0,0,0,0,0,0,0,0,0,2,0.7,-53.4,306.6,,Starting Motors,Other,Takeoff (RC Assisted),13,5,TRUE,,Mavic Mini,TRUE,FALSE,,Smart,RC,TRUE,TRUE,FALSE,,,TRUE,,FALSE,FALSE,FALSE,FALSE,FALSE,FALSE,FALSE,FALSE,FALSE,FALSE,0,Follow Yaw,0,0,-25.5,334.5,FALSE,FALSE,FALSE,FALSE,FALSE,FALSE,,TRUE,Normal,,100,1024,1024,1024,1024,2,FALSE,FALSE,FALSE,FALSE,FALSE,0,FALSE,FALSE,FALSE,FALSE,22,7.062,456,2095,7.062,TRUE,3.531,3.531,,FALSE,FALSE,NA,100.2,100.2,100.2,,,,,,,,,Idle,,,TRUE,,FALSE,9,Go Home,FALSE,FALSE,FALSE,FALSE,FALSE,FALSE,FALSE,FALSE,FALSE,FALSE,FALSE,FALSE,,,,,,FALSE,,,FALSE,FALSE,FALSE,FALSE,,FALSE,FALSE,FALSE,,,,,Calm,,,1.12.8,Mavic Mini,1SDCH7G0169R0K,1SFLH6Q0AB03DJ,1SRCH7F014TAHX,1U5X071EXP5ZJG,50.5,0.1,3.2,4.74522,1.342164,0,0,Mavic Mini,1SDCH7G0169R0K,1SFLH6Q0AB03DJ,1SRCH7F014TAHX,1U5X071EXP5ZJG,DJI Fly,,1.12.8,55817739-9594-6368-F069-6BE3ED0D69A6,1SDCH7G0169R0K,,,,,,,,,
2/14/2024,04:48.3,3m 23.7s,203.7,6.974259446,79.91402175,0,0,0.3,50,0,0,0,0,0,0,0,0,0,1.9,0.7,-53.4,306.6,,Starting Motors,Other,Takeoff (RC Assisted),13,5,TRUE,,Mavic Mini,TRUE,FALSE,,Smart,RC,TRUE,TRUE,FALSE,,,TRUE,,FALSE,FALSE,FALSE,FALSE,FALSE,FALSE,FALSE,FALSE,FALSE,FALSE,0,Follow Yaw,0,0,-25.5,334.5,FALSE,FALSE,FALSE,FALSE,FALSE,FALSE,,TRUE,Normal,,100,1024,1024,1024,1024,2,FALSE,FALSE,FALSE,FALSE,FALSE,0,FALSE,FALSE,FALSE,FALSE,22,7.062,456,2095,7.062,TRUE,3.531,3.531,,FALSE,FALSE,NA,100.2,100.2,100.2,,,,,,,,,Idle,,,TRUE,,FALSE,9,Go Home,FALSE,FALSE,FALSE,FALSE,FALSE,FALSE,FALSE,FALSE,FALSE,FALSE,FALSE,FALSE,,,,,,FALSE,,,FALSE,FALSE,FALSE,FALSE,,FALSE,FALSE,FALSE,,,,,Calm,,,1.12.8,Mavic Mini,1SDCH7G0169R0K,1SFLH6Q0AB03DJ,1SRCH7F014TAHX,1U5X071EXP5ZJG,50.5,0.1,3.2,4.74522,1.342164,0,0,Mavic Mini,1SDCH7G0169R0K,1SFLH6Q0AB03DJ,1SRCH7F014TAHX,1U5X071EXP5ZJG,DJI Fly,,1.12.8,55817739-9594-6368-F069-6BE3ED0D69A6,1SDCH7G0169R0K,,,,,,,,,
2/14/2024,04:48.4,3m 23.8s,203.8,6.974259424,79.91402174,0,0,0.3,50,0,0,0,0,0,0,0,0,0,2,0.7,-53.4,306.6,,Starting Motors,Other,Takeoff (RC Assisted),13,5,TRUE,,Mavic Mini,TRUE,FALSE,,Smart,RC,TRUE,TRUE,FALSE,,,TRUE,,FALSE,FALSE,FALSE,FALSE,FALSE,FALSE,FALSE,FALSE,FALSE,FALSE,0,Follow Yaw,0,0,-25.5,334.5,FALSE,FALSE,FALSE,FALSE,FALSE,FALSE,,TRUE,Normal,,100,1024,1024,1024,1024,2,FALSE,FALSE,FALSE,FALSE,FALSE,0,FALSE,FALSE,FALSE,FALSE,22,7.062,456,2095,7.062,TRUE,3.531,3.531,,FALSE,FALSE,NA,100.2,100.2,100.2,,,,,,,,,Idle,,,TRUE,,FALSE,9,Go Home,FALSE,FALSE,FALSE,FALSE,FALSE,FALSE,FALSE,FALSE,FALSE,FALSE,FALSE,FALSE,,,,,,FALSE,,,FALSE,FALSE,FALSE,FALSE,,FALSE,FALSE,FALSE,,,,,Calm,,,1.12.8,Mavic Mini,1SDCH7G0169R0K,1SFLH6Q0AB03DJ,1SRCH7F014TAHX,1U5X071EXP5ZJG,50.5,0.1,3.2,4.74522,1.342164,0,0,Mavic Mini,1SDCH7G0169R0K,1SFLH6Q0AB03DJ,1SRCH7F014TAHX,1U5X071EXP5ZJG,DJI Fly,,1.12.8,55817739-9594-6368-F069-6BE3ED0D69A6,1SDCH7G0169R0K,,,,,,,,,
2/14/2024,04:48.5,3m 23.9s,203.9,6.974259412,79.91402175,0,0,0.3,50,0,0,0,0,0,0,0,0,0,2,0.6,-53.4,306.6,,Starting Motors,Other,Takeoff (RC Assisted),13,5,TRUE,,Mavic Mini,TRUE,FALSE,,Smart,RC,TRUE,TRUE,FALSE,,,TRUE,,FALSE,FALSE,FALSE,FALSE,FALSE,FALSE,FALSE,FALSE,FALSE,FALSE,0,Follow Yaw,0,0,-25.5,334.5,FALSE,FALSE,FALSE,FALSE,FALSE,FALSE,,TRUE,Normal,,100,1024,1024,1024,1024,2,FALSE,FALSE,FALSE,FALSE,FALSE,0,FALSE,FALSE,FALSE,FALSE,22,7.062,456,2095,7.049,TRUE,3.525,3.525,,FALSE,FALSE,NA,100.2,100.2,100.2,0,66,0,23,5,2969.4,742.35,Smart Battery Req Go Home,Idle,0,20,FALSE,5,TRUE,9,Go Home,FALSE,FALSE,FALSE,FALSE,FALSE,FALSE,FALSE,FALSE,FALSE,FALSE,FALSE,FALSE,6.974128727,79.914208,82.5,143.2,328,TRUE,1,1,FALSE,FALSE,FALSE,FALSE,,TRUE,FALSE,FALSE,Course Lock,246,75.9,16.4,Calm,24,,1.12.8,Mavic Mini,1SDCH7G0169R0K,1SFLH6Q0AB03DJ,1SRCH7F014TAHX,1U5X071EXP5ZJG,50.5,0.1,3.2,4.74522,1.342164,0,0,Mavic Mini,1SDCH7G0169R0K,1SFLH6Q0AB03DJ,1SRCH7F014TAHX,1U5X071EXP5ZJG,DJI Fly,,1.12.8,55817739-9594-6368-F069-6BE3ED0D69A6,1SDCH7G0169R0K,,,,,,,,Data Recorder File Index is 24.; Set Return to Home (RTH) altitude to 75 m (246 ft).; Set maximum flight altitude to 100 m (328 ft).,
2/14/2024,04:48.6,3m 24.0s,204,6.974259413,79.91402176,0,0,0.3,50,0,0,0,0,0,0,0,0,0,1.9,0.6,-53.4,306.6,,Starting Motors,Other,Takeoff (RC Assisted),13,5,TRUE,,Mavic Mini,TRUE,FALSE,,Smart,RC,TRUE,TRUE,FALSE,,,TRUE,,FALSE,FALSE,FALSE,FALSE,FALSE,FALSE,FALSE,FALSE,FALSE,FALSE,0,Follow Yaw,0,0,-25.5,334.5,FALSE,FALSE,FALSE,FALSE,FALSE,FALSE,,TRUE,Normal,,100,1024,1024,1024,1024,2,FALSE,FALSE,FALSE,FALSE,FALSE,0,FALSE,FALSE,FALSE,FALSE,22,7.045,455,2095,7.049,FALSE,3.525,3.52,0.005,FALSE,FALSE,NA,100.2,100.2,100.2,0,66,0,23,5,2969.4,742.35,Smart Battery Req Go Home,Idle,0,20,FALSE,5,TRUE,9,Go Home,FALSE,FALSE,FALSE,FALSE,FALSE,FALSE,FALSE,FALSE,FALSE,FALSE,FALSE,FALSE,6.974128727,79.914208,82.5,143.2,328,TRUE,1,1,FALSE,FALSE,FALSE,FALSE,,TRUE,FALSE,FALSE,Course Lock,246,75.9,16.4,Calm,24,,1.12.8,Mavic Mini,1SDCH7G0169R0K,1SFLH6Q0AB03DJ,1SRCH7F014TAHX,1U5X071EXP5ZJG,50.5,0.1,3.2,4.74522,1.342164,0,0,Mavic Mini,1SDCH7G0169R0K,1SFLH6Q0AB03DJ,1SRCH7F014TAHX,1U5X071EXP5ZJG,DJI Fly,,1.12.8,55817739-9594-6368-F069-6BE3ED0D69A6,1SDCH7G0169R0K,,,,,,,,,
2/14/2024,04:48.7,3m 24.1s,204.1,6.974259526,79.91402178,0,0,0.3,50,0,0,0,0,0,0,0,0,0,2,0.6,-53.4,306.6,,Starting Motors,Other,Takeoff (RC Assisted),13,5,TRUE,,Mavic Mini,TRUE,FALSE,,Smart,RC,TRUE,TRUE,FALSE,,,TRUE,,FALSE,FALSE,FALSE,FALSE,FALSE,FALSE,FALSE,FALSE,FALSE,FALSE,0,Follow Yaw,0,0,-25.5,334.5,FALSE,FALSE,FALSE,FALSE,FALSE,FALSE,,TRUE,Normal,,100,1024,1024,1024,1024,2,FALSE,FALSE,FALSE,FALSE,FALSE,0,FALSE,FALSE,FALSE,FALSE,22,7.045,455,2095,7.049,FALSE,3.525,3.52,0.005,FALSE,FALSE,NA,100.2,100.2,100.2,0,66,0,23,5,2969.4,742.35,Smart Battery Req Go Home,Idle,0,20,FALSE,5,TRUE,9,Go Home,FALSE,FALSE,FALSE,FALSE,FALSE,FALSE,FALSE,FALSE,FALSE,FALSE,FALSE,FALSE,6.974128727,79.914208,82.6,143.2,328,TRUE,1,1,FALSE,FALSE,FALSE,FALSE,,TRUE,FALSE,FALSE,Course Lock,246,75.9,16.4,Calm,24,,1.12.8,Mavic Mini,1SDCH7G0169R0K,1SFLH6Q0AB03DJ,1SRCH7F014TAHX,1U5X071EXP5ZJG,50.5,0.1,3.2,4.74522,1.342164,0,0,Mavic Mini,1SDCH7G0169R0K,1SFLH6Q0AB03DJ,1SRCH7F014TAHX,1U5X071EXP5ZJG,DJI Fly,,1.12.8,55817739-9594-6368-F069-6BE3ED0D69A6,1SDCH7G0169R0K,,,,,,,,,
2/14/2024,04:48.8,3m 24.2s,204.2,6.974259497,79.91402177,0,0,0.3,50,0.1,0,0,0,0,0,0,0,0,2,0.6,-53.4,306.6,,Starting Motors,Other,Takeoff (RC Assisted),13,5,TRUE,,Mavic Mini,TRUE,FALSE,,Smart,RC,TRUE,TRUE,FALSE,,,TRUE,,FALSE,FALSE,FALSE,FALSE,FALSE,FALSE,FALSE,FALSE,FALSE,FALSE,0,Follow Yaw,0,0,-25.5,334.5,FALSE,FALSE,FALSE,FALSE,FALSE,FALSE,,TRUE,Normal,,100,1024,1024,1024,1024,2,FALSE,FALSE,FALSE,FALSE,FALSE,0,FALSE,FALSE,FALSE,FALSE,22,7.045,455,2095,7.049,FALSE,3.525,3.52,0.005,FALSE,FALSE,NA,100.2,100.2,100.2,0,66,0,23,5,2969.4,742.35,Smart Battery Req Go Home,Idle,0,20,FALSE,5,TRUE,9,Go Home,FALSE,FALSE,FALSE,FALSE,FALSE,FALSE,FALSE,FALSE,FALSE,FALSE,FALSE,FALSE,6.974128727,79.914208,82.6,143.2,328,TRUE,1,1,FALSE,FALSE,FALSE,FALSE,,TRUE,FALSE,FALSE,Course Lock,246,75.9,16.4,Calm,24,,1.12.8,Mavic Mini,1SDCH7G0169R0K,1SFLH6Q0AB03DJ,1SRCH7F014TAHX,1U5X071EXP5ZJG,50.5,0.1,3.2,4.74522,1.342164,0,0,Mavic Mini,1SDCH7G0169R0K,1SFLH6Q0AB03DJ,1SRCH7F014TAHX,1U5X071EXP5ZJG,DJI Fly,,1.12.8,55817739-9594-6368-F069-6BE3ED0D69A6,1SDCH7G0169R0K,,,,,,,,,
2/14/2024,04:48.9,3m 24.3s,204.3,6.97425945,79.91402173,0,0,0.3,50,0.1,0,0,0,0,0,0,0,0,1.9,0.6,-53.4,306.6,,Starting Motors,Other,Takeoff (RC Assisted),13,5,TRUE,,Mavic Mini,TRUE,FALSE,,Smart,RC,TRUE,TRUE,FALSE,,,TRUE,,FALSE,FALSE,FALSE,FALSE,FALSE,FALSE,FALSE,FALSE,FALSE,FALSE,0,Follow Yaw,0,0,-25.5,334.5,FALSE,FALSE,FALSE,FALSE,FALSE,FALSE,,TRUE,Normal,,100,1024,1024,1024,1024,2,FALSE,FALSE,FALSE,FALSE,FALSE,0,FALSE,FALSE,FALSE,FALSE,22,7.045,455,2095,7.049,FALSE,3.525,3.52,0.005,FALSE,FALSE,NA,100.2,100.2,100.2,0,66,0,23,5,2969.4,742.35,Smart Battery Req Go Home,Idle,0,20,FALSE,5,TRUE,9,Go Home,FALSE,FALSE,FALSE,FALSE,FALSE,FALSE,FALSE,FALSE,FALSE,FALSE,FALSE,FALSE,6.974128727,79.914208,82.6,143.2,328,TRUE,1,1,FALSE,FALSE,FALSE,FALSE,,TRUE,FALSE,FALSE,Course Lock,246,75.9,16.4,Calm,24,,1.12.8,Mavic Mini,1SDCH7G0169R0K,1SFLH6Q0AB03DJ,1SRCH7F014TAHX,1U5X071EXP5ZJG,50.5,0.1,3.2,4.74522,1.342164,0,0,Mavic Mini,1SDCH7G0169R0K,1SFLH6Q0AB03DJ,1SRCH7F014TAHX,1U5X071EXP5ZJG,DJI Fly,,1.12.8,55817739-9594-6368-F069-6BE3ED0D69A6,1SDCH7G0169R0K,,,,,,,,,
2/14/2024,04:48.9,3m 24.4s,204.4,6.974259426,79.91402172,0,0,0.3,50,0.1,0,0,0,0,0,0,0,0,1.9,0.6,-53.4,306.6,,Starting Motors,Other,Takeoff (RC Assisted),13,5,TRUE,,Mavic Mini,TRUE,FALSE,,Smart,RC,TRUE,TRUE,FALSE,,,TRUE,,FALSE,FALSE,FALSE,FALSE,FALSE,FALSE,FALSE,FALSE,FALSE,FALSE,0,Follow Yaw,0,0,-25.5,334.5,FALSE,FALSE,FALSE,FALSE,FALSE,FALSE,,TRUE,Normal,,100,1024,1024,1024,1024,2,FALSE,FALSE,FALSE,FALSE,FALSE,0,FALSE,FALSE,FALSE,FALSE,22,7.045,455,2095,7.049,FALSE,3.525,3.52,0.005,FALSE,FALSE,NA,100.2,100.2,100.2,0,66,0,23,5,2969.4,742.35,Smart Battery Req Go Home,Idle,0,20,FALSE,5,TRUE,9,Go Home,FALSE,FALSE,FALSE,FALSE,FALSE,FALSE,FALSE,FALSE,FALSE,FALSE,FALSE,FALSE,6.974128727,79.914208,82.6,143.2,328,TRUE,1,1,FALSE,FALSE,FALSE,FALSE,,TRUE,FALSE,FALSE,Course Lock,246,75.9,16.4,Calm,24,,1.12.8,Mavic Mini,1SDCH7G0169R0K,1SFLH6Q0AB03DJ,1SRCH7F014TAHX,1U5X071EXP5ZJG,50.5,0.1,3.2,4.74522,1.342164,0,0,Mavic Mini,1SDCH7G0169R0K,1SFLH6Q0AB03DJ,1SRCH7F014TAHX,1U5X071EXP5ZJG,DJI Fly,,1.12.8,55817739-9594-6368-F069-6BE3ED0D69A6,1SDCH7G0169R0K,,,,,,,,,
2/14/2024,04:49.1,3m 24.5s,204.5,6.974259415,79.91402165,0,0,0.3,50,0.1,0,0,0,0,0,0,0,0,1.9,0.6,-53.4,306.6,,Starting Motors,Other,Takeoff (RC Assisted),13,5,TRUE,,Mavic Mini,TRUE,FALSE,,Smart,RC,TRUE,TRUE,FALSE,,,TRUE,,FALSE,FALSE,FALSE,FALSE,FALSE,FALSE,FALSE,FALSE,FALSE,FALSE,0,Follow Yaw,0,0,-25.5,334.5,FALSE,FALSE,FALSE,FALSE,FALSE,FALSE,,TRUE,Normal,,100,1024,1024,1024,1024,2,FALSE,FALSE,FALSE,FALSE,FALSE,0,FALSE,FALSE,FALSE,FALSE,22,7.045,455,2095,7.049,FALSE,3.525,3.52,0.005,FALSE,FALSE,NA,100.2,100.2,100.2,0,66,0,23,5,2969.4,742.35,Smart Battery Req Go Home,Idle,0,20,FALSE,5,TRUE,9,Go Home,FALSE,FALSE,FALSE,FALSE,FALSE,FALSE,FALSE,FALSE,FALSE,FALSE,FALSE,FALSE,6.974128727,79.914208,82.6,143.2,328,TRUE,1,1,FALSE,FALSE,FALSE,FALSE,,TRUE,FALSE,FALSE,Course Lock,246,75.9,16.4,Calm,24,,1.12.8,Mavic Mini,1SDCH7G0169R0K,1SFLH6Q0AB03DJ,1SRCH7F014TAHX,1U5X071EXP5ZJG,50.5,0.1,3.2,4.74522,1.342164,0,0,Mavic Mini,1SDCH7G0169R0K,1SFLH6Q0AB03DJ,1SRCH7F014TAHX,1U5X071EXP5ZJG,DJI Fly,,1.12.8,55817739-9594-6368-F069-6BE3ED0D69A6,1SDCH7G0169R0K,,,,,,,,,
2/14/2024,04:49.1,3m 24.6s,204.6,6.974259379,79.91402162,0,0,0.3,50,0.1,0,0,0,0,0,0,0,0,2,0.6,-53.4,306.6,,Manual Takeoff,Other,Takeoff (RC Assisted),13,5,TRUE,,Mavic Mini,TRUE,FALSE,,Smart,RC,TRUE,TRUE,FALSE,,,TRUE,,FALSE,FALSE,FALSE,FALSE,FALSE,FALSE,FALSE,FALSE,FALSE,FALSE,0,Follow Yaw,0,0,-25.5,334.5,FALSE,FALSE,FALSE,FALSE,FALSE,FALSE,,TRUE,Normal,,100,1024,1024,1024,1024,2,FALSE,FALSE,FALSE,FALSE,FALSE,0,FALSE,FALSE,FALSE,FALSE,22,7.045,455,2095,7.049,FALSE,3.525,3.52,0.005,FALSE,FALSE,NA,100.2,100.2,100.2,0,66,0,23,5,2969.4,742.35,Smart Battery Req Go Home,Idle,0,20,FALSE,5,TRUE,9,Go Home,FALSE,FALSE,FALSE,FALSE,FALSE,FALSE,FALSE,FALSE,FALSE,FALSE,FALSE,FALSE,6.974128727,79.914208,82.6,143.2,328,TRUE,1,1,FALSE,FALSE,FALSE,FALSE,,TRUE,FALSE,FALSE,Course Lock,246,75.9,16.4,Calm,24,,1.12.8,Mavic Mini,1SDCH7G0169R0K,1SFLH6Q0AB03DJ,1SRCH7F014TAHX,1U5X071EXP5ZJG,50.5,0.1,3.2,4.74522,1.342164,0,0,Mavic Mini,1SDCH7G0169R0K,1SFLH6Q0AB03DJ,1SRCH7F014TAHX,1U5X071EXP5ZJG,DJI Fly,,1.12.8,55817739-9594-6368-F069-6BE3ED0D69A6,1SDCH7G0169R0K,,,,,,,,Flight mode changed to Manual Takeoff.,
2/14/2024,04:49.2,3m 24.7s,204.7,6.974259328,79.91402159,0,0,0.3,50,0.2,0,0,0,0,0,0,0,0,2,0.6,-53.4,306.6,,Manual Takeoff,Other,Takeoff (RC Assisted),13,5,TRUE,,Mavic Mini,TRUE,FALSE,,Smart,RC,TRUE,TRUE,FALSE,,,TRUE,,FALSE,FALSE,FALSE,FALSE,FALSE,FALSE,FALSE,FALSE,FALSE,FALSE,0,Follow Yaw,0,0,-25.5,334.5,FALSE,FALSE,FALSE,FALSE,FALSE,FALSE,,TRUE,Normal,,100,1024,1024,1024,1024,2,FALSE,FALSE,FALSE,FALSE,FALSE,0,FALSE,FALSE,FALSE,FALSE,22,7.045,455,2095,7.049,FALSE,3.525,3.52,0.005,FALSE,FALSE,NA,100.2,100.2,100.2,0,66,0,23,5,2969.4,742.35,Smart Battery Req Go Home,Idle,0,20,FALSE,5,TRUE,9,Go Home,FALSE,FALSE,FALSE,FALSE,FALSE,FALSE,FALSE,FALSE,FALSE,FALSE,FALSE,FALSE,6.974128727,79.914208,82.6,143.2,328,TRUE,1,1,FALSE,FALSE,FALSE,FALSE,,TRUE,FALSE,FALSE,Course Lock,246,75.9,16.4,Calm,24,,1.12.8,Mavic Mini,1SDCH7G0169R0K,1SFLH6Q0AB03DJ,1SRCH7F014TAHX,1U5X071EXP5ZJG,50.5,0.1,3.2,4.74522,1.342164,0,0,Mavic Mini,1SDCH7G0169R0K,1SFLH6Q0AB03DJ,1SRCH7F014TAHX,1U5X071EXP5ZJG,DJI Fly,,1.12.8,55817739-9594-6368-F069-6BE3ED0D69A6,1SDCH7G0169R0K,,,,,,,,,
2/14/2024,04:49.3,3m 24.8s,204.8,6.974259303,79.91402158,0,0,0.3,50,0.2,0,0,0,0,0,0,0,0,1.9,0.6,-53.4,306.6,,Manual Takeoff,Other,Takeoff (RC Assisted),13,5,TRUE,,Mavic Mini,TRUE,FALSE,,Smart,RC,TRUE,TRUE,FALSE,,,TRUE,,FALSE,FALSE,FALSE,FALSE,FALSE,FALSE,FALSE,FALSE,FALSE,FALSE,0,Follow Yaw,0,0,-25.5,334.5,FALSE,FALSE,FALSE,FALSE,FALSE,FALSE,,TRUE,Normal,,100,1024,1024,1024,1024,2,FALSE,FALSE,FALSE,FALSE,FALSE,0,FALSE,FALSE,FALSE,FALSE,22,7.045,455,2095,7.049,FALSE,3.525,3.52,0.005,FALSE,FALSE,NA,100.2,100.2,100.2,0,66,0,23,5,2969.4,742.35,Smart Battery Req Go Home,Idle,0,20,FALSE,5,TRUE,9,Go Home,FALSE,FALSE,FALSE,FALSE,FALSE,FALSE,FALSE,FALSE,FALSE,FALSE,FALSE,FALSE,6.974128727,79.914208,82.6,143.2,328,TRUE,1,1,FALSE,FALSE,FALSE,FALSE,,TRUE,FALSE,FALSE,Course Lock,246,75.9,16.4,Calm,24,,1.12.8,Mavic Mini,1SDCH7G0169R0K,1SFLH6Q0AB03DJ,1SRCH7F014TAHX,1U5X071EXP5ZJG,50.5,0.1,3.2,4.74522,1.342164,0,0,Mavic Mini,1SDCH7G0169R0K,1SFLH6Q0AB03DJ,1SRCH7F014TAHX,1U5X071EXP5ZJG,DJI Fly,,1.12.8,55817739-9594-6368-F069-6BE3ED0D69A6,1SDCH7G0169R0K,,,,,,,,,
2/14/2024,04:49.4,3m 24.9s,204.9,6.97425929,79.91402153,0,0,0.3,50,0.2,0,0,0,0,0,0,0,0,1.9,0.6,-53.4,306.6,,Manual Takeoff,Other,Takeoff (RC Assisted),13,5,TRUE,,Mavic Mini,TRUE,FALSE,,Smart,RC,TRUE,TRUE,FALSE,,,TRUE,,FALSE,FALSE,FALSE,FALSE,FALSE,FALSE,FALSE,FALSE,FALSE,FALSE,0,Follow Yaw,0,0,-25.5,334.5,FALSE,FALSE,FALSE,FALSE,FALSE,FALSE,,TRUE,Normal,,100,1024,1024,1024,1024,2,FALSE,FALSE,FALSE,FALSE,FALSE,0,FALSE,FALSE,FALSE,FALSE,22,7.045,455,2095,7.046,FALSE,3.525,3.52,0.005,FALSE,FALSE,NA,100.2,100.2,100.2,0,66,0,23,5,2980,745.02,Smart Battery Req Go Home,Idle,0,20,FALSE,5,TRUE,9,Go Home,FALSE,FALSE,FALSE,FALSE,FALSE,FALSE,FALSE,FALSE,FALSE,FALSE,FALSE,FALSE,6.974128727,79.914208,82.6,143.2,328,TRUE,1,1,FALSE,FALSE,FALSE,FALSE,,TRUE,FALSE,FALSE,Course Lock,246,75.9,16.4,Calm,24,,1.12.8,Mavic Mini,1SDCH7G0169R0K,1SFLH6Q0AB03DJ,1SRCH7F014TAHX,1U5X071EXP5ZJG,50.5,0.1,3.2,4.74522,1.342164,0,0,Mavic Mini,1SDCH7G0169R0K,1SFLH6Q0AB03DJ,1SRCH7F014TAHX,1U5X071EXP5ZJG,DJI Fly,,1.12.8,55817739-9594-6368-F069-6BE3ED0D69A6,1SDCH7G0169R0K,,,,,,,,,
2/14/2024,04:49.5,3m 25.0s,205,6.974259286,79.91402154,0,0,0.3,50,0.2,0,0,0,0,0,0,0,0,1.9,0.6,-53.4,306.6,,Manual Takeoff,Other,Takeoff (RC Assisted),13,5,TRUE,,Mavic Mini,TRUE,FALSE,,Smart,RC,TRUE,TRUE,FALSE,,,TRUE,,FALSE,FALSE,FALSE,FALSE,FALSE,FALSE,FALSE,FALSE,FALSE,FALSE,0,Follow Yaw,0,0,-25.5,334.5,FALSE,FALSE,FALSE,FALSE,FALSE,FALSE,,TRUE,Normal,,100,1024,1024,1024,1024,2,FALSE,FALSE,FALSE,FALSE,FALSE,0,FALSE,FALSE,FALSE,FALSE,22,7.045,455,2095,7.046,FALSE,3.525,3.52,0.005,FALSE,FALSE,NA,100.2,100.2,100.2,0,66,0,23,5,2980,745.02,Smart Battery Req Go Home,Idle,0,20,FALSE,5,TRUE,9,Go Home,FALSE,FALSE,FALSE,FALSE,FALSE,FALSE,FALSE,FALSE,FALSE,FALSE,FALSE,FALSE,6.974128727,79.914208,82.6,143.2,328,TRUE,1,1,FALSE,FALSE,FALSE,FALSE,,TRUE,FALSE,FALSE,Course Lock,246,75.9,16.4,Calm,24,,1.12.8,Mavic Mini,1SDCH7G0169R0K,1SFLH6Q0AB03DJ,1SRCH7F014TAHX,1U5X071EXP5ZJG,50.5,0.1,3.2,4.74522,1.342164,0,0,Mavic Mini,1SDCH7G0169R0K,1SFLH6Q0AB03DJ,1SRCH7F014TAHX,1U5X071EXP5ZJG,DJI Fly,,1.12.8,55817739-9594-6368-F069-6BE3ED0D69A6,1SDCH7G0169R0K,,,,,,,,,
2/14/2024,04:49.7,3m 25.1s,205.1,6.974259286,79.91402156,0,0,0.3,50,0.2,0,0,0,0,0,0,0,0,1.9,0.6,-53.4,306.6,,Manual Takeoff,Other,Takeoff (RC Assisted),13,5,TRUE,,Mavic Mini,TRUE,FALSE,,Smart,RC,TRUE,TRUE,FALSE,,,TRUE,,FALSE,FALSE,FALSE,FALSE,FALSE,FALSE,FALSE,FALSE,FALSE,FALSE,0,Follow Yaw,0,0,-25.5,334.5,FALSE,FALSE,FALSE,FALSE,FALSE,FALSE,,TRUE,Normal,,100,1024,1024,1024,1024,2,FALSE,FALSE,FALSE,FALSE,FALSE,0,FALSE,FALSE,FALSE,FALSE,22,7.052,455,2095,7.046,FALSE,3.528,3.524,0.005,FALSE,FALSE,NA,100.2,100.2,100.2,0,66,0,23,5,2980,745.02,Smart Battery Req Go Home,Idle,0,20,FALSE,5,TRUE,9,Go Home,FALSE,FALSE,FALSE,FALSE,FALSE,FALSE,FALSE,FALSE,FALSE,FALSE,FALSE,FALSE,6.974128727,79.914208,82.6,143.2,328,TRUE,1,1,FALSE,FALSE,FALSE,FALSE,,TRUE,FALSE,FALSE,Course Lock,246,75.9,16.4,Calm,24,,1.12.8,Mavic Mini,1SDCH7G0169R0K,1SFLH6Q0AB03DJ,1SRCH7F014TAHX,1U5X071EXP5ZJG,50.5,0.1,3.2,4.74522,1.342164,0,0,Mavic Mini,1SDCH7G0169R0K,1SFLH6Q0AB03DJ,1SRCH7F014TAHX,1U5X071EXP5ZJG,DJI Fly,,1.12.8,55817739-9594-6368-F069-6BE3ED0D69A6,1SDCH7G0169R0K,,,,,,,,,
2/14/2024,04:49.7,3m 25.2s,205.2,6.974259289,79.91402158,0,0,0.3,50,0.2,0,0,0,0,0,0,0,0,1.9,0.6,-53.4,306.6,,Manual Takeoff,Other,Takeoff (RC Assisted),13,5,TRUE,,Mavic Mini,TRUE,FALSE,,Smart,RC,TRUE,TRUE,FALSE,,,TRUE,,FALSE,FALSE,FALSE,FALSE,FALSE,FALSE,FALSE,FALSE,FALSE,FALSE,0,Follow Yaw,0,0,-25.5,334.5,FALSE,FALSE,FALSE,FALSE,FALSE,FALSE,,TRUE,Normal,,100,1024,1024,1024,1024,2,FALSE,FALSE,FALSE,FALSE,FALSE,0,FALSE,FALSE,FALSE,FALSE,22,7.052,455,2095,7.046,FALSE,3.528,3.524,0.005,FALSE,FALSE,NA,100.2,100.2,100.2,0,66,0,23,5,2980,745.02,Smart Battery Req Go Home,Idle,0,20,FALSE,5,TRUE,9,Go Home,FALSE,FALSE,FALSE,FALSE,FALSE,FALSE,FALSE,FALSE,FALSE,FALSE,FALSE,FALSE,6.974128727,79.914208,82.6,143.2,328,TRUE,1,1,FALSE,FALSE,FALSE,FALSE,,TRUE,FALSE,FALSE,Course Lock,246,75.9,16.4,Calm,24,,1.12.8,Mavic Mini,1SDCH7G0169R0K,1SFLH6Q0AB03DJ,1SRCH7F014TAHX,1U5X071EXP5ZJG,50.5,0.1,3.2,4.74522,1.342164,0,0,Mavic Mini,1SDCH7G0169R0K,1SFLH6Q0AB03DJ,1SRCH7F014TAHX,1U5X071EXP5ZJG,DJI Fly,,1.12.8,55817739-9594-6368-F069-6BE3ED0D69A6,1SDCH7G0169R0K,,,,,,,,,
2/14/2024,04:49.9,3m 25.3s,205.3,6.974259291,79.9140216,0,0,0.3,50,0.2,0,0,0,0,0,0,0,0,1.9,0.6,-53.4,306.6,,Manual Takeoff,Other,Takeoff (RC Assisted),13,5,TRUE,,Mavic Mini,TRUE,FALSE,,Smart,RC,TRUE,TRUE,FALSE,,,TRUE,,FALSE,FALSE,FALSE,FALSE,FALSE,FALSE,FALSE,FALSE,FALSE,FALSE,0,Follow Yaw,0,0,-25.5,334.5,FALSE,FALSE,FALSE,FALSE,FALSE,FALSE,,TRUE,Normal,,100,1024,1024,1024,1024,2,FALSE,FALSE,FALSE,FALSE,FALSE,0,FALSE,FALSE,FALSE,FALSE,22,7.052,455,2095,7.046,FALSE,3.528,3.524,0.005,FALSE,FALSE,NA,100.2,100.2,100.2,0,66,0,23,5,2980,745.02,Smart Battery Req Go Home,Idle,0,20,FALSE,5,TRUE,9,Go Home,FALSE,FALSE,FALSE,FALSE,FALSE,FALSE,FALSE,FALSE,FALSE,FALSE,FALSE,FALSE,6.974128727,79.914208,82.6,143.2,328,TRUE,1,1,FALSE,FALSE,FALSE,FALSE,,TRUE,FALSE,FALSE,Course Lock,246,75.9,16.4,Calm,24,,1.12.8,Mavic Mini,1SDCH7G0169R0K,1SFLH6Q0AB03DJ,1SRCH7F014TAHX,1U5X071EXP5ZJG,50.5,0.1,3.2,4.74522,1.342164,0,0,Mavic Mini,1SDCH7G0169R0K,1SFLH6Q0AB03DJ,1SRCH7F014TAHX,1U5X071EXP5ZJG,DJI Fly,,1.12.8,55817739-9594-6368-F069-6BE3ED0D69A6,1SDCH7G0169R0K,,,,,,,,,
2/14/2024,04:50.0,3m 25.4s,205.4,6.974259382,79.91402165,0,0,0.3,50,0.2,0,0,0,0,0,0,0,0,1.9,0.6,-53.4,306.6,,Manual Takeoff,Other,Takeoff (RC Assisted),13,5,TRUE,,Mavic Mini,TRUE,FALSE,,Smart,RC,TRUE,TRUE,FALSE,,,TRUE,,FALSE,FALSE,FALSE,FALSE,FALSE,FALSE,FALSE,FALSE,FALSE,FALSE,0,Follow Yaw,0,0,-25.5,334.5,FALSE,FALSE,FALSE,FALSE,FALSE,FALSE,,TRUE,Normal,,100,1024,1024,1024,1024,2,FALSE,FALSE,FALSE,FALSE,FALSE,0,FALSE,FALSE,FALSE,FALSE,22,7.052,455,2095,7.046,FALSE,3.528,3.524,0.005,FALSE,FALSE,NA,100.2,100.2,100.2,0,66,0,23,5,2980,745.02,Smart Battery Req Go Home,Idle,0,20,FALSE,5,TRUE,9,Go Home,FALSE,FALSE,FALSE,FALSE,FALSE,FALSE,FALSE,FALSE,FALSE,FALSE,FALSE,FALSE,6.974128727,79.914208,82.6,143.2,328,TRUE,1,1,FALSE,FALSE,FALSE,FALSE,,TRUE,FALSE,FALSE,Course Lock,246,75.9,16.4,Calm,24,,1.12.8,Mavic Mini,1SDCH7G0169R0K,1SFLH6Q0AB03DJ,1SRCH7F014TAHX,1U5X071EXP5ZJG,50.5,0.1,3.2,4.74522,1.342164,0,0,Mavic Mini,1SDCH7G0169R0K,1SFLH6Q0AB03DJ,1SRCH7F014TAHX,1U5X071EXP5ZJG,DJI Fly,,1.12.8,55817739-9594-6368-F069-6BE3ED0D69A6,1SDCH7G0169R0K,,,,,6.974236462,79.91402775,5,,
2/14/2024,04:50.1,3m 25.5s,205.5,6.974259381,79.91402167,0,0,0.3,50,0.3,0,0,0,0,0,0,0,0,1.9,0.6,-53.4,306.6,,Manual Takeoff,Other,Takeoff (RC Assisted),13,5,TRUE,,Mavic Mini,TRUE,FALSE,,Smart,RC,TRUE,TRUE,FALSE,,,TRUE,,FALSE,FALSE,FALSE,FALSE,FALSE,FALSE,FALSE,FALSE,FALSE,FALSE,0,Follow Yaw,0,0,-25.5,334.5,FALSE,FALSE,FALSE,FALSE,FALSE,FALSE,,TRUE,Normal,,100,1024,1024,1024,1024,2,FALSE,FALSE,FALSE,FALSE,FALSE,0,FALSE,FALSE,FALSE,FALSE,22,7.052,455,2095,7.046,FALSE,3.528,3.524,0.005,FALSE,FALSE,NA,100.2,100.2,100.2,0,66,0,23,5,2980,745.02,Smart Battery Req Go Home,Idle,0,20,FALSE,5,TRUE,9,Go Home,FALSE,FALSE,FALSE,FALSE,FALSE,FALSE,FALSE,FALSE,FALSE,FALSE,FALSE,FALSE,6.974128727,79.914208,82.6,143.2,328,TRUE,1,1,FALSE,FALSE,FALSE,FALSE,,TRUE,FALSE,FALSE,Course Lock,246,75.9,16.4,Calm,24,,1.12.8,Mavic Mini,1SDCH7G0169R0K,1SFLH6Q0AB03DJ,1SRCH7F014TAHX,1U5X071EXP5ZJG,50.5,0.1,3.2,4.74522,1.342164,0,0,Mavic Mini,1SDCH7G0169R0K,1SFLH6Q0AB03DJ,1SRCH7F014TAHX,1U5X071EXP5ZJG,DJI Fly,,1.12.8,55817739-9594-6368-F069-6BE3ED0D69A6,1SDCH7G0169R0K,,,,,6.974236462,79.91402775,5,,
2/14/2024,04:50.2,3m 25.6s,205.6,6.974259345,79.91402168,0,0,0.3,50,0.3,0,0,0,0,0,0,0,0,1.9,0.6,-53.3,306.7,,Manual Takeoff,Other,Takeoff (RC Assisted),13,5,TRUE,,Mavic Mini,TRUE,FALSE,,Smart,RC,TRUE,TRUE,FALSE,,,TRUE,,FALSE,FALSE,FALSE,FALSE,FALSE,FALSE,FALSE,FALSE,FALSE,FALSE,0,Follow Yaw,0,0,-25.5,334.5,FALSE,FALSE,FALSE,FALSE,FALSE,FALSE,,TRUE,Normal,,100,1024,1024,1024,1024,2,FALSE,FALSE,FALSE,FALSE,FALSE,0,FALSE,FALSE,FALSE,FALSE,22,7.052,455,2095,7.046,FALSE,3.528,3.524,0.005,FALSE,FALSE,NA,100.2,100.2,100.2,0,66,0,23,5,2980,745.02,Smart Battery Req Go Home,Idle,0,20,FALSE,5,TRUE,9,Go Home,FALSE,FALSE,FALSE,FALSE,FALSE,FALSE,FALSE,FALSE,FALSE,FALSE,FALSE,FALSE,6.974128727,79.914208,82.5,143.2,328,TRUE,1,1,FALSE,FALSE,FALSE,FALSE,,TRUE,FALSE,FALSE,Course Lock,246,75.9,16.4,Calm,24,,1.12.8,Mavic Mini,1SDCH7G0169R0K,1SFLH6Q0AB03DJ,1SRCH7F014TAHX,1U5X071EXP5ZJG,50.5,0.1,3.2,4.74522,1.342164,0,0,Mavic Mini,1SDCH7G0169R0K,1SFLH6Q0AB03DJ,1SRCH7F014TAHX,1U5X071EXP5ZJG,DJI Fly,,1.12.8,55817739-9594-6368-F069-6BE3ED0D69A6,1SDCH7G0169R0K,,,,,6.974236462,79.91402775,5,,
2/14/2024,04:50.3,3m 25.7s,205.7,6.974259289,79.9140217,0,0,0.3,50,0.3,0,0,0,0,0,0,0,0,1.9,0.6,-53.4,306.6,,Manual Takeoff,Other,Takeoff (RC Assisted),13,5,TRUE,,Mavic Mini,TRUE,FALSE,,Smart,RC,TRUE,TRUE,FALSE,,,TRUE,,FALSE,FALSE,FALSE,FALSE,FALSE,FALSE,FALSE,FALSE,FALSE,FALSE,0,Follow Yaw,0,0,-25.5,334.5,FALSE,FALSE,FALSE,FALSE,FALSE,FALSE,,TRUE,Normal,,100,1024,1024,1024,1024,2,FALSE,FALSE,FALSE,FALSE,FALSE,0,FALSE,FALSE,FALSE,FALSE,22,7.052,455,2095,7.046,FALSE,3.528,3.524,0.005,FALSE,FALSE,NA,100.2,100.2,100.2,0,66,0,23,5,2980,745.02,Smart Battery Req Go Home,Idle,0,20,FALSE,5,TRUE,9,Go Home,FALSE,FALSE,FALSE,FALSE,FALSE,FALSE,FALSE,FALSE,FALSE,FALSE,FALSE,FALSE,6.974128727,79.914208,82.5,143.2,328,TRUE,1,1,FALSE,FALSE,FALSE,FALSE,,TRUE,FALSE,FALSE,Course Lock,246,75.9,16.4,Calm,24,,1.12.8,Mavic Mini,1SDCH7G0169R0K,1SFLH6Q0AB03DJ,1SRCH7F014TAHX,1U5X071EXP5ZJG,50.5,0.1,3.2,4.74522,1.342164,0,0,Mavic Mini,1SDCH7G0169R0K,1SFLH6Q0AB03DJ,1SRCH7F014TAHX,1U5X071EXP5ZJG,DJI Fly,,1.12.8,55817739-9594-6368-F069-6BE3ED0D69A6,1SDCH7G0169R0K,,,,,6.974236462,79.91402775,5,,
2/14/2024,04:50.3,3m 25.8s,205.8,6.974259229,79.91402168,0,0,0.3,50,0.3,0,0,0,0,0,0,0,0,1.9,0.6,-53.3,306.7,,Manual Takeoff,Other,Takeoff (RC Assisted),13,5,TRUE,,Mavic Mini,TRUE,FALSE,,Smart,RC,TRUE,TRUE,FALSE,,,TRUE,,FALSE,FALSE,FALSE,FALSE,FALSE,FALSE,FALSE,FALSE,FALSE,FALSE,0,Follow Yaw,0,0,-25.5,334.5,FALSE,FALSE,FALSE,FALSE,FALSE,FALSE,,TRUE,Normal,,100,1024,1024,1024,1024,2,FALSE,FALSE,FALSE,FALSE,FALSE,0,FALSE,FALSE,FALSE,FALSE,22,7.052,455,2095,7.046,FALSE,3.528,3.524,0.005,FALSE,FALSE,NA,100.2,100.2,100.2,0,66,0,23,5,2980,745.02,Smart Battery Req Go Home,Idle,0,20,FALSE,5,TRUE,9,Go Home,FALSE,FALSE,FALSE,FALSE,FALSE,FALSE,FALSE,FALSE,FALSE,FALSE,FALSE,FALSE,6.974128727,79.914208,82.5,143.2,328,TRUE,1,1,FALSE,FALSE,FALSE,FALSE,,TRUE,FALSE,FALSE,Course Lock,246,75.9,16.4,Calm,24,,1.12.8,Mavic Mini,1SDCH7G0169R0K,1SFLH6Q0AB03DJ,1SRCH7F014TAHX,1U5X071EXP5ZJG,50.5,0.1,3.2,4.74522,1.342164,0,0,Mavic Mini,1SDCH7G0169R0K,1SFLH6Q0AB03DJ,1SRCH7F014TAHX,1U5X071EXP5ZJG,DJI Fly,,1.12.8,55817739-9594-6368-F069-6BE3ED0D69A6,1SDCH7G0169R0K,,,,,6.974236462,79.91402775,5,,
2/14/2024,04:50.4,3m 25.9s,205.9,6.974259207,79.9140217,0,0,0.3,50,0.3,0,0,0,0,0,0,0,0,1.9,0.6,-53.4,306.6,,Manual Takeoff,Other,Takeoff (RC Assisted),13,5,TRUE,,Mavic Mini,TRUE,FALSE,,Smart,RC,TRUE,TRUE,FALSE,,,TRUE,,FALSE,FALSE,FALSE,FALSE,FALSE,FALSE,FALSE,FALSE,FALSE,FALSE,0,Follow Yaw,0,0,-25.5,334.5,FALSE,FALSE,FALSE,FALSE,FALSE,FALSE,,TRUE,Normal,,100,1024,1024,1024,1024,2,FALSE,FALSE,FALSE,FALSE,FALSE,0,FALSE,FALSE,FALSE,FALSE,22,7.052,455,2095,7.048,FALSE,3.528,3.524,0.005,FALSE,FALSE,NA,100.2,100.2,100.2,0,66,0,23,5,3035.4,758.86,Smart Battery Req Go Home,Idle,0,20,FALSE,5,TRUE,9,Go Home,FALSE,FALSE,FALSE,FALSE,FALSE,FALSE,FALSE,FALSE,FALSE,FALSE,FALSE,FALSE,6.974128727,79.914208,82.5,143.2,328,TRUE,1,1,FALSE,FALSE,FALSE,FALSE,,TRUE,FALSE,FALSE,Course Lock,246,75.9,16.4,Calm,24,,1.12.8,Mavic Mini,1SDCH7G0169R0K,1SFLH6Q0AB03DJ,1SRCH7F014TAHX,1U5X071EXP5ZJG,50.5,0.1,3.2,4.74522,1.342164,0,0,Mavic Mini,1SDCH7G0169R0K,1SFLH6Q0AB03DJ,1SRCH7F014TAHX,1U5X071EXP5ZJG,DJI Fly,,1.12.8,55817739-9594-6368-F069-6BE3ED0D69A6,1SDCH7G0169R0K,,,,,6.974236462,79.91402775,5,,
2/14/2024,04:50.5,3m 26.0s,206,6.974259198,79.91402167,0,0,0.3,50,0.3,0,0,0,0,0,0,0,0,1.9,0.6,-53.4,306.6,,Manual Takeoff,Other,Takeoff (RC Assisted),13,5,TRUE,,Mavic Mini,TRUE,FALSE,,Smart,RC,TRUE,TRUE,FALSE,,,TRUE,,FALSE,FALSE,FALSE,FALSE,FALSE,FALSE,FALSE,FALSE,FALSE,FALSE,0,Follow Yaw,0,0,-25.5,334.5,FALSE,FALSE,FALSE,FALSE,FALSE,FALSE,,TRUE,Normal,,100,1024,1024,1024,1024,2,FALSE,FALSE,FALSE,FALSE,FALSE,0,FALSE,FALSE,FALSE,FALSE,22,7.052,455,2095,7.048,FALSE,3.528,3.524,0.005,FALSE,FALSE,NA,100.2,100.2,100.2,0,66,0,23,5,3035.4,758.86,Smart Battery Req Go Home,Idle,0,20,FALSE,5,TRUE,9,Go Home,FALSE,FALSE,FALSE,FALSE,FALSE,FALSE,FALSE,FALSE,FALSE,FALSE,FALSE,FALSE,6.974128727,79.914208,82.5,143.2,328,TRUE,1,1,FALSE,FALSE,FALSE,FALSE,,TRUE,FALSE,FALSE,Course Lock,246,75.9,16.4,Calm,24,,1.12.8,Mavic Mini,1SDCH7G0169R0K,1SFLH6Q0AB03DJ,1SRCH7F014TAHX,1U5X071EXP5ZJG,50.5,0.1,3.2,4.74522,1.342164,0,0,Mavic Mini,1SDCH7G0169R0K,1SFLH6Q0AB03DJ,1SRCH7F014TAHX,1U5X071EXP5ZJG,DJI Fly,,1.12.8,55817739-9594-6368-F069-6BE3ED0D69A6,1SDCH7G0169R0K,,,,,6.974236462,79.91402775,5,,
2/14/2024,04:50.6,3m 26.1s,206.1,6.974259192,79.91402163,0,0,0.3,50,0.3,0,0,0,0,0,0,0,0,1.9,0.6,-53.3,306.7,,Manual Takeoff,Other,Takeoff (RC Assisted),13,5,TRUE,,Mavic Mini,TRUE,FALSE,,Smart,RC,TRUE,TRUE,FALSE,,,TRUE,,FALSE,FALSE,FALSE,FALSE,FALSE,FALSE,FALSE,FALSE,FALSE,FALSE,0,Follow Yaw,0,0,-25.5,334.5,FALSE,FALSE,FALSE,FALSE,FALSE,FALSE,,TRUE,Normal,,100,1024,1024,1024,1024,2,FALSE,FALSE,FALSE,FALSE,FALSE,0,FALSE,FALSE,FALSE,FALSE,22,7.052,455,2095,7.048,FALSE,3.528,3.524,0.005,FALSE,FALSE,NA,100.2,100.2,100.2,0,66,0,23,5,3035.4,758.86,Smart Battery Req Go Home,Idle,0,20,FALSE,5,TRUE,9,Go Home,FALSE,FALSE,FALSE,FALSE,FALSE,FALSE,FALSE,FALSE,FALSE,FALSE,FALSE,FALSE,6.974128727,79.914208,82.5,143.2,328,TRUE,1,1,FALSE,FALSE,FALSE,FALSE,,TRUE,FALSE,FALSE,Course Lock,246,75.9,16.4,Calm,24,,1.12.8,Mavic Mini,1SDCH7G0169R0K,1SFLH6Q0AB03DJ,1SRCH7F014TAHX,1U5X071EXP5ZJG,50.5,0.1,3.2,4.74522,1.342164,0,0,Mavic Mini,1SDCH7G0169R0K,1SFLH6Q0AB03DJ,1SRCH7F014TAHX,1U5X071EXP5ZJG,DJI Fly,,1.12.8,55817739-9594-6368-F069-6BE3ED0D69A6,1SDCH7G0169R0K,,,,,6.974236462,79.91402775,5,,
2/14/2024,04:50.7,3m 26.2s,206.2,6.974259284,79.91402147,0,0,0.3,50,0.4,0,0,0,0,0,0,0,0,1.9,0.6,-53.4,306.6,,Manual Takeoff,Other,Takeoff (RC Assisted),13,5,TRUE,,Mavic Mini,TRUE,FALSE,,Smart,RC,TRUE,TRUE,FALSE,,,TRUE,,FALSE,FALSE,FALSE,FALSE,FALSE,FALSE,FALSE,FALSE,FALSE,FALSE,0,Follow Yaw,0,0,-25.5,334.5,FALSE,FALSE,FALSE,FALSE,FALSE,FALSE,,TRUE,Normal,,100,1024,1024,1024,1024,2,FALSE,FALSE,FALSE,FALSE,FALSE,0,FALSE,FALSE,FALSE,FALSE,22,7.051,455,2095,7.048,FALSE,3.527,3.524,0.005,FALSE,FALSE,NA,100.2,100.2,100.2,0,66,0,23,5,3035.4,758.86,Smart Battery Req Go Home,Idle,0,20,FALSE,5,TRUE,9,Go Home,FALSE,FALSE,FALSE,FALSE,FALSE,FALSE,FALSE,FALSE,FALSE,FALSE,FALSE,FALSE,6.974128727,79.914208,82.6,143.2,328,TRUE,1,1,FALSE,FALSE,FALSE,FALSE,,TRUE,FALSE,FALSE,Course Lock,246,75.9,16.4,Calm,24,,1.12.8,Mavic Mini,1SDCH7G0169R0K,1SFLH6Q0AB03DJ,1SRCH7F014TAHX,1U5X071EXP5ZJG,50.5,0.1,3.2,4.74522,1.342164,0,0,Mavic Mini,1SDCH7G0169R0K,1SFLH6Q0AB03DJ,1SRCH7F014TAHX,1U5X071EXP5ZJG,DJI Fly,,1.12.8,55817739-9594-6368-F069-6BE3ED0D69A6,1SDCH7G0169R0K,,,,,6.974236462,79.91402775,5,,
2/14/2024,04:50.8,3m 26.3s,206.3,6.974259284,79.91402146,0,0,0.3,50,0.4,0,0,0,0,0,0,0,0,1.9,0.6,-53.3,306.7,,Manual Takeoff,Other,Takeoff (RC Assisted),13,5,TRUE,,Mavic Mini,TRUE,FALSE,,Smart,RC,TRUE,TRUE,FALSE,,,TRUE,,FALSE,FALSE,FALSE,FALSE,FALSE,FALSE,FALSE,FALSE,FALSE,FALSE,0,Follow Yaw,0,0,-25.5,334.5,FALSE,FALSE,FALSE,FALSE,FALSE,FALSE,,TRUE,Normal,,100,1024,1024,1024,1024,2,FALSE,FALSE,FALSE,FALSE,FALSE,0,FALSE,FALSE,FALSE,FALSE,22,7.051,455,2095,7.048,FALSE,3.527,3.524,0.005,FALSE,FALSE,NA,100.2,100.2,100.2,0,66,0,23,5,3035.4,758.86,Smart Battery Req Go Home,Idle,0,20,FALSE,5,TRUE,9,Go Home,FALSE,FALSE,FALSE,FALSE,FALSE,FALSE,FALSE,FALSE,FALSE,FALSE,FALSE,FALSE,6.974128727,79.914208,82.6,143.2,328,TRUE,1,1,FALSE,FALSE,FALSE,FALSE,,TRUE,FALSE,FALSE,Course Lock,246,75.9,16.4,Calm,24,,1.12.8,Mavic Mini,1SDCH7G0169R0K,1SFLH6Q0AB03DJ,1SRCH7F014TAHX,1U5X071EXP5ZJG,50.5,0.1,3.2,4.74522,1.342164,0,0,Mavic Mini,1SDCH7G0169R0K,1SFLH6Q0AB03DJ,1SRCH7F014TAHX,1U5X071EXP5ZJG,DJI Fly,,1.12.8,55817739-9594-6368-F069-6BE3ED0D69A6,1SDCH7G0169R0K,,,,,6.974236462,79.91402775,5,,
2/14/2024,04:50.9,3m 26.4s,206.4,6.974259283,79.91402147,0,0,0.3,50,0.4,0,0,0,0,0,0,0,0,1.9,0.6,-53.3,306.7,,Manual Takeoff,Other,Takeoff (RC Assisted),13,5,TRUE,,Mavic Mini,TRUE,FALSE,,Smart,RC,TRUE,TRUE,FALSE,,,TRUE,,FALSE,FALSE,FALSE,FALSE,FALSE,FALSE,FALSE,FALSE,FALSE,FALSE,0,Follow Yaw,0,0,-25.5,334.5,FALSE,FALSE,FALSE,FALSE,FALSE,FALSE,,TRUE,Normal,,100,1024,1024,1024,1024,2,FALSE,FALSE,FALSE,FALSE,FALSE,0,FALSE,FALSE,FALSE,FALSE,22,7.051,455,2095,7.048,FALSE,3.527,3.524,0.005,FALSE,FALSE,NA,100.2,100.2,100.2,0,66,0,23,5,3035.4,758.86,Smart Battery Req Go Home,Idle,0,20,FALSE,5,TRUE,9,Go Home,FALSE,FALSE,FALSE,FALSE,FALSE,FALSE,FALSE,FALSE,FALSE,FALSE,FALSE,FALSE,6.974128727,79.914208,82.6,143.2,328,TRUE,1,1,FALSE,FALSE,FALSE,FALSE,,TRUE,FALSE,FALSE,Course Lock,246,75.9,16.4,Calm,24,,1.12.8,Mavic Mini,1SDCH7G0169R0K,1SFLH6Q0AB03DJ,1SRCH7F014TAHX,1U5X071EXP5ZJG,50.5,0.1,3.2,4.74522,1.342164,0,0,Mavic Mini,1SDCH7G0169R0K,1SFLH6Q0AB03DJ,1SRCH7F014TAHX,1U5X071EXP5ZJG,DJI Fly,,1.12.8,55817739-9594-6368-F069-6BE3ED0D69A6,1SDCH7G0169R0K,,,,,6.974236462,79.91402775,5,,
2/14/2024,04:51.2,3m 26.5s,206.5,6.974259282,79.91402149,0,0,0.3,50,0.4,0,0,0,0,0,0,0,0,1.9,0.6,-53.4,306.6,,Manual Takeoff,Other,Takeoff (RC Assisted),13,5,TRUE,,Mavic Mini,TRUE,FALSE,,Smart,RC,TRUE,TRUE,FALSE,,,TRUE,,FALSE,FALSE,FALSE,FALSE,FALSE,FALSE,FALSE,FALSE,FALSE,FALSE,0,Follow Yaw,0,0,-25.5,334.5,FALSE,FALSE,FALSE,FALSE,FALSE,FALSE,,TRUE,Normal,,100,1024,1024,1024,1024,2,FALSE,FALSE,FALSE,FALSE,FALSE,0,FALSE,FALSE,FALSE,FALSE,22,7.051,455,2095,7.048,FALSE,3.527,3.524,0.005,FALSE,FALSE,NA,100.2,100.2,100.2,0,66,0,23,5,3035.4,758.86,Smart Battery Req Go Home,Idle,0,20,FALSE,5,TRUE,9,Go Home,FALSE,FALSE,FALSE,FALSE,FALSE,FALSE,FALSE,FALSE,FALSE,FALSE,FALSE,FALSE,6.974128727,79.914208,82.6,143.2,328,TRUE,1,1,FALSE,FALSE,FALSE,FALSE,,TRUE,FALSE,FALSE,Course Lock,246,75.9,16.4,Calm,24,,1.12.8,Mavic Mini,1SDCH7G0169R0K,1SFLH6Q0AB03DJ,1SRCH7F014TAHX,1U5X071EXP5ZJG,50.5,0.1,3.2,4.74522,1.342164,0,0,Mavic Mini,1SDCH7G0169R0K,1SFLH6Q0AB03DJ,1SRCH7F014TAHX,1U5X071EXP5ZJG,DJI Fly,,1.12.8,55817739-9594-6368-F069-6BE3ED0D69A6,1SDCH7G0169R0K,,,,,6.974236462,79.91402775,5,,
2/14/2024,04:51.2,3m 26.6s,206.6,6.974259329,79.91402151,0,0,0.3,50,0.4,0,0,0,0,0,0,0,0,1.9,0.6,-53.3,306.7,,Manual Takeoff,Other,Takeoff (RC Assisted),13,5,TRUE,,Mavic Mini,TRUE,FALSE,,Smart,RC,TRUE,TRUE,FALSE,,,TRUE,,FALSE,FALSE,FALSE,FALSE,FALSE,FALSE,FALSE,FALSE,FALSE,FALSE,0,Follow Yaw,0,0,-25.5,334.5,FALSE,FALSE,FALSE,FALSE,FALSE,FALSE,,TRUE,Normal,,100,1024,1024,1024,1024,2,FALSE,FALSE,FALSE,FALSE,FALSE,0,FALSE,FALSE,FALSE,FALSE,22,7.051,455,2095,7.048,FALSE,3.527,3.524,0.005,FALSE,FALSE,NA,100.2,100.2,100.2,0,66,0,23,5,3035.4,758.86,Smart Battery Req Go Home,Idle,0,20,FALSE,5,TRUE,9,Go Home,FALSE,FALSE,FALSE,FALSE,FALSE,FALSE,FALSE,FALSE,FALSE,FALSE,FALSE,FALSE,6.974128727,79.914208,82.6,143.2,328,TRUE,1,1,FALSE,FALSE,FALSE,FALSE,,TRUE,FALSE,FALSE,Course Lock,246,75.9,16.4,Calm,24,,1.12.8,Mavic Mini,1SDCH7G0169R0K,1SFLH6Q0AB03DJ,1SRCH7F014TAHX,1U5X071EXP5ZJG,50.5,0.1,3.2,4.74522,1.342164,0,0,Mavic Mini,1SDCH7G0169R0K,1SFLH6Q0AB03DJ,1SRCH7F014TAHX,1U5X071EXP5ZJG,DJI Fly,,1.12.8,55817739-9594-6368-F069-6BE3ED0D69A6,1SDCH7G0169R0K,,,,,6.974236462,79.91402775,5,,
2/14/2024,04:51.3,3m 26.7s,206.7,6.974259326,79.91402153,0,0,0.3,50,0.5,0,0,0,0,0,0,0,0,1.9,0.6,-53.4,306.6,,Manual Takeoff,Other,Takeoff (RC Assisted),13,5,TRUE,,Mavic Mini,TRUE,FALSE,,Smart,RC,TRUE,TRUE,FALSE,,,TRUE,,FALSE,FALSE,FALSE,FALSE,FALSE,FALSE,FALSE,FALSE,FALSE,FALSE,0,Follow Yaw,0,0,-25.5,334.5,FALSE,FALSE,FALSE,FALSE,FALSE,FALSE,,TRUE,Normal,,100,1024,1024,1024,1024,1,FALSE,FALSE,FALSE,FALSE,FALSE,0,FALSE,FALSE,FALSE,FALSE,22,7.051,455,2095,7.048,FALSE,3.527,3.524,0.005,FALSE,FALSE,NA,100.2,100.2,100.2,0,66,0,23,5,3035.4,758.86,Smart Battery Req Go Home,Idle,0,20,FALSE,5,TRUE,9,Go Home,FALSE,FALSE,FALSE,FALSE,FALSE,FALSE,FALSE,FALSE,FALSE,FALSE,FALSE,FALSE,6.974128727,79.914208,82.6,143.2,328,TRUE,1,1,FALSE,FALSE,FALSE,FALSE,,TRUE,FALSE,FALSE,Course Lock,246,75.9,16.4,Calm,24,,1.12.8,Mavic Mini,1SDCH7G0169R0K,1SFLH6Q0AB03DJ,1SRCH7F014TAHX,1U5X071EXP5ZJG,50.5,0.1,3.2,4.74522,1.342164,0,0,Mavic Mini,1SDCH7G0169R0K,1SFLH6Q0AB03DJ,1SRCH7F014TAHX,1U5X071EXP5ZJG,DJI Fly,,1.12.8,55817739-9594-6368-F069-6BE3ED0D69A6,1SDCH7G0169R0K,,,,,6.974236462,79.91402775,5,,
2/14/2024,04:51.4,3m 26.8s,206.8,6.974259323,79.91402152,0,0,0.3,50,0.5,0,0,0,0,0,0,0,0,1.9,0.6,-53.3,306.7,,Manual Takeoff,Other,Takeoff (RC Assisted),13,5,TRUE,,Mavic Mini,TRUE,FALSE,,Smart,RC,TRUE,TRUE,FALSE,,,TRUE,,FALSE,FALSE,FALSE,FALSE,FALSE,FALSE,FALSE,FALSE,FALSE,FALSE,0,Follow Yaw,0,0,-25.5,334.5,FALSE,FALSE,FALSE,FALSE,FALSE,FALSE,,TRUE,Normal,,100,1024,1024,1024,1024,1,FALSE,FALSE,FALSE,FALSE,FALSE,0,FALSE,FALSE,FALSE,FALSE,22,7.051,455,2095,7.048,FALSE,3.527,3.524,0.005,FALSE,FALSE,NA,100.2,100.2,100.2,0,66,0,23,5,3035.4,758.86,Smart Battery Req Go Home,Idle,0,20,FALSE,5,TRUE,9,Go Home,FALSE,FALSE,FALSE,FALSE,FALSE,FALSE,FALSE,FALSE,FALSE,FALSE,FALSE,FALSE,6.974128727,79.914208,82.6,143.2,328,TRUE,1,1,FALSE,FALSE,FALSE,FALSE,,TRUE,FALSE,FALSE,Course Lock,246,75.9,16.4,Calm,24,,1.12.8,Mavic Mini,1SDCH7G0169R0K,1SFLH6Q0AB03DJ,1SRCH7F014TAHX,1U5X071EXP5ZJG,50.5,0.1,3.2,4.74522,1.342164,0,0,Mavic Mini,1SDCH7G0169R0K,1SFLH6Q0AB03DJ,1SRCH7F014TAHX,1U5X071EXP5ZJG,DJI Fly,,1.12.8,55817739-9594-6368-F069-6BE3ED0D69A6,1SDCH7G0169R0K,,,,,6.974236462,79.91402775,5,,
2/14/2024,04:51.4,3m 26.9s,206.9,6.974259317,79.91402148,0,0,0.3,50,0.5,0,0,0,0,0,0,0,0,1.9,0.6,-53.4,306.6,,Manual Takeoff,Other,Takeoff (RC Assisted),13,5,TRUE,,Mavic Mini,TRUE,FALSE,,Smart,RC,TRUE,TRUE,FALSE,,,TRUE,,FALSE,FALSE,FALSE,FALSE,FALSE,FALSE,FALSE,FALSE,FALSE,FALSE,0,Follow Yaw,0,0,-25.5,334.5,FALSE,FALSE,FALSE,FALSE,FALSE,FALSE,,TRUE,Normal,,100,1024,1024,1024,1024,1,FALSE,FALSE,FALSE,FALSE,FALSE,0,FALSE,FALSE,FALSE,FALSE,22,7.051,455,2095,7.051,FALSE,3.527,3.524,0.005,FALSE,FALSE,NA,100.2,100.2,100.2,0,66,0,23,5,3148.5,787.12,Smart Battery Req Go Home,Idle,0,20,FALSE,5,TRUE,9,Go Home,FALSE,FALSE,FALSE,FALSE,FALSE,FALSE,FALSE,FALSE,FALSE,FALSE,FALSE,FALSE,6.974128727,79.914208,82.6,143.2,328,TRUE,1,1,FALSE,FALSE,FALSE,FALSE,,TRUE,FALSE,FALSE,Course Lock,246,75.9,16.4,Calm,24,,1.12.8,Mavic Mini,1SDCH7G0169R0K,1SFLH6Q0AB03DJ,1SRCH7F014TAHX,1U5X071EXP5ZJG,50.5,0.1,3.2,4.74522,1.342164,0,0,Mavic Mini,1SDCH7G0169R0K,1SFLH6Q0AB03DJ,1SRCH7F014TAHX,1U5X071EXP5ZJG,DJI Fly,,1.12.8,55817739-9594-6368-F069-6BE3ED0D69A6,1SDCH7G0169R0K,,,,,6.974236462,79.91402775,5,,
2/14/2024,04:51.6,3m 27.0s,207,6.974259313,79.91402147,0,0,0.3,50,0.5,0,0,0,0,0,0,0,0,1.9,0.6,-53.3,306.7,,Manual Takeoff,Other,Takeoff (RC Assisted),13,5,TRUE,,Mavic Mini,TRUE,FALSE,,Smart,RC,TRUE,TRUE,FALSE,,,TRUE,,FALSE,FALSE,FALSE,FALSE,FALSE,FALSE,FALSE,FALSE,FALSE,FALSE,0,Follow Yaw,0,0,-25.5,334.5,FALSE,FALSE,FALSE,FALSE,FALSE,FALSE,,TRUE,Normal,,100,1024,1024,1024,1024,1,FALSE,FALSE,FALSE,FALSE,FALSE,0,FALSE,FALSE,FALSE,FALSE,22,7.051,455,2095,7.051,FALSE,3.527,3.524,0.005,FALSE,FALSE,NA,100.2,100.2,100.2,0,66,0,23,5,3148.5,787.12,Smart Battery Req Go Home,Idle,0,20,FALSE,5,TRUE,9,Go Home,FALSE,FALSE,FALSE,FALSE,FALSE,FALSE,FALSE,FALSE,FALSE,FALSE,FALSE,FALSE,6.974128727,79.914208,82.6,143.2,328,TRUE,1,1,FALSE,FALSE,FALSE,FALSE,,TRUE,FALSE,FALSE,Course Lock,246,75.9,16.4,Calm,24,,1.12.8,Mavic Mini,1SDCH7G0169R0K,1SFLH6Q0AB03DJ,1SRCH7F014TAHX,1U5X071EXP5ZJG,50.5,0.1,3.2,4.74522,1.342164,0,0,Mavic Mini,1SDCH7G0169R0K,1SFLH6Q0AB03DJ,1SRCH7F014TAHX,1U5X071EXP5ZJG,DJI Fly,,1.12.8,55817739-9594-6368-F069-6BE3ED0D69A6,1SDCH7G0169R0K,,,,,6.974236462,79.91402775,5,,
2/14/2024,04:51.6,3m 27.1s,207.1,6.974259328,79.91402137,0,0,0.3,50,0.5,0,0,0,0,0,0,0,0,1.9,0.6,-53.4,306.6,,Manual Takeoff,Other,Takeoff (RC Assisted),13,5,TRUE,,Mavic Mini,TRUE,FALSE,,Smart,RC,TRUE,TRUE,FALSE,,,TRUE,,FALSE,FALSE,FALSE,FALSE,FALSE,FALSE,FALSE,FALSE,FALSE,FALSE,0,Follow Yaw,0,0,-25.5,334.5,FALSE,FALSE,FALSE,FALSE,FALSE,FALSE,,TRUE,Normal,,100,1024,1024,1024,1024,1,FALSE,FALSE,FALSE,FALSE,FALSE,0,FALSE,FALSE,FALSE,FALSE,22,7.051,455,2095,7.051,FALSE,3.527,3.524,0.005,FALSE,FALSE,NA,100.2,100.2,100.2,0,66,0,23,5,3148.5,787.12,Smart Battery Req Go Home,Idle,0,20,FALSE,5,TRUE,9,Go Home,FALSE,FALSE,FALSE,FALSE,FALSE,FALSE,FALSE,FALSE,FALSE,FALSE,FALSE,FALSE,6.974128727,79.914208,82.6,143.2,328,TRUE,1,1,FALSE,FALSE,FALSE,FALSE,,TRUE,FALSE,FALSE,Course Lock,246,75.9,16.4,Calm,24,,1.12.8,Mavic Mini,1SDCH7G0169R0K,1SFLH6Q0AB03DJ,1SRCH7F014TAHX,1U5X071EXP5ZJG,50.5,0.1,3.2,4.74522,1.342164,0,0,Mavic Mini,1SDCH7G0169R0K,1SFLH6Q0AB03DJ,1SRCH7F014TAHX,1U5X071EXP5ZJG,DJI Fly,,1.12.8,55817739-9594-6368-F069-6BE3ED0D69A6,1SDCH7G0169R0K,,,,,6.974236462,79.91402775,5,,
2/14/2024,04:51.8,3m 27.2s,207.2,6.974259323,79.91402138,0,0,0.3,50,0.5,0,0,0,0,0,0,0,0,1.9,0.6,-53.3,306.7,,Manual Takeoff,Other,Takeoff (RC Assisted),13,5,TRUE,,Mavic Mini,TRUE,FALSE,,Smart,RC,TRUE,TRUE,FALSE,,,TRUE,,FALSE,FALSE,FALSE,FALSE,FALSE,FALSE,FALSE,FALSE,FALSE,FALSE,0,Follow Yaw,0,0,-25.5,334.5,FALSE,FALSE,FALSE,FALSE,FALSE,FALSE,,TRUE,Normal,,100,1024,1024,1024,1024,1,FALSE,FALSE,FALSE,FALSE,FALSE,0,FALSE,FALSE,FALSE,FALSE,22,7.051,455,2095,7.051,FALSE,3.527,3.524,0.005,FALSE,FALSE,NA,100.2,100.2,100.2,0,66,0,23,5,3148.5,787.12,Smart Battery Req Go Home,Idle,0,20,FALSE,5,TRUE,9,Go Home,FALSE,FALSE,FALSE,FALSE,FALSE,FALSE,FALSE,FALSE,FALSE,FALSE,FALSE,FALSE,6.974128727,79.914208,82.6,143.2,328,TRUE,1,1,FALSE,FALSE,FALSE,FALSE,,TRUE,FALSE,FALSE,Course Lock,246,75.9,16.4,Calm,24,,1.12.8,Mavic Mini,1SDCH7G0169R0K,1SFLH6Q0AB03DJ,1SRCH7F014TAHX,1U5X071EXP5ZJG,50.5,0.1,3.2,4.74522,1.342164,0,0,Mavic Mini,1SDCH7G0169R0K,1SFLH6Q0AB03DJ,1SRCH7F014TAHX,1U5X071EXP5ZJG,DJI Fly,,1.12.8,55817739-9594-6368-F069-6BE3ED0D69A6,1SDCH7G0169R0K,,,,,6.974236462,79.91402775,5,,
2/14/2024,04:51.9,3m 27.3s,207.3,6.974259317,79.91402139,0,0,0.3,50,0.5,0,0,0,0,0,0,0,0,1.9,0.6,-53.3,306.7,,Manual Takeoff,Other,Takeoff (RC Assisted),13,5,TRUE,,Mavic Mini,TRUE,FALSE,,Smart,RC,TRUE,TRUE,FALSE,,,TRUE,,FALSE,FALSE,FALSE,FALSE,FALSE,FALSE,FALSE,FALSE,FALSE,FALSE,0,Follow Yaw,0,0,-25.5,334.5,FALSE,FALSE,FALSE,FALSE,FALSE,FALSE,,TRUE,Normal,,100,1024,1024,1024,1024,1,FALSE,FALSE,FALSE,FALSE,FALSE,0,FALSE,FALSE,FALSE,FALSE,22,7.051,455,2095,7.051,FALSE,3.527,3.524,0.005,FALSE,FALSE,NA,100.2,100.2,100.2,0,66,0,23,5,3148.5,787.12,Smart Battery Req Go Home,Idle,0,20,FALSE,5,TRUE,9,Go Home,FALSE,FALSE,FALSE,FALSE,FALSE,FALSE,FALSE,FALSE,FALSE,FALSE,FALSE,FALSE,6.974128727,79.914208,82.6,143.2,328,TRUE,1,1,FALSE,FALSE,FALSE,FALSE,,TRUE,FALSE,FALSE,Course Lock,246,75.9,16.4,Calm,24,,1.12.8,Mavic Mini,1SDCH7G0169R0K,1SFLH6Q0AB03DJ,1SRCH7F014TAHX,1U5X071EXP5ZJG,50.5,0.1,3.2,4.74522,1.342164,0,0,Mavic Mini,1SDCH7G0169R0K,1SFLH6Q0AB03DJ,1SRCH7F014TAHX,1U5X071EXP5ZJG,DJI Fly,,1.12.8,55817739-9594-6368-F069-6BE3ED0D69A6,1SDCH7G0169R0K,,,,,6.974236462,79.91402775,5,,
2/14/2024,04:51.9,3m 27.4s,207.4,6.974259311,79.91402141,0,0,0.3,50,0.5,0,0,0,0,0,0,0,0,1.9,0.6,-53.3,306.7,,Manual Takeoff,Other,Takeoff (RC Assisted),13,5,TRUE,,Mavic Mini,TRUE,FALSE,,Smart,RC,TRUE,TRUE,FALSE,,,TRUE,,FALSE,FALSE,FALSE,FALSE,FALSE,FALSE,FALSE,FALSE,FALSE,FALSE,0,Follow Yaw,0,0,-25.5,334.5,FALSE,FALSE,FALSE,FALSE,FALSE,FALSE,,TRUE,Normal,,100,1024,1024,1024,1024,0,FALSE,FALSE,FALSE,FALSE,FALSE,0,FALSE,FALSE,FALSE,FALSE,22,7.05,455,2095,7.051,FALSE,3.526,3.524,0.005,FALSE,FALSE,NA,100.2,100.2,100.2,0,66,0,23,5,3148.5,787.12,Smart Battery Req Go Home,Idle,0,20,FALSE,5,TRUE,9,Go Home,FALSE,FALSE,FALSE,FALSE,FALSE,FALSE,FALSE,FALSE,FALSE,FALSE,FALSE,FALSE,6.974128727,79.914208,82.6,143.2,328,TRUE,1,1,FALSE,FALSE,FALSE,FALSE,,TRUE,FALSE,FALSE,Course Lock,246,75.9,16.4,Calm,24,,1.12.8,Mavic Mini,1SDCH7G0169R0K,1SFLH6Q0AB03DJ,1SRCH7F014TAHX,1U5X071EXP5ZJG,50.5,0.1,3.2,4.74522,1.342164,0,0,Mavic Mini,1SDCH7G0169R0K,1SFLH6Q0AB03DJ,1SRCH7F014TAHX,1U5X071EXP5ZJG,DJI Fly,,1.12.8,55817739-9594-6368-F069-6BE3ED0D69A6,1SDCH7G0169R0K,,,,,6.974236462,79.91402775,5,,
2/14/2024,04:52.1,3m 27.5s,207.5,6.974259328,79.91402144,0,0,0.3,50,0.5,0,0,0,0,0,0,0,0,1.9,0.6,-53.4,306.6,,Manual Takeoff,Other,Takeoff (RC Assisted),13,5,TRUE,,Mavic Mini,TRUE,FALSE,,Smart,RC,TRUE,TRUE,FALSE,,,TRUE,,FALSE,FALSE,FALSE,FALSE,FALSE,FALSE,FALSE,FALSE,FALSE,FALSE,0,Follow Yaw,0,0,-25.5,334.5,FALSE,FALSE,FALSE,FALSE,FALSE,FALSE,,TRUE,Normal,,100,1024,1024,1024,1024,0,FALSE,FALSE,FALSE,FALSE,FALSE,0,FALSE,FALSE,FALSE,FALSE,22,7.05,455,2095,7.051,FALSE,3.526,3.524,0.005,FALSE,FALSE,NA,100.2,100.2,100.2,0,66,0,23,5,3148.5,787.12,Smart Battery Req Go Home,Idle,0,20,FALSE,5,TRUE,9,Go Home,FALSE,FALSE,FALSE,FALSE,FALSE,FALSE,FALSE,FALSE,FALSE,FALSE,FALSE,FALSE,6.974128727,79.914208,82.6,143.2,328,TRUE,1,1,FALSE,FALSE,FALSE,FALSE,,TRUE,FALSE,FALSE,Course Lock,246,75.9,16.4,Calm,24,,1.12.8,Mavic Mini,1SDCH7G0169R0K,1SFLH6Q0AB03DJ,1SRCH7F014TAHX,1U5X071EXP5ZJG,50.5,0.1,3.2,4.74522,1.342164,0,0,Mavic Mini,1SDCH7G0169R0K,1SFLH6Q0AB03DJ,1SRCH7F014TAHX,1U5X071EXP5ZJG,DJI Fly,,1.12.8,55817739-9594-6368-F069-6BE3ED0D69A6,1SDCH7G0169R0K,,,,,6.974236462,79.91402775,5,,
2/14/2024,04:52.1,3m 27.6s,207.6,6.974259322,79.91402142,0,0,0.3,50,0.5,0,0,0,0,0,0,0,0,1.8,0.6,-53.3,306.7,,Manual Takeoff,Other,Takeoff (RC Assisted),13,5,TRUE,,Mavic Mini,TRUE,FALSE,,Smart,RC,TRUE,TRUE,FALSE,,,TRUE,,FALSE,FALSE,FALSE,FALSE,FALSE,FALSE,FALSE,FALSE,FALSE,FALSE,0,Follow Yaw,0,0,-25.5,334.5,FALSE,FALSE,FALSE,FALSE,FALSE,FALSE,,TRUE,Normal,,100,1024,1024,1024,1024,0,FALSE,FALSE,FALSE,FALSE,FALSE,0,FALSE,FALSE,FALSE,FALSE,22,7.05,455,2095,7.051,FALSE,3.526,3.524,0.005,FALSE,FALSE,NA,100.2,100.2,100.2,0,66,0,23,5,3148.5,787.12,Smart Battery Req Go Home,Idle,0,20,FALSE,5,TRUE,9,Go Home,FALSE,FALSE,FALSE,FALSE,FALSE,FALSE,FALSE,FALSE,FALSE,FALSE,FALSE,FALSE,6.974128727,79.914208,82.6,143.2,328,TRUE,1,1,FALSE,FALSE,FALSE,FALSE,,TRUE,FALSE,FALSE,Course Lock,246,75.9,16.4,Calm,24,,1.12.8,Mavic Mini,1SDCH7G0169R0K,1SFLH6Q0AB03DJ,1SRCH7F014TAHX,1U5X071EXP5ZJG,50.5,0.1,3.2,4.74522,1.342164,0,0,Mavic Mini,1SDCH7G0169R0K,1SFLH6Q0AB03DJ,1SRCH7F014TAHX,1U5X071EXP5ZJG,DJI Fly,,1.12.8,55817739-9594-6368-F069-6BE3ED0D69A6,1SDCH7G0169R0K,,,,,6.974236462,79.91402775,5,,
2/14/2024,04:52.1,3m 27.7s,207.7,6.974259315,79.91402139,0,0,0.3,50,0.6,0,0,0,0,0,0,0,0,1.9,0.6,-53.3,306.7,,Manual Takeoff,Other,Takeoff (RC Assisted),13,5,TRUE,,Mavic Mini,TRUE,FALSE,,Smart,RC,TRUE,TRUE,FALSE,,,TRUE,,FALSE,FALSE,FALSE,FALSE,FALSE,FALSE,FALSE,FALSE,FALSE,FALSE,0,Follow Yaw,0,0,-25.5,334.5,FALSE,FALSE,FALSE,FALSE,FALSE,FALSE,,TRUE,Normal,,100,1024,1024,1024,1024,0,FALSE,FALSE,FALSE,FALSE,FALSE,0,FALSE,FALSE,FALSE,FALSE,22,7.05,455,2095,7.051,FALSE,3.526,3.524,0.005,FALSE,FALSE,NA,100.2,100.2,100.2,0,66,0,23,5,3148.5,787.12,Smart Battery Req Go Home,Idle,0,20,FALSE,5,TRUE,9,Go Home,FALSE,FALSE,FALSE,FALSE,FALSE,FALSE,FALSE,FALSE,FALSE,FALSE,FALSE,FALSE,6.974128727,79.914208,82.6,143.2,328,TRUE,1,1,FALSE,FALSE,FALSE,FALSE,,TRUE,FALSE,FALSE,Course Lock,246,75.9,16.4,Calm,24,,1.12.8,Mavic Mini,1SDCH7G0169R0K,1SFLH6Q0AB03DJ,1SRCH7F014TAHX,1U5X071EXP5ZJG,50.5,0.1,3.2,4.74522,1.342164,0,0,Mavic Mini,1SDCH7G0169R0K,1SFLH6Q0AB03DJ,1SRCH7F014TAHX,1U5X071EXP5ZJG,DJI Fly,,1.12.8,55817739-9594-6368-F069-6BE3ED0D69A6,1SDCH7G0169R0K,,,,,6.974236462,79.91402775,5,,
2/14/2024,04:52.3,3m 27.8s,207.8,6.974259309,79.91402137,0,0,0.3,50,0.6,0,0,0,0,0,0,0,0,1.9,0.6,-53.3,306.7,,Manual Takeoff,Other,Takeoff (RC Assisted),13,5,TRUE,,Mavic Mini,TRUE,FALSE,,Smart,RC,TRUE,TRUE,FALSE,,,TRUE,,FALSE,FALSE,FALSE,FALSE,FALSE,FALSE,FALSE,FALSE,FALSE,FALSE,0,Follow Yaw,0,0,-25.5,334.5,FALSE,FALSE,FALSE,FALSE,FALSE,FALSE,,TRUE,Normal,,100,1024,1024,1024,1024,0,FALSE,FALSE,FALSE,FALSE,FALSE,0,FALSE,FALSE,FALSE,FALSE,22,7.05,455,2095,7.051,FALSE,3.526,3.524,0.005,FALSE,FALSE,NA,100.2,100.2,100.2,0,66,0,23,5,3148.5,787.12,Smart Battery Req Go Home,Idle,0,20,FALSE,5,TRUE,9,Go Home,FALSE,FALSE,FALSE,FALSE,FALSE,FALSE,FALSE,FALSE,FALSE,FALSE,FALSE,FALSE,6.974128727,79.914208,82.6,143.2,328,TRUE,1,1,FALSE,FALSE,FALSE,FALSE,,TRUE,FALSE,FALSE,Course Lock,246,75.9,16.4,Calm,24,,1.12.8,Mavic Mini,1SDCH7G0169R0K,1SFLH6Q0AB03DJ,1SRCH7F014TAHX,1U5X071EXP5ZJG,50.5,0.1,3.2,4.74522,1.342164,0,0,Mavic Mini,1SDCH7G0169R0K,1SFLH6Q0AB03DJ,1SRCH7F014TAHX,1U5X071EXP5ZJG,DJI Fly,,1.12.8,55817739-9594-6368-F069-6BE3ED0D69A6,1SDCH7G0169R0K,,,,,6.974236462,79.91402775,5,,
2/14/2024,04:52.4,3m 27.9s,207.9,6.974259328,79.91402127,0,0,0.3,50,0.6,0,0,0,0,0,0,0,0,1.9,0.6,-53.3,306.7,,Manual Takeoff,Other,Takeoff (RC Assisted),13,5,TRUE,,Mavic Mini,TRUE,FALSE,,Smart,RC,TRUE,TRUE,FALSE,,,TRUE,,FALSE,FALSE,FALSE,FALSE,FALSE,FALSE,FALSE,FALSE,FALSE,FALSE,0,Follow Yaw,0,0,-25.5,334.5,FALSE,FALSE,FALSE,FALSE,FALSE,FALSE,,TRUE,Normal,,100,1024,1024,1024,1024,0,FALSE,FALSE,FALSE,FALSE,FALSE,0,FALSE,FALSE,FALSE,FALSE,22,7.05,455,2095,7.049,FALSE,3.526,3.524,0.005,FALSE,FALSE,NA,100.2,100.2,100.2,0,66,0,23,5,3277.7,819.44,Smart Battery Req Go Home,Idle,0,20,FALSE,5,TRUE,9,Go Home,FALSE,FALSE,FALSE,FALSE,FALSE,FALSE,FALSE,FALSE,FALSE,FALSE,FALSE,FALSE,6.974128727,79.914208,82.7,143.2,328,TRUE,1,1,FALSE,FALSE,FALSE,FALSE,,TRUE,FALSE,FALSE,Course Lock,246,75.9,16.4,Calm,24,,1.12.8,Mavic Mini,1SDCH7G0169R0K,1SFLH6Q0AB03DJ,1SRCH7F014TAHX,1U5X071EXP5ZJG,50.5,0.1,3.2,4.74522,1.342164,0,0,Mavic Mini,1SDCH7G0169R0K,1SFLH6Q0AB03DJ,1SRCH7F014TAHX,1U5X071EXP5ZJG,DJI Fly,,1.12.8,55817739-9594-6368-F069-6BE3ED0D69A6,1SDCH7G0169R0K,,,,,6.974236462,79.91402775,5,,
2/14/2024,04:52.5,3m 28.0s,208,6.974259289,79.91402128,0,0,0.3,50,0.6,0,0,0,0,0,0,0,0,1.9,0.6,-53.3,306.7,,Manual Takeoff,Other,Takeoff (RC Assisted),13,5,TRUE,,Mavic Mini,TRUE,FALSE,,Smart,RC,TRUE,TRUE,FALSE,,,TRUE,,FALSE,FALSE,FALSE,FALSE,FALSE,FALSE,FALSE,FALSE,FALSE,FALSE,0,Follow Yaw,0,0,-25.5,334.5,FALSE,FALSE,FALSE,FALSE,FALSE,FALSE,,TRUE,Normal,,100,1024,1024,1024,1024,0,FALSE,FALSE,FALSE,FALSE,FALSE,0,FALSE,FALSE,FALSE,FALSE,22,7.05,455,2095,7.049,FALSE,3.526,3.524,0.005,FALSE,FALSE,NA,100.2,100.2,100.2,0,66,0,23,5,3277.7,819.44,Smart Battery Req Go Home,Idle,0,20,FALSE,5,TRUE,9,Go Home,FALSE,FALSE,FALSE,FALSE,FALSE,FALSE,FALSE,FALSE,FALSE,FALSE,FALSE,FALSE,6.974128727,79.914208,82.7,143.2,328,TRUE,1,1,FALSE,FALSE,FALSE,FALSE,,TRUE,FALSE,FALSE,Course Lock,246,75.9,16.4,Calm,24,,1.12.8,Mavic Mini,1SDCH7G0169R0K,1SFLH6Q0AB03DJ,1SRCH7F014TAHX,1U5X071EXP5ZJG,50.5,0.1,3.2,4.74522,1.342164,0,0,Mavic Mini,1SDCH7G0169R0K,1SFLH6Q0AB03DJ,1SRCH7F014TAHX,1U5X071EXP5ZJG,DJI Fly,,1.12.8,55817739-9594-6368-F069-6BE3ED0D69A6,1SDCH7G0169R0K,,,,,6.974236462,79.91402775,5,,
2/14/2024,04:52.7,3m 28.1s,208.1,6.974259228,79.9140213,0,0,0.3,50,0.6,0,0,0,0,0,0,0,0,1.9,0.6,-53.3,306.7,,Manual Takeoff,Other,Takeoff (RC Assisted),13,5,TRUE,,Mavic Mini,TRUE,FALSE,,Smart,RC,TRUE,TRUE,FALSE,,,TRUE,,FALSE,FALSE,FALSE,FALSE,FALSE,FALSE,FALSE,FALSE,FALSE,FALSE,0,Follow Yaw,0,0,-25.5,334.5,FALSE,FALSE,FALSE,FALSE,FALSE,FALSE,,TRUE,Normal,,100,1024,1024,1024,1024,0,FALSE,FALSE,FALSE,FALSE,FALSE,0,FALSE,FALSE,FALSE,FALSE,22,7.05,455,2095,7.049,FALSE,3.526,3.524,0.005,FALSE,FALSE,NA,100.2,100.2,100.2,0,66,0,23,5,3277.7,819.44,Smart Battery Req Go Home,Idle,0,20,FALSE,5,TRUE,9,Go Home,FALSE,FALSE,FALSE,FALSE,FALSE,FALSE,FALSE,FALSE,FALSE,FALSE,FALSE,FALSE,6.974128727,79.914208,82.6,143.2,328,TRUE,1,1,FALSE,FALSE,FALSE,FALSE,,TRUE,FALSE,FALSE,Course Lock,246,75.9,16.4,Calm,24,,1.12.8,Mavic Mini,1SDCH7G0169R0K,1SFLH6Q0AB03DJ,1SRCH7F014TAHX,1U5X071EXP5ZJG,50.5,0.1,3.2,4.74522,1.342164,0,0,Mavic Mini,1SDCH7G0169R0K,1SFLH6Q0AB03DJ,1SRCH7F014TAHX,1U5X071EXP5ZJG,DJI Fly,,1.12.8,55817739-9594-6368-F069-6BE3ED0D69A6,1SDCH7G0169R0K,,,,,6.974236462,79.91402775,5,,
2/14/2024,04:52.8,3m 28.2s,208.2,6.974259191,79.91402129,0,0,0.3,50,0.7,0,0,0,0,0,0,0,0,1.9,0.6,-53.3,306.7,,Manual Takeoff,Other,Takeoff (RC Assisted),13,5,TRUE,,Mavic Mini,TRUE,FALSE,,Smart,RC,TRUE,TRUE,FALSE,,,TRUE,,FALSE,FALSE,FALSE,FALSE,FALSE,FALSE,FALSE,FALSE,FALSE,FALSE,0,Follow Yaw,0,0,-25.5,334.5,FALSE,FALSE,FALSE,FALSE,FALSE,FALSE,,TRUE,Normal,,100,1024,1024,1024,1024,0,FALSE,FALSE,FALSE,FALSE,FALSE,0,FALSE,FALSE,FALSE,FALSE,22,7.05,455,2095,7.049,FALSE,3.526,3.524,0.005,FALSE,FALSE,NA,100.2,100.2,100.2,0,66,0,23,5,3277.7,819.44,Smart Battery Req Go Home,Idle,0,20,FALSE,5,TRUE,9,Go Home,FALSE,FALSE,FALSE,FALSE,FALSE,FALSE,FALSE,FALSE,FALSE,FALSE,FALSE,FALSE,6.974128727,79.914208,82.6,143.2,328,TRUE,1,1,FALSE,FALSE,FALSE,FALSE,,TRUE,FALSE,FALSE,Course Lock,246,75.9,16.4,Calm,24,,1.12.8,Mavic Mini,1SDCH7G0169R0K,1SFLH6Q0AB03DJ,1SRCH7F014TAHX,1U5X071EXP5ZJG,50.5,0.1,3.2,4.74522,1.342164,0,0,Mavic Mini,1SDCH7G0169R0K,1SFLH6Q0AB03DJ,1SRCH7F014TAHX,1U5X071EXP5ZJG,DJI Fly,,1.12.8,55817739-9594-6368-F069-6BE3ED0D69A6,1SDCH7G0169R0K,,,,,6.974236462,79.91402775,5,,
2/14/2024,04:52.9,3m 28.3s,208.3,6.974259119,79.91402118,0,0,0.3,50,0.7,0,0,0,0,0,0,0,0,1.9,0.6,-53.3,306.7,,Manual Takeoff,Other,Takeoff (RC Assisted),13,5,TRUE,,Mavic Mini,TRUE,FALSE,,Smart,RC,TRUE,TRUE,FALSE,,,TRUE,,FALSE,FALSE,FALSE,FALSE,FALSE,FALSE,FALSE,FALSE,FALSE,FALSE,0,Follow Yaw,0,0,-25.5,334.5,FALSE,FALSE,FALSE,FALSE,FALSE,FALSE,,TRUE,Normal,,100,1024,1024,1024,1024,0,FALSE,FALSE,FALSE,FALSE,FALSE,0,FALSE,FALSE,FALSE,FALSE,22,7.05,455,2095,7.049,FALSE,3.526,3.524,0.005,FALSE,FALSE,NA,100.2,100.2,100.2,0,66,0,23,5,3277.7,819.44,Smart Battery Req Go Home,Idle,0,20,FALSE,5,TRUE,9,Go Home,FALSE,FALSE,FALSE,FALSE,FALSE,FALSE,FALSE,FALSE,FALSE,FALSE,FALSE,FALSE,6.974128727,79.914208,82.7,143.2,328,TRUE,1,1,FALSE,FALSE,FALSE,FALSE,,TRUE,FALSE,FALSE,Course Lock,246,75.9,16.4,Calm,24,,1.12.8,Mavic Mini,1SDCH7G0169R0K,1SFLH6Q0AB03DJ,1SRCH7F014TAHX,1U5X071EXP5ZJG,50.5,0.1,3.2,4.74522,1.342164,0,0,Mavic Mini,1SDCH7G0169R0K,1SFLH6Q0AB03DJ,1SRCH7F014TAHX,1U5X071EXP5ZJG,DJI Fly,,1.12.8,55817739-9594-6368-F069-6BE3ED0D69A6,1SDCH7G0169R0K,,,,,6.974236462,79.91402775,5,,
2/14/2024,04:53.0,3m 28.4s,208.4,6.974259107,79.91402117,0,0,0.3,50,0.7,0,0,0,0,0,0,0,0,1.9,0.7,-53.3,306.7,,Manual Takeoff,Other,Takeoff (RC Assisted),13,5,TRUE,,Mavic Mini,TRUE,FALSE,,Smart,RC,TRUE,TRUE,FALSE,,,TRUE,,FALSE,FALSE,FALSE,FALSE,FALSE,FALSE,FALSE,FALSE,FALSE,FALSE,0,Follow Yaw,0,0,-25.5,334.5,FALSE,FALSE,FALSE,FALSE,FALSE,FALSE,,TRUE,Normal,,100,1024,1024,1024,1024,0,FALSE,FALSE,FALSE,FALSE,FALSE,0,FALSE,FALSE,FALSE,FALSE,22,7.05,455,2095,7.049,FALSE,3.526,3.524,0.005,FALSE,FALSE,NA,100.2,100.2,100.2,0,66,0,23,5,3277.7,819.44,Smart Battery Req Go Home,Idle,0,20,FALSE,5,TRUE,9,Go Home,FALSE,FALSE,FALSE,FALSE,FALSE,FALSE,FALSE,FALSE,FALSE,FALSE,FALSE,FALSE,6.974128727,79.914208,82.7,143.2,328,TRUE,1,1,FALSE,FALSE,FALSE,FALSE,,TRUE,FALSE,FALSE,Course Lock,246,75.9,16.4,Calm,24,,1.12.8,Mavic Mini,1SDCH7G0169R0K,1SFLH6Q0AB03DJ,1SRCH7F014TAHX,1U5X071EXP5ZJG,50.5,0.1,3.2,4.74522,1.342164,0,0,Mavic Mini,1SDCH7G0169R0K,1SFLH6Q0AB03DJ,1SRCH7F014TAHX,1U5X071EXP5ZJG,DJI Fly,,1.12.8,55817739-9594-6368-F069-6BE3ED0D69A6,1SDCH7G0169R0K,,,,,6.974236462,79.91402775,5,,
2/14/2024,04:53.1,3m 28.5s,208.5,6.974259099,79.91402117,0,0,0.3,50,0.7,0,0,0,0,0,0,0,0,1.9,0.6,-53.3,306.7,,Manual Takeoff,Other,Takeoff (RC Assisted),13,5,TRUE,,Mavic Mini,TRUE,FALSE,,Smart,RC,TRUE,TRUE,FALSE,,,TRUE,,FALSE,FALSE,FALSE,FALSE,FALSE,FALSE,FALSE,FALSE,FALSE,FALSE,0,Follow Yaw,0,0,-25.5,334.5,FALSE,FALSE,FALSE,FALSE,FALSE,FALSE,,TRUE,Normal,,100,1024,1024,1024,1024,0,FALSE,FALSE,FALSE,FALSE,FALSE,0,FALSE,FALSE,FALSE,FALSE,22,7.053,454,2095,7.049,FALSE,3.528,3.525,0.005,FALSE,FALSE,NA,100.2,100.2,100.2,0,66,0,23,5,3277.7,819.44,Smart Battery Req Go Home,Idle,0,20,FALSE,5,TRUE,9,Go Home,FALSE,FALSE,FALSE,FALSE,FALSE,FALSE,FALSE,FALSE,FALSE,FALSE,FALSE,FALSE,6.974128727,79.914208,82.6,143.2,328,TRUE,1,1,FALSE,FALSE,FALSE,FALSE,,TRUE,FALSE,FALSE,Course Lock,246,75.9,16.4,Calm,24,,1.12.8,Mavic Mini,1SDCH7G0169R0K,1SFLH6Q0AB03DJ,1SRCH7F014TAHX,1U5X071EXP5ZJG,50.5,0.1,3.2,4.74522,1.342164,0,0,Mavic Mini,1SDCH7G0169R0K,1SFLH6Q0AB03DJ,1SRCH7F014TAHX,1U5X071EXP5ZJG,DJI Fly,,1.12.8,55817739-9594-6368-F069-6BE3ED0D69A6,1SDCH7G0169R0K,,,,,6.974236462,79.91402775,5,,
