CUSTOM.date [local],CUSTOM.updateTime [local],OSD.flyTime,OSD.flyTime [s],OSD.latitude,OSD.longitude,OSD.height [ft],OSD.heightMax [ft],OSD.vpsHeight [ft],OSD.altitude [ft],OSD.mileage [ft],OSD.hSpeed [MPH],OSD.hSpeedMax [MPH],OSD.xSpeed [MPH],OSD.xSpeedMax [MPH],OSD.ySpeed [MPH],OSD.ySpeedMax [MPH],OSD.zSpeed [MPH],OSD.zSpeedMax [MPH],OSD.pitch,OSD.roll,OSD.yaw,OSD.yaw [360],OSD.directionOfTravel,OSD.flycState,OSD.flycCommand,OSD.flightAction,OSD.gpsNum,OSD.gpsLevel,OSD.isGPSUsed,OSD.nonGPSCause,OSD.droneType,OSD.isSwaveWork,OSD.waveError,OSD.goHomeStatus,OSD.batteryType,OSD.ctrlDevice,OSD.isOnGround,OSD.isMotorOn,OSD.isMotorBlocked,OSD.motorStartFailedCause,OSD.motorFailReason,OSD.isImuPreheated,OSD.imuInitFailReason,OSD.isAcceletorOverRange,OSD.isBarometerDeadInAir,OSD.isCompassError,OSD.isGoHomeHeightModified,OSD.canIOCWork,OSD.isNotEnoughForce,OSD.isOutOfLimit,OSD.isPropellerCatapult,OSD.isVibrating,OSD.isVisionUsed,OSD.voltageWarning,GIMBAL.mode,GIMBAL.pitch,GIMBAL.roll,GIMBAL.yaw,GIMBAL.yaw [360],GIMBAL.isPitchAtLimit,GIMBAL.isRollAtLimit,GIMBAL.isYawAtLimit,GIMBAL.isStuck,CAMERA.isPhoto,CAMERA.isVideo,CAMERA.filename,CAMERA.sdCardIsInserted,CAMERA.sdCardState,RC.downlinkSignal,RC.uplinkSignal,RC.aileron,RC.elevator,RC.throttle,RC.rudder,RC.mode,RC.goHomeDepressed,RC.recordDepressed,RC.shutterDepressed,RC.playbackDepressed,RC.wheelDepressed,RC.wheelOffset,RC.custom1Depressed,RC.custom2Depressed,RC.custom3Depressed,RC.custom4Depressed,BATTERY.chargeLevel,BATTERY.currentPV [V],BATTERY.currentCapacity [mAh],BATTERY.fullCapacity [mAh],BATTERY.voltage [V],BATTERY.isCellVoltageEstimated,BATTERY.cellVoltage1 [V],BATTERY.cellVoltage2 [V],BATTERY.maxCellVoltageDeviation,BATTERY.isCellVoltageDeviationHigh,BATTERY.isVoltageLow,BATTERY.current [A],BATTERY.temperature [F],BATTERY.minTemperature [F],BATTERY.maxTemperature [F],BATTERY.usefulTime [s],BATTERY.goHomeTime [s],BATTERY.landTime [s],BATTERY.goHomeBattery,BATTERY.landBattery,BATTERY.safeFlyRadius,BATTERY.volumeConsume,BATTERY.status,BATTERY.goHomeStatus,BATTERY.goHomeCountdown,BATTERY.lowWarning,BATTERY.lowWarningGoHome,BATTERY.seriousLowWarning,BATTERY.seriousLowWarningLanding,BATTERY.timesCharged,MC.failSafeAction,MC.isObstacleAvoidanceEnabled,MC.isCollisionAvoidanceEnabled,MC.isRthObstacleAvoidanceEnabled,MC.isBraking,MC.isAvoidingObstacle,MC.isAvoidingActiveObstacle,MC.isAscentLimitedByObstacle,MC.isLandingConfirmationNeeded,MC.atLowAltitudeLimit,MC.atDistanceLimit,MC.atAirportAltitudeLimit,MC.atAirportBoundary,HOME.latitude,HOME.longitude,HOME.distance [ft],HOME.height [ft],HOME.heightLimit [ft],HOME.isHomeRecord,HOME.goHomeMode,HOME.aircraftHeadDirection,HOME.isDynamicHomePointEnabled,HOME.isReachedLimitDistance,HOME.isReachedLimitHeight,HOME.isCompassCalibrating,HOME.compassCalibrationState,HOME.isMultipleFlightModeEnabled,HOME.isBeginnerMode,HOME.isIOCEnabled,HOME.iocMode,HOME.goHomeHeight [ft],HOME.courseLockAngle,HOME.forceLandingHeight [ft],HOME.wind,HOME.dataRecorderFileIndex,RECOVER.appType,RECOVER.appVersion,RECOVER.aircraftName,RECOVER.aircraftSerial,RECOVER.cameraSerial,RECOVER.rcSerial,RECOVER.batterySerial,DETAILS.totalTime [s],DETAILS.totalDistance [ft],DETAILS.maxHeight [ft],DETAILS.maxHorizontalSpeed [MPH],DETAILS.maxVerticalSpeed [MPH],DETAILS.photoNum,DETAILS.videoTime [s],DETAILS.aircraftName,DETAILS.aircraftSerial,DETAILS.cameraSerial,DETAILS.rcSerial,DETAILS.batterySerial,DETAILS.appName,DETAILS.appType,DETAILS.appVersion,DETAILS.guid,SERIAL.flightController,SERIAL.camera,SERIAL.gimbal,SERIAL.rc,SERIAL.battery,APPGPS.latitude,APPGPS.longitude,APPGPS.accuracy,APP.tip,APP.warning
3/2/2024,15:13.7,17m 17.5s,1037.5,6.972882245,79.91594294,0,0,,57,0,0,0,0,0,0,0,0,0,3.4,-0.3,-46.6,313.4,,Starting Motors,Auto Fly,Takeoff (RC Assisted),16,5,TRUE,,Mavic Mini,FALSE,FALSE,,Smart,RC,TRUE,TRUE,FALSE,,,TRUE,,FALSE,FALSE,FALSE,FALSE,FALSE,FALSE,FALSE,FALSE,FALSE,FALSE,0,Follow Yaw,0,0,-42.6,317.4,FALSE,FALSE,FALSE,FALSE,FALSE,FALSE,,TRUE,Normal,,,1024,1024,1024,1024,1,FALSE,FALSE,FALSE,FALSE,FALSE,0,FALSE,FALSE,FALSE,FALSE,23,7.101,481,2075,7.101,TRUE,3.551,3.551,,FALSE,FALSE,NA,122.9,122.9,122.9,,,,,,,,,Idle,,,TRUE,,FALSE,7,Go Home,FALSE,FALSE,FALSE,FALSE,FALSE,FALSE,FALSE,FALSE,FALSE,FALSE,FALSE,FALSE,,,,,,FALSE,,,FALSE,FALSE,FALSE,FALSE,,FALSE,FALSE,FALSE,,,,,Calm,,,1.12.8,Mavic Mini,1SDCH7G0169R0K,1SFLH6Q0AB03DJ,1SRCH7F014TAHX,1U5X071EXP6C8G,65.9,0,26.2,0.316303,4.250186,0,0,Mavic Mini,1SDCH7G0169R0K,1SFLH6Q0AB03DJ,1SRCH7F014TAHX,1U5X071EXP6C8G,DJI Fly,,1.12.8,EB42E4FC-F7A1-E6AF-1057-8DD3ACCCB0EB,1SDCH7G0169R0K,,,,,,,,Flight mode changed to Starting Motors.,
3/2/2024,15:13.8,17m 17.6s,1037.6,6.972882245,79.91594295,0,0,,57,0,0,0,0,0,0,0,0,0,3.4,-0.3,-46.6,313.4,,Starting Motors,Auto Fly,Takeoff (RC Assisted),16,5,TRUE,,Mavic Mini,FALSE,FALSE,,Smart,RC,TRUE,TRUE,FALSE,,,TRUE,,FALSE,FALSE,FALSE,FALSE,FALSE,FALSE,FALSE,FALSE,FALSE,FALSE,0,Follow Yaw,0,0,-42.6,317.4,FALSE,FALSE,FALSE,FALSE,FALSE,FALSE,,TRUE,Normal,,,1024,1024,1024,1024,1,FALSE,FALSE,FALSE,FALSE,FALSE,0,FALSE,FALSE,FALSE,FALSE,23,7.101,481,2075,7.101,TRUE,3.551,3.551,,FALSE,FALSE,NA,122.9,122.9,122.9,,,,,,,,,Idle,,,TRUE,,FALSE,7,Go Home,FALSE,FALSE,FALSE,FALSE,FALSE,FALSE,FALSE,FALSE,FALSE,FALSE,FALSE,FALSE,,,,,,FALSE,,,FALSE,FALSE,FALSE,FALSE,,FALSE,FALSE,FALSE,,,,,Calm,,,1.12.8,Mavic Mini,1SDCH7G0169R0K,1SFLH6Q0AB03DJ,1SRCH7F014TAHX,1U5X071EXP6C8G,65.9,0,26.2,0.316303,4.250186,0,0,Mavic Mini,1SDCH7G0169R0K,1SFLH6Q0AB03DJ,1SRCH7F014TAHX,1U5X071EXP6C8G,DJI Fly,,1.12.8,EB42E4FC-F7A1-E6AF-1057-8DD3ACCCB0EB,1SDCH7G0169R0K,,,,,,,,,
3/2/2024,57:56.3,17m 17.7s,1037.7,6.972882253,79.91594292,0,0,,57,0,0,0,0,0,0,0,0,0,3.4,-0.2,-46.6,313.4,,Starting Motors,Auto Fly,Takeoff (RC Assisted),16,5,TRUE,,Mavic Mini,FALSE,FALSE,,Smart,RC,TRUE,TRUE,FALSE,,,TRUE,,FALSE,FALSE,FALSE,FALSE,FALSE,FALSE,FALSE,FALSE,FALSE,FALSE,0,Follow Yaw,0,0,-42.6,317.4,FALSE,FALSE,FALSE,FALSE,FALSE,FALSE,,TRUE,Normal,,,1024,1024,1024,1024,1,FALSE,FALSE,FALSE,FALSE,FALSE,0,FALSE,FALSE,FALSE,FALSE,23,7.101,481,2075,7.101,TRUE,3.551,3.551,,FALSE,FALSE,NA,122.9,122.9,122.9,,,,,,,,,Idle,,,TRUE,,FALSE,7,Go Home,FALSE,FALSE,FALSE,FALSE,FALSE,FALSE,FALSE,FALSE,FALSE,FALSE,FALSE,FALSE,,,,,,FALSE,,,FALSE,FALSE,FALSE,FALSE,,FALSE,FALSE,FALSE,,,,,Calm,,,1.12.8,Mavic Mini,1SDCH7G0169R0K,1SFLH6Q0AB03DJ,1SRCH7F014TAHX,1U5X071EXP6C8G,65.9,0,26.2,0.316303,4.250186,0,0,Mavic Mini,1SDCH7G0169R0K,1SFLH6Q0AB03DJ,1SRCH7F014TAHX,1U5X071EXP6C8G,DJI Fly,,1.12.8,EB42E4FC-F7A1-E6AF-1057-8DD3ACCCB0EB,1SDCH7G0169R0K,,,,,,,,,
3/2/2024,57:56.4,17m 17.8s,1037.8,6.972882251,79.91594293,0,0,,57,0,0,0,0,0,0,0,0,0,3.4,-0.2,-46.6,313.4,,Starting Motors,Auto Fly,Takeoff (RC Assisted),16,5,TRUE,,Mavic Mini,FALSE,FALSE,,Smart,RC,TRUE,TRUE,FALSE,,,TRUE,,FALSE,FALSE,FALSE,FALSE,FALSE,FALSE,FALSE,FALSE,FALSE,FALSE,0,Follow Yaw,0,0,-42.5,317.5,FALSE,FALSE,FALSE,FALSE,FALSE,FALSE,,TRUE,Normal,,,1024,1024,1024,1024,1,FALSE,FALSE,FALSE,FALSE,FALSE,0,FALSE,FALSE,FALSE,FALSE,23,7.101,481,2075,7.101,TRUE,3.551,3.551,,FALSE,FALSE,NA,122.9,122.9,122.9,,,,,,,,,Idle,,,TRUE,,FALSE,7,Go Home,FALSE,FALSE,FALSE,FALSE,FALSE,FALSE,FALSE,FALSE,FALSE,FALSE,FALSE,FALSE,,,,,,FALSE,,,FALSE,FALSE,FALSE,FALSE,,FALSE,FALSE,FALSE,,,,,Calm,,,1.12.8,Mavic Mini,1SDCH7G0169R0K,1SFLH6Q0AB03DJ,1SRCH7F014TAHX,1U5X071EXP6C8G,65.9,0,26.2,0.316303,4.250186,0,0,Mavic Mini,1SDCH7G0169R0K,1SFLH6Q0AB03DJ,1SRCH7F014TAHX,1U5X071EXP6C8G,DJI Fly,,1.12.8,EB42E4FC-F7A1-E6AF-1057-8DD3ACCCB0EB,1SDCH7G0169R0K,,,,,,,,,
3/2/2024,57:56.5,17m 17.9s,1037.9,6.972882248,79.91594293,0,0,,57,0,0,0,0,0,0,0,0,0,3.4,-0.3,-46.6,313.4,,Starting Motors,Auto Fly,Takeoff (RC Assisted),16,5,TRUE,,Mavic Mini,FALSE,FALSE,,Smart,RC,TRUE,TRUE,FALSE,,,TRUE,,FALSE,FALSE,FALSE,FALSE,FALSE,FALSE,FALSE,FALSE,FALSE,FALSE,0,Follow Yaw,0,0,-42.5,317.5,FALSE,FALSE,FALSE,FALSE,FALSE,FALSE,,TRUE,Normal,,100,1024,1024,1024,1024,1,FALSE,FALSE,FALSE,FALSE,FALSE,0,FALSE,FALSE,FALSE,FALSE,23,7.101,481,2075,7.101,TRUE,3.551,3.551,,FALSE,FALSE,NA,122.9,122.9,122.9,,,,,,,,,Idle,,,TRUE,,FALSE,7,Go Home,FALSE,FALSE,FALSE,FALSE,FALSE,FALSE,FALSE,FALSE,FALSE,FALSE,FALSE,FALSE,,,,,,FALSE,,,FALSE,FALSE,FALSE,FALSE,,FALSE,FALSE,FALSE,,,,,Calm,,,1.12.8,Mavic Mini,1SDCH7G0169R0K,1SFLH6Q0AB03DJ,1SRCH7F014TAHX,1U5X071EXP6C8G,65.9,0,26.2,0.316303,4.250186,0,0,Mavic Mini,1SDCH7G0169R0K,1SFLH6Q0AB03DJ,1SRCH7F014TAHX,1U5X071EXP6C8G,DJI Fly,,1.12.8,EB42E4FC-F7A1-E6AF-1057-8DD3ACCCB0EB,1SDCH7G0169R0K,,,,,,,,,
3/2/2024,57:56.6,17m 18.0s,1038,6.972882246,79.9159429,0,0,,57,0,0,0,0,0,0,0,0,0,3.4,-0.2,-46.7,313.3,,Starting Motors,Auto Fly,Takeoff (RC Assisted),16,5,TRUE,,Mavic Mini,FALSE,FALSE,,Smart,RC,TRUE,TRUE,FALSE,,,TRUE,,FALSE,FALSE,FALSE,FALSE,FALSE,FALSE,FALSE,FALSE,FALSE,FALSE,0,Follow Yaw,0,0,-42.5,317.5,FALSE,FALSE,FALSE,FALSE,FALSE,FALSE,,TRUE,Normal,,100,1024,1024,1024,1024,1,FALSE,FALSE,FALSE,FALSE,FALSE,0,FALSE,FALSE,FALSE,FALSE,23,7.084,481,2075,7.086,FALSE,3.545,3.539,0.006,FALSE,FALSE,NA,122.7,122.7,122.9,0,0,0,0,5,2796.1,699.04,,Idle,0,20,FALSE,5,TRUE,7,Go Home,FALSE,FALSE,FALSE,FALSE,FALSE,FALSE,FALSE,FALSE,FALSE,FALSE,FALSE,FALSE,6.972885591,79.9159409,1.4,122.6,328,TRUE,1,1,FALSE,FALSE,FALSE,FALSE,,TRUE,FALSE,FALSE,Course Lock,49.2,14.3,16.4,Calm,40,,1.12.8,Mavic Mini,1SDCH7G0169R0K,1SFLH6Q0AB03DJ,1SRCH7F014TAHX,1U5X071EXP6C8G,65.9,0,26.2,0.316303,4.250186,0,0,Mavic Mini,1SDCH7G0169R0K,1SFLH6Q0AB03DJ,1SRCH7F014TAHX,1U5X071EXP6C8G,DJI Fly,,1.12.8,EB42E4FC-F7A1-E6AF-1057-8DD3ACCCB0EB,1SDCH7G0169R0K,,,,,,,,Data Recorder File Index is 40.; Set Return to Home (RTH) altitude to 15 m (49 ft).; Set maximum flight altitude to 100 m (328 ft).,
3/2/2024,57:56.7,17m 18.1s,1038.1,6.97288224,79.91594275,0,0,,57,0,0,0,0,0,0,0,0,0,3.4,-0.1,-46.8,313.2,,Starting Motors,Auto Fly,Takeoff (RC Assisted),16,5,TRUE,,Mavic Mini,FALSE,FALSE,,Smart,RC,TRUE,TRUE,FALSE,,,TRUE,,FALSE,FALSE,FALSE,FALSE,FALSE,FALSE,FALSE,FALSE,FALSE,FALSE,0,Follow Yaw,0,0,-42.5,317.5,FALSE,FALSE,FALSE,FALSE,FALSE,FALSE,,TRUE,Normal,,100,1024,1024,1024,1024,1,FALSE,FALSE,FALSE,FALSE,FALSE,0,FALSE,FALSE,FALSE,FALSE,23,7.084,481,2075,7.086,FALSE,3.545,3.539,0.006,FALSE,FALSE,NA,122.7,122.7,122.9,0,0,0,0,5,2796.1,699.04,,Idle,0,20,FALSE,5,TRUE,7,Go Home,FALSE,FALSE,FALSE,FALSE,FALSE,FALSE,FALSE,FALSE,FALSE,FALSE,FALSE,FALSE,6.972885591,79.9159409,1.3,122.6,328,TRUE,1,1,FALSE,FALSE,FALSE,FALSE,,TRUE,FALSE,FALSE,Course Lock,49.2,14.3,16.4,Calm,40,,1.12.8,Mavic Mini,1SDCH7G0169R0K,1SFLH6Q0AB03DJ,1SRCH7F014TAHX,1U5X071EXP6C8G,65.9,0,26.2,0.316303,4.250186,0,0,Mavic Mini,1SDCH7G0169R0K,1SFLH6Q0AB03DJ,1SRCH7F014TAHX,1U5X071EXP6C8G,DJI Fly,,1.12.8,EB42E4FC-F7A1-E6AF-1057-8DD3ACCCB0EB,1SDCH7G0169R0K,,,,,,,,,
3/2/2024,57:56.7,17m 18.2s,1038.2,6.972882237,79.91594274,0,0,,57,0,0,0,0,0,0,0,0,0,3.5,-0.2,-46.7,313.3,,Starting Motors,Auto Fly,Takeoff (RC Assisted),16,5,TRUE,,Mavic Mini,FALSE,FALSE,,Smart,RC,TRUE,TRUE,FALSE,,,TRUE,,FALSE,FALSE,FALSE,FALSE,FALSE,FALSE,FALSE,FALSE,FALSE,FALSE,0,Follow Yaw,0,0,-42.6,317.4,FALSE,FALSE,FALSE,FALSE,FALSE,FALSE,,TRUE,Normal,,100,1024,1024,1024,1024,1,FALSE,FALSE,FALSE,FALSE,FALSE,0,FALSE,FALSE,FALSE,FALSE,23,7.084,481,2075,7.086,FALSE,3.545,3.539,0.006,FALSE,FALSE,NA,122.7,122.7,122.9,0,0,0,0,5,2796.1,699.04,,Idle,0,20,FALSE,5,TRUE,7,Go Home,FALSE,FALSE,FALSE,FALSE,FALSE,FALSE,FALSE,FALSE,FALSE,FALSE,FALSE,FALSE,6.972885591,79.9159409,1.3,122.6,328,TRUE,1,1,FALSE,FALSE,FALSE,FALSE,,TRUE,FALSE,FALSE,Course Lock,49.2,14.3,16.4,Calm,40,,1.12.8,Mavic Mini,1SDCH7G0169R0K,1SFLH6Q0AB03DJ,1SRCH7F014TAHX,1U5X071EXP6C8G,65.9,0,26.2,0.316303,4.250186,0,0,Mavic Mini,1SDCH7G0169R0K,1SFLH6Q0AB03DJ,1SRCH7F014TAHX,1U5X071EXP6C8G,DJI Fly,,1.12.8,EB42E4FC-F7A1-E6AF-1057-8DD3ACCCB0EB,1SDCH7G0169R0K,,,,,,,,,
3/2/2024,57:57.0,17m 18.3s,1038.3,6.972882233,79.91594273,0,0,,57,0,0,0,0,0,0,0,0,0,3.4,-0.2,-46.7,313.3,,Starting Motors,Auto Fly,Takeoff (RC Assisted),16,5,TRUE,,Mavic Mini,FALSE,FALSE,,Smart,RC,TRUE,TRUE,FALSE,,,TRUE,,FALSE,FALSE,FALSE,FALSE,FALSE,FALSE,FALSE,FALSE,FALSE,FALSE,0,Follow Yaw,0,0,-42.6,317.4,FALSE,FALSE,FALSE,FALSE,FALSE,FALSE,,TRUE,Normal,,100,1024,1024,1024,1024,1,FALSE,FALSE,FALSE,FALSE,FALSE,0,FALSE,FALSE,FALSE,FALSE,23,7.084,481,2075,7.086,FALSE,3.545,3.539,0.006,FALSE,FALSE,NA,122.7,122.7,122.9,0,0,0,0,5,2796.1,699.04,,Idle,0,20,FALSE,5,TRUE,7,Go Home,FALSE,FALSE,FALSE,FALSE,FALSE,FALSE,FALSE,FALSE,FALSE,FALSE,FALSE,FALSE,6.972885591,79.9159409,1.3,122.6,328,TRUE,1,1,FALSE,FALSE,FALSE,FALSE,,TRUE,FALSE,FALSE,Course Lock,49.2,14.3,16.4,Calm,40,,1.12.8,Mavic Mini,1SDCH7G0169R0K,1SFLH6Q0AB03DJ,1SRCH7F014TAHX,1U5X071EXP6C8G,65.9,0,26.2,0.316303,4.250186,0,0,Mavic Mini,1SDCH7G0169R0K,1SFLH6Q0AB03DJ,1SRCH7F014TAHX,1U5X071EXP6C8G,DJI Fly,,1.12.8,EB42E4FC-F7A1-E6AF-1057-8DD3ACCCB0EB,1SDCH7G0169R0K,,,,,,,,,
3/2/2024,57:57.1,17m 18.4s,1038.4,6.972882231,79.91594274,0,0,,57,0,0,0,0,0,0,0,0,0,3.4,-0.2,-46.8,313.2,,Starting Motors,Auto Fly,Takeoff (RC Assisted),16,5,TRUE,,Mavic Mini,FALSE,FALSE,,Smart,RC,TRUE,TRUE,FALSE,,,TRUE,,FALSE,FALSE,FALSE,FALSE,FALSE,FALSE,FALSE,FALSE,FALSE,FALSE,0,Follow Yaw,0,0,-42.6,317.4,FALSE,FALSE,FALSE,FALSE,FALSE,FALSE,,TRUE,Normal,,100,1024,1024,1024,1024,1,FALSE,FALSE,FALSE,FALSE,FALSE,0,FALSE,FALSE,FALSE,FALSE,23,7.084,481,2075,7.086,FALSE,3.545,3.539,0.006,FALSE,FALSE,NA,122.7,122.7,122.9,0,0,0,0,5,2796.1,699.04,,Idle,0,20,FALSE,5,TRUE,7,Go Home,FALSE,FALSE,FALSE,FALSE,FALSE,FALSE,FALSE,FALSE,FALSE,FALSE,FALSE,FALSE,6.972885591,79.9159409,1.3,122.6,328,TRUE,1,1,FALSE,FALSE,FALSE,FALSE,,TRUE,FALSE,FALSE,Course Lock,49.2,14.3,16.4,Calm,40,,1.12.8,Mavic Mini,1SDCH7G0169R0K,1SFLH6Q0AB03DJ,1SRCH7F014TAHX,1U5X071EXP6C8G,65.9,0,26.2,0.316303,4.250186,0,0,Mavic Mini,1SDCH7G0169R0K,1SFLH6Q0AB03DJ,1SRCH7F014TAHX,1U5X071EXP6C8G,DJI Fly,,1.12.8,EB42E4FC-F7A1-E6AF-1057-8DD3ACCCB0EB,1SDCH7G0169R0K,,,,,,,,,
3/2/2024,57:57.1,17m 18.5s,1038.5,6.972882237,79.91594274,0,0,,57,0,0,0,0,0,0,0,0,0,3.4,-0.2,-47,313,,Starting Motors,Auto Fly,Takeoff (RC Assisted),16,5,TRUE,,Mavic Mini,FALSE,FALSE,,Smart,RC,TRUE,TRUE,FALSE,,,TRUE,,FALSE,FALSE,FALSE,FALSE,FALSE,FALSE,FALSE,FALSE,FALSE,FALSE,0,Follow Yaw,0,0,-42.7,317.3,FALSE,FALSE,FALSE,FALSE,FALSE,FALSE,,TRUE,Normal,,100,1024,1024,1104,1024,1,FALSE,FALSE,FALSE,FALSE,FALSE,0,FALSE,FALSE,FALSE,FALSE,23,7.084,481,2075,7.086,FALSE,3.545,3.539,0.006,FALSE,FALSE,NA,122.7,122.7,122.9,0,0,0,0,5,2796.1,699.04,,Idle,0,20,FALSE,5,TRUE,7,Go Home,FALSE,FALSE,FALSE,FALSE,FALSE,FALSE,FALSE,FALSE,FALSE,FALSE,FALSE,FALSE,6.972885591,79.9159409,1.3,122.6,328,TRUE,1,1,FALSE,FALSE,FALSE,FALSE,,TRUE,FALSE,FALSE,Course Lock,49.2,14.3,16.4,Calm,40,,1.12.8,Mavic Mini,1SDCH7G0169R0K,1SFLH6Q0AB03DJ,1SRCH7F014TAHX,1U5X071EXP6C8G,65.9,0,26.2,0.316303,4.250186,0,0,Mavic Mini,1SDCH7G0169R0K,1SFLH6Q0AB03DJ,1SRCH7F014TAHX,1U5X071EXP6C8G,DJI Fly,,1.12.8,EB42E4FC-F7A1-E6AF-1057-8DD3ACCCB0EB,1SDCH7G0169R0K,,,,,,,,,
3/2/2024,57:57.2,17m 18.6s,1038.6,6.972882236,79.91594275,0,0,,57,0,0,0,0,0,0,0,0,0,3.4,-0.2,-47.1,312.9,,Manual Takeoff,Auto Fly,Takeoff (RC Assisted),16,5,TRUE,,Mavic Mini,FALSE,FALSE,,Smart,RC,TRUE,TRUE,FALSE,,,TRUE,,FALSE,FALSE,FALSE,FALSE,FALSE,FALSE,FALSE,FALSE,FALSE,FALSE,0,Follow Yaw,0,0,-42.8,317.2,FALSE,FALSE,FALSE,FALSE,FALSE,FALSE,,TRUE,Normal,,100,1024,1024,1324,1024,1,FALSE,FALSE,FALSE,FALSE,FALSE,0,FALSE,FALSE,FALSE,FALSE,23,7.084,481,2075,7.086,FALSE,3.545,3.539,0.006,FALSE,FALSE,NA,122.7,122.7,122.9,0,0,0,0,5,2796.1,699.04,,Idle,0,20,FALSE,5,TRUE,7,Go Home,FALSE,FALSE,FALSE,FALSE,FALSE,FALSE,FALSE,FALSE,FALSE,FALSE,FALSE,FALSE,6.972885591,79.9159409,1.3,122.6,328,TRUE,1,1,FALSE,FALSE,FALSE,FALSE,,TRUE,FALSE,FALSE,Course Lock,49.2,14.3,16.4,Calm,40,,1.12.8,Mavic Mini,1SDCH7G0169R0K,1SFLH6Q0AB03DJ,1SRCH7F014TAHX,1U5X071EXP6C8G,65.9,0,26.2,0.316303,4.250186,0,0,Mavic Mini,1SDCH7G0169R0K,1SFLH6Q0AB03DJ,1SRCH7F014TAHX,1U5X071EXP6C8G,DJI Fly,,1.12.8,EB42E4FC-F7A1-E6AF-1057-8DD3ACCCB0EB,1SDCH7G0169R0K,,,,,,,,Flight mode changed to Manual Takeoff.,
3/2/2024,57:57.3,17m 18.7s,1038.7,6.972882234,79.91594277,0,0,,57,0.1,0,0,0,0,0,0,0,0,3.4,-0.2,-47.1,312.9,,Manual Takeoff,Auto Fly,Takeoff (RC Assisted),16,5,TRUE,,Mavic Mini,FALSE,FALSE,,Smart,RC,TRUE,TRUE,FALSE,,,TRUE,,FALSE,FALSE,FALSE,FALSE,FALSE,FALSE,FALSE,FALSE,FALSE,FALSE,0,Follow Yaw,0,0,-42.9,317.1,FALSE,FALSE,FALSE,FALSE,FALSE,FALSE,,TRUE,Normal,,100,1024,1024,1436,1024,1,FALSE,FALSE,FALSE,FALSE,FALSE,0,FALSE,FALSE,FALSE,FALSE,23,7.084,481,2075,7.086,FALSE,3.545,3.539,0.006,FALSE,FALSE,NA,122.7,122.7,122.9,0,0,0,0,5,2796.1,699.04,,Idle,0,20,FALSE,5,TRUE,7,Go Home,FALSE,FALSE,FALSE,FALSE,FALSE,FALSE,FALSE,FALSE,FALSE,FALSE,FALSE,FALSE,6.972885591,79.9159409,1.3,122.6,328,TRUE,1,1,FALSE,FALSE,FALSE,FALSE,,TRUE,FALSE,FALSE,Course Lock,49.2,14.3,16.4,Calm,40,,1.12.8,Mavic Mini,1SDCH7G0169R0K,1SFLH6Q0AB03DJ,1SRCH7F014TAHX,1U5X071EXP6C8G,65.9,0,26.2,0.316303,4.250186,0,0,Mavic Mini,1SDCH7G0169R0K,1SFLH6Q0AB03DJ,1SRCH7F014TAHX,1U5X071EXP6C8G,DJI Fly,,1.12.8,EB42E4FC-F7A1-E6AF-1057-8DD3ACCCB0EB,1SDCH7G0169R0K,,,,,,,,,
3/2/2024,57:57.4,17m 18.8s,1038.8,6.972882233,79.91594274,0,0,,57,0.1,0,0,0,0,0,0,0,0,3.4,-0.3,-47.2,312.8,,Manual Takeoff,Auto Fly,Takeoff (RC Assisted),16,5,TRUE,,Mavic Mini,FALSE,FALSE,,Smart,RC,TRUE,TRUE,FALSE,,,TRUE,,FALSE,FALSE,FALSE,FALSE,FALSE,FALSE,FALSE,FALSE,FALSE,FALSE,0,Follow Yaw,0,0,-42.9,317.1,FALSE,FALSE,FALSE,FALSE,FALSE,FALSE,,TRUE,Normal,,100,1024,1024,1456,1024,1,FALSE,FALSE,FALSE,FALSE,FALSE,0,FALSE,FALSE,FALSE,FALSE,23,7.084,481,2075,7.086,FALSE,3.545,3.539,0.006,FALSE,FALSE,NA,122.7,122.7,122.9,0,0,0,0,5,2796.1,699.04,,Idle,0,20,FALSE,5,TRUE,7,Go Home,FALSE,FALSE,FALSE,FALSE,FALSE,FALSE,FALSE,FALSE,FALSE,FALSE,FALSE,FALSE,6.972885591,79.9159409,1.3,122.6,328,TRUE,1,1,FALSE,FALSE,FALSE,FALSE,,TRUE,FALSE,FALSE,Course Lock,49.2,14.3,16.4,Calm,40,,1.12.8,Mavic Mini,1SDCH7G0169R0K,1SFLH6Q0AB03DJ,1SRCH7F014TAHX,1U5X071EXP6C8G,65.9,0,26.2,0.316303,4.250186,0,0,Mavic Mini,1SDCH7G0169R0K,1SFLH6Q0AB03DJ,1SRCH7F014TAHX,1U5X071EXP6C8G,DJI Fly,,1.12.8,EB42E4FC-F7A1-E6AF-1057-8DD3ACCCB0EB,1SDCH7G0169R0K,,,,,,,,,
3/2/2024,57:57.5,17m 18.9s,1038.9,6.972882243,79.91594263,0,0,,57,0.1,0,0,0,0,0,0,0,0,3.4,-0.2,-47.2,312.8,,Manual Takeoff,Auto Fly,Takeoff (RC Assisted),16,5,TRUE,,Mavic Mini,FALSE,FALSE,,Smart,RC,TRUE,TRUE,FALSE,,,TRUE,,FALSE,FALSE,FALSE,FALSE,FALSE,FALSE,FALSE,FALSE,FALSE,FALSE,0,Follow Yaw,0,0,-43,317,FALSE,FALSE,FALSE,FALSE,FALSE,FALSE,,TRUE,Normal,,100,1024,1024,1455,1024,1,FALSE,FALSE,FALSE,FALSE,FALSE,0,FALSE,FALSE,FALSE,FALSE,23,7.084,481,2075,7.086,FALSE,3.545,3.539,0.006,FALSE,FALSE,NA,122.7,122.7,122.9,0,0,0,0,5,2796.1,699.04,,Idle,0,20,FALSE,5,TRUE,7,Go Home,FALSE,FALSE,FALSE,FALSE,FALSE,FALSE,FALSE,FALSE,FALSE,FALSE,FALSE,FALSE,6.972885591,79.9159409,1.3,122.6,328,TRUE,1,1,FALSE,FALSE,FALSE,FALSE,,TRUE,FALSE,FALSE,Course Lock,49.2,14.3,16.4,Calm,40,,1.12.8,Mavic Mini,1SDCH7G0169R0K,1SFLH6Q0AB03DJ,1SRCH7F014TAHX,1U5X071EXP6C8G,65.9,0,26.2,0.316303,4.250186,0,0,Mavic Mini,1SDCH7G0169R0K,1SFLH6Q0AB03DJ,1SRCH7F014TAHX,1U5X071EXP6C8G,DJI Fly,,1.12.8,EB42E4FC-F7A1-E6AF-1057-8DD3ACCCB0EB,1SDCH7G0169R0K,,,,,,,,,
3/2/2024,57:57.6,17m 19.0s,1039,6.972882241,79.91594262,0,0,,57,0.1,0,0,0,0,0,0,0,0,3.3,-0.3,-47.3,312.7,,Manual Takeoff,Auto Fly,Takeoff (RC Assisted),16,5,TRUE,,Mavic Mini,FALSE,FALSE,,Smart,RC,TRUE,TRUE,FALSE,,,TRUE,,FALSE,FALSE,FALSE,FALSE,FALSE,FALSE,FALSE,FALSE,FALSE,FALSE,0,Follow Yaw,0,0,-43,317,FALSE,FALSE,FALSE,FALSE,FALSE,FALSE,,TRUE,Normal,,100,1024,1024,1455,1024,1,FALSE,FALSE,FALSE,FALSE,FALSE,0,FALSE,FALSE,FALSE,FALSE,23,7.084,481,2075,7.087,FALSE,3.545,3.539,0.006,FALSE,FALSE,NA,122.7,122.7,122.9,0,0,0,0,5,2806.5,701.64,,Idle,0,20,FALSE,5,TRUE,7,Go Home,FALSE,FALSE,FALSE,FALSE,FALSE,FALSE,FALSE,FALSE,FALSE,FALSE,FALSE,FALSE,6.972885591,79.9159409,1.3,122.6,328,TRUE,1,1,FALSE,FALSE,FALSE,FALSE,,TRUE,FALSE,FALSE,Course Lock,49.2,14.3,16.4,Calm,40,,1.12.8,Mavic Mini,1SDCH7G0169R0K,1SFLH6Q0AB03DJ,1SRCH7F014TAHX,1U5X071EXP6C8G,65.9,0,26.2,0.316303,4.250186,0,0,Mavic Mini,1SDCH7G0169R0K,1SFLH6Q0AB03DJ,1SRCH7F014TAHX,1U5X071EXP6C8G,DJI Fly,,1.12.8,EB42E4FC-F7A1-E6AF-1057-8DD3ACCCB0EB,1SDCH7G0169R0K,,,,,,,,,
3/2/2024,57:57.6,17m 19.1s,1039.1,6.972882239,79.91594262,0,0,,57,0.1,0,0,0,0,0,0,0,0,3.2,-0.4,-47.4,312.6,,Manual Takeoff,Auto Fly,Takeoff (RC Assisted),16,5,TRUE,,Mavic Mini,FALSE,FALSE,,Smart,RC,TRUE,TRUE,FALSE,,,TRUE,,FALSE,FALSE,FALSE,FALSE,FALSE,FALSE,FALSE,FALSE,FALSE,FALSE,0,Follow Yaw,0,0,-43.1,316.9,FALSE,FALSE,FALSE,FALSE,FALSE,FALSE,,TRUE,Normal,,100,1024,1024,1463,1024,1,FALSE,FALSE,FALSE,FALSE,FALSE,0,FALSE,FALSE,FALSE,FALSE,23,7.061,481,2075,7.087,FALSE,3.534,3.528,0.006,FALSE,FALSE,NA,122.7,122.7,122.9,0,0,0,0,5,2806.5,701.64,,Idle,0,20,FALSE,5,TRUE,7,Go Home,FALSE,FALSE,FALSE,FALSE,FALSE,FALSE,FALSE,FALSE,FALSE,FALSE,FALSE,FALSE,6.972885591,79.9159409,1.3,122.6,328,TRUE,1,1,FALSE,FALSE,FALSE,FALSE,,TRUE,FALSE,FALSE,Course Lock,49.2,14.3,16.4,Calm,40,,1.12.8,Mavic Mini,1SDCH7G0169R0K,1SFLH6Q0AB03DJ,1SRCH7F014TAHX,1U5X071EXP6C8G,65.9,0,26.2,0.316303,4.250186,0,0,Mavic Mini,1SDCH7G0169R0K,1SFLH6Q0AB03DJ,1SRCH7F014TAHX,1U5X071EXP6C8G,DJI Fly,,1.12.8,EB42E4FC-F7A1-E6AF-1057-8DD3ACCCB0EB,1SDCH7G0169R0K,,,,,,,,,
3/2/2024,57:57.9,17m 19.2s,1039.2,6.972882236,79.91594263,0,0,,57,0.1,0,0,0,0,0,0,0,0,3.4,-0.5,-48.2,311.8,,Manual Takeoff,Auto Fly,Takeoff (RC Assisted),16,5,TRUE,,Mavic Mini,FALSE,FALSE,,Smart,RC,TRUE,TRUE,FALSE,,,TRUE,,FALSE,FALSE,FALSE,FALSE,FALSE,FALSE,FALSE,FALSE,FALSE,FALSE,0,Follow Yaw,0,0,-43.4,316.6,FALSE,FALSE,FALSE,FALSE,FALSE,FALSE,,TRUE,Normal,,100,1024,1024,1463,1024,1,FALSE,FALSE,FALSE,FALSE,FALSE,0,FALSE,FALSE,FALSE,FALSE,23,7.061,481,2075,7.087,FALSE,3.534,3.528,0.006,FALSE,FALSE,NA,122.7,122.7,122.9,0,0,0,0,5,2806.5,701.64,,Idle,0,20,FALSE,5,TRUE,7,Go Home,FALSE,FALSE,FALSE,FALSE,FALSE,FALSE,FALSE,FALSE,FALSE,FALSE,FALSE,FALSE,6.972885591,79.9159409,1.3,122.6,328,TRUE,1,1,FALSE,FALSE,FALSE,FALSE,,TRUE,FALSE,FALSE,Course Lock,49.2,14.3,16.4,Calm,40,,1.12.8,Mavic Mini,1SDCH7G0169R0K,1SFLH6Q0AB03DJ,1SRCH7F014TAHX,1U5X071EXP6C8G,65.9,0,26.2,0.316303,4.250186,0,0,Mavic Mini,1SDCH7G0169R0K,1SFLH6Q0AB03DJ,1SRCH7F014TAHX,1U5X071EXP6C8G,DJI Fly,,1.12.8,EB42E4FC-F7A1-E6AF-1057-8DD3ACCCB0EB,1SDCH7G0169R0K,,,,,,,,,
3/2/2024,57:58.0,17m 19.3s,1039.3,6.972882231,79.91594265,0,0,,57,0.1,0,0,0,0,0,0,0,0,3.4,-1,-49,311,,Manual Takeoff,Auto Fly,Takeoff (RC Assisted),16,5,TRUE,,Mavic Mini,FALSE,FALSE,,Smart,RC,TRUE,TRUE,FALSE,,,TRUE,,FALSE,FALSE,FALSE,FALSE,FALSE,FALSE,FALSE,FALSE,FALSE,FALSE,0,Follow Yaw,0,0,-44.1,315.9,FALSE,FALSE,FALSE,FALSE,FALSE,FALSE,,TRUE,Normal,,100,1024,1024,1471,1024,1,FALSE,FALSE,FALSE,FALSE,FALSE,0,FALSE,FALSE,FALSE,FALSE,23,7.061,481,2075,7.087,FALSE,3.534,3.528,0.006,FALSE,FALSE,NA,122.7,122.7,122.9,0,0,0,0,5,2806.5,701.64,,Idle,0,20,FALSE,5,TRUE,7,Go Home,FALSE,FALSE,FALSE,FALSE,FALSE,FALSE,FALSE,FALSE,FALSE,FALSE,FALSE,FALSE,6.972885591,79.9159409,1.3,122.6,328,TRUE,1,1,FALSE,FALSE,FALSE,FALSE,,TRUE,FALSE,FALSE,Course Lock,49.2,14.3,16.4,Calm,40,,1.12.8,Mavic Mini,1SDCH7G0169R0K,1SFLH6Q0AB03DJ,1SRCH7F014TAHX,1U5X071EXP6C8G,65.9,0,26.2,0.316303,4.250186,0,0,Mavic Mini,1SDCH7G0169R0K,1SFLH6Q0AB03DJ,1SRCH7F014TAHX,1U5X071EXP6C8G,DJI Fly,,1.12.8,EB42E4FC-F7A1-E6AF-1057-8DD3ACCCB0EB,1SDCH7G0169R0K,,,,,,,,,
3/2/2024,57:58.1,17m 19.4s,1039.4,6.972882228,79.91594268,0,0,,57,0.1,0,0,0,0,0,0,0,0,3.1,-1.1,-49.8,310.2,,Manual Takeoff,Auto Fly,Takeoff (RC Assisted),16,5,TRUE,,Mavic Mini,FALSE,FALSE,,Smart,RC,TRUE,TRUE,FALSE,,,TRUE,,FALSE,FALSE,FALSE,FALSE,FALSE,FALSE,FALSE,FALSE,FALSE,FALSE,0,Follow Yaw,0,0,-44.9,315.1,FALSE,FALSE,FALSE,FALSE,FALSE,FALSE,,TRUE,Normal,,100,1024,1024,1470,1024,1,FALSE,FALSE,FALSE,FALSE,FALSE,0,FALSE,FALSE,FALSE,FALSE,23,7.061,481,2075,7.087,FALSE,3.534,3.528,0.006,FALSE,FALSE,NA,122.7,122.7,122.9,0,0,0,0,5,2806.5,701.64,,Idle,0,20,FALSE,5,TRUE,7,Go Home,FALSE,FALSE,FALSE,FALSE,FALSE,FALSE,FALSE,FALSE,FALSE,FALSE,FALSE,FALSE,6.972885591,79.9159409,1.3,122.6,328,TRUE,1,1,FALSE,FALSE,FALSE,FALSE,,TRUE,FALSE,FALSE,Course Lock,49.2,14.3,16.4,Calm,40,,1.12.8,Mavic Mini,1SDCH7G0169R0K,1SFLH6Q0AB03DJ,1SRCH7F014TAHX,1U5X071EXP6C8G,65.9,0,26.2,0.316303,4.250186,0,0,Mavic Mini,1SDCH7G0169R0K,1SFLH6Q0AB03DJ,1SRCH7F014TAHX,1U5X071EXP6C8G,DJI Fly,,1.12.8,EB42E4FC-F7A1-E6AF-1057-8DD3ACCCB0EB,1SDCH7G0169R0K,,,,,,,,,
3/2/2024,57:58.2,17m 19.5s,1039.5,6.972882215,79.9159427,0,0,,57,0.1,0,0,0,0,0,0,0,0,1.4,-1.9,-50.9,309.1,,Manual Takeoff,Auto Fly,Takeoff (RC Assisted),16,5,TRUE,,Mavic Mini,FALSE,FALSE,,Smart,RC,TRUE,TRUE,FALSE,,,TRUE,,FALSE,FALSE,FALSE,FALSE,FALSE,FALSE,FALSE,FALSE,FALSE,FALSE,0,Follow Yaw,0,0,-45.8,314.2,FALSE,FALSE,FALSE,FALSE,FALSE,FALSE,,TRUE,Normal,,100,1024,1024,1467,1024,1,FALSE,FALSE,FALSE,FALSE,FALSE,0,FALSE,FALSE,FALSE,FALSE,23,7.061,481,2075,7.087,FALSE,3.534,3.528,0.006,FALSE,FALSE,NA,122.7,122.7,122.9,0,0,0,0,5,2806.5,701.64,,Idle,0,20,FALSE,5,TRUE,7,Go Home,FALSE,FALSE,FALSE,FALSE,FALSE,FALSE,FALSE,FALSE,FALSE,FALSE,FALSE,FALSE,6.972885591,79.9159409,1.3,122.6,328,TRUE,1,1,FALSE,FALSE,FALSE,FALSE,,TRUE,FALSE,FALSE,Course Lock,49.2,14.3,16.4,Calm,40,,1.12.8,Mavic Mini,1SDCH7G0169R0K,1SFLH6Q0AB03DJ,1SRCH7F014TAHX,1U5X071EXP6C8G,65.9,0,26.2,0.316303,4.250186,0,0,Mavic Mini,1SDCH7G0169R0K,1SFLH6Q0AB03DJ,1SRCH7F014TAHX,1U5X071EXP6C8G,DJI Fly,,1.12.8,EB42E4FC-F7A1-E6AF-1057-8DD3ACCCB0EB,1SDCH7G0169R0K,,,,,,,,,
3/2/2024,57:58.2,17m 19.6s,1039.6,6.972882184,79.91594269,0,0,,57,0.1,0,0,0,0,0,0,0,0,0.3,-2.8,-52.4,307.6,,Manual Takeoff,Auto Fly,Takeoff (RC Assisted),16,5,TRUE,,Mavic Mini,FALSE,FALSE,,Smart,RC,TRUE,TRUE,FALSE,,,TRUE,,FALSE,FALSE,FALSE,FALSE,FALSE,FALSE,FALSE,FALSE,FALSE,FALSE,0,Follow Yaw,0,0,-47.1,312.9,FALSE,FALSE,FALSE,FALSE,FALSE,FALSE,,TRUE,Normal,,100,1024,1024,1467,1024,1,FALSE,FALSE,FALSE,FALSE,FALSE,0,FALSE,FALSE,FALSE,FALSE,23,7.061,481,2075,7.087,FALSE,3.534,3.528,0.006,FALSE,FALSE,NA,122.7,122.7,122.9,0,0,0,0,5,2806.5,701.64,,Idle,0,20,FALSE,5,TRUE,7,Go Home,FALSE,FALSE,FALSE,FALSE,FALSE,FALSE,FALSE,FALSE,FALSE,FALSE,FALSE,FALSE,6.972885591,79.9159409,1.4,122.6,328,TRUE,1,1,FALSE,FALSE,FALSE,FALSE,,TRUE,FALSE,FALSE,Course Lock,49.2,14.3,16.4,Calm,40,,1.12.8,Mavic Mini,1SDCH7G0169R0K,1SFLH6Q0AB03DJ,1SRCH7F014TAHX,1U5X071EXP6C8G,65.9,0,26.2,0.316303,4.250186,0,0,Mavic Mini,1SDCH7G0169R0K,1SFLH6Q0AB03DJ,1SRCH7F014TAHX,1U5X071EXP6C8G,DJI Fly,,1.12.8,EB42E4FC-F7A1-E6AF-1057-8DD3ACCCB0EB,1SDCH7G0169R0K,,,,,6.972853197,79.91593715,5,,
3/2/2024,57:58.4,17m 19.7s,1039.7,6.972882115,79.91594264,0,0,,57,0.2,0,0,0,0,0,0,-0.223694,0,-0.1,-3.4,-54.2,305.8,,Manual Takeoff,Auto Fly,Takeoff (RC Assisted),16,5,TRUE,,Mavic Mini,FALSE,FALSE,,Smart,RC,FALSE,TRUE,FALSE,,,TRUE,,FALSE,FALSE,FALSE,FALSE,FALSE,FALSE,FALSE,FALSE,FALSE,FALSE,0,Follow Yaw,0,0,-48.8,311.2,FALSE,FALSE,FALSE,FALSE,FALSE,FALSE,,TRUE,Normal,,100,1024,1024,1372,1024,1,FALSE,FALSE,FALSE,FALSE,FALSE,0,FALSE,FALSE,FALSE,FALSE,23,7.061,481,2075,7.087,FALSE,3.534,3.528,0.006,FALSE,FALSE,NA,122.7,122.7,122.9,0,0,0,0,5,2806.5,701.64,,Idle,0,20,FALSE,5,TRUE,7,Go Home,FALSE,FALSE,FALSE,FALSE,FALSE,FALSE,FALSE,FALSE,FALSE,FALSE,FALSE,FALSE,6.972885591,79.9159409,1.4,122.6,328,TRUE,1,1,FALSE,FALSE,FALSE,FALSE,,TRUE,FALSE,FALSE,Course Lock,49.2,14.3,16.4,Calm,40,,1.12.8,Mavic Mini,1SDCH7G0169R0K,1SFLH6Q0AB03DJ,1SRCH7F014TAHX,1U5X071EXP6C8G,65.9,0,26.2,0.316303,4.250186,0,0,Mavic Mini,1SDCH7G0169R0K,1SFLH6Q0AB03DJ,1SRCH7F014TAHX,1U5X071EXP6C8G,DJI Fly,,1.12.8,EB42E4FC-F7A1-E6AF-1057-8DD3ACCCB0EB,1SDCH7G0169R0K,,,,,6.972853197,79.91593715,5,,
3/2/2024,57:58.4,17m 19.8s,1039.8,6.972882043,79.91594252,0,0,0.3,57,0.2,0.316351,0.316351,-0.223694,0,-0.223694,0,-0.447388,0,-0.1,-1.1,-54.2,305.8,232.5,P-GPS,Auto Fly,,16,5,TRUE,,Mavic Mini,TRUE,FALSE,,Smart,RC,FALSE,TRUE,FALSE,,,TRUE,,FALSE,FALSE,FALSE,FALSE,FALSE,FALSE,FALSE,FALSE,FALSE,FALSE,0,Follow Yaw,0,0,-49.5,310.5,FALSE,FALSE,FALSE,FALSE,FALSE,FALSE,,TRUE,Normal,,100,1024,1024,1365,1024,1,FALSE,FALSE,FALSE,FALSE,FALSE,0,FALSE,FALSE,FALSE,FALSE,23,7.061,481,2075,7.087,FALSE,3.534,3.528,0.006,FALSE,FALSE,NA,122.7,122.7,122.9,0,0,0,0,5,2806.5,701.64,,Idle,0,20,FALSE,5,TRUE,7,Go Home,FALSE,FALSE,FALSE,FALSE,FALSE,FALSE,FALSE,FALSE,FALSE,FALSE,FALSE,FALSE,6.972885591,79.9159409,1.4,122.6,328,TRUE,1,1,FALSE,FALSE,FALSE,FALSE,,TRUE,FALSE,FALSE,Course Lock,49.2,14.3,16.4,Calm,40,,1.12.8,Mavic Mini,1SDCH7G0169R0K,1SFLH6Q0AB03DJ,1SRCH7F014TAHX,1U5X071EXP6C8G,65.9,0,26.2,0.316303,4.250186,0,0,Mavic Mini,1SDCH7G0169R0K,1SFLH6Q0AB03DJ,1SRCH7F014TAHX,1U5X071EXP6C8G,DJI Fly,,1.12.8,EB42E4FC-F7A1-E6AF-1057-8DD3ACCCB0EB,1SDCH7G0169R0K,,,,,6.972853197,79.91593715,5,Flight mode changed to P-GPS.,
3/2/2024,57:58.5,17m 19.9s,1039.9,6.972881933,79.91594237,0,0,0.3,57,0.3,0.316351,0.316351,-0.223694,0,-0.223694,0,-0.894776,0,0.8,1,-54.1,305.9,226.3,P-GPS,Auto Fly,,16,5,TRUE,,Mavic Mini,TRUE,FALSE,,Smart,RC,FALSE,TRUE,FALSE,,,TRUE,,FALSE,FALSE,FALSE,FALSE,FALSE,FALSE,FALSE,FALSE,FALSE,FALSE,0,Follow Yaw,0,0,-49.5,310.5,FALSE,FALSE,FALSE,FALSE,FALSE,FALSE,,TRUE,Normal,,100,1024,1024,1310,1024,1,FALSE,FALSE,FALSE,FALSE,FALSE,0,FALSE,FALSE,FALSE,FALSE,23,7.061,481,2075,7.087,FALSE,3.534,3.528,0.006,FALSE,FALSE,NA,122.7,122.7,122.9,0,0,0,0,5,2806.5,701.64,,Idle,0,20,FALSE,5,TRUE,7,Go Home,FALSE,FALSE,FALSE,FALSE,FALSE,FALSE,FALSE,FALSE,FALSE,FALSE,FALSE,FALSE,6.972885591,79.9159409,1.4,122.6,328,TRUE,1,1,FALSE,FALSE,FALSE,FALSE,,TRUE,FALSE,FALSE,Course Lock,49.2,14.3,16.4,Calm,40,,1.12.8,Mavic Mini,1SDCH7G0169R0K,1SFLH6Q0AB03DJ,1SRCH7F014TAHX,1U5X071EXP6C8G,65.9,0,26.2,0.316303,4.250186,0,0,Mavic Mini,1SDCH7G0169R0K,1SFLH6Q0AB03DJ,1SRCH7F014TAHX,1U5X071EXP6C8G,DJI Fly,,1.12.8,EB42E4FC-F7A1-E6AF-1057-8DD3ACCCB0EB,1SDCH7G0169R0K,,,,,6.972853197,79.91593715,5,,
3/2/2024,57:58.6,17m 20.0s,1040,6.972881838,79.91594216,0.3,0.3,0.6,57,0.4,0.316351,0.316351,-0.223694,0,-0.223694,0,-1.342164,0,1.2,1.7,-54,306,239.3,P-GPS,Auto Fly,,16,5,TRUE,,Mavic Mini,TRUE,FALSE,,Smart,RC,FALSE,TRUE,FALSE,,,TRUE,,FALSE,FALSE,FALSE,FALSE,FALSE,FALSE,FALSE,FALSE,FALSE,FALSE,0,Follow Yaw,0,0,-49.5,310.5,FALSE,FALSE,FALSE,FALSE,FALSE,FALSE,,TRUE,Normal,,100,1024,1024,1222,1024,1,FALSE,FALSE,FALSE,FALSE,FALSE,0,FALSE,FALSE,FALSE,FALSE,23,7.061,481,2075,7.001,FALSE,3.534,3.528,0.006,FALSE,FALSE,NA,122.7,122.7,122.9,0,0,2,0,5,2891.6,722.92,,Idle,0,20,FALSE,5,TRUE,7,Go Home,FALSE,FALSE,FALSE,FALSE,FALSE,FALSE,FALSE,FALSE,FALSE,FALSE,FALSE,FALSE,6.972882106,79.91594264,0.1,122.6,328,TRUE,1,1,FALSE,FALSE,FALSE,FALSE,,TRUE,FALSE,FALSE,Course Lock,49.2,14.3,16.4,Calm,40,,1.12.8,Mavic Mini,1SDCH7G0169R0K,1SFLH6Q0AB03DJ,1SRCH7F014TAHX,1U5X071EXP6C8G,65.9,0,26.2,0.316303,4.250186,0,0,Mavic Mini,1SDCH7G0169R0K,1SFLH6Q0AB03DJ,1SRCH7F014TAHX,1U5X071EXP6C8G,DJI Fly,,1.12.8,EB42E4FC-F7A1-E6AF-1057-8DD3ACCCB0EB,1SDCH7G0169R0K,,,,,6.972853197,79.91593715,5,Home Point Updated.,
3/2/2024,57:58.7,17m 20.1s,1040.1,6.972881763,79.91594196,0.3,0.3,0.6,57,0.5,0.223694,0.316351,0,0,-0.223694,0,-1.565858,0,1.3,1.9,-53.9,306.1,244.2,P-GPS,Auto Fly,,16,5,TRUE,,Mavic Mini,TRUE,FALSE,,Smart,RC,FALSE,TRUE,FALSE,,,TRUE,,FALSE,FALSE,FALSE,FALSE,FALSE,FALSE,FALSE,FALSE,FALSE,FALSE,0,Follow Yaw,0,0,-49.5,310.5,FALSE,FALSE,FALSE,FALSE,FALSE,FALSE,,TRUE,Normal,,100,1024,1024,1222,1024,1,FALSE,FALSE,FALSE,FALSE,FALSE,0,FALSE,FALSE,FALSE,FALSE,23,7.061,481,2075,7.001,FALSE,3.534,3.528,0.006,FALSE,FALSE,NA,122.7,122.7,122.9,0,0,2,0,5,2891.6,722.92,,Idle,0,20,FALSE,5,TRUE,7,Go Home,FALSE,FALSE,FALSE,FALSE,FALSE,FALSE,FALSE,FALSE,FALSE,FALSE,FALSE,FALSE,6.972882106,79.91594264,0.2,122.6,328,TRUE,1,1,FALSE,FALSE,FALSE,FALSE,,TRUE,FALSE,FALSE,Course Lock,49.2,14.3,16.4,Calm,40,,1.12.8,Mavic Mini,1SDCH7G0169R0K,1SFLH6Q0AB03DJ,1SRCH7F014TAHX,1U5X071EXP6C8G,65.9,0,26.2,0.316303,4.250186,0,0,Mavic Mini,1SDCH7G0169R0K,1SFLH6Q0AB03DJ,1SRCH7F014TAHX,1U5X071EXP6C8G,DJI Fly,,1.12.8,EB42E4FC-F7A1-E6AF-1057-8DD3ACCCB0EB,1SDCH7G0169R0K,,,,,6.972853197,79.91593715,5,Home Point updated. RTH altitude adjusted to 15 m! (Code: 120852).,
3/2/2024,57:58.8,17m 20.2s,1040.2,6.972881721,79.91594169,0.6,0.6,0.9,57,0.6,0.223694,0.316351,0,0,-0.223694,0,-1.565858,0,1.3,1.9,-54,306,258.5,P-GPS,Auto Fly,,16,5,TRUE,,Mavic Mini,TRUE,FALSE,,Smart,RC,FALSE,TRUE,FALSE,,,TRUE,,FALSE,FALSE,FALSE,FALSE,FALSE,FALSE,FALSE,FALSE,FALSE,FALSE,0,Follow Yaw,0,0,-49.5,310.5,FALSE,FALSE,FALSE,FALSE,FALSE,FALSE,,TRUE,Normal,,100,1024,1024,1155,835,1,FALSE,FALSE,FALSE,FALSE,FALSE,0,FALSE,FALSE,FALSE,FALSE,23,7.061,481,2075,7.001,FALSE,3.534,3.528,0.006,FALSE,FALSE,NA,122.7,122.7,122.9,0,0,2,0,5,2891.6,722.92,,Idle,0,20,FALSE,5,TRUE,7,Go Home,FALSE,FALSE,FALSE,FALSE,FALSE,FALSE,FALSE,FALSE,FALSE,FALSE,FALSE,FALSE,6.972882106,79.91594264,0.3,122.6,328,TRUE,1,1,FALSE,FALSE,FALSE,FALSE,,TRUE,FALSE,FALSE,Course Lock,49.2,14.3,16.4,Calm,40,,1.12.8,Mavic Mini,1SDCH7G0169R0K,1SFLH6Q0AB03DJ,1SRCH7F014TAHX,1U5X071EXP6C8G,65.9,0,26.2,0.316303,4.250186,0,0,Mavic Mini,1SDCH7G0169R0K,1SFLH6Q0AB03DJ,1SRCH7F014TAHX,1U5X071EXP6C8G,DJI Fly,,1.12.8,EB42E4FC-F7A1-E6AF-1057-8DD3ACCCB0EB,1SDCH7G0169R0K,,,,,6.972853197,79.91593715,5,,
3/2/2024,57:58.9,17m 20.3s,1040.3,6.972881668,79.91594156,0.9,0.9,1.3,58,0.6,0.223694,0.316351,0,0,-0.223694,0,-1.565858,0,1.4,2.2,-53.9,306.1,242.9,P-GPS,Auto Fly,,16,5,TRUE,,Mavic Mini,TRUE,FALSE,,Smart,RC,FALSE,TRUE,FALSE,,,TRUE,,FALSE,FALSE,FALSE,FALSE,FALSE,FALSE,FALSE,FALSE,FALSE,FALSE,0,Follow Yaw,0,0,-49.5,310.5,FALSE,FALSE,FALSE,FALSE,FALSE,FALSE,,TRUE,Normal,,100,1024,1024,1090,740,1,FALSE,FALSE,FALSE,FALSE,FALSE,0,FALSE,FALSE,FALSE,FALSE,23,6.906,480,2075,7.001,FALSE,3.454,3.452,0.006,FALSE,TRUE,NA,122.9,122.7,122.9,0,0,2,0,5,2891.6,722.92,,Idle,0,20,FALSE,5,TRUE,7,Go Home,FALSE,FALSE,FALSE,FALSE,FALSE,FALSE,FALSE,FALSE,FALSE,FALSE,FALSE,FALSE,6.972882106,79.91594264,0.4,122.6,328,TRUE,1,1,FALSE,FALSE,FALSE,FALSE,,TRUE,FALSE,FALSE,Course Lock,49.2,14.3,16.4,Calm,40,,1.12.8,Mavic Mini,1SDCH7G0169R0K,1SFLH6Q0AB03DJ,1SRCH7F014TAHX,1U5X071EXP6C8G,65.9,0,26.2,0.316303,4.250186,0,0,Mavic Mini,1SDCH7G0169R0K,1SFLH6Q0AB03DJ,1SRCH7F014TAHX,1U5X071EXP6C8G,DJI Fly,,1.12.8,EB42E4FC-F7A1-E6AF-1057-8DD3ACCCB0EB,1SDCH7G0169R0K,,,,,6.972853197,79.91593715,5,,
3/2/2024,57:59.0,17m 20.4s,1040.4,6.97288154,79.91594141,0.9,0.9,1.6,58,0.7,0,0.316351,0,0,0,0,-1.565858,0,1.6,1.9,-53.9,306.1,,P-GPS,Auto Fly,,16,5,TRUE,,Mavic Mini,TRUE,FALSE,,Smart,RC,FALSE,TRUE,FALSE,,,TRUE,,FALSE,FALSE,FALSE,FALSE,FALSE,FALSE,FALSE,FALSE,FALSE,FALSE,0,Follow Yaw,0,0,-49.8,310.2,FALSE,FALSE,FALSE,FALSE,FALSE,FALSE,,TRUE,Normal,,100,1024,1024,1091,616,1,FALSE,FALSE,FALSE,FALSE,FALSE,0,FALSE,FALSE,FALSE,FALSE,23,6.906,480,2075,7.001,FALSE,3.454,3.452,0.006,FALSE,TRUE,NA,122.9,122.7,122.9,0,0,2,0,5,2891.6,722.92,,Idle,0,20,FALSE,5,TRUE,7,Go Home,FALSE,FALSE,FALSE,FALSE,FALSE,FALSE,FALSE,FALSE,FALSE,FALSE,FALSE,FALSE,6.972882106,79.91594264,0.4,122.6,328,TRUE,1,1,FALSE,FALSE,FALSE,FALSE,,TRUE,FALSE,FALSE,Course Lock,49.2,14.3,16.4,Calm,40,,1.12.8,Mavic Mini,1SDCH7G0169R0K,1SFLH6Q0AB03DJ,1SRCH7F014TAHX,1U5X071EXP6C8G,65.9,0,26.2,0.316303,4.250186,0,0,Mavic Mini,1SDCH7G0169R0K,1SFLH6Q0AB03DJ,1SRCH7F014TAHX,1U5X071EXP6C8G,DJI Fly,,1.12.8,EB42E4FC-F7A1-E6AF-1057-8DD3ACCCB0EB,1SDCH7G0169R0K,,,,,6.972853197,79.91593715,5,,
3/2/2024,57:59.1,17m 20.5s,1040.5,6.972881402,79.91594128,1.3,1.3,1.6,58,0.7,0,0.316351,0,0,0,0,-1.11847,0,1.2,1.7,-54,306,,P-GPS,Auto Fly,,17,5,TRUE,,Mavic Mini,TRUE,FALSE,,Smart,RC,FALSE,TRUE,FALSE,,,TRUE,,FALSE,FALSE,FALSE,FALSE,FALSE,FALSE,FALSE,FALSE,FALSE,FALSE,0,Follow Yaw,0,0,-50.6,309.4,FALSE,FALSE,FALSE,FALSE,FALSE,FALSE,,TRUE,Normal,,100,1024,1024,1085,611,1,FALSE,FALSE,FALSE,FALSE,FALSE,0,FALSE,FALSE,FALSE,FALSE,23,6.906,480,2075,7.001,FALSE,3.454,3.452,0.006,FALSE,TRUE,NA,122.9,122.7,122.9,0,0,2,0,5,2891.6,722.92,,Idle,0,20,FALSE,5,TRUE,7,Go Home,FALSE,FALSE,FALSE,FALSE,FALSE,FALSE,FALSE,FALSE,FALSE,FALSE,FALSE,FALSE,6.972882106,79.91594264,0.5,122.6,328,TRUE,1,1,FALSE,FALSE,FALSE,FALSE,,TRUE,FALSE,FALSE,Course Lock,49.2,14.3,16.4,Calm,40,,1.12.8,Mavic Mini,1SDCH7G0169R0K,1SFLH6Q0AB03DJ,1SRCH7F014TAHX,1U5X071EXP6C8G,65.9,0,26.2,0.316303,4.250186,0,0,Mavic Mini,1SDCH7G0169R0K,1SFLH6Q0AB03DJ,1SRCH7F014TAHX,1U5X071EXP6C8G,DJI Fly,,1.12.8,EB42E4FC-F7A1-E6AF-1057-8DD3ACCCB0EB,1SDCH7G0169R0K,,,,,6.972853197,79.91593715,5,,
3/2/2024,57:59.3,17m 20.6s,1040.6,6.972881289,79.91594118,1.3,1.3,1.9,58,0.8,0,0.316351,0,0,0,0,-0.894776,0,1,1.7,-54.5,305.5,,P-GPS,Auto Fly,,17,5,TRUE,,Mavic Mini,TRUE,FALSE,,Smart,RC,FALSE,TRUE,FALSE,,,TRUE,,FALSE,FALSE,FALSE,FALSE,FALSE,FALSE,FALSE,FALSE,FALSE,FALSE,0,Follow Yaw,0,0,-52.4,307.6,FALSE,FALSE,FALSE,FALSE,FALSE,FALSE,,TRUE,Normal,,100,1024,1024,1069,587,1,FALSE,FALSE,FALSE,FALSE,FALSE,0,FALSE,FALSE,FALSE,FALSE,23,6.906,480,2075,7.001,FALSE,3.454,3.452,0.006,FALSE,TRUE,NA,122.9,122.7,122.9,0,0,2,0,5,2891.6,722.92,,Idle,0,20,FALSE,5,TRUE,7,Go Home,FALSE,FALSE,FALSE,FALSE,FALSE,FALSE,FALSE,FALSE,FALSE,FALSE,FALSE,FALSE,6.972882106,79.91594264,0.6,122.6,328,TRUE,1,1,FALSE,FALSE,FALSE,FALSE,,TRUE,FALSE,FALSE,Course Lock,49.2,14.3,16.4,Calm,40,,1.12.8,Mavic Mini,1SDCH7G0169R0K,1SFLH6Q0AB03DJ,1SRCH7F014TAHX,1U5X071EXP6C8G,65.9,0,26.2,0.316303,4.250186,0,0,Mavic Mini,1SDCH7G0169R0K,1SFLH6Q0AB03DJ,1SRCH7F014TAHX,1U5X071EXP6C8G,DJI Fly,,1.12.8,EB42E4FC-F7A1-E6AF-1057-8DD3ACCCB0EB,1SDCH7G0169R0K,,,,,6.972853197,79.91593715,5,,
3/2/2024,57:59.4,17m 20.7s,1040.7,6.972881274,79.91594116,1.3,1.3,1.9,58,0.8,0,0.316351,0,0,0,0,-0.671082,0,1.1,1.8,-55.8,304.2,,P-GPS,Auto Fly,,17,5,TRUE,,Mavic Mini,TRUE,FALSE,,Smart,RC,FALSE,TRUE,FALSE,,,TRUE,,FALSE,FALSE,FALSE,FALSE,FALSE,FALSE,FALSE,FALSE,FALSE,FALSE,0,Follow Yaw,0,0,-55.5,304.5,FALSE,FALSE,FALSE,FALSE,FALSE,FALSE,,TRUE,Normal,,100,1024,1024,1040,516,1,FALSE,FALSE,FALSE,FALSE,FALSE,0,FALSE,FALSE,FALSE,FALSE,23,6.906,480,2075,7.001,FALSE,3.454,3.452,0.006,FALSE,TRUE,NA,122.9,122.7,122.9,0,0,2,0,5,2891.6,722.92,,Idle,0,20,FALSE,5,TRUE,7,Go Home,FALSE,FALSE,FALSE,FALSE,FALSE,FALSE,FALSE,FALSE,FALSE,FALSE,FALSE,FALSE,6.972882106,79.91594264,0.6,122.6,328,TRUE,1,1,FALSE,FALSE,FALSE,FALSE,,TRUE,FALSE,FALSE,Course Lock,49.2,14.3,16.4,Calm,40,,1.12.8,Mavic Mini,1SDCH7G0169R0K,1SFLH6Q0AB03DJ,1SRCH7F014TAHX,1U5X071EXP6C8G,65.9,0,26.2,0.316303,4.250186,0,0,Mavic Mini,1SDCH7G0169R0K,1SFLH6Q0AB03DJ,1SRCH7F014TAHX,1U5X071EXP6C8G,DJI Fly,,1.12.8,EB42E4FC-F7A1-E6AF-1057-8DD3ACCCB0EB,1SDCH7G0169R0K,,,,,6.972853197,79.91593715,5,,
3/2/2024,57:59.5,17m 20.8s,1040.8,6.972881233,79.91594115,1.6,1.6,2.2,58,0.8,0,0.316351,0,0,0,0,-0.223694,0,1,1.8,-58,302,,P-GPS,Auto Fly,,17,5,TRUE,,Mavic Mini,TRUE,FALSE,,Smart,RC,FALSE,TRUE,FALSE,,,TRUE,,FALSE,FALSE,FALSE,FALSE,FALSE,FALSE,FALSE,FALSE,FALSE,FALSE,0,Follow Yaw,0,0,-59.4,300.6,FALSE,FALSE,FALSE,FALSE,FALSE,FALSE,,TRUE,Normal,,100,1024,1024,1024,514,1,FALSE,FALSE,FALSE,FALSE,FALSE,0,FALSE,FALSE,FALSE,FALSE,23,6.906,480,2075,7.001,FALSE,3.454,3.452,0.006,FALSE,TRUE,NA,122.9,122.7,122.9,0,0,2,0,5,2891.6,722.92,,Idle,0,20,FALSE,5,TRUE,7,Go Home,FALSE,FALSE,FALSE,FALSE,FALSE,FALSE,FALSE,FALSE,FALSE,FALSE,FALSE,FALSE,6.972882106,79.91594264,0.6,122.6,328,TRUE,1,1,FALSE,FALSE,FALSE,FALSE,,TRUE,FALSE,FALSE,Course Lock,49.2,14.3,16.4,Calm,40,,1.12.8,Mavic Mini,1SDCH7G0169R0K,1SFLH6Q0AB03DJ,1SRCH7F014TAHX,1U5X071EXP6C8G,65.9,0,26.2,0.316303,4.250186,0,0,Mavic Mini,1SDCH7G0169R0K,1SFLH6Q0AB03DJ,1SRCH7F014TAHX,1U5X071EXP6C8G,DJI Fly,,1.12.8,EB42E4FC-F7A1-E6AF-1057-8DD3ACCCB0EB,1SDCH7G0169R0K,,,,,6.972853197,79.91593715,5,,
3/2/2024,57:59.5,17m 20.9s,1040.9,6.972881188,79.91594114,1.6,1.6,2.2,58,0.8,0,0.316351,0,0,0,0,0,0,0.9,1.7,-61.2,298.8,,P-GPS,Auto Fly,,17,5,TRUE,,Mavic Mini,TRUE,FALSE,,Smart,RC,FALSE,TRUE,FALSE,,,TRUE,,FALSE,FALSE,FALSE,FALSE,FALSE,FALSE,FALSE,FALSE,FALSE,FALSE,0,Follow Yaw,0,0,-63.9,296.1,FALSE,FALSE,FALSE,FALSE,FALSE,FALSE,,TRUE,Normal,,100,1024,1024,1024,519,1,FALSE,FALSE,FALSE,FALSE,FALSE,0,FALSE,FALSE,FALSE,FALSE,23,6.906,480,2075,7.001,FALSE,3.454,3.452,0.006,FALSE,TRUE,NA,122.9,122.7,122.9,0,0,2,0,5,2891.6,722.92,,Idle,0,20,FALSE,5,TRUE,7,Go Home,FALSE,FALSE,FALSE,FALSE,FALSE,FALSE,FALSE,FALSE,FALSE,FALSE,FALSE,FALSE,6.972882106,79.91594264,0.6,122.6,328,TRUE,1,1,FALSE,FALSE,FALSE,FALSE,,TRUE,FALSE,FALSE,Course Lock,49.2,14.3,16.4,Calm,40,,1.12.8,Mavic Mini,1SDCH7G0169R0K,1SFLH6Q0AB03DJ,1SRCH7F014TAHX,1U5X071EXP6C8G,65.9,0,26.2,0.316303,4.250186,0,0,Mavic Mini,1SDCH7G0169R0K,1SFLH6Q0AB03DJ,1SRCH7F014TAHX,1U5X071EXP6C8G,DJI Fly,,1.12.8,EB42E4FC-F7A1-E6AF-1057-8DD3ACCCB0EB,1SDCH7G0169R0K,,,,,6.972853197,79.91593715,5,,
3/2/2024,57:59.6,17m 21.0s,1041,6.972881208,79.91594118,1.6,1.6,2.2,58,0.9,0,0.316351,0,0,0,0,0,0,1.1,1.2,-65.2,294.8,,P-GPS,Auto Fly,,17,5,TRUE,,Mavic Mini,TRUE,FALSE,,Smart,RC,FALSE,TRUE,FALSE,,,TRUE,,FALSE,FALSE,FALSE,FALSE,FALSE,FALSE,FALSE,FALSE,FALSE,FALSE,0,Follow Yaw,0,0,-69.1,290.9,FALSE,FALSE,FALSE,FALSE,FALSE,FALSE,,TRUE,Normal,,100,1024,1024,1024,519,1,FALSE,FALSE,FALSE,FALSE,FALSE,0,FALSE,FALSE,FALSE,FALSE,23,6.906,480,2075,6.912,FALSE,3.454,3.452,0.006,FALSE,TRUE,NA,122.9,122.7,122.9,0,0,2,0,5,3442.5,860.64,,Idle,0,20,FALSE,5,TRUE,7,Go Home,FALSE,FALSE,FALSE,FALSE,FALSE,FALSE,FALSE,FALSE,FALSE,FALSE,FALSE,FALSE,6.972882106,79.91594264,0.6,122.6,328,TRUE,1,1,FALSE,FALSE,FALSE,FALSE,,TRUE,FALSE,FALSE,Course Lock,49.2,14.3,16.4,Calm,40,,1.12.8,Mavic Mini,1SDCH7G0169R0K,1SFLH6Q0AB03DJ,1SRCH7F014TAHX,1U5X071EXP6C8G,65.9,0,26.2,0.316303,4.250186,0,0,Mavic Mini,1SDCH7G0169R0K,1SFLH6Q0AB03DJ,1SRCH7F014TAHX,1U5X071EXP6C8G,DJI Fly,,1.12.8,EB42E4FC-F7A1-E6AF-1057-8DD3ACCCB0EB,1SDCH7G0169R0K,,,,,6.972853197,79.91593715,5,,
3/2/2024,57:59.7,17m 21.1s,1041.1,6.972881321,79.91594133,1.6,1.6,2.2,58,0.9,0,0.316351,0,0,0,0,0,0,1.5,1.1,-70,290,,P-GPS,Auto Fly,,17,5,TRUE,,Mavic Mini,TRUE,FALSE,,Smart,RC,FALSE,TRUE,FALSE,,,TRUE,,FALSE,FALSE,FALSE,FALSE,FALSE,FALSE,FALSE,FALSE,FALSE,FALSE,0,Follow Yaw,0,0,-75.1,284.9,FALSE,FALSE,FALSE,FALSE,FALSE,FALSE,,TRUE,Normal,,100,1024,1024,1024,566,1,FALSE,FALSE,FALSE,FALSE,FALSE,0,FALSE,FALSE,FALSE,FALSE,23,6.906,480,2075,6.912,FALSE,3.454,3.452,0.006,FALSE,TRUE,NA,122.9,122.7,122.9,0,0,2,0,5,3442.5,860.64,,Idle,0,20,FALSE,5,TRUE,7,Go Home,FALSE,FALSE,FALSE,FALSE,FALSE,FALSE,FALSE,FALSE,FALSE,FALSE,FALSE,FALSE,6.972882106,79.91594264,0.5,122.6,328,TRUE,1,1,FALSE,FALSE,FALSE,FALSE,,TRUE,FALSE,FALSE,Course Lock,49.2,14.3,16.4,Calm,40,,1.12.8,Mavic Mini,1SDCH7G0169R0K,1SFLH6Q0AB03DJ,1SRCH7F014TAHX,1U5X071EXP6C8G,65.9,0,26.2,0.316303,4.250186,0,0,Mavic Mini,1SDCH7G0169R0K,1SFLH6Q0AB03DJ,1SRCH7F014TAHX,1U5X071EXP6C8G,DJI Fly,,1.12.8,EB42E4FC-F7A1-E6AF-1057-8DD3ACCCB0EB,1SDCH7G0169R0K,,,,,6.972853197,79.91593715,5,,
3/2/2024,57:59.8,17m 21.2s,1041.2,6.972881277,79.91594136,1.6,1.6,2.2,58,1,0,0.316351,0,0,0,0,0,0,1.3,1.2,-75.5,284.5,,P-GPS,Auto Fly,,17,5,TRUE,,Mavic Mini,TRUE,FALSE,,Smart,RC,FALSE,TRUE,FALSE,,,TRUE,,FALSE,FALSE,FALSE,FALSE,FALSE,FALSE,FALSE,FALSE,FALSE,FALSE,0,Follow Yaw,0,0,-81.5,278.5,FALSE,FALSE,FALSE,FALSE,FALSE,FALSE,,TRUE,Normal,,100,1024,1024,1024,577,1,FALSE,FALSE,FALSE,FALSE,FALSE,0,FALSE,FALSE,FALSE,FALSE,23,6.906,480,2075,6.912,FALSE,3.454,3.452,0.006,FALSE,TRUE,NA,122.9,122.7,122.9,0,0,2,0,5,3442.5,860.64,,Idle,0,20,FALSE,5,TRUE,7,Go Home,FALSE,FALSE,FALSE,FALSE,FALSE,FALSE,FALSE,FALSE,FALSE,FALSE,FALSE,FALSE,6.972882106,79.91594264,0.5,122.6,328,TRUE,1,1,FALSE,FALSE,FALSE,FALSE,,TRUE,FALSE,FALSE,Course Lock,49.2,14.3,16.4,Calm,40,,1.12.8,Mavic Mini,1SDCH7G0169R0K,1SFLH6Q0AB03DJ,1SRCH7F014TAHX,1U5X071EXP6C8G,65.9,0,26.2,0.316303,4.250186,0,0,Mavic Mini,1SDCH7G0169R0K,1SFLH6Q0AB03DJ,1SRCH7F014TAHX,1U5X071EXP6C8G,DJI Fly,,1.12.8,EB42E4FC-F7A1-E6AF-1057-8DD3ACCCB0EB,1SDCH7G0169R0K,,,,,6.972853197,79.91593715,5,,
3/2/2024,57:59.9,17m 21.3s,1041.3,6.972881223,79.9159414,1.3,1.6,2.2,58,1,0,0.316351,0,0,0,0,0,0,0.9,1.2,-81.5,278.5,,P-GPS,Auto Fly,,17,5,TRUE,,Mavic Mini,TRUE,FALSE,,Smart,RC,FALSE,TRUE,FALSE,,,TRUE,,FALSE,FALSE,FALSE,FALSE,FALSE,FALSE,FALSE,FALSE,FALSE,FALSE,0,Follow Yaw,0,0,-87.7,272.3,FALSE,FALSE,FALSE,FALSE,FALSE,FALSE,,TRUE,Normal,,100,1024,1024,1024,576,1,FALSE,FALSE,FALSE,FALSE,FALSE,0,FALSE,FALSE,FALSE,FALSE,23,6.906,480,2075,6.912,FALSE,3.454,3.452,0.006,FALSE,TRUE,NA,122.9,122.7,122.9,0,0,2,0,5,3442.5,860.64,,Idle,0,20,FALSE,5,TRUE,7,Go Home,FALSE,FALSE,FALSE,FALSE,FALSE,FALSE,FALSE,FALSE,FALSE,FALSE,FALSE,FALSE,6.972882106,79.91594264,0.5,122.6,328,TRUE,1,1,FALSE,FALSE,FALSE,FALSE,,TRUE,FALSE,FALSE,Course Lock,49.2,14.3,16.4,Calm,40,,1.12.8,Mavic Mini,1SDCH7G0169R0K,1SFLH6Q0AB03DJ,1SRCH7F014TAHX,1U5X071EXP6C8G,65.9,0,26.2,0.316303,4.250186,0,0,Mavic Mini,1SDCH7G0169R0K,1SFLH6Q0AB03DJ,1SRCH7F014TAHX,1U5X071EXP6C8G,DJI Fly,,1.12.8,EB42E4FC-F7A1-E6AF-1057-8DD3ACCCB0EB,1SDCH7G0169R0K,,,,,6.972853197,79.91593715,5,,
3/2/2024,58:00.1,17m 21.4s,1041.4,6.972881178,79.91594147,1.3,1.6,1.9,58,1,0,0.316351,0,0,0,0,0,0,0.8,1.3,-87.6,272.4,,P-GPS,Auto Fly,,17,5,TRUE,,Mavic Mini,TRUE,FALSE,,Smart,RC,FALSE,TRUE,FALSE,,,TRUE,,FALSE,FALSE,FALSE,FALSE,FALSE,FALSE,FALSE,FALSE,FALSE,FALSE,0,Follow Yaw,0,0,-93.5,266.5,FALSE,FALSE,FALSE,FALSE,FALSE,FALSE,,TRUE,Normal,,100,1024,1024,1024,588,1,FALSE,FALSE,FALSE,FALSE,FALSE,0,FALSE,FALSE,FALSE,FALSE,23,6.928,477,2075,6.912,FALSE,3.467,3.461,0.006,FALSE,TRUE,NA,122.7,122.7,122.9,0,0,2,0,5,3442.5,860.64,,Idle,0,20,FALSE,5,TRUE,7,Go Home,FALSE,FALSE,FALSE,FALSE,FALSE,FALSE,FALSE,FALSE,FALSE,FALSE,FALSE,FALSE,6.972882106,79.91594264,0.5,122.6,328,TRUE,1,1,FALSE,FALSE,FALSE,FALSE,,TRUE,FALSE,FALSE,Course Lock,49.2,14.3,16.4,Calm,40,,1.12.8,Mavic Mini,1SDCH7G0169R0K,1SFLH6Q0AB03DJ,1SRCH7F014TAHX,1U5X071EXP6C8G,65.9,0,26.2,0.316303,4.250186,0,0,Mavic Mini,1SDCH7G0169R0K,1SFLH6Q0AB03DJ,1SRCH7F014TAHX,1U5X071EXP6C8G,DJI Fly,,1.12.8,EB42E4FC-F7A1-E6AF-1057-8DD3ACCCB0EB,1SDCH7G0169R0K,,,,,6.972853197,79.91593715,5,,
3/2/2024,58:00.1,17m 21.5s,1041.5,6.972881032,79.91594162,1.3,1.6,1.9,58,1.1,0,0.316351,0,0,0,0,0,0,0.7,1.4,-93.5,266.5,,P-GPS,Auto Fly,,17,5,TRUE,,Mavic Mini,TRUE,FALSE,,Smart,RC,FALSE,TRUE,FALSE,,,TRUE,,FALSE,FALSE,FALSE,FALSE,FALSE,FALSE,FALSE,FALSE,FALSE,FALSE,0,Follow Yaw,0,0,-98.8,261.2,FALSE,FALSE,FALSE,FALSE,FALSE,FALSE,,TRUE,Normal,,100,1024,1024,1024,704,1,FALSE,FALSE,FALSE,FALSE,FALSE,0,FALSE,FALSE,FALSE,FALSE,23,6.928,477,2075,6.912,FALSE,3.467,3.461,0.006,FALSE,TRUE,NA,122.7,122.7,122.9,0,0,2,0,5,3442.5,860.64,,Idle,0,20,FALSE,5,TRUE,7,Go Home,FALSE,FALSE,FALSE,FALSE,FALSE,FALSE,FALSE,FALSE,FALSE,FALSE,FALSE,FALSE,6.972882106,79.91594264,0.5,122.6,328,TRUE,1,1,FALSE,FALSE,FALSE,FALSE,,TRUE,FALSE,FALSE,Course Lock,49.2,14.3,16.4,Calm,40,,1.12.8,Mavic Mini,1SDCH7G0169R0K,1SFLH6Q0AB03DJ,1SRCH7F014TAHX,1U5X071EXP6C8G,65.9,0,26.2,0.316303,4.250186,0,0,Mavic Mini,1SDCH7G0169R0K,1SFLH6Q0AB03DJ,1SRCH7F014TAHX,1U5X071EXP6C8G,DJI Fly,,1.12.8,EB42E4FC-F7A1-E6AF-1057-8DD3ACCCB0EB,1SDCH7G0169R0K,,,,,6.972853197,79.91593715,5,,
3/2/2024,58:00.2,17m 21.6s,1041.6,6.97288108,79.91594164,1.3,1.6,1.9,58,1.1,0,0.316351,0,0,0,0,0,0,1.3,1.1,-99.2,260.8,,P-GPS,Auto Fly,,17,5,TRUE,,Mavic Mini,TRUE,FALSE,,Smart,RC,FALSE,TRUE,FALSE,,,TRUE,,FALSE,FALSE,FALSE,FALSE,FALSE,FALSE,FALSE,FALSE,FALSE,FALSE,0,Follow Yaw,0,0,-104.1,255.9,FALSE,FALSE,FALSE,FALSE,FALSE,FALSE,,TRUE,Normal,,100,1024,1024,1024,919,1,FALSE,FALSE,FALSE,FALSE,FALSE,0,FALSE,FALSE,FALSE,FALSE,23,6.928,477,2075,6.912,FALSE,3.467,3.461,0.006,FALSE,TRUE,NA,122.7,122.7,122.9,0,0,2,0,5,3442.5,860.64,,Idle,0,20,FALSE,5,TRUE,7,Go Home,FALSE,FALSE,FALSE,FALSE,FALSE,FALSE,FALSE,FALSE,FALSE,FALSE,FALSE,FALSE,6.972882106,79.91594264,0.5,122.6,328,TRUE,1,1,FALSE,FALSE,FALSE,FALSE,,TRUE,FALSE,FALSE,Course Lock,49.2,14.3,16.4,Calm,40,,1.12.8,Mavic Mini,1SDCH7G0169R0K,1SFLH6Q0AB03DJ,1SRCH7F014TAHX,1U5X071EXP6C8G,65.9,0,26.2,0.316303,4.250186,0,0,Mavic Mini,1SDCH7G0169R0K,1SFLH6Q0AB03DJ,1SRCH7F014TAHX,1U5X071EXP6C8G,DJI Fly,,1.12.8,EB42E4FC-F7A1-E6AF-1057-8DD3ACCCB0EB,1SDCH7G0169R0K,,,,,6.972853197,79.91593715,5,,
3/2/2024,58:00.3,17m 21.7s,1041.7,6.972881151,79.91594165,1.3,1.6,1.9,58,1.1,0,0.316351,0,0,0,0,0,0,1.2,0.9,-104.6,255.4,,P-GPS,Auto Fly,,17,5,TRUE,,Mavic Mini,TRUE,FALSE,,Smart,RC,FALSE,TRUE,FALSE,,,TRUE,,FALSE,FALSE,FALSE,FALSE,FALSE,FALSE,FALSE,FALSE,FALSE,FALSE,0,Follow Yaw,0,0,-109,251,FALSE,FALSE,FALSE,FALSE,FALSE,FALSE,,TRUE,Normal,,100,1024,1024,1024,1024,1,FALSE,FALSE,FALSE,FALSE,FALSE,0,FALSE,FALSE,FALSE,FALSE,23,6.928,477,2075,6.912,FALSE,3.467,3.461,0.006,FALSE,TRUE,NA,122.7,122.7,122.9,0,0,2,0,5,3442.5,860.64,,Idle,0,20,FALSE,5,TRUE,7,Go Home,FALSE,FALSE,FALSE,FALSE,FALSE,FALSE,FALSE,FALSE,FALSE,FALSE,FALSE,FALSE,6.972882106,79.91594264,0.4,122.6,328,TRUE,1,1,FALSE,FALSE,FALSE,FALSE,,TRUE,FALSE,FALSE,Course Lock,49.2,14.3,16.4,Calm,40,,1.12.8,Mavic Mini,1SDCH7G0169R0K,1SFLH6Q0AB03DJ,1SRCH7F014TAHX,1U5X071EXP6C8G,65.9,0,26.2,0.316303,4.250186,0,0,Mavic Mini,1SDCH7G0169R0K,1SFLH6Q0AB03DJ,1SRCH7F014TAHX,1U5X071EXP6C8G,DJI Fly,,1.12.8,EB42E4FC-F7A1-E6AF-1057-8DD3ACCCB0EB,1SDCH7G0169R0K,,,,,6.972853197,79.91593715,5,,
3/2/2024,58:00.4,17m 21.8s,1041.8,6.972881209,79.91594161,1.3,1.6,1.9,58,1.2,0,0.316351,0,0,0,0,0,0,1.7,0.8,-109.7,250.3,,P-GPS,Auto Fly,,17,5,TRUE,,Mavic Mini,TRUE,FALSE,,Smart,RC,FALSE,TRUE,FALSE,,,TRUE,,FALSE,FALSE,FALSE,FALSE,FALSE,FALSE,FALSE,FALSE,FALSE,FALSE,0,Follow Yaw,0,0,-112.9,247.1,FALSE,FALSE,FALSE,FALSE,FALSE,FALSE,,TRUE,Normal,,100,1024,1024,1024,1024,1,FALSE,FALSE,FALSE,FALSE,FALSE,0,FALSE,FALSE,FALSE,FALSE,23,6.928,477,2075,6.912,FALSE,3.467,3.461,0.006,FALSE,TRUE,NA,122.7,122.7,122.9,0,0,2,0,5,3442.5,860.64,,Idle,0,20,FALSE,5,TRUE,7,Go Home,FALSE,FALSE,FALSE,FALSE,FALSE,FALSE,FALSE,FALSE,FALSE,FALSE,FALSE,FALSE,6.972882106,79.91594264,0.4,122.6,328,TRUE,1,1,FALSE,FALSE,FALSE,FALSE,,TRUE,FALSE,FALSE,Course Lock,49.2,14.3,16.4,Calm,40,,1.12.8,Mavic Mini,1SDCH7G0169R0K,1SFLH6Q0AB03DJ,1SRCH7F014TAHX,1U5X071EXP6C8G,65.9,0,26.2,0.316303,4.250186,0,0,Mavic Mini,1SDCH7G0169R0K,1SFLH6Q0AB03DJ,1SRCH7F014TAHX,1U5X071EXP6C8G,DJI Fly,,1.12.8,EB42E4FC-F7A1-E6AF-1057-8DD3ACCCB0EB,1SDCH7G0169R0K,,,,,6.972853197,79.91593715,5,,
3/2/2024,58:00.5,17m 21.9s,1041.9,6.972881464,79.91594147,1.3,1.6,1.9,58,1.3,0,0.316351,0,0,0,0,0,0,1.9,0.3,-114.1,245.9,,P-GPS,Auto Fly,,17,5,TRUE,,Mavic Mini,TRUE,FALSE,,Smart,RC,FALSE,TRUE,FALSE,,,TRUE,,FALSE,FALSE,FALSE,FALSE,FALSE,FALSE,FALSE,FALSE,FALSE,FALSE,0,Follow Yaw,0,0,-115.7,244.3,FALSE,FALSE,FALSE,FALSE,FALSE,FALSE,,TRUE,Normal,,100,1024,1024,1024,1024,1,FALSE,FALSE,FALSE,FALSE,FALSE,0,FALSE,FALSE,FALSE,FALSE,23,6.928,477,2075,6.912,FALSE,3.467,3.461,0.006,FALSE,TRUE,NA,122.7,122.7,122.9,0,0,2,0,5,3442.5,860.64,,Idle,0,20,FALSE,5,TRUE,7,Go Home,FALSE,FALSE,FALSE,FALSE,FALSE,FALSE,FALSE,FALSE,FALSE,FALSE,FALSE,FALSE,6.972882106,79.91594264,0.4,122.6,328,TRUE,1,1,FALSE,FALSE,FALSE,FALSE,,TRUE,FALSE,FALSE,Course Lock,49.2,14.3,16.4,Calm,40,,1.12.8,Mavic Mini,1SDCH7G0169R0K,1SFLH6Q0AB03DJ,1SRCH7F014TAHX,1U5X071EXP6C8G,65.9,0,26.2,0.316303,4.250186,0,0,Mavic Mini,1SDCH7G0169R0K,1SFLH6Q0AB03DJ,1SRCH7F014TAHX,1U5X071EXP6C8G,DJI Fly,,1.12.8,EB42E4FC-F7A1-E6AF-1057-8DD3ACCCB0EB,1SDCH7G0169R0K,,,,,6.972853197,79.91593715,5,,
3/2/2024,58:00.6,17m 22.0s,1042,6.97288149,79.91594142,1.3,1.6,1.9,58,1.3,0,0.316351,0,0,0,0,0,0,2.1,0.4,-117.6,242.4,,P-GPS,Auto Fly,,17,5,TRUE,,Mavic Mini,TRUE,FALSE,,Smart,RC,FALSE,TRUE,FALSE,,,TRUE,,FALSE,FALSE,FALSE,FALSE,FALSE,FALSE,FALSE,FALSE,FALSE,FALSE,0,Follow Yaw,0,0,-117.7,242.3,FALSE,FALSE,FALSE,FALSE,FALSE,FALSE,,TRUE,Normal,,100,1024,1024,1024,1024,1,FALSE,FALSE,FALSE,FALSE,FALSE,0,FALSE,FALSE,FALSE,FALSE,23,6.928,477,2075,6.917,FALSE,3.467,3.461,0.006,FALSE,TRUE,NA,122.7,122.7,122.9,0,0,2,0,5,4865.1,1216.27,,Idle,0,20,FALSE,5,TRUE,7,Go Home,FALSE,FALSE,FALSE,FALSE,FALSE,FALSE,FALSE,FALSE,FALSE,FALSE,FALSE,FALSE,6.972882106,79.91594264,0.4,122.6,328,TRUE,1,1,FALSE,FALSE,FALSE,FALSE,,TRUE,FALSE,FALSE,Course Lock,49.2,14.3,16.4,Calm,40,,1.12.8,Mavic Mini,1SDCH7G0169R0K,1SFLH6Q0AB03DJ,1SRCH7F014TAHX,1U5X071EXP6C8G,65.9,0,26.2,0.316303,4.250186,0,0,Mavic Mini,1SDCH7G0169R0K,1SFLH6Q0AB03DJ,1SRCH7F014TAHX,1U5X071EXP6C8G,DJI Fly,,1.12.8,EB42E4FC-F7A1-E6AF-1057-8DD3ACCCB0EB,1SDCH7G0169R0K,,,,,6.972853197,79.91593715,5,,
3/2/2024,58:00.7,17m 22.1s,1042.1,6.972881504,79.91594138,1.3,1.6,1.9,58,1.3,0,0.316351,0,0,0,0,0,0,2.4,0.3,-120.3,239.7,,P-GPS,Auto Fly,,17,5,TRUE,,Mavic Mini,TRUE,FALSE,,Smart,RC,FALSE,TRUE,FALSE,,,TRUE,,FALSE,FALSE,FALSE,FALSE,FALSE,FALSE,FALSE,FALSE,FALSE,FALSE,0,Follow Yaw,0,0,-119.1,240.9,FALSE,FALSE,FALSE,FALSE,FALSE,FALSE,,TRUE,Normal,,100,1024,1024,1024,1024,1,FALSE,FALSE,FALSE,FALSE,FALSE,0,FALSE,FALSE,FALSE,FALSE,23,6.928,477,2075,6.917,FALSE,3.467,3.461,0.006,FALSE,TRUE,NA,122.7,122.7,122.9,0,0,2,0,5,4865.1,1216.27,,Idle,0,20,FALSE,5,TRUE,7,Go Home,FALSE,FALSE,FALSE,FALSE,FALSE,FALSE,FALSE,FALSE,FALSE,FALSE,FALSE,FALSE,6.972882106,79.91594264,0.5,122.6,328,TRUE,1,1,FALSE,FALSE,FALSE,FALSE,,TRUE,FALSE,FALSE,Course Lock,49.2,14.3,16.4,Calm,40,,1.12.8,Mavic Mini,1SDCH7G0169R0K,1SFLH6Q0AB03DJ,1SRCH7F014TAHX,1U5X071EXP6C8G,65.9,0,26.2,0.316303,4.250186,0,0,Mavic Mini,1SDCH7G0169R0K,1SFLH6Q0AB03DJ,1SRCH7F014TAHX,1U5X071EXP6C8G,DJI Fly,,1.12.8,EB42E4FC-F7A1-E6AF-1057-8DD3ACCCB0EB,1SDCH7G0169R0K,,,,,6.972853197,79.91593715,5,,
3/2/2024,58:00.8,17m 22.2s,1042.2,6.972881538,79.91594132,1.3,1.6,1.9,58,1.3,0,0.316351,0,0,0,0,0,0,2.3,0.3,-122.1,237.9,,P-GPS,Auto Fly,,17,5,TRUE,,Mavic Mini,TRUE,FALSE,,Smart,RC,FALSE,TRUE,FALSE,,,TRUE,,FALSE,FALSE,FALSE,FALSE,FALSE,FALSE,FALSE,FALSE,FALSE,FALSE,0,Follow Yaw,0,0,-119.8,240.2,FALSE,FALSE,FALSE,FALSE,FALSE,FALSE,,TRUE,Normal,,100,1024,1024,1024,1024,1,FALSE,FALSE,FALSE,FALSE,FALSE,0,FALSE,FALSE,FALSE,FALSE,23,6.928,477,2075,6.917,FALSE,3.467,3.461,0.006,FALSE,TRUE,NA,122.7,122.7,122.9,0,0,2,0,5,4865.1,1216.27,,Idle,0,20,FALSE,5,TRUE,7,Go Home,FALSE,FALSE,FALSE,FALSE,FALSE,FALSE,FALSE,FALSE,FALSE,FALSE,FALSE,FALSE,6.972882106,79.91594264,0.5,122.6,328,TRUE,1,1,FALSE,FALSE,FALSE,FALSE,,TRUE,FALSE,FALSE,Course Lock,49.2,14.3,16.4,Calm,40,,1.12.8,Mavic Mini,1SDCH7G0169R0K,1SFLH6Q0AB03DJ,1SRCH7F014TAHX,1U5X071EXP6C8G,65.9,0,26.2,0.316303,4.250186,0,0,Mavic Mini,1SDCH7G0169R0K,1SFLH6Q0AB03DJ,1SRCH7F014TAHX,1U5X071EXP6C8G,DJI Fly,,1.12.8,EB42E4FC-F7A1-E6AF-1057-8DD3ACCCB0EB,1SDCH7G0169R0K,,,,,6.972853197,79.91593715,5,,
3/2/2024,58:01.0,17m 22.3s,1042.3,6.97288166,79.91594112,1.3,1.6,1.9,58,1.4,0,0.316351,0,0,0,0,0,0,2.3,-0.1,-123.1,236.9,,P-GPS,Auto Fly,,17,5,TRUE,,Mavic Mini,TRUE,FALSE,,Smart,RC,FALSE,TRUE,FALSE,,,TRUE,,FALSE,FALSE,FALSE,FALSE,FALSE,FALSE,FALSE,FALSE,FALSE,FALSE,0,Follow Yaw,0,0,-119.8,240.2,FALSE,FALSE,FALSE,FALSE,FALSE,FALSE,,TRUE,Normal,,100,1024,1024,1024,1024,1,FALSE,FALSE,FALSE,FALSE,FALSE,0,FALSE,FALSE,FALSE,FALSE,23,6.928,477,2075,6.917,FALSE,3.467,3.461,0.006,FALSE,TRUE,NA,122.7,122.7,122.9,0,0,2,0,5,4865.1,1216.27,,Idle,0,20,FALSE,5,TRUE,7,Go Home,FALSE,FALSE,FALSE,FALSE,FALSE,FALSE,FALSE,FALSE,FALSE,FALSE,FALSE,FALSE,6.972882106,79.91594264,0.5,122.6,328,TRUE,1,1,FALSE,FALSE,FALSE,FALSE,,TRUE,FALSE,FALSE,Course Lock,49.2,14.3,16.4,Calm,40,,1.12.8,Mavic Mini,1SDCH7G0169R0K,1SFLH6Q0AB03DJ,1SRCH7F014TAHX,1U5X071EXP6C8G,65.9,0,26.2,0.316303,4.250186,0,0,Mavic Mini,1SDCH7G0169R0K,1SFLH6Q0AB03DJ,1SRCH7F014TAHX,1U5X071EXP6C8G,DJI Fly,,1.12.8,EB42E4FC-F7A1-E6AF-1057-8DD3ACCCB0EB,1SDCH7G0169R0K,,,,,6.972853197,79.91593715,5,,
3/2/2024,58:01.2,17m 22.4s,1042.4,6.972881656,79.91594112,1.3,1.6,1.9,58,1.4,0,0.316351,0,0,0,0,0,0,2.3,-0.3,-123.8,236.2,,P-GPS,Auto Fly,,17,5,TRUE,,Mavic Mini,TRUE,FALSE,,Smart,RC,FALSE,TRUE,FALSE,,,TRUE,,FALSE,FALSE,FALSE,FALSE,FALSE,FALSE,FALSE,FALSE,FALSE,FALSE,0,Follow Yaw,0,0,-119.9,240.1,FALSE,FALSE,FALSE,FALSE,FALSE,FALSE,,TRUE,Normal,,100,1024,1024,1024,1024,1,FALSE,FALSE,FALSE,FALSE,FALSE,0,FALSE,FALSE,FALSE,FALSE,23,6.928,477,2075,6.917,FALSE,3.467,3.461,0.006,FALSE,TRUE,NA,122.7,122.7,122.9,0,0,2,0,5,4865.1,1216.27,,Idle,0,20,FALSE,5,TRUE,7,Go Home,FALSE,FALSE,FALSE,FALSE,FALSE,FALSE,FALSE,FALSE,FALSE,FALSE,FALSE,FALSE,6.972882106,79.91594264,0.5,122.6,328,TRUE,1,1,FALSE,FALSE,FALSE,FALSE,,TRUE,FALSE,FALSE,Course Lock,49.2,14.3,16.4,Calm,40,,1.12.8,Mavic Mini,1SDCH7G0169R0K,1SFLH6Q0AB03DJ,1SRCH7F014TAHX,1U5X071EXP6C8G,65.9,0,26.2,0.316303,4.250186,0,0,Mavic Mini,1SDCH7G0169R0K,1SFLH6Q0AB03DJ,1SRCH7F014TAHX,1U5X071EXP6C8G,DJI Fly,,1.12.8,EB42E4FC-F7A1-E6AF-1057-8DD3ACCCB0EB,1SDCH7G0169R0K,,,,,6.972853197,79.91593715,5,,
3/2/2024,58:01.2,17m 22.5s,1042.5,6.972881629,79.91594115,1.3,1.6,1.9,58,1.4,0,0.316351,0,0,0,0,0,0,2.6,-0.3,-124,236,,P-GPS,Auto Fly,,17,5,TRUE,,Mavic Mini,TRUE,FALSE,,Smart,RC,FALSE,TRUE,FALSE,,,TRUE,,FALSE,FALSE,FALSE,FALSE,FALSE,FALSE,FALSE,FALSE,FALSE,FALSE,0,Follow Yaw,0,0,-119.9,240.1,FALSE,FALSE,FALSE,FALSE,FALSE,FALSE,,TRUE,Normal,,100,1024,1024,1024,1024,1,FALSE,FALSE,FALSE,FALSE,FALSE,0,FALSE,FALSE,FALSE,FALSE,23,6.909,477,2075,6.917,FALSE,3.457,3.452,0.006,FALSE,TRUE,NA,122.7,122.7,122.9,0,0,2,0,5,4865.1,1216.27,,Idle,0,20,FALSE,5,TRUE,7,Go Home,FALSE,FALSE,FALSE,FALSE,FALSE,FALSE,FALSE,FALSE,FALSE,FALSE,FALSE,FALSE,6.972882106,79.91594264,0.5,122.6,328,TRUE,1,1,FALSE,FALSE,FALSE,FALSE,,TRUE,FALSE,FALSE,Course Lock,49.2,14.3,16.4,Calm,40,,1.12.8,Mavic Mini,1SDCH7G0169R0K,1SFLH6Q0AB03DJ,1SRCH7F014TAHX,1U5X071EXP6C8G,65.9,0,26.2,0.316303,4.250186,0,0,Mavic Mini,1SDCH7G0169R0K,1SFLH6Q0AB03DJ,1SRCH7F014TAHX,1U5X071EXP6C8G,DJI Fly,,1.12.8,EB42E4FC-F7A1-E6AF-1057-8DD3ACCCB0EB,1SDCH7G0169R0K,,,,,6.972853197,79.91593715,5,,
3/2/2024,58:01.2,17m 22.6s,1042.6,6.972881584,79.91594116,1.3,1.6,1.9,58,1.4,0,0.316351,0,0,0,0,0,0,2.2,0.3,-124.1,235.9,,P-GPS,Auto Fly,,17,5,TRUE,,Mavic Mini,TRUE,FALSE,,Smart,RC,FALSE,TRUE,FALSE,,,TRUE,,FALSE,FALSE,FALSE,FALSE,FALSE,FALSE,FALSE,FALSE,FALSE,FALSE,0,Follow Yaw,0,0,-119.9,240.1,FALSE,FALSE,FALSE,FALSE,FALSE,FALSE,,TRUE,Normal,,100,1024,1024,1024,1024,1,FALSE,FALSE,FALSE,FALSE,FALSE,0,FALSE,FALSE,FALSE,FALSE,23,6.909,476,2075,6.917,FALSE,3.457,3.452,0.006,FALSE,TRUE,NA,122.7,122.7,122.9,0,0,2,0,5,4865.1,1216.27,,Idle,0,20,FALSE,5,TRUE,7,Go Home,FALSE,FALSE,FALSE,FALSE,FALSE,FALSE,FALSE,FALSE,FALSE,FALSE,FALSE,FALSE,6.972882106,79.91594264,0.5,122.6,328,TRUE,1,1,FALSE,FALSE,FALSE,FALSE,,TRUE,FALSE,FALSE,Course Lock,49.2,14.3,16.4,Calm,40,,1.12.8,Mavic Mini,1SDCH7G0169R0K,1SFLH6Q0AB03DJ,1SRCH7F014TAHX,1U5X071EXP6C8G,65.9,0,26.2,0.316303,4.250186,0,0,Mavic Mini,1SDCH7G0169R0K,1SFLH6Q0AB03DJ,1SRCH7F014TAHX,1U5X071EXP6C8G,DJI Fly,,1.12.8,EB42E4FC-F7A1-E6AF-1057-8DD3ACCCB0EB,1SDCH7G0169R0K,,,,,6.972853197,79.91593715,5,,
3/2/2024,58:01.3,17m 22.7s,1042.7,6.972881528,79.91594117,1.3,1.6,1.9,58,1.5,0,0.316351,0,0,0,0,0,0,2.2,0.4,-124.1,235.9,,P-GPS,Auto Fly,,17,5,TRUE,,Mavic Mini,TRUE,FALSE,,Smart,RC,FALSE,TRUE,FALSE,,,TRUE,,FALSE,FALSE,FALSE,FALSE,FALSE,FALSE,FALSE,FALSE,FALSE,FALSE,0,Follow Yaw,0,0,-119.8,240.2,FALSE,FALSE,FALSE,FALSE,FALSE,FALSE,,TRUE,Normal,,100,1024,1024,1024,1024,1,FALSE,FALSE,TRUE,FALSE,FALSE,0,FALSE,FALSE,FALSE,FALSE,23,6.909,476,2075,6.917,FALSE,3.457,3.452,0.006,FALSE,TRUE,NA,122.7,122.7,122.9,0,0,2,0,5,4865.1,1216.27,,Idle,0,20,FALSE,5,TRUE,7,Go Home,FALSE,FALSE,FALSE,FALSE,FALSE,FALSE,FALSE,FALSE,FALSE,FALSE,FALSE,FALSE,6.972882106,79.91594264,0.5,122.6,328,TRUE,1,1,FALSE,FALSE,FALSE,FALSE,,TRUE,FALSE,FALSE,Course Lock,49.2,14.3,16.4,Calm,40,,1.12.8,Mavic Mini,1SDCH7G0169R0K,1SFLH6Q0AB03DJ,1SRCH7F014TAHX,1U5X071EXP6C8G,65.9,0,26.2,0.316303,4.250186,0,0,Mavic Mini,1SDCH7G0169R0K,1SFLH6Q0AB03DJ,1SRCH7F014TAHX,1U5X071EXP6C8G,DJI Fly,,1.12.8,EB42E4FC-F7A1-E6AF-1057-8DD3ACCCB0EB,1SDCH7G0169R0K,,,,,6.972853197,79.91593715,5,,
3/2/2024,58:01.4,17m 22.8s,1042.8,6.972881455,79.91594117,1.3,1.6,1.9,58,1.5,0,0.316351,0,0,0,0,0,0,2.5,0.2,-124.1,235.9,,P-GPS,Auto Fly,,17,5,TRUE,,Mavic Mini,TRUE,FALSE,,Smart,RC,FALSE,TRUE,FALSE,,,TRUE,,FALSE,FALSE,FALSE,FALSE,FALSE,FALSE,FALSE,FALSE,FALSE,FALSE,0,Follow Yaw,0,0,-119.8,240.2,FALSE,FALSE,FALSE,FALSE,FALSE,FALSE,,TRUE,Normal,,100,1024,1024,1024,1024,1,FALSE,FALSE,TRUE,FALSE,FALSE,0,FALSE,FALSE,FALSE,FALSE,23,6.909,476,2075,6.917,FALSE,3.457,3.452,0.006,FALSE,TRUE,NA,122.7,122.7,122.9,0,0,2,0,5,4865.1,1216.27,,Idle,0,20,FALSE,5,TRUE,7,Go Home,FALSE,FALSE,FALSE,FALSE,FALSE,FALSE,FALSE,FALSE,FALSE,FALSE,FALSE,FALSE,6.972882106,79.91594264,0.5,122.6,328,TRUE,1,1,FALSE,FALSE,FALSE,FALSE,,TRUE,FALSE,FALSE,Course Lock,49.2,14.3,16.4,Calm,40,,1.12.8,Mavic Mini,1SDCH7G0169R0K,1SFLH6Q0AB03DJ,1SRCH7F014TAHX,1U5X071EXP6C8G,65.9,0,26.2,0.316303,4.250186,0,0,Mavic Mini,1SDCH7G0169R0K,1SFLH6Q0AB03DJ,1SRCH7F014TAHX,1U5X071EXP6C8G,DJI Fly,,1.12.8,EB42E4FC-F7A1-E6AF-1057-8DD3ACCCB0EB,1SDCH7G0169R0K,,,,,6.972853197,79.91593715,5,,
