CUSTOM.date [local],CUSTOM.updateTime [local],OSD.flyTime,OSD.flyTime [s],OSD.latitude,OSD.longitude,OSD.height [ft],OSD.heightMax [ft],OSD.vpsHeight [ft],OSD.altitude [ft],OSD.mileage [ft],OSD.hSpeed [MPH],OSD.hSpeedMax [MPH],OSD.xSpeed [MPH],OSD.xSpeedMax [MPH],OSD.ySpeed [MPH],OSD.ySpeedMax [MPH],OSD.zSpeed [MPH],OSD.zSpeedMax [MPH],OSD.pitch,OSD.roll,OSD.yaw,OSD.yaw [360],OSD.directionOfTravel,OSD.flycState,OSD.flycCommand,OSD.flightAction,OSD.gpsNum,OSD.gpsLevel,OSD.isGPSUsed,OSD.nonGPSCause,OSD.droneType,OSD.isSwaveWork,OSD.waveError,OSD.goHomeStatus,OSD.batteryType,OSD.ctrlDevice,OSD.isOnGround,OSD.isMotorOn,OSD.isMotorBlocked,OSD.motorStartFailedCause,OSD.motorFailReason,OSD.isImuPreheated,OSD.imuInitFailReason,OSD.isAcceletorOverRange,OSD.isBarometerDeadInAir,OSD.isCompassError,OSD.isGoHomeHeightModified,OSD.canIOCWork,OSD.isNotEnoughForce,OSD.isOutOfLimit,OSD.isPropellerCatapult,OSD.isVibrating,OSD.isVisionUsed,OSD.voltageWarning,GIMBAL.mode,GIMBAL.pitch,GIMBAL.roll,GIMBAL.yaw,GIMBAL.yaw [360],GIMBAL.isPitchAtLimit,GIMBAL.isRollAtLimit,GIMBAL.isYawAtLimit,GIMBAL.isStuck,CAMERA.isPhoto,CAMERA.isVideo,CAMERA.filename,CAMERA.sdCardIsInserted,CAMERA.sdCardState,RC.downlinkSignal,RC.uplinkSignal,RC.aileron,RC.elevator,RC.throttle,RC.rudder,RC.mode,RC.goHomeDepressed,RC.recordDepressed,RC.shutterDepressed,RC.playbackDepressed,RC.wheelDepressed,RC.wheelOffset,RC.custom1Depressed,RC.custom2Depressed,RC.custom3Depressed,RC.custom4Depressed,BATTERY.chargeLevel,BATTERY.currentPV [V],BATTERY.currentCapacity [mAh],BATTERY.fullCapacity [mAh],BATTERY.voltage [V],BATTERY.isCellVoltageEstimated,BATTERY.cellVoltage1 [V],BATTERY.cellVoltage2 [V],BATTERY.maxCellVoltageDeviation,BATTERY.isCellVoltageDeviationHigh,BATTERY.isVoltageLow,BATTERY.current [A],BATTERY.temperature [F],BATTERY.minTemperature [F],BATTERY.maxTemperature [F],BATTERY.usefulTime [s],BATTERY.goHomeTime [s],BATTERY.landTime [s],BATTERY.goHomeBattery,BATTERY.landBattery,BATTERY.safeFlyRadius,BATTERY.volumeConsume,BATTERY.status,BATTERY.goHomeStatus,BATTERY.goHomeCountdown,BATTERY.lowWarning,BATTERY.lowWarningGoHome,BATTERY.seriousLowWarning,BATTERY.seriousLowWarningLanding,BATTERY.timesCharged,MC.failSafeAction,MC.isObstacleAvoidanceEnabled,MC.isCollisionAvoidanceEnabled,MC.isRthObstacleAvoidanceEnabled,MC.isBraking,MC.isAvoidingObstacle,MC.isAvoidingActiveObstacle,MC.isAscentLimitedByObstacle,MC.isLandingConfirmationNeeded,MC.atLowAltitudeLimit,MC.atDistanceLimit,MC.atAirportAltitudeLimit,MC.atAirportBoundary,HOME.latitude,HOME.longitude,HOME.distance [ft],HOME.height [ft],HOME.heightLimit [ft],HOME.isHomeRecord,HOME.goHomeMode,HOME.aircraftHeadDirection,HOME.isDynamicHomePointEnabled,HOME.isReachedLimitDistance,HOME.isReachedLimitHeight,HOME.isCompassCalibrating,HOME.compassCalibrationState,HOME.isMultipleFlightModeEnabled,HOME.isBeginnerMode,HOME.isIOCEnabled,HOME.iocMode,HOME.goHomeHeight [ft],HOME.courseLockAngle,HOME.forceLandingHeight [ft],HOME.wind,HOME.dataRecorderFileIndex,RECOVER.appType,RECOVER.appVersion,RECOVER.aircraftName,RECOVER.aircraftSerial,RECOVER.cameraSerial,RECOVER.rcSerial,RECOVER.batterySerial,DETAILS.totalTime [s],DETAILS.totalDistance [ft],DETAILS.maxHeight [ft],DETAILS.maxHorizontalSpeed [MPH],DETAILS.maxVerticalSpeed [MPH],DETAILS.photoNum,DETAILS.videoTime [s],DETAILS.aircraftName,DETAILS.aircraftSerial,DETAILS.cameraSerial,DETAILS.rcSerial,DETAILS.batterySerial,DETAILS.appName,DETAILS.appType,DETAILS.appVersion,DETAILS.guid,SERIAL.flightController,SERIAL.camera,SERIAL.gimbal,SERIAL.rc,SERIAL.battery,APPGPS.latitude,APPGPS.longitude,APPGPS.accuracy,APP.tip,APP.warning
2/13/2024,14:11.3,0m 0.0s,0,6.97469697,79.91478171,0,0,0.3,67,0,0,0,0,0,0,0,0,0,5.9,-0.5,174,174,,Starting Motors,Auto Fly,Takeoff (App Auto),9,4,TRUE,,Mavic Mini,FALSE,FALSE,,Smart,RC,TRUE,TRUE,FALSE,,,TRUE,,FALSE,FALSE,FALSE,FALSE,FALSE,FALSE,FALSE,FALSE,FALSE,FALSE,0,Follow Yaw,0.2,0,176.2,176.2,FALSE,FALSE,FALSE,FALSE,FALSE,FALSE,,TRUE,Normal,,,1024,1024,1024,1024,1,FALSE,FALSE,FALSE,FALSE,FALSE,0,FALSE,FALSE,FALSE,FALSE,96,8.148,1969,2054,8.148,TRUE,4.074,4.074,,FALSE,FALSE,NA,80.4,80.4,80.4,,,,,,,,,Idle,,,TRUE,,FALSE,8,Go Home,FALSE,FALSE,FALSE,FALSE,FALSE,FALSE,FALSE,FALSE,FALSE,FALSE,FALSE,FALSE,,,,,,FALSE,,,FALSE,FALSE,FALSE,FALSE,,FALSE,FALSE,FALSE,,,,,Calm,,,1.12.8,Mavic Mini,1SDCH7G0169R0K,1SFLH6Q0AB03DJ,1SRCH7F014TAHX,1U5X071EXP5ZJG,109.7,0.1,3.2,1.58174,2.23694,0,0,Mavic Mini,1SDCH7G0169R0K,1SFLH6Q0AB03DJ,1SRCH7F014TAHX,1U5X071EXP5ZJG,DJI Fly,,1.12.8,5436CD7B-0171-AE3B-E96F-A3CD34ECDEF5,1SDCH7G0169R0K,,,,,,,,Flight mode changed to Starting Motors.,
2/13/2024,14:11.5,0m 0.1s,0.1,6.974696875,79.91478164,0,0,0.3,67,0,0,0,0,0,0,0,0,0,5.9,-0.5,174,174,,Starting Motors,Auto Fly,Takeoff (App Auto),9,4,TRUE,,Mavic Mini,FALSE,FALSE,,Smart,RC,TRUE,TRUE,FALSE,,,TRUE,,FALSE,FALSE,FALSE,FALSE,FALSE,FALSE,FALSE,FALSE,FALSE,FALSE,0,Follow Yaw,0.2,0,176.2,176.2,FALSE,FALSE,FALSE,FALSE,FALSE,FALSE,,TRUE,Normal,,100,1024,1024,1024,1024,1,FALSE,FALSE,FALSE,FALSE,FALSE,0,FALSE,FALSE,FALSE,FALSE,96,8.148,1969,2054,8.148,TRUE,4.074,4.074,,FALSE,FALSE,NA,80.4,80.4,80.4,,,,,,,,,Idle,,,TRUE,,FALSE,8,Go Home,FALSE,FALSE,FALSE,FALSE,FALSE,FALSE,FALSE,FALSE,FALSE,FALSE,FALSE,FALSE,,,,,,FALSE,,,FALSE,FALSE,FALSE,FALSE,,FALSE,FALSE,FALSE,,,,,Calm,,,1.12.8,Mavic Mini,1SDCH7G0169R0K,1SFLH6Q0AB03DJ,1SRCH7F014TAHX,1U5X071EXP5ZJG,109.7,0.1,3.2,1.58174,2.23694,0,0,Mavic Mini,1SDCH7G0169R0K,1SFLH6Q0AB03DJ,1SRCH7F014TAHX,1U5X071EXP5ZJG,DJI Fly,,1.12.8,5436CD7B-0171-AE3B-E96F-A3CD34ECDEF5,1SDCH7G0169R0K,,,,,,,,,
2/13/2024,14:11.5,0m 0.2s,0.2,6.974696913,79.91478158,0,0,0.3,67,0,0,0,0,0,0,0,0,0,5.9,-0.5,174,174,,Starting Motors,Auto Fly,Takeoff (App Auto),9,4,TRUE,,Mavic Mini,TRUE,FALSE,,Smart,RC,TRUE,TRUE,FALSE,,,TRUE,,FALSE,FALSE,FALSE,FALSE,FALSE,FALSE,FALSE,FALSE,FALSE,FALSE,0,Follow Yaw,0.2,0,176.2,176.2,FALSE,FALSE,FALSE,FALSE,FALSE,FALSE,,TRUE,Normal,,100,1024,1024,1024,1024,1,FALSE,FALSE,FALSE,FALSE,FALSE,0,FALSE,FALSE,FALSE,FALSE,96,8.148,1969,2054,8.148,TRUE,4.074,4.074,,FALSE,FALSE,NA,80.4,80.4,80.4,,,,,,,,,Idle,,,TRUE,,FALSE,8,Go Home,FALSE,FALSE,FALSE,FALSE,FALSE,FALSE,FALSE,FALSE,FALSE,FALSE,FALSE,FALSE,,,,,,FALSE,,,FALSE,FALSE,FALSE,FALSE,,FALSE,FALSE,FALSE,,,,,Calm,,,1.12.8,Mavic Mini,1SDCH7G0169R0K,1SFLH6Q0AB03DJ,1SRCH7F014TAHX,1U5X071EXP5ZJG,109.7,0.1,3.2,1.58174,2.23694,0,0,Mavic Mini,1SDCH7G0169R0K,1SFLH6Q0AB03DJ,1SRCH7F014TAHX,1U5X071EXP5ZJG,DJI Fly,,1.12.8,5436CD7B-0171-AE3B-E96F-A3CD34ECDEF5,1SDCH7G0169R0K,,,,,,,,,
2/13/2024,14:11.6,0m 0.3s,0.3,6.974696945,79.91478153,0,0,0.3,67,0,0,0,0,0,0,0,0,0,5.9,-0.4,174,174,,Starting Motors,Auto Fly,Takeoff (App Auto),9,4,TRUE,,Mavic Mini,TRUE,FALSE,,Smart,RC,TRUE,TRUE,FALSE,,,TRUE,,FALSE,FALSE,FALSE,FALSE,FALSE,FALSE,FALSE,FALSE,FALSE,FALSE,0,Follow Yaw,0.2,0,176.2,176.2,FALSE,FALSE,FALSE,FALSE,FALSE,FALSE,,TRUE,Normal,,100,1024,1024,1024,1024,1,FALSE,FALSE,FALSE,FALSE,FALSE,0,FALSE,FALSE,FALSE,FALSE,96,8.148,1969,2054,8.137,TRUE,4.069,4.069,,FALSE,FALSE,NA,80.4,80.4,80.4,0,15,0,0,5,2494.9,623.72,,Idle,0,20,FALSE,5,TRUE,8,Go Home,FALSE,FALSE,FALSE,FALSE,FALSE,FALSE,FALSE,FALSE,FALSE,FALSE,FALSE,FALSE,6.974738202,79.91478707,15.1,114.7,328,TRUE,1,1,FALSE,FALSE,FALSE,FALSE,,TRUE,FALSE,FALSE,Course Lock,246,303.7,16.4,Calm,23,,1.12.8,Mavic Mini,1SDCH7G0169R0K,1SFLH6Q0AB03DJ,1SRCH7F014TAHX,1U5X071EXP5ZJG,109.7,0.1,3.2,1.58174,2.23694,0,0,Mavic Mini,1SDCH7G0169R0K,1SFLH6Q0AB03DJ,1SRCH7F014TAHX,1U5X071EXP5ZJG,DJI Fly,,1.12.8,5436CD7B-0171-AE3B-E96F-A3CD34ECDEF5,1SDCH7G0169R0K,,,,,,,,Data Recorder File Index is 23.; Set Return to Home (RTH) altitude to 75 m (246 ft).; Set maximum flight altitude to 100 m (328 ft).,
2/13/2024,14:11.8,0m 0.4s,0.4,6.974696951,79.91478148,0,0,0.3,67,0,0,0,0,0,0,0,0,0,5.9,-0.5,174,174,,Starting Motors,Auto Fly,Takeoff (App Auto),9,4,TRUE,,Mavic Mini,TRUE,FALSE,,Smart,RC,TRUE,TRUE,FALSE,,,TRUE,,FALSE,FALSE,FALSE,FALSE,FALSE,FALSE,FALSE,FALSE,FALSE,FALSE,0,Follow Yaw,0.2,0,176.2,176.2,FALSE,FALSE,FALSE,FALSE,FALSE,FALSE,,TRUE,Normal,,100,1024,1024,1024,1024,1,FALSE,FALSE,FALSE,FALSE,FALSE,0,FALSE,FALSE,FALSE,FALSE,96,8.148,1969,2054,8.137,TRUE,4.069,4.069,,FALSE,FALSE,NA,80.4,80.4,80.4,0,15,0,0,5,2494.9,623.72,,Idle,0,20,FALSE,5,TRUE,8,Go Home,FALSE,FALSE,FALSE,FALSE,FALSE,FALSE,FALSE,FALSE,FALSE,FALSE,FALSE,FALSE,6.974738202,79.91478707,15.1,114.7,328,TRUE,1,1,FALSE,FALSE,FALSE,FALSE,,TRUE,FALSE,FALSE,Course Lock,246,303.7,16.4,Calm,23,,1.12.8,Mavic Mini,1SDCH7G0169R0K,1SFLH6Q0AB03DJ,1SRCH7F014TAHX,1U5X071EXP5ZJG,109.7,0.1,3.2,1.58174,2.23694,0,0,Mavic Mini,1SDCH7G0169R0K,1SFLH6Q0AB03DJ,1SRCH7F014TAHX,1U5X071EXP5ZJG,DJI Fly,,1.12.8,5436CD7B-0171-AE3B-E96F-A3CD34ECDEF5,1SDCH7G0169R0K,,,,,,,,,
2/13/2024,14:11.9,0m 0.5s,0.5,6.974696962,79.91478143,0,0,0.3,67,0,0,0,0,0,0,0,0,0,5.9,-0.6,174,174,,Starting Motors,Auto Fly,Takeoff (App Auto),9,4,TRUE,,Mavic Mini,TRUE,FALSE,,Smart,RC,TRUE,TRUE,FALSE,,,TRUE,,FALSE,FALSE,FALSE,FALSE,FALSE,FALSE,FALSE,FALSE,FALSE,FALSE,0,Follow Yaw,0.2,0,176.2,176.2,FALSE,FALSE,FALSE,FALSE,FALSE,FALSE,,TRUE,Normal,,100,1024,1024,1024,1024,1,FALSE,FALSE,FALSE,FALSE,FALSE,0,FALSE,FALSE,FALSE,FALSE,96,8.148,1969,2054,8.137,TRUE,4.069,4.069,,FALSE,FALSE,NA,80.4,80.4,80.4,0,15,0,0,5,2494.9,623.72,,Idle,0,20,FALSE,5,TRUE,8,Go Home,FALSE,FALSE,FALSE,FALSE,FALSE,FALSE,FALSE,FALSE,FALSE,FALSE,FALSE,FALSE,6.974738202,79.91478707,15.1,114.7,328,TRUE,1,1,FALSE,FALSE,FALSE,FALSE,,TRUE,FALSE,FALSE,Course Lock,246,303.7,16.4,Calm,23,,1.12.8,Mavic Mini,1SDCH7G0169R0K,1SFLH6Q0AB03DJ,1SRCH7F014TAHX,1U5X071EXP5ZJG,109.7,0.1,3.2,1.58174,2.23694,0,0,Mavic Mini,1SDCH7G0169R0K,1SFLH6Q0AB03DJ,1SRCH7F014TAHX,1U5X071EXP5ZJG,DJI Fly,,1.12.8,5436CD7B-0171-AE3B-E96F-A3CD34ECDEF5,1SDCH7G0169R0K,,,,,,,,,
2/13/2024,14:11.9,0m 0.6s,0.6,6.974697088,79.91478133,0,0,0.3,67,0.1,0,0,0,0,0,0,0,0,5.9,-0.6,174,174,,Starting Motors,Auto Fly,Takeoff (App Auto),9,4,TRUE,,Mavic Mini,TRUE,FALSE,,Smart,RC,TRUE,TRUE,FALSE,,,TRUE,,FALSE,FALSE,FALSE,FALSE,FALSE,FALSE,FALSE,FALSE,FALSE,FALSE,0,Follow Yaw,0.2,0,176.2,176.2,FALSE,FALSE,FALSE,FALSE,FALSE,FALSE,,TRUE,Normal,,100,1024,1024,1024,1024,1,FALSE,FALSE,FALSE,FALSE,FALSE,0,FALSE,FALSE,FALSE,FALSE,96,8.148,1969,2054,8.137,TRUE,4.069,4.069,,FALSE,FALSE,NA,80.4,80.4,80.4,0,15,0,0,5,2494.9,623.72,,Idle,0,20,FALSE,5,TRUE,8,Go Home,FALSE,FALSE,FALSE,FALSE,FALSE,FALSE,FALSE,FALSE,FALSE,FALSE,FALSE,FALSE,6.974738202,79.91478707,15.1,114.7,328,TRUE,1,1,FALSE,FALSE,FALSE,FALSE,,TRUE,FALSE,FALSE,Course Lock,246,303.7,16.4,Calm,23,,1.12.8,Mavic Mini,1SDCH7G0169R0K,1SFLH6Q0AB03DJ,1SRCH7F014TAHX,1U5X071EXP5ZJG,109.7,0.1,3.2,1.58174,2.23694,0,0,Mavic Mini,1SDCH7G0169R0K,1SFLH6Q0AB03DJ,1SRCH7F014TAHX,1U5X071EXP5ZJG,DJI Fly,,1.12.8,5436CD7B-0171-AE3B-E96F-A3CD34ECDEF5,1SDCH7G0169R0K,,,,,,,,,
2/13/2024,14:12.0,0m 0.7s,0.7,6.974697133,79.91478125,0,0,0.3,67,0.1,0,0,0,0,0,0,0,0,5.8,-0.7,173.9,173.9,,Starting Motors,Auto Fly,Takeoff (App Auto),9,4,TRUE,,Mavic Mini,TRUE,FALSE,,Smart,RC,TRUE,TRUE,FALSE,,,TRUE,,FALSE,FALSE,FALSE,FALSE,FALSE,FALSE,FALSE,FALSE,FALSE,FALSE,0,Follow Yaw,0.2,0,176.2,176.2,FALSE,FALSE,FALSE,FALSE,FALSE,FALSE,,TRUE,Normal,,100,1024,1024,1024,1024,1,FALSE,FALSE,FALSE,FALSE,FALSE,0,FALSE,FALSE,FALSE,FALSE,96,8.113,1969,2054,8.137,FALSE,4.059,4.054,0.005,FALSE,FALSE,NA,80.4,80.4,80.4,0,15,0,0,5,2494.9,623.72,,Idle,0,20,FALSE,5,TRUE,8,Go Home,FALSE,FALSE,FALSE,FALSE,FALSE,FALSE,FALSE,FALSE,FALSE,FALSE,FALSE,FALSE,6.974738202,79.91478707,15.1,114.7,328,TRUE,1,1,FALSE,FALSE,FALSE,FALSE,,TRUE,FALSE,FALSE,Course Lock,246,303.7,16.4,Calm,23,,1.12.8,Mavic Mini,1SDCH7G0169R0K,1SFLH6Q0AB03DJ,1SRCH7F014TAHX,1U5X071EXP5ZJG,109.7,0.1,3.2,1.58174,2.23694,0,0,Mavic Mini,1SDCH7G0169R0K,1SFLH6Q0AB03DJ,1SRCH7F014TAHX,1U5X071EXP5ZJG,DJI Fly,,1.12.8,5436CD7B-0171-AE3B-E96F-A3CD34ECDEF5,1SDCH7G0169R0K,,,,,,,,,
2/13/2024,14:12.1,0m 0.8s,0.8,6.97469719,79.91478119,0,0,0.3,67,0.2,0,0,0,0,0,0,0,0,5.8,-0.6,173.9,173.9,,Starting Motors,Auto Fly,Takeoff (App Auto),9,4,TRUE,,Mavic Mini,TRUE,FALSE,,Smart,RC,TRUE,TRUE,FALSE,,,TRUE,,FALSE,FALSE,FALSE,FALSE,FALSE,FALSE,FALSE,FALSE,FALSE,FALSE,0,Follow Yaw,0.2,0,176.2,176.2,FALSE,FALSE,FALSE,FALSE,FALSE,FALSE,,TRUE,Normal,,100,1024,1024,1024,1024,1,FALSE,FALSE,FALSE,FALSE,FALSE,0,FALSE,FALSE,FALSE,FALSE,96,8.113,1969,2054,8.137,FALSE,4.059,4.054,0.005,FALSE,FALSE,NA,80.4,80.4,80.4,0,15,0,0,5,2494.9,623.72,,Idle,0,20,FALSE,5,TRUE,8,Go Home,FALSE,FALSE,FALSE,FALSE,FALSE,FALSE,FALSE,FALSE,FALSE,FALSE,FALSE,FALSE,6.974738202,79.91478707,15.1,114.7,328,TRUE,1,1,FALSE,FALSE,FALSE,FALSE,,TRUE,FALSE,FALSE,Course Lock,246,303.7,16.4,Calm,23,,1.12.8,Mavic Mini,1SDCH7G0169R0K,1SFLH6Q0AB03DJ,1SRCH7F014TAHX,1U5X071EXP5ZJG,109.7,0.1,3.2,1.58174,2.23694,0,0,Mavic Mini,1SDCH7G0169R0K,1SFLH6Q0AB03DJ,1SRCH7F014TAHX,1U5X071EXP5ZJG,DJI Fly,,1.12.8,5436CD7B-0171-AE3B-E96F-A3CD34ECDEF5,1SDCH7G0169R0K,,,,,,,,,
2/13/2024,14:12.2,0m 0.9s,0.9,6.974697237,79.91478113,0,0,0.3,67,0.2,0,0,0,0,0,0,0,0,5.8,-0.6,173.9,173.9,,Starting Motors,Auto Fly,Takeoff (App Auto),9,4,TRUE,,Mavic Mini,TRUE,FALSE,,Smart,RC,TRUE,TRUE,FALSE,,,TRUE,,FALSE,FALSE,FALSE,FALSE,FALSE,FALSE,FALSE,FALSE,FALSE,FALSE,0,Follow Yaw,0.2,0,176.2,176.2,FALSE,FALSE,FALSE,FALSE,FALSE,FALSE,,TRUE,Normal,,100,1024,1024,1024,1024,1,FALSE,FALSE,FALSE,FALSE,FALSE,0,FALSE,FALSE,FALSE,FALSE,96,8.113,1969,2054,8.137,FALSE,4.059,4.054,0.005,FALSE,FALSE,NA,80.4,80.4,80.4,0,15,0,0,5,2494.9,623.72,,Idle,0,20,FALSE,5,TRUE,8,Go Home,FALSE,FALSE,FALSE,FALSE,FALSE,FALSE,FALSE,FALSE,FALSE,FALSE,FALSE,FALSE,6.974738202,79.91478707,15,114.7,328,TRUE,1,1,FALSE,FALSE,FALSE,FALSE,,TRUE,FALSE,FALSE,Course Lock,246,303.7,16.4,Calm,23,,1.12.8,Mavic Mini,1SDCH7G0169R0K,1SFLH6Q0AB03DJ,1SRCH7F014TAHX,1U5X071EXP5ZJG,109.7,0.1,3.2,1.58174,2.23694,0,0,Mavic Mini,1SDCH7G0169R0K,1SFLH6Q0AB03DJ,1SRCH7F014TAHX,1U5X071EXP5ZJG,DJI Fly,,1.12.8,5436CD7B-0171-AE3B-E96F-A3CD34ECDEF5,1SDCH7G0169R0K,,,,,,,,,
2/13/2024,14:12.3,0m 1.0s,1,6.974697257,79.91478114,0,0,0.3,67,0.2,0,0,0,0,0,0,0,0,5.8,-0.6,173.9,173.9,,Starting Motors,Auto Fly,Takeoff (App Auto),9,4,TRUE,,Mavic Mini,TRUE,FALSE,,Smart,RC,TRUE,TRUE,FALSE,,,TRUE,,FALSE,FALSE,FALSE,FALSE,FALSE,FALSE,FALSE,FALSE,FALSE,FALSE,0,Follow Yaw,0.2,0,176.2,176.2,FALSE,FALSE,FALSE,FALSE,FALSE,FALSE,,TRUE,Normal,,100,1024,1024,1024,1024,1,FALSE,FALSE,FALSE,FALSE,FALSE,0,FALSE,FALSE,FALSE,FALSE,96,8.113,1969,2054,8.137,FALSE,4.059,4.054,0.005,FALSE,FALSE,NA,80.4,80.4,80.4,0,15,0,0,5,2494.9,623.72,,Idle,0,20,FALSE,5,TRUE,8,Go Home,FALSE,FALSE,FALSE,FALSE,FALSE,FALSE,FALSE,FALSE,FALSE,FALSE,FALSE,FALSE,6.974738202,79.91478707,15,114.7,328,TRUE,1,1,FALSE,FALSE,FALSE,FALSE,,TRUE,FALSE,FALSE,Course Lock,246,303.7,16.4,Calm,23,,1.12.8,Mavic Mini,1SDCH7G0169R0K,1SFLH6Q0AB03DJ,1SRCH7F014TAHX,1U5X071EXP5ZJG,109.7,0.1,3.2,1.58174,2.23694,0,0,Mavic Mini,1SDCH7G0169R0K,1SFLH6Q0AB03DJ,1SRCH7F014TAHX,1U5X071EXP5ZJG,DJI Fly,,1.12.8,5436CD7B-0171-AE3B-E96F-A3CD34ECDEF5,1SDCH7G0169R0K,,,,,,,,,
2/13/2024,14:12.5,0m 1.1s,1.1,6.974697257,79.91478108,0,0,0.3,67,0.2,0,0,0,0,0,0,0,0,5.8,-0.6,173.9,173.9,,Auto Takeoff,Auto Fly,Takeoff (App Auto),9,4,TRUE,,Mavic Mini,TRUE,FALSE,,Smart,RC,TRUE,TRUE,FALSE,,,TRUE,,FALSE,FALSE,FALSE,FALSE,FALSE,FALSE,FALSE,FALSE,FALSE,FALSE,0,Follow Yaw,0.2,0,176.2,176.2,FALSE,FALSE,FALSE,FALSE,FALSE,FALSE,,TRUE,Normal,,100,1024,1024,1024,1024,1,FALSE,FALSE,FALSE,FALSE,FALSE,0,FALSE,FALSE,FALSE,FALSE,96,8.113,1969,2054,8.137,FALSE,4.059,4.054,0.005,FALSE,FALSE,NA,80.4,80.4,80.4,0,15,0,0,5,2494.9,623.72,,Idle,0,20,FALSE,5,TRUE,8,Go Home,FALSE,FALSE,FALSE,FALSE,FALSE,FALSE,FALSE,FALSE,FALSE,FALSE,FALSE,FALSE,6.974738202,79.91478707,15,114.7,328,TRUE,1,1,FALSE,FALSE,FALSE,FALSE,,TRUE,FALSE,FALSE,Course Lock,246,303.7,16.4,Calm,23,,1.12.8,Mavic Mini,1SDCH7G0169R0K,1SFLH6Q0AB03DJ,1SRCH7F014TAHX,1U5X071EXP5ZJG,109.7,0.1,3.2,1.58174,2.23694,0,0,Mavic Mini,1SDCH7G0169R0K,1SFLH6Q0AB03DJ,1SRCH7F014TAHX,1U5X071EXP5ZJG,DJI Fly,,1.12.8,5436CD7B-0171-AE3B-E96F-A3CD34ECDEF5,1SDCH7G0169R0K,,,,,,,,Flight mode changed to Auto Takeoff.,
2/13/2024,14:12.5,0m 1.2s,1.2,6.97469724,79.91478099,0,0,0.3,67,0.2,0,0,0,0,0,0,0,0,5.7,-0.7,173.9,173.9,,Auto Takeoff,Auto Fly,Takeoff (App Auto),9,4,TRUE,,Mavic Mini,TRUE,FALSE,,Smart,RC,TRUE,TRUE,FALSE,,,TRUE,,FALSE,FALSE,FALSE,FALSE,FALSE,FALSE,FALSE,FALSE,FALSE,FALSE,0,Follow Yaw,0.2,0,176.2,176.2,FALSE,FALSE,FALSE,FALSE,FALSE,FALSE,,TRUE,Normal,,100,1024,1024,1024,1024,1,FALSE,FALSE,FALSE,FALSE,FALSE,0,FALSE,FALSE,FALSE,FALSE,96,8.113,1969,2054,8.137,FALSE,4.059,4.054,0.005,FALSE,FALSE,NA,80.4,80.4,80.4,0,15,0,0,5,2494.9,623.72,,Idle,0,20,FALSE,5,TRUE,8,Go Home,FALSE,FALSE,FALSE,FALSE,FALSE,FALSE,FALSE,FALSE,FALSE,FALSE,FALSE,FALSE,6.974738202,79.91478707,15.1,114.7,328,TRUE,1,1,FALSE,FALSE,FALSE,FALSE,,TRUE,FALSE,FALSE,Course Lock,246,303.7,16.4,Calm,23,,1.12.8,Mavic Mini,1SDCH7G0169R0K,1SFLH6Q0AB03DJ,1SRCH7F014TAHX,1U5X071EXP5ZJG,109.7,0.1,3.2,1.58174,2.23694,0,0,Mavic Mini,1SDCH7G0169R0K,1SFLH6Q0AB03DJ,1SRCH7F014TAHX,1U5X071EXP5ZJG,DJI Fly,,1.12.8,5436CD7B-0171-AE3B-E96F-A3CD34ECDEF5,1SDCH7G0169R0K,,,,,,,,,
2/13/2024,14:12.6,0m 1.3s,1.3,6.97469723,79.91478091,0,0,0.3,67,0.3,0,0,0,0,0,0,0,0,5.4,-0.8,173.9,173.9,,Auto Takeoff,Auto Fly,Takeoff (App Auto),9,4,TRUE,,Mavic Mini,TRUE,FALSE,,Smart,RC,TRUE,TRUE,FALSE,,,TRUE,,FALSE,FALSE,FALSE,FALSE,FALSE,FALSE,FALSE,FALSE,FALSE,FALSE,0,Follow Yaw,0.2,0,176.2,176.2,FALSE,FALSE,FALSE,FALSE,FALSE,FALSE,,TRUE,Normal,,100,1024,1024,1024,1024,1,FALSE,FALSE,FALSE,FALSE,FALSE,0,FALSE,FALSE,FALSE,FALSE,96,8.113,1969,2054,8.115,FALSE,4.059,4.054,0.005,FALSE,FALSE,NA,80.4,80.4,80.4,0,15,0,0,5,2507.4,626.85,,Idle,0,20,FALSE,5,TRUE,8,Go Home,FALSE,FALSE,FALSE,FALSE,FALSE,FALSE,FALSE,FALSE,FALSE,FALSE,FALSE,FALSE,6.974738202,79.91478707,15.1,114.7,328,TRUE,1,1,FALSE,FALSE,FALSE,FALSE,,TRUE,FALSE,FALSE,Course Lock,246,303.7,16.4,Calm,23,,1.12.8,Mavic Mini,1SDCH7G0169R0K,1SFLH6Q0AB03DJ,1SRCH7F014TAHX,1U5X071EXP5ZJG,109.7,0.1,3.2,1.58174,2.23694,0,0,Mavic Mini,1SDCH7G0169R0K,1SFLH6Q0AB03DJ,1SRCH7F014TAHX,1U5X071EXP5ZJG,DJI Fly,,1.12.8,5436CD7B-0171-AE3B-E96F-A3CD34ECDEF5,1SDCH7G0169R0K,,,,,,,,,
2/13/2024,14:12.8,0m 1.4s,1.4,6.97469725,79.9147808,0,0,0.3,67,0.3,0,0,0,0,0,0,0,0,4.9,-0.8,174,174,,Auto Takeoff,Auto Fly,Takeoff (App Auto),9,4,TRUE,,Mavic Mini,TRUE,FALSE,,Smart,RC,TRUE,TRUE,FALSE,,,TRUE,,FALSE,FALSE,FALSE,FALSE,FALSE,FALSE,FALSE,FALSE,FALSE,FALSE,0,Follow Yaw,0.2,0,176.2,176.2,FALSE,FALSE,FALSE,FALSE,FALSE,FALSE,,TRUE,Normal,,100,1024,1024,1024,1024,1,FALSE,FALSE,FALSE,FALSE,FALSE,0,FALSE,FALSE,FALSE,FALSE,96,8.113,1969,2054,8.115,FALSE,4.059,4.054,0.005,FALSE,FALSE,NA,80.4,80.4,80.4,0,15,0,0,5,2507.4,626.85,,Idle,0,20,FALSE,5,TRUE,8,Go Home,FALSE,FALSE,FALSE,FALSE,FALSE,FALSE,FALSE,FALSE,FALSE,FALSE,FALSE,FALSE,6.974738202,79.91478707,15.1,114.7,328,TRUE,1,1,FALSE,FALSE,FALSE,FALSE,,TRUE,FALSE,FALSE,Course Lock,246,303.7,16.4,Calm,23,,1.12.8,Mavic Mini,1SDCH7G0169R0K,1SFLH6Q0AB03DJ,1SRCH7F014TAHX,1U5X071EXP5ZJG,109.7,0.1,3.2,1.58174,2.23694,0,0,Mavic Mini,1SDCH7G0169R0K,1SFLH6Q0AB03DJ,1SRCH7F014TAHX,1U5X071EXP5ZJG,DJI Fly,,1.12.8,5436CD7B-0171-AE3B-E96F-A3CD34ECDEF5,1SDCH7G0169R0K,,,,,,,,,
2/13/2024,14:12.9,0m 1.5s,1.5,6.974697281,79.91478075,0,0,0.3,67,0.3,0,0,0,0,0,0,0,0,3.8,-0.7,174.1,174.1,,Auto Takeoff,Auto Fly,Takeoff (App Auto),9,4,TRUE,,Mavic Mini,TRUE,FALSE,,Smart,RC,TRUE,TRUE,FALSE,,,TRUE,,FALSE,FALSE,FALSE,FALSE,FALSE,FALSE,FALSE,FALSE,FALSE,FALSE,0,Follow Yaw,0.2,0,176.2,176.2,FALSE,FALSE,FALSE,FALSE,FALSE,FALSE,,TRUE,Normal,,100,1024,1024,1024,1024,1,FALSE,FALSE,FALSE,FALSE,FALSE,0,FALSE,FALSE,FALSE,FALSE,96,8.113,1969,2054,8.115,FALSE,4.059,4.054,0.005,FALSE,FALSE,NA,80.4,80.4,80.4,0,15,0,0,5,2507.4,626.85,,Idle,0,20,FALSE,5,TRUE,8,Go Home,FALSE,FALSE,FALSE,FALSE,FALSE,FALSE,FALSE,FALSE,FALSE,FALSE,FALSE,FALSE,6.974738202,79.91478707,15.1,114.7,328,TRUE,1,1,FALSE,FALSE,FALSE,FALSE,,TRUE,FALSE,FALSE,Course Lock,246,303.7,16.4,Calm,23,,1.12.8,Mavic Mini,1SDCH7G0169R0K,1SFLH6Q0AB03DJ,1SRCH7F014TAHX,1U5X071EXP5ZJG,109.7,0.1,3.2,1.58174,2.23694,0,0,Mavic Mini,1SDCH7G0169R0K,1SFLH6Q0AB03DJ,1SRCH7F014TAHX,1U5X071EXP5ZJG,DJI Fly,,1.12.8,5436CD7B-0171-AE3B-E96F-A3CD34ECDEF5,1SDCH7G0169R0K,,,,,,,,,
2/13/2024,14:13.0,0m 1.6s,1.6,6.974697326,79.9147807,0,0,0.3,67,0.4,0,0,0,0,0,0,0,0,1.9,-0.6,174.2,174.2,,Auto Takeoff,Auto Fly,Takeoff (App Auto),9,4,TRUE,,Mavic Mini,TRUE,FALSE,,Smart,RC,TRUE,TRUE,FALSE,,,TRUE,,FALSE,FALSE,FALSE,FALSE,FALSE,FALSE,FALSE,FALSE,FALSE,FALSE,0,Follow Yaw,0.2,0,176.2,176.2,FALSE,FALSE,FALSE,FALSE,FALSE,FALSE,,TRUE,Normal,,100,1024,1024,1024,1024,1,FALSE,FALSE,FALSE,FALSE,FALSE,0,FALSE,FALSE,FALSE,FALSE,96,8.113,1969,2054,8.115,FALSE,4.059,4.054,0.005,FALSE,FALSE,NA,80.4,80.4,80.4,0,15,0,0,5,2507.4,626.85,,Idle,0,20,FALSE,5,TRUE,8,Go Home,FALSE,FALSE,FALSE,FALSE,FALSE,FALSE,FALSE,FALSE,FALSE,FALSE,FALSE,FALSE,6.974738202,79.91478707,15,114.7,328,TRUE,1,1,FALSE,FALSE,FALSE,FALSE,,TRUE,FALSE,FALSE,Course Lock,246,303.7,16.4,Calm,23,,1.12.8,Mavic Mini,1SDCH7G0169R0K,1SFLH6Q0AB03DJ,1SRCH7F014TAHX,1U5X071EXP5ZJG,109.7,0.1,3.2,1.58174,2.23694,0,0,Mavic Mini,1SDCH7G0169R0K,1SFLH6Q0AB03DJ,1SRCH7F014TAHX,1U5X071EXP5ZJG,DJI Fly,,1.12.8,5436CD7B-0171-AE3B-E96F-A3CD34ECDEF5,1SDCH7G0169R0K,,,,,,,,,
2/13/2024,14:13.1,0m 1.7s,1.7,6.974697351,79.91478066,0,0,0.3,67,0.4,0,0,0,0,0,0,0,0,0,-1.2,173.9,173.9,,Auto Takeoff,Auto Fly,Takeoff (App Auto),9,4,TRUE,,Mavic Mini,TRUE,FALSE,,Smart,RC,TRUE,TRUE,FALSE,,,TRUE,,FALSE,FALSE,FALSE,FALSE,FALSE,FALSE,FALSE,FALSE,FALSE,FALSE,0,Follow Yaw,0.2,0,176.2,176.2,FALSE,FALSE,FALSE,FALSE,FALSE,FALSE,,TRUE,Normal,,100,1024,1024,1024,1024,1,FALSE,FALSE,FALSE,FALSE,FALSE,0,FALSE,FALSE,FALSE,FALSE,96,8.113,1969,2054,8.115,FALSE,4.059,4.054,0.005,FALSE,FALSE,NA,80.4,80.4,80.4,0,15,0,0,5,2507.4,626.85,,Idle,0,20,FALSE,5,TRUE,8,Go Home,FALSE,FALSE,FALSE,FALSE,FALSE,FALSE,FALSE,FALSE,FALSE,FALSE,FALSE,FALSE,6.974738202,79.91478707,15,114.7,328,TRUE,1,1,FALSE,FALSE,FALSE,FALSE,,TRUE,FALSE,FALSE,Course Lock,246,303.7,16.4,Calm,23,,1.12.8,Mavic Mini,1SDCH7G0169R0K,1SFLH6Q0AB03DJ,1SRCH7F014TAHX,1U5X071EXP5ZJG,109.7,0.1,3.2,1.58174,2.23694,0,0,Mavic Mini,1SDCH7G0169R0K,1SFLH6Q0AB03DJ,1SRCH7F014TAHX,1U5X071EXP5ZJG,DJI Fly,,1.12.8,5436CD7B-0171-AE3B-E96F-A3CD34ECDEF5,1SDCH7G0169R0K,,,,,,,,,
2/13/2024,14:13.2,0m 1.8s,1.8,6.974697344,79.91478068,0,0,0.3,67,0.4,0,0,0,0,0,0,-0.223694,0,-0.6,-1.8,173.4,173.4,,Auto Takeoff,Auto Fly,Takeoff (App Auto),9,4,TRUE,,Mavic Mini,TRUE,FALSE,,Smart,RC,FALSE,TRUE,FALSE,,,TRUE,,FALSE,FALSE,FALSE,FALSE,FALSE,FALSE,FALSE,FALSE,FALSE,FALSE,0,Follow Yaw,0.2,0,176.2,176.2,FALSE,FALSE,FALSE,FALSE,FALSE,FALSE,,TRUE,Normal,,100,1024,1024,1024,1024,1,FALSE,FALSE,FALSE,FALSE,FALSE,0,FALSE,FALSE,FALSE,FALSE,96,7.984,1969,2054,8.115,FALSE,3.996,3.988,0.008,FALSE,FALSE,NA,80.4,80.4,80.4,0,15,0,0,5,2507.4,626.85,,Idle,0,20,FALSE,5,TRUE,8,Go Home,FALSE,FALSE,FALSE,FALSE,FALSE,FALSE,FALSE,FALSE,FALSE,FALSE,FALSE,FALSE,6.974738202,79.91478707,15,114.7,328,TRUE,1,1,FALSE,FALSE,FALSE,FALSE,,TRUE,FALSE,FALSE,Course Lock,246,303.7,16.4,Calm,23,,1.12.8,Mavic Mini,1SDCH7G0169R0K,1SFLH6Q0AB03DJ,1SRCH7F014TAHX,1U5X071EXP5ZJG,109.7,0.1,3.2,1.58174,2.23694,0,0,Mavic Mini,1SDCH7G0169R0K,1SFLH6Q0AB03DJ,1SRCH7F014TAHX,1U5X071EXP5ZJG,DJI Fly,,1.12.8,5436CD7B-0171-AE3B-E96F-A3CD34ECDEF5,1SDCH7G0169R0K,,,,,,,,,
2/13/2024,14:13.2,0m 1.9s,1.9,6.974697267,79.91478067,0,0,0.3,67,0.4,0.223694,0.223694,-0.223694,0,0,0,-0.671082,0,0.5,-1.3,173.2,173.2,188.7,Auto Takeoff,Auto Fly,Takeoff (App Auto),9,4,TRUE,,Mavic Mini,TRUE,FALSE,,Smart,RC,FALSE,TRUE,FALSE,,,TRUE,,FALSE,FALSE,FALSE,FALSE,FALSE,FALSE,FALSE,FALSE,FALSE,FALSE,0,Follow Yaw,0.2,0,176.2,176.2,FALSE,FALSE,FALSE,FALSE,FALSE,FALSE,,TRUE,Normal,,100,1024,1024,1024,1024,1,FALSE,FALSE,FALSE,FALSE,FALSE,0,FALSE,FALSE,FALSE,FALSE,96,7.984,1969,2054,8.115,FALSE,3.996,3.988,0.008,FALSE,FALSE,NA,80.4,80.4,80.4,0,15,0,0,5,2507.4,626.85,,Idle,0,20,FALSE,5,TRUE,8,Go Home,FALSE,FALSE,FALSE,FALSE,FALSE,FALSE,FALSE,FALSE,FALSE,FALSE,FALSE,FALSE,6.974738202,79.91478707,15.1,114.7,328,TRUE,1,1,FALSE,FALSE,FALSE,FALSE,,TRUE,FALSE,FALSE,Course Lock,246,303.7,16.4,Calm,23,,1.12.8,Mavic Mini,1SDCH7G0169R0K,1SFLH6Q0AB03DJ,1SRCH7F014TAHX,1U5X071EXP5ZJG,109.7,0.1,3.2,1.58174,2.23694,0,0,Mavic Mini,1SDCH7G0169R0K,1SFLH6Q0AB03DJ,1SRCH7F014TAHX,1U5X071EXP5ZJG,DJI Fly,,1.12.8,5436CD7B-0171-AE3B-E96F-A3CD34ECDEF5,1SDCH7G0169R0K,,,,,,,,,
2/13/2024,14:13.4,0m 2.0s,2,6.974697148,79.91478066,0,0,0.6,67,0.5,0.223694,0.223694,-0.223694,0,0,0,-0.894776,0,2,-0.8,173.1,173.1,182.7,Auto Takeoff,Auto Fly,Takeoff (App Auto),9,4,TRUE,,Mavic Mini,TRUE,FALSE,,Smart,RC,FALSE,TRUE,FALSE,,,TRUE,,FALSE,FALSE,FALSE,FALSE,FALSE,FALSE,FALSE,FALSE,FALSE,FALSE,0,Follow Yaw,0.2,0,176.2,176.2,FALSE,FALSE,FALSE,FALSE,FALSE,FALSE,,TRUE,Normal,,100,1024,1024,1024,1024,1,FALSE,FALSE,FALSE,FALSE,FALSE,0,FALSE,FALSE,FALSE,FALSE,96,7.984,1969,2054,8.115,FALSE,3.996,3.988,0.008,FALSE,FALSE,NA,80.4,80.4,80.4,0,15,0,0,5,2507.4,626.85,,Idle,0,20,FALSE,5,TRUE,8,Go Home,FALSE,FALSE,FALSE,FALSE,FALSE,FALSE,FALSE,FALSE,TRUE,FALSE,FALSE,FALSE,6.974738202,79.91478707,15.1,114.7,328,TRUE,1,1,FALSE,FALSE,FALSE,FALSE,,TRUE,FALSE,FALSE,Course Lock,246,303.7,16.4,Calm,23,,1.12.8,Mavic Mini,1SDCH7G0169R0K,1SFLH6Q0AB03DJ,1SRCH7F014TAHX,1U5X071EXP5ZJG,109.7,0.1,3.2,1.58174,2.23694,0,0,Mavic Mini,1SDCH7G0169R0K,1SFLH6Q0AB03DJ,1SRCH7F014TAHX,1U5X071EXP5ZJG,DJI Fly,,1.12.8,5436CD7B-0171-AE3B-E96F-A3CD34ECDEF5,1SDCH7G0169R0K,,,,,6.974677057,79.91439194,10,,
2/13/2024,14:13.4,0m 2.1s,2.1,6.974697041,79.91478067,0.3,0.3,0.6,67,0.5,0.223694,0.223694,-0.223694,0,0,0,-1.11847,0,2.1,-0.2,173.1,173.1,177.1,Auto Takeoff,Auto Fly,Takeoff (App Auto),9,4,TRUE,,Mavic Mini,TRUE,FALSE,,Smart,RC,FALSE,TRUE,FALSE,,,TRUE,,FALSE,FALSE,FALSE,FALSE,FALSE,FALSE,FALSE,FALSE,FALSE,FALSE,0,Follow Yaw,0.2,0,176.2,176.2,FALSE,FALSE,FALSE,FALSE,FALSE,FALSE,,TRUE,Normal,,100,1024,1024,1024,1024,1,FALSE,FALSE,FALSE,FALSE,FALSE,0,FALSE,FALSE,FALSE,FALSE,96,7.984,1969,2054,8.115,FALSE,3.996,3.988,0.008,FALSE,FALSE,NA,80.4,80.4,80.4,0,15,0,0,5,2507.4,626.85,,Idle,0,20,FALSE,5,TRUE,8,Go Home,FALSE,FALSE,FALSE,FALSE,FALSE,FALSE,FALSE,FALSE,TRUE,FALSE,FALSE,FALSE,6.974738202,79.91478707,15.1,114.7,328,TRUE,1,1,FALSE,FALSE,FALSE,FALSE,,TRUE,FALSE,FALSE,Course Lock,246,303.7,16.4,Calm,23,,1.12.8,Mavic Mini,1SDCH7G0169R0K,1SFLH6Q0AB03DJ,1SRCH7F014TAHX,1U5X071EXP5ZJG,109.7,0.1,3.2,1.58174,2.23694,0,0,Mavic Mini,1SDCH7G0169R0K,1SFLH6Q0AB03DJ,1SRCH7F014TAHX,1U5X071EXP5ZJG,DJI Fly,,1.12.8,5436CD7B-0171-AE3B-E96F-A3CD34ECDEF5,1SDCH7G0169R0K,,,,,6.974677057,79.91439194,10,,
2/13/2024,14:13.5,0m 2.2s,2.2,6.97469699,79.91478071,0.3,0.3,0.6,67,0.5,0.223694,0.223694,-0.223694,0,0,0,-1.342164,0,2.3,-0.3,173.2,173.2,146.1,Auto Takeoff,Auto Fly,Takeoff (App Auto),9,4,TRUE,,Mavic Mini,TRUE,FALSE,,Smart,RC,FALSE,TRUE,FALSE,,,TRUE,,FALSE,FALSE,FALSE,FALSE,FALSE,FALSE,FALSE,FALSE,FALSE,FALSE,0,Follow Yaw,0.2,0,176.2,176.2,FALSE,FALSE,FALSE,FALSE,FALSE,FALSE,,TRUE,Normal,,100,1024,1024,1024,1024,1,FALSE,FALSE,FALSE,FALSE,FALSE,0,FALSE,FALSE,FALSE,FALSE,96,7.984,1969,2054,8.115,FALSE,3.996,3.988,0.008,FALSE,FALSE,NA,80.4,80.4,80.4,0,15,0,0,5,2507.4,626.85,,Idle,0,20,FALSE,5,TRUE,8,Go Home,FALSE,FALSE,FALSE,FALSE,FALSE,FALSE,FALSE,FALSE,TRUE,FALSE,FALSE,FALSE,6.974738202,79.91478707,15.2,114.7,328,TRUE,1,1,FALSE,FALSE,FALSE,FALSE,,TRUE,FALSE,FALSE,Course Lock,246,303.7,16.4,Calm,23,,1.12.8,Mavic Mini,1SDCH7G0169R0K,1SFLH6Q0AB03DJ,1SRCH7F014TAHX,1U5X071EXP5ZJG,109.7,0.1,3.2,1.58174,2.23694,0,0,Mavic Mini,1SDCH7G0169R0K,1SFLH6Q0AB03DJ,1SRCH7F014TAHX,1U5X071EXP5ZJG,DJI Fly,,1.12.8,5436CD7B-0171-AE3B-E96F-A3CD34ECDEF5,1SDCH7G0169R0K,,,,,6.974677057,79.91439194,10,,
2/13/2024,14:13.6,0m 2.3s,2.3,6.974696987,79.91478084,0.6,0.6,0.9,67,0.6,0.223694,0.223694,-0.223694,0,0,0,-1.565858,0,2.2,-0.4,173.1,173.1,91.7,Auto Takeoff,Auto Fly,Takeoff (App Auto),9,4,TRUE,,Mavic Mini,TRUE,FALSE,,Smart,RC,FALSE,TRUE,FALSE,,,TRUE,,FALSE,FALSE,FALSE,FALSE,FALSE,FALSE,FALSE,FALSE,FALSE,FALSE,0,Follow Yaw,0.2,0,176.1,176.1,FALSE,FALSE,FALSE,FALSE,FALSE,FALSE,,TRUE,Normal,,100,1024,1024,1024,1024,1,FALSE,FALSE,FALSE,FALSE,FALSE,0,FALSE,FALSE,FALSE,FALSE,96,7.984,1969,2054,8.022,FALSE,3.996,3.988,0.008,FALSE,FALSE,NA,80.4,80.4,80.4,0,0,0,0,5,2656.1,664.02,,Idle,0,20,FALSE,5,TRUE,8,Go Home,FALSE,FALSE,FALSE,FALSE,FALSE,FALSE,FALSE,FALSE,TRUE,FALSE,FALSE,FALSE,6.974697335,79.91478068,0.1,114.7,328,TRUE,1,1,FALSE,FALSE,FALSE,FALSE,,TRUE,FALSE,FALSE,Course Lock,246,303.7,16.4,Calm,23,,1.12.8,Mavic Mini,1SDCH7G0169R0K,1SFLH6Q0AB03DJ,1SRCH7F014TAHX,1U5X071EXP5ZJG,109.7,0.1,3.2,1.58174,2.23694,0,0,Mavic Mini,1SDCH7G0169R0K,1SFLH6Q0AB03DJ,1SRCH7F014TAHX,1U5X071EXP5ZJG,DJI Fly,,1.12.8,5436CD7B-0171-AE3B-E96F-A3CD34ECDEF5,1SDCH7G0169R0K,,,,,6.974677057,79.91439194,10,Home Point Updated.,
2/13/2024,14:13.7,0m 2.4s,2.4,6.974696974,79.91478086,0.9,0.9,1.3,68,0.6,0.223694,0.223694,-0.223694,0,0,0,-1.789552,0,2.5,-0.9,173.2,173.2,132.7,Auto Takeoff,Auto Fly,Takeoff (App Auto),9,4,TRUE,,Mavic Mini,TRUE,FALSE,,Smart,RC,FALSE,TRUE,FALSE,,,TRUE,,FALSE,FALSE,FALSE,FALSE,FALSE,FALSE,FALSE,FALSE,FALSE,FALSE,0,Follow Yaw,0.2,0,176.1,176.1,FALSE,FALSE,FALSE,FALSE,FALSE,FALSE,,TRUE,Normal,,100,1024,1024,1024,1024,1,FALSE,FALSE,FALSE,FALSE,FALSE,0,FALSE,FALSE,FALSE,FALSE,96,7.984,1969,2054,8.022,FALSE,3.996,3.988,0.008,FALSE,FALSE,NA,80.4,80.4,80.4,0,0,0,0,5,2656.1,664.02,,Idle,0,20,FALSE,5,TRUE,8,Go Home,FALSE,FALSE,FALSE,FALSE,FALSE,FALSE,FALSE,FALSE,TRUE,FALSE,FALSE,FALSE,6.974697335,79.91478068,0.1,114.7,328,TRUE,1,1,FALSE,FALSE,FALSE,FALSE,,TRUE,FALSE,FALSE,Course Lock,246,303.7,16.4,Calm,23,,1.12.8,Mavic Mini,1SDCH7G0169R0K,1SFLH6Q0AB03DJ,1SRCH7F014TAHX,1U5X071EXP5ZJG,109.7,0.1,3.2,1.58174,2.23694,0,0,Mavic Mini,1SDCH7G0169R0K,1SFLH6Q0AB03DJ,1SRCH7F014TAHX,1U5X071EXP5ZJG,DJI Fly,,1.12.8,5436CD7B-0171-AE3B-E96F-A3CD34ECDEF5,1SDCH7G0169R0K,,,,,6.974677057,79.91439194,10,Home Point updated. RTH altitude adjusted to 75 m!V (Code: 120852).,
2/13/2024,14:13.8,0m 2.5s,2.5,6.974696975,79.91478088,0.9,0.9,1.3,68,0.6,0,0.223694,0,0,0,0,-2.013246,0,2.3,-0.8,173.2,173.2,,Auto Takeoff,Auto Fly,Takeoff (App Auto),9,4,TRUE,,Mavic Mini,TRUE,FALSE,,Smart,RC,FALSE,TRUE,FALSE,,,TRUE,,FALSE,FALSE,FALSE,FALSE,FALSE,FALSE,FALSE,FALSE,FALSE,FALSE,0,Follow Yaw,0.2,0,176.1,176.1,FALSE,FALSE,FALSE,FALSE,FALSE,FALSE,,TRUE,Normal,,100,1024,1024,1024,1024,1,FALSE,FALSE,FALSE,FALSE,FALSE,0,FALSE,FALSE,FALSE,FALSE,96,7.984,1969,2054,8.022,FALSE,3.996,3.988,0.008,FALSE,FALSE,NA,80.4,80.4,80.4,0,0,0,0,5,2656.1,664.02,,Idle,0,20,FALSE,5,TRUE,8,Go Home,FALSE,FALSE,FALSE,FALSE,FALSE,FALSE,FALSE,FALSE,TRUE,FALSE,FALSE,FALSE,6.974697335,79.91478068,0.1,114.7,328,TRUE,1,1,FALSE,FALSE,FALSE,FALSE,,TRUE,FALSE,FALSE,Course Lock,246,303.7,16.4,Calm,23,,1.12.8,Mavic Mini,1SDCH7G0169R0K,1SFLH6Q0AB03DJ,1SRCH7F014TAHX,1U5X071EXP5ZJG,109.7,0.1,3.2,1.58174,2.23694,0,0,Mavic Mini,1SDCH7G0169R0K,1SFLH6Q0AB03DJ,1SRCH7F014TAHX,1U5X071EXP5ZJG,DJI Fly,,1.12.8,5436CD7B-0171-AE3B-E96F-A3CD34ECDEF5,1SDCH7G0169R0K,,,,,6.974677057,79.91439194,10,,
2/13/2024,14:13.9,0m 2.6s,2.6,6.974696989,79.91478086,1.3,1.3,1.6,68,0.6,0,0.223694,0,0,0,0,-2.013246,0,2,-1.1,173.2,173.2,,Auto Takeoff,Auto Fly,Takeoff (App Auto),9,4,TRUE,,Mavic Mini,TRUE,FALSE,,Smart,RC,FALSE,TRUE,FALSE,,,TRUE,,FALSE,FALSE,FALSE,FALSE,FALSE,FALSE,FALSE,FALSE,FALSE,FALSE,0,Follow Yaw,0.2,0,176.1,176.1,FALSE,FALSE,FALSE,FALSE,FALSE,FALSE,,TRUE,Normal,,100,1024,1024,1024,1024,1,FALSE,FALSE,FALSE,FALSE,FALSE,0,FALSE,FALSE,FALSE,FALSE,96,7.984,1969,2054,8.022,FALSE,3.996,3.988,0.008,FALSE,FALSE,NA,80.4,80.4,80.4,0,0,0,0,5,2656.1,664.02,,Idle,0,20,FALSE,5,TRUE,8,Go Home,FALSE,FALSE,FALSE,FALSE,FALSE,FALSE,FALSE,FALSE,TRUE,FALSE,FALSE,FALSE,6.974697335,79.91478068,0.1,114.7,328,TRUE,1,1,FALSE,FALSE,FALSE,FALSE,,TRUE,FALSE,FALSE,Course Lock,246,303.7,16.4,Calm,23,,1.12.8,Mavic Mini,1SDCH7G0169R0K,1SFLH6Q0AB03DJ,1SRCH7F014TAHX,1U5X071EXP5ZJG,109.7,0.1,3.2,1.58174,2.23694,0,0,Mavic Mini,1SDCH7G0169R0K,1SFLH6Q0AB03DJ,1SRCH7F014TAHX,1U5X071EXP5ZJG,DJI Fly,,1.12.8,5436CD7B-0171-AE3B-E96F-A3CD34ECDEF5,1SDCH7G0169R0K,,,,,6.974677057,79.91439194,10,,
2/13/2024,14:14.0,0m 2.7s,2.7,6.974697136,79.91478089,1.6,1.6,1.9,68,0.6,0,0.223694,0,0,0,0,-2.23694,0,1.7,-0.8,173.2,173.2,,Auto Takeoff,Auto Fly,Takeoff (App Auto),9,4,TRUE,,Mavic Mini,TRUE,FALSE,,Smart,RC,FALSE,TRUE,FALSE,,,TRUE,,FALSE,FALSE,FALSE,FALSE,FALSE,FALSE,FALSE,FALSE,FALSE,FALSE,0,Follow Yaw,0.2,0,176.1,176.1,FALSE,FALSE,FALSE,FALSE,FALSE,FALSE,,TRUE,Normal,,100,1024,1024,1024,1024,1,FALSE,FALSE,FALSE,FALSE,FALSE,0,FALSE,FALSE,FALSE,FALSE,96,7.984,1969,2054,8.022,FALSE,3.996,3.988,0.008,FALSE,FALSE,NA,80.4,80.4,80.4,0,0,0,0,5,2656.1,664.02,,Idle,0,20,FALSE,5,TRUE,8,Go Home,FALSE,FALSE,FALSE,FALSE,FALSE,FALSE,FALSE,FALSE,TRUE,FALSE,FALSE,FALSE,6.974697335,79.91478068,0.1,114.7,328,TRUE,1,1,FALSE,FALSE,FALSE,FALSE,,TRUE,FALSE,FALSE,Course Lock,246,303.7,16.4,Calm,23,,1.12.8,Mavic Mini,1SDCH7G0169R0K,1SFLH6Q0AB03DJ,1SRCH7F014TAHX,1U5X071EXP5ZJG,109.7,0.1,3.2,1.58174,2.23694,0,0,Mavic Mini,1SDCH7G0169R0K,1SFLH6Q0AB03DJ,1SRCH7F014TAHX,1U5X071EXP5ZJG,DJI Fly,,1.12.8,5436CD7B-0171-AE3B-E96F-A3CD34ECDEF5,1SDCH7G0169R0K,,,,,6.974677057,79.91439194,10,,
2/13/2024,14:14.2,0m 2.8s,2.8,6.97469726,79.91478081,1.9,1.9,2.2,68,0.7,0,0.223694,0,0,0,0,-2.23694,0,1.8,-1.2,173.2,173.2,,Auto Takeoff,Auto Fly,Takeoff (App Auto),9,4,TRUE,,Mavic Mini,TRUE,FALSE,,Smart,RC,FALSE,TRUE,FALSE,,,TRUE,,FALSE,FALSE,FALSE,FALSE,FALSE,FALSE,FALSE,FALSE,FALSE,FALSE,0,Follow Yaw,0.2,0,176.1,176.1,FALSE,FALSE,FALSE,FALSE,FALSE,FALSE,,TRUE,Normal,,100,1024,1024,1024,1024,1,FALSE,FALSE,FALSE,FALSE,FALSE,0,FALSE,FALSE,FALSE,FALSE,96,7.984,1969,2054,8.022,FALSE,3.996,3.988,0.008,FALSE,FALSE,NA,80.4,80.4,80.4,0,0,0,0,5,2656.1,664.02,,Idle,0,20,FALSE,5,TRUE,8,Go Home,FALSE,FALSE,FALSE,FALSE,FALSE,FALSE,FALSE,FALSE,TRUE,FALSE,FALSE,FALSE,6.974697335,79.91478068,0,114.7,328,TRUE,1,1,FALSE,FALSE,FALSE,FALSE,,TRUE,FALSE,FALSE,Course Lock,246,303.7,16.4,Calm,23,,1.12.8,Mavic Mini,1SDCH7G0169R0K,1SFLH6Q0AB03DJ,1SRCH7F014TAHX,1U5X071EXP5ZJG,109.7,0.1,3.2,1.58174,2.23694,0,0,Mavic Mini,1SDCH7G0169R0K,1SFLH6Q0AB03DJ,1SRCH7F014TAHX,1U5X071EXP5ZJG,DJI Fly,,1.12.8,5436CD7B-0171-AE3B-E96F-A3CD34ECDEF5,1SDCH7G0169R0K,,,,,6.974677057,79.91439194,10,,
2/13/2024,14:14.2,0m 2.9s,2.9,6.974697376,79.91478075,2.2,2.2,2.6,69,0.7,0,0.223694,0,0,0,0,-2.23694,0,2,-0.8,173.2,173.2,,Auto Takeoff,Auto Fly,,9,4,TRUE,,Mavic Mini,TRUE,FALSE,,Smart,RC,FALSE,TRUE,FALSE,,,TRUE,,FALSE,FALSE,FALSE,FALSE,FALSE,FALSE,FALSE,FALSE,FALSE,FALSE,0,Follow Yaw,0.2,0,176,176,FALSE,FALSE,FALSE,FALSE,FALSE,FALSE,,TRUE,Normal,,100,1024,1024,1024,1024,1,FALSE,FALSE,FALSE,FALSE,FALSE,0,FALSE,FALSE,FALSE,FALSE,96,7.868,1967,2054,8.022,FALSE,3.933,3.935,0.008,FALSE,FALSE,NA,80.4,80.4,80.4,0,0,0,0,5,2656.1,664.02,,Idle,0,20,FALSE,5,TRUE,8,Go Home,FALSE,FALSE,FALSE,FALSE,FALSE,FALSE,FALSE,FALSE,TRUE,FALSE,FALSE,FALSE,6.974697335,79.91478068,0,114.7,328,TRUE,1,1,FALSE,FALSE,FALSE,FALSE,,TRUE,FALSE,FALSE,Course Lock,246,303.7,16.4,Calm,23,,1.12.8,Mavic Mini,1SDCH7G0169R0K,1SFLH6Q0AB03DJ,1SRCH7F014TAHX,1U5X071EXP5ZJG,109.7,0.1,3.2,1.58174,2.23694,0,0,Mavic Mini,1SDCH7G0169R0K,1SFLH6Q0AB03DJ,1SRCH7F014TAHX,1U5X071EXP5ZJG,DJI Fly,,1.12.8,5436CD7B-0171-AE3B-E96F-A3CD34ECDEF5,1SDCH7G0169R0K,,,,,6.974677057,79.91439194,10,,
2/13/2024,14:14.3,0m 3.0s,3,6.974697454,79.91478074,2.6,2.6,2.9,69,0.8,0,0.223694,0,0,0,0,-2.013246,0,1.8,-0.9,173.3,173.3,,P-GPS,Auto Fly,,9,4,TRUE,,Mavic Mini,TRUE,FALSE,,Smart,RC,FALSE,TRUE,FALSE,,,TRUE,,FALSE,FALSE,FALSE,FALSE,FALSE,FALSE,FALSE,FALSE,FALSE,FALSE,0,Follow Yaw,0.2,0,176,176,FALSE,FALSE,FALSE,FALSE,FALSE,FALSE,,TRUE,Normal,,100,1024,1024,1024,1024,1,FALSE,FALSE,FALSE,FALSE,FALSE,0,FALSE,FALSE,FALSE,FALSE,96,7.868,1967,2054,8.022,FALSE,3.933,3.935,0.008,FALSE,FALSE,NA,80.4,80.4,80.4,0,0,0,0,5,2656.1,664.02,,Idle,0,20,FALSE,5,TRUE,8,Go Home,FALSE,FALSE,FALSE,FALSE,FALSE,FALSE,FALSE,FALSE,TRUE,FALSE,FALSE,FALSE,6.974697335,79.91478068,0,114.7,328,TRUE,1,1,FALSE,FALSE,FALSE,FALSE,,TRUE,FALSE,FALSE,Course Lock,246,303.7,16.4,Calm,23,,1.12.8,Mavic Mini,1SDCH7G0169R0K,1SFLH6Q0AB03DJ,1SRCH7F014TAHX,1U5X071EXP5ZJG,109.7,0.1,3.2,1.58174,2.23694,0,0,Mavic Mini,1SDCH7G0169R0K,1SFLH6Q0AB03DJ,1SRCH7F014TAHX,1U5X071EXP5ZJG,DJI Fly,,1.12.8,5436CD7B-0171-AE3B-E96F-A3CD34ECDEF5,1SDCH7G0169R0K,,,,,6.974677057,79.91439194,10,Flight mode changed to P-GPS.,
2/13/2024,14:14.5,0m 3.1s,3.1,6.974697735,79.91478062,2.9,2.9,3.2,69,0.9,0,0.223694,0,0,0,0,-1.789552,0,1.1,0,173.5,173.5,,P-GPS,Auto Fly,,9,4,TRUE,,Mavic Mini,TRUE,FALSE,,Smart,RC,FALSE,TRUE,FALSE,,,TRUE,,FALSE,FALSE,FALSE,FALSE,FALSE,FALSE,FALSE,FALSE,FALSE,FALSE,0,Follow Yaw,0.2,0,176,176,FALSE,FALSE,FALSE,FALSE,FALSE,FALSE,,TRUE,Normal,,100,1024,1024,1024,1024,1,FALSE,FALSE,FALSE,FALSE,FALSE,0,FALSE,FALSE,FALSE,FALSE,96,7.868,1967,2054,8.022,FALSE,3.933,3.935,0.008,FALSE,FALSE,NA,80.4,80.4,80.4,0,0,0,0,5,2656.1,664.02,,Idle,0,20,FALSE,5,TRUE,8,Go Home,FALSE,FALSE,FALSE,FALSE,FALSE,FALSE,FALSE,FALSE,TRUE,FALSE,FALSE,FALSE,6.974697335,79.91478068,0.1,114.7,328,TRUE,1,1,FALSE,FALSE,FALSE,FALSE,,TRUE,FALSE,FALSE,Course Lock,246,303.7,16.4,Calm,23,,1.12.8,Mavic Mini,1SDCH7G0169R0K,1SFLH6Q0AB03DJ,1SRCH7F014TAHX,1U5X071EXP5ZJG,109.7,0.1,3.2,1.58174,2.23694,0,0,Mavic Mini,1SDCH7G0169R0K,1SFLH6Q0AB03DJ,1SRCH7F014TAHX,1U5X071EXP5ZJG,DJI Fly,,1.12.8,5436CD7B-0171-AE3B-E96F-A3CD34ECDEF5,1SDCH7G0169R0K,,,,,6.974677057,79.91439194,10,,
2/13/2024,14:14.6,0m 3.2s,3.2,6.974697802,79.91478052,2.9,2.9,3.6,69,0.9,0,0.223694,0,0,0,0,-1.342164,0,1,0,173.7,173.7,,P-GPS,Auto Fly,,9,4,TRUE,,Mavic Mini,TRUE,FALSE,,Smart,RC,FALSE,TRUE,FALSE,,,TRUE,,FALSE,FALSE,FALSE,FALSE,FALSE,FALSE,FALSE,FALSE,FALSE,FALSE,0,Follow Yaw,0.2,0,176,176,FALSE,FALSE,FALSE,FALSE,FALSE,FALSE,,TRUE,Normal,,100,1024,1024,1024,1024,1,FALSE,FALSE,FALSE,FALSE,FALSE,0,FALSE,FALSE,FALSE,FALSE,96,7.868,1967,2054,8.022,FALSE,3.933,3.935,0.008,FALSE,FALSE,NA,80.4,80.4,80.4,0,0,0,0,5,2656.1,664.02,,Idle,0,20,FALSE,5,TRUE,8,Go Home,FALSE,FALSE,FALSE,FALSE,FALSE,FALSE,FALSE,FALSE,TRUE,FALSE,FALSE,FALSE,6.974697335,79.91478068,0.1,114.7,328,TRUE,1,1,FALSE,FALSE,FALSE,FALSE,,TRUE,FALSE,FALSE,Course Lock,246,303.7,16.4,Calm,23,,1.12.8,Mavic Mini,1SDCH7G0169R0K,1SFLH6Q0AB03DJ,1SRCH7F014TAHX,1U5X071EXP5ZJG,109.7,0.1,3.2,1.58174,2.23694,0,0,Mavic Mini,1SDCH7G0169R0K,1SFLH6Q0AB03DJ,1SRCH7F014TAHX,1U5X071EXP5ZJG,DJI Fly,,1.12.8,5436CD7B-0171-AE3B-E96F-A3CD34ECDEF5,1SDCH7G0169R0K,,,,,6.974677057,79.91439194,10,,
2/13/2024,14:14.7,0m 3.3s,3.3,6.974697846,79.91478043,3.2,3.2,3.6,70,1,0,0.223694,0,0,0,0,-0.671082,0,1.1,0,173.7,173.7,,P-GPS,Auto Fly,,9,4,TRUE,,Mavic Mini,TRUE,FALSE,,Smart,RC,FALSE,TRUE,FALSE,,,TRUE,,FALSE,FALSE,FALSE,FALSE,FALSE,FALSE,FALSE,FALSE,FALSE,FALSE,0,Follow Yaw,0.2,0,176,176,FALSE,FALSE,FALSE,FALSE,FALSE,FALSE,,TRUE,Normal,,100,1024,1024,1024,1024,1,FALSE,FALSE,FALSE,FALSE,FALSE,0,FALSE,FALSE,FALSE,FALSE,96,7.868,1967,2054,7.983,FALSE,3.933,3.935,0.008,FALSE,FALSE,NA,80.4,80.4,80.4,0,0,0,0,5,3341.4,835.37,,Idle,0,20,FALSE,5,TRUE,8,Go Home,FALSE,FALSE,FALSE,FALSE,FALSE,FALSE,FALSE,FALSE,TRUE,FALSE,FALSE,FALSE,6.974697335,79.91478068,0.2,114.7,328,TRUE,1,1,FALSE,FALSE,FALSE,FALSE,,TRUE,FALSE,FALSE,Course Lock,246,303.7,16.4,Calm,23,,1.12.8,Mavic Mini,1SDCH7G0169R0K,1SFLH6Q0AB03DJ,1SRCH7F014TAHX,1U5X071EXP5ZJG,109.7,0.1,3.2,1.58174,2.23694,0,0,Mavic Mini,1SDCH7G0169R0K,1SFLH6Q0AB03DJ,1SRCH7F014TAHX,1U5X071EXP5ZJG,DJI Fly,,1.12.8,5436CD7B-0171-AE3B-E96F-A3CD34ECDEF5,1SDCH7G0169R0K,,,,,6.974677057,79.91439194,10,,
2/13/2024,14:14.8,0m 3.4s,3.4,6.974697822,79.91478039,3.2,3.2,3.6,70,1,0,0.223694,0,0,0,0,-0.447388,0,1.1,-0.2,173.8,173.8,,P-GPS,Auto Fly,,9,4,TRUE,,Mavic Mini,TRUE,FALSE,,Smart,RC,FALSE,TRUE,FALSE,,,TRUE,,FALSE,FALSE,FALSE,FALSE,FALSE,FALSE,FALSE,FALSE,FALSE,FALSE,0,Follow Yaw,0.2,0,176,176,FALSE,FALSE,FALSE,FALSE,FALSE,FALSE,,TRUE,Normal,,100,1024,1024,1024,1024,1,FALSE,FALSE,FALSE,FALSE,FALSE,0,FALSE,FALSE,FALSE,FALSE,96,7.868,1967,2054,7.983,FALSE,3.933,3.935,0.008,FALSE,FALSE,NA,80.4,80.4,80.4,0,0,0,0,5,3341.4,835.37,,Idle,0,20,FALSE,5,TRUE,8,Go Home,FALSE,FALSE,FALSE,FALSE,FALSE,FALSE,FALSE,FALSE,TRUE,FALSE,FALSE,FALSE,6.974697335,79.91478068,0.2,114.7,328,TRUE,1,1,FALSE,FALSE,FALSE,FALSE,,TRUE,FALSE,FALSE,Course Lock,246,303.7,16.4,Calm,23,,1.12.8,Mavic Mini,1SDCH7G0169R0K,1SFLH6Q0AB03DJ,1SRCH7F014TAHX,1U5X071EXP5ZJG,109.7,0.1,3.2,1.58174,2.23694,0,0,Mavic Mini,1SDCH7G0169R0K,1SFLH6Q0AB03DJ,1SRCH7F014TAHX,1U5X071EXP5ZJG,DJI Fly,,1.12.8,5436CD7B-0171-AE3B-E96F-A3CD34ECDEF5,1SDCH7G0169R0K,,,,,6.974677057,79.91439194,10,,
2/13/2024,14:14.9,0m 3.5s,3.5,6.974697724,79.91478025,3.2,3.2,3.9,70,1,0,0.223694,0,0,0,0,0,0,1.3,-0.2,173.9,173.9,,P-GPS,Auto Fly,,9,4,TRUE,,Mavic Mini,TRUE,FALSE,,Smart,RC,FALSE,TRUE,FALSE,,,TRUE,,FALSE,FALSE,FALSE,FALSE,FALSE,FALSE,FALSE,FALSE,FALSE,FALSE,0,Follow Yaw,0.2,0,176,176,FALSE,FALSE,FALSE,FALSE,FALSE,FALSE,,TRUE,Normal,,100,1024,1024,1024,1024,1,FALSE,FALSE,FALSE,FALSE,FALSE,0,FALSE,FALSE,FALSE,FALSE,96,7.868,1967,2054,7.983,FALSE,3.933,3.935,0.008,FALSE,FALSE,NA,80.4,80.4,80.4,0,0,0,0,5,3341.4,835.37,,Idle,0,20,FALSE,5,TRUE,8,Go Home,FALSE,FALSE,FALSE,FALSE,FALSE,FALSE,FALSE,FALSE,TRUE,FALSE,FALSE,FALSE,6.974697335,79.91478068,0.2,114.7,328,TRUE,1,1,FALSE,FALSE,FALSE,FALSE,,TRUE,FALSE,FALSE,Course Lock,246,303.7,16.4,Calm,23,,1.12.8,Mavic Mini,1SDCH7G0169R0K,1SFLH6Q0AB03DJ,1SRCH7F014TAHX,1U5X071EXP5ZJG,109.7,0.1,3.2,1.58174,2.23694,0,0,Mavic Mini,1SDCH7G0169R0K,1SFLH6Q0AB03DJ,1SRCH7F014TAHX,1U5X071EXP5ZJG,DJI Fly,,1.12.8,5436CD7B-0171-AE3B-E96F-A3CD34ECDEF5,1SDCH7G0169R0K,,,,,6.974677057,79.91439194,10,,
2/13/2024,14:15.0,0m 3.6s,3.6,6.974697707,79.91478007,3.2,3.2,3.9,70,1.1,0,0.223694,0,0,0,0,0,0,1.3,-0.2,174,174,,P-GPS,Auto Fly,,9,4,TRUE,,Mavic Mini,TRUE,FALSE,,Smart,RC,FALSE,TRUE,FALSE,,,TRUE,,FALSE,FALSE,FALSE,FALSE,FALSE,FALSE,FALSE,FALSE,FALSE,FALSE,0,Follow Yaw,0.2,0,176,176,FALSE,FALSE,FALSE,FALSE,FALSE,FALSE,,TRUE,Normal,,100,1024,1024,1024,1024,1,FALSE,FALSE,FALSE,FALSE,FALSE,0,FALSE,FALSE,FALSE,FALSE,96,7.868,1967,2054,7.983,FALSE,3.933,3.935,0.008,FALSE,FALSE,NA,80.4,80.4,80.4,0,0,0,0,5,3341.4,835.37,,Idle,0,20,FALSE,5,TRUE,8,Go Home,FALSE,FALSE,FALSE,FALSE,FALSE,FALSE,FALSE,FALSE,TRUE,FALSE,FALSE,FALSE,6.974697335,79.91478068,0.2,114.7,328,TRUE,1,1,FALSE,FALSE,FALSE,FALSE,,TRUE,FALSE,FALSE,Course Lock,246,303.7,16.4,Calm,23,,1.12.8,Mavic Mini,1SDCH7G0169R0K,1SFLH6Q0AB03DJ,1SRCH7F014TAHX,1U5X071EXP5ZJG,109.7,0.1,3.2,1.58174,2.23694,0,0,Mavic Mini,1SDCH7G0169R0K,1SFLH6Q0AB03DJ,1SRCH7F014TAHX,1U5X071EXP5ZJG,DJI Fly,,1.12.8,5436CD7B-0171-AE3B-E96F-A3CD34ECDEF5,1SDCH7G0169R0K,,,,,6.974677057,79.91439194,10,,
2/13/2024,14:15.1,0m 3.7s,3.7,6.974697687,79.9147799,3.2,3.2,3.9,70,1.2,0,0.223694,0,0,0,0,0,0,1.5,-0.3,174.1,174.1,,P-GPS,Auto Fly,,9,4,TRUE,,Mavic Mini,TRUE,FALSE,,Smart,RC,FALSE,TRUE,FALSE,,,TRUE,,FALSE,FALSE,FALSE,FALSE,FALSE,FALSE,FALSE,FALSE,FALSE,FALSE,0,Follow Yaw,0.2,0,176,176,FALSE,FALSE,FALSE,FALSE,FALSE,FALSE,,TRUE,Normal,,100,1024,1024,1024,1024,1,FALSE,FALSE,FALSE,FALSE,FALSE,0,FALSE,FALSE,FALSE,FALSE,96,7.868,1967,2054,7.983,FALSE,3.933,3.935,0.008,FALSE,FALSE,NA,80.4,80.4,80.4,0,0,0,0,5,3341.4,835.37,,Idle,0,20,FALSE,5,TRUE,8,Go Home,FALSE,FALSE,FALSE,FALSE,FALSE,FALSE,FALSE,FALSE,TRUE,FALSE,FALSE,FALSE,6.974697335,79.91478068,0.3,114.7,328,TRUE,1,1,FALSE,FALSE,FALSE,FALSE,,TRUE,FALSE,FALSE,Course Lock,246,303.7,16.4,Calm,23,,1.12.8,Mavic Mini,1SDCH7G0169R0K,1SFLH6Q0AB03DJ,1SRCH7F014TAHX,1U5X071EXP5ZJG,109.7,0.1,3.2,1.58174,2.23694,0,0,Mavic Mini,1SDCH7G0169R0K,1SFLH6Q0AB03DJ,1SRCH7F014TAHX,1U5X071EXP5ZJG,DJI Fly,,1.12.8,5436CD7B-0171-AE3B-E96F-A3CD34ECDEF5,1SDCH7G0169R0K,,,,,6.974677057,79.91439194,10,,
2/13/2024,14:15.2,0m 3.8s,3.8,6.97469768,79.91477977,3.2,3.2,3.9,70,1.2,0,0.223694,0,0,0,0,0,0,1.7,-0.4,174.2,174.2,,P-GPS,Auto Fly,,9,4,TRUE,,Mavic Mini,TRUE,FALSE,,Smart,RC,FALSE,TRUE,FALSE,,,TRUE,,FALSE,FALSE,FALSE,FALSE,FALSE,FALSE,FALSE,FALSE,FALSE,FALSE,0,Follow Yaw,0.2,0,176,176,FALSE,FALSE,FALSE,FALSE,FALSE,FALSE,,TRUE,Normal,,100,1024,1024,1024,1024,1,FALSE,FALSE,FALSE,FALSE,FALSE,0,FALSE,FALSE,FALSE,FALSE,96,7.868,1967,2054,7.983,FALSE,3.933,3.935,0.008,FALSE,FALSE,NA,80.4,80.4,80.4,0,0,0,0,5,3341.4,835.37,,Idle,0,20,FALSE,5,TRUE,8,Go Home,FALSE,FALSE,FALSE,FALSE,FALSE,FALSE,FALSE,FALSE,TRUE,FALSE,FALSE,FALSE,6.974697335,79.91478068,0.3,114.7,328,TRUE,1,1,FALSE,FALSE,FALSE,FALSE,,TRUE,FALSE,FALSE,Course Lock,246,303.7,16.4,Calm,23,,1.12.8,Mavic Mini,1SDCH7G0169R0K,1SFLH6Q0AB03DJ,1SRCH7F014TAHX,1U5X071EXP5ZJG,109.7,0.1,3.2,1.58174,2.23694,0,0,Mavic Mini,1SDCH7G0169R0K,1SFLH6Q0AB03DJ,1SRCH7F014TAHX,1U5X071EXP5ZJG,DJI Fly,,1.12.8,5436CD7B-0171-AE3B-E96F-A3CD34ECDEF5,1SDCH7G0169R0K,,,,,6.974677057,79.91439194,10,,
2/13/2024,14:15.3,0m 3.9s,3.9,6.974697674,79.91477967,3.2,3.2,3.9,70,1.3,0,0.223694,0,0,0,0,0,0,1.8,-0.5,174.3,174.3,,P-GPS,Auto Fly,,9,4,TRUE,,Mavic Mini,TRUE,FALSE,,Smart,RC,FALSE,TRUE,FALSE,,,TRUE,,FALSE,FALSE,FALSE,FALSE,FALSE,FALSE,FALSE,FALSE,FALSE,FALSE,0,Follow Yaw,0.2,0,176,176,FALSE,FALSE,FALSE,FALSE,FALSE,FALSE,,TRUE,Normal,,100,1024,1024,1024,1024,1,FALSE,FALSE,FALSE,FALSE,FALSE,0,FALSE,FALSE,FALSE,FALSE,96,7.868,1967,2054,7.983,FALSE,3.933,3.935,0.008,FALSE,FALSE,NA,80.4,80.4,80.4,0,0,0,0,5,3341.4,835.37,,Idle,0,20,FALSE,5,TRUE,8,Go Home,FALSE,FALSE,FALSE,FALSE,FALSE,FALSE,FALSE,FALSE,TRUE,FALSE,FALSE,FALSE,6.974697335,79.91478068,0.3,114.7,328,TRUE,1,1,FALSE,FALSE,FALSE,FALSE,,TRUE,FALSE,FALSE,Course Lock,246,303.7,16.4,Calm,23,,1.12.8,Mavic Mini,1SDCH7G0169R0K,1SFLH6Q0AB03DJ,1SRCH7F014TAHX,1U5X071EXP5ZJG,109.7,0.1,3.2,1.58174,2.23694,0,0,Mavic Mini,1SDCH7G0169R0K,1SFLH6Q0AB03DJ,1SRCH7F014TAHX,1U5X071EXP5ZJG,DJI Fly,,1.12.8,5436CD7B-0171-AE3B-E96F-A3CD34ECDEF5,1SDCH7G0169R0K,,,,,6.974677057,79.91439194,10,,
2/13/2024,14:15.4,0m 4.0s,4,6.974697755,79.91477962,3.2,3.2,3.9,70,1.3,0,0.223694,0,0,0,0,0,0,2,-0.4,174.4,174.4,,P-GPS,Auto Fly,,9,4,TRUE,,Mavic Mini,TRUE,FALSE,,Smart,RC,FALSE,TRUE,FALSE,,,TRUE,,FALSE,FALSE,FALSE,FALSE,FALSE,FALSE,FALSE,FALSE,FALSE,FALSE,0,Follow Yaw,0.2,0,176,176,FALSE,FALSE,FALSE,FALSE,FALSE,FALSE,,TRUE,Normal,,100,1024,1024,1024,1024,1,FALSE,FALSE,FALSE,FALSE,FALSE,0,FALSE,FALSE,FALSE,FALSE,96,7.868,1967,2054,7.983,FALSE,3.933,3.935,0.008,FALSE,FALSE,NA,80.4,80.4,80.4,0,0,0,0,5,3341.4,835.37,,Idle,0,20,FALSE,5,TRUE,8,Go Home,FALSE,FALSE,FALSE,FALSE,FALSE,FALSE,FALSE,FALSE,TRUE,FALSE,FALSE,FALSE,6.974697335,79.91478068,0.4,114.7,328,TRUE,1,1,FALSE,FALSE,FALSE,FALSE,,TRUE,FALSE,FALSE,Course Lock,246,303.7,16.4,Calm,23,,1.12.8,Mavic Mini,1SDCH7G0169R0K,1SFLH6Q0AB03DJ,1SRCH7F014TAHX,1U5X071EXP5ZJG,109.7,0.1,3.2,1.58174,2.23694,0,0,Mavic Mini,1SDCH7G0169R0K,1SFLH6Q0AB03DJ,1SRCH7F014TAHX,1U5X071EXP5ZJG,DJI Fly,,1.12.8,5436CD7B-0171-AE3B-E96F-A3CD34ECDEF5,1SDCH7G0169R0K,,,,,6.974677057,79.91439194,10,,
2/13/2024,14:15.4,0m 4.1s,4.1,6.97469777,79.91477959,3.2,3.2,3.9,70,1.3,0,0.223694,0,0,0,0,0,0,2.1,-0.5,174.5,174.5,,P-GPS,Auto Fly,,9,4,TRUE,,Mavic Mini,TRUE,FALSE,,Smart,RC,FALSE,TRUE,FALSE,,,TRUE,,FALSE,FALSE,FALSE,FALSE,FALSE,FALSE,FALSE,FALSE,FALSE,FALSE,0,Follow Yaw,0.2,0,176,176,FALSE,FALSE,FALSE,FALSE,FALSE,FALSE,,TRUE,Normal,,100,1024,1024,1024,1024,1,FALSE,FALSE,FALSE,FALSE,FALSE,0,FALSE,FALSE,FALSE,FALSE,96,7.888,1966,2054,7.983,FALSE,3.945,3.944,0.008,FALSE,FALSE,NA,80.6,80.4,80.6,0,0,0,0,5,3341.4,835.37,,Idle,0,20,FALSE,5,TRUE,8,Go Home,FALSE,FALSE,FALSE,FALSE,FALSE,FALSE,FALSE,FALSE,TRUE,FALSE,FALSE,FALSE,6.974697335,79.91478068,0.4,114.7,328,TRUE,1,1,FALSE,FALSE,FALSE,FALSE,,TRUE,FALSE,FALSE,Course Lock,246,303.7,16.4,Calm,23,,1.12.8,Mavic Mini,1SDCH7G0169R0K,1SFLH6Q0AB03DJ,1SRCH7F014TAHX,1U5X071EXP5ZJG,109.7,0.1,3.2,1.58174,2.23694,0,0,Mavic Mini,1SDCH7G0169R0K,1SFLH6Q0AB03DJ,1SRCH7F014TAHX,1U5X071EXP5ZJG,DJI Fly,,1.12.8,5436CD7B-0171-AE3B-E96F-A3CD34ECDEF5,1SDCH7G0169R0K,,,,,6.974677057,79.91439194,10,,
2/13/2024,14:15.5,0m 4.2s,4.2,6.974697767,79.91477949,3.2,3.2,3.9,70,1.3,0,0.223694,0,0,0,0,0,0,2.2,-0.5,174.6,174.6,,P-GPS,Auto Fly,,9,4,TRUE,,Mavic Mini,TRUE,FALSE,,Smart,RC,FALSE,TRUE,FALSE,,,TRUE,,FALSE,FALSE,FALSE,FALSE,FALSE,FALSE,FALSE,FALSE,FALSE,FALSE,0,Follow Yaw,0.2,0,176,176,FALSE,FALSE,FALSE,FALSE,FALSE,FALSE,,TRUE,Normal,,100,1024,1024,1024,1024,1,FALSE,FALSE,FALSE,FALSE,FALSE,0,FALSE,FALSE,FALSE,FALSE,96,7.888,1966,2054,7.983,FALSE,3.945,3.944,0.008,FALSE,FALSE,NA,80.6,80.4,80.6,0,0,0,0,5,3341.4,835.37,,Idle,0,20,FALSE,5,TRUE,8,Go Home,FALSE,FALSE,FALSE,FALSE,FALSE,FALSE,FALSE,FALSE,TRUE,FALSE,FALSE,FALSE,6.974697335,79.91478068,0.4,114.7,328,TRUE,1,1,FALSE,FALSE,FALSE,FALSE,,TRUE,FALSE,FALSE,Course Lock,246,303.7,16.4,Calm,23,,1.12.8,Mavic Mini,1SDCH7G0169R0K,1SFLH6Q0AB03DJ,1SRCH7F014TAHX,1U5X071EXP5ZJG,109.7,0.1,3.2,1.58174,2.23694,0,0,Mavic Mini,1SDCH7G0169R0K,1SFLH6Q0AB03DJ,1SRCH7F014TAHX,1U5X071EXP5ZJG,DJI Fly,,1.12.8,5436CD7B-0171-AE3B-E96F-A3CD34ECDEF5,1SDCH7G0169R0K,,,,,6.974677057,79.91439194,10,,
2/13/2024,14:15.6,0m 4.3s,4.3,6.974697769,79.91477941,3.2,3.2,3.9,70,1.4,0,0.223694,0,0,0,0,0,0,2.3,-0.6,174.6,174.6,,P-GPS,Auto Fly,,9,4,TRUE,,Mavic Mini,TRUE,FALSE,,Smart,RC,FALSE,TRUE,FALSE,,,TRUE,,FALSE,FALSE,FALSE,FALSE,FALSE,FALSE,FALSE,FALSE,FALSE,FALSE,0,Follow Yaw,0.2,0,176,176,FALSE,FALSE,FALSE,FALSE,FALSE,FALSE,,TRUE,Normal,,100,1024,1024,1024,1024,1,FALSE,FALSE,FALSE,FALSE,FALSE,0,FALSE,FALSE,FALSE,FALSE,96,7.888,1966,2054,7.868,FALSE,3.945,3.944,0.008,FALSE,FALSE,NA,80.6,80.4,80.6,0,0,0,0,5,4862.4,1215.61,,Idle,0,20,FALSE,5,TRUE,8,Go Home,FALSE,FALSE,FALSE,FALSE,FALSE,FALSE,FALSE,FALSE,TRUE,FALSE,FALSE,FALSE,6.974697335,79.91478068,0.4,114.7,328,TRUE,1,1,FALSE,FALSE,FALSE,FALSE,,TRUE,FALSE,FALSE,Course Lock,246,303.7,16.4,Calm,23,,1.12.8,Mavic Mini,1SDCH7G0169R0K,1SFLH6Q0AB03DJ,1SRCH7F014TAHX,1U5X071EXP5ZJG,109.7,0.1,3.2,1.58174,2.23694,0,0,Mavic Mini,1SDCH7G0169R0K,1SFLH6Q0AB03DJ,1SRCH7F014TAHX,1U5X071EXP5ZJG,DJI Fly,,1.12.8,5436CD7B-0171-AE3B-E96F-A3CD34ECDEF5,1SDCH7G0169R0K,,,,,6.974677057,79.91439194,10,,
2/13/2024,14:15.7,0m 4.4s,4.4,6.974697788,79.91477941,3.2,3.2,3.9,70,1.4,0,0.223694,0,0,0,0,0,0,2.6,-0.5,174.7,174.7,,P-GPS,Auto Fly,,9,4,TRUE,,Mavic Mini,TRUE,FALSE,,Smart,RC,FALSE,TRUE,FALSE,,,TRUE,,FALSE,FALSE,FALSE,FALSE,FALSE,FALSE,FALSE,FALSE,FALSE,FALSE,0,Follow Yaw,0.2,0,176,176,FALSE,FALSE,FALSE,FALSE,FALSE,FALSE,,TRUE,Normal,,100,1024,1024,1024,1024,1,FALSE,FALSE,FALSE,FALSE,FALSE,0,FALSE,FALSE,FALSE,FALSE,96,7.888,1966,2054,7.868,FALSE,3.945,3.944,0.008,FALSE,FALSE,NA,80.6,80.4,80.6,0,0,0,0,5,4862.4,1215.61,,Idle,0,20,FALSE,5,TRUE,8,Go Home,FALSE,FALSE,FALSE,FALSE,FALSE,FALSE,FALSE,FALSE,TRUE,FALSE,FALSE,FALSE,6.974697335,79.91478068,0.4,114.7,328,TRUE,1,1,FALSE,FALSE,FALSE,FALSE,,TRUE,FALSE,FALSE,Course Lock,246,303.7,16.4,Calm,23,,1.12.8,Mavic Mini,1SDCH7G0169R0K,1SFLH6Q0AB03DJ,1SRCH7F014TAHX,1U5X071EXP5ZJG,109.7,0.1,3.2,1.58174,2.23694,0,0,Mavic Mini,1SDCH7G0169R0K,1SFLH6Q0AB03DJ,1SRCH7F014TAHX,1U5X071EXP5ZJG,DJI Fly,,1.12.8,5436CD7B-0171-AE3B-E96F-A3CD34ECDEF5,1SDCH7G0169R0K,,,,,6.974677057,79.91439194,10,,
2/13/2024,14:15.8,0m 4.5s,4.5,6.974697807,79.91477934,3.2,3.2,3.9,70,1.4,0,0.223694,0,0,0,0,0,0,2.6,-0.5,174.8,174.8,,P-GPS,Auto Fly,,9,4,TRUE,,Mavic Mini,TRUE,FALSE,,Smart,RC,FALSE,TRUE,FALSE,,,TRUE,,FALSE,FALSE,FALSE,FALSE,FALSE,FALSE,FALSE,FALSE,FALSE,FALSE,0,Follow Yaw,0.2,0,176,176,FALSE,FALSE,FALSE,FALSE,FALSE,FALSE,,TRUE,Normal,,100,1024,1024,1024,1024,1,FALSE,FALSE,FALSE,FALSE,FALSE,0,FALSE,FALSE,FALSE,FALSE,96,7.888,1966,2054,7.868,FALSE,3.945,3.944,0.008,FALSE,FALSE,NA,80.6,80.4,80.6,0,0,0,0,5,4862.4,1215.61,,Idle,0,20,FALSE,5,TRUE,8,Go Home,FALSE,FALSE,FALSE,FALSE,FALSE,FALSE,FALSE,FALSE,TRUE,FALSE,FALSE,FALSE,6.974697335,79.91478068,0.5,114.7,328,TRUE,1,1,FALSE,FALSE,FALSE,FALSE,,TRUE,FALSE,FALSE,Course Lock,246,303.7,16.4,Calm,23,,1.12.8,Mavic Mini,1SDCH7G0169R0K,1SFLH6Q0AB03DJ,1SRCH7F014TAHX,1U5X071EXP5ZJG,109.7,0.1,3.2,1.58174,2.23694,0,0,Mavic Mini,1SDCH7G0169R0K,1SFLH6Q0AB03DJ,1SRCH7F014TAHX,1U5X071EXP5ZJG,DJI Fly,,1.12.8,5436CD7B-0171-AE3B-E96F-A3CD34ECDEF5,1SDCH7G0169R0K,,,,,6.974677057,79.91439194,10,,
2/13/2024,14:15.9,0m 4.6s,4.6,6.974697842,79.91477918,3.2,3.2,3.9,70,1.5,0,0.223694,0,0,0,0,0,0,2.4,-0.6,174.9,174.9,,P-GPS,Auto Fly,,9,4,TRUE,,Mavic Mini,TRUE,FALSE,,Smart,RC,FALSE,TRUE,FALSE,,,TRUE,,FALSE,FALSE,FALSE,FALSE,FALSE,FALSE,FALSE,FALSE,FALSE,FALSE,0,Follow Yaw,0.2,0,176,176,FALSE,FALSE,FALSE,FALSE,FALSE,FALSE,,TRUE,Normal,,100,1024,1024,1024,1024,1,FALSE,FALSE,FALSE,FALSE,FALSE,0,FALSE,FALSE,FALSE,FALSE,96,7.888,1966,2054,7.868,FALSE,3.945,3.944,0.008,FALSE,FALSE,NA,80.6,80.4,80.6,0,0,0,0,5,4862.4,1215.61,,Idle,0,20,FALSE,5,TRUE,8,Go Home,FALSE,FALSE,FALSE,FALSE,FALSE,FALSE,FALSE,FALSE,TRUE,FALSE,FALSE,FALSE,6.974697335,79.91478068,0.5,114.7,328,TRUE,1,1,FALSE,FALSE,FALSE,FALSE,,TRUE,FALSE,FALSE,Course Lock,246,303.7,16.4,Calm,23,,1.12.8,Mavic Mini,1SDCH7G0169R0K,1SFLH6Q0AB03DJ,1SRCH7F014TAHX,1U5X071EXP5ZJG,109.7,0.1,3.2,1.58174,2.23694,0,0,Mavic Mini,1SDCH7G0169R0K,1SFLH6Q0AB03DJ,1SRCH7F014TAHX,1U5X071EXP5ZJG,DJI Fly,,1.12.8,5436CD7B-0171-AE3B-E96F-A3CD34ECDEF5,1SDCH7G0169R0K,,,,,6.974677057,79.91439194,10,,
2/13/2024,14:16.0,0m 4.7s,4.7,6.974697867,79.91477905,3.2,3.2,3.9,70,1.5,0,0.223694,0,0,0,0,0,0,2.3,-0.6,174.9,174.9,,P-GPS,Auto Fly,,9,4,TRUE,,Mavic Mini,TRUE,FALSE,,Smart,RC,FALSE,TRUE,FALSE,,,TRUE,,FALSE,FALSE,FALSE,FALSE,FALSE,FALSE,FALSE,FALSE,FALSE,FALSE,0,Follow Yaw,0.2,0,176,176,FALSE,FALSE,FALSE,FALSE,FALSE,FALSE,,TRUE,Normal,,100,1024,1024,1024,1024,1,FALSE,FALSE,FALSE,FALSE,FALSE,0,FALSE,FALSE,FALSE,FALSE,96,7.888,1966,2054,7.868,FALSE,3.945,3.944,0.008,FALSE,FALSE,NA,80.6,80.4,80.6,0,0,0,0,5,4862.4,1215.61,,Idle,0,20,FALSE,5,TRUE,8,Go Home,FALSE,FALSE,FALSE,FALSE,FALSE,FALSE,FALSE,FALSE,TRUE,FALSE,FALSE,FALSE,6.974697335,79.91478068,0.6,114.7,328,TRUE,1,1,FALSE,FALSE,FALSE,FALSE,,TRUE,FALSE,FALSE,Course Lock,246,303.7,16.4,Calm,23,,1.12.8,Mavic Mini,1SDCH7G0169R0K,1SFLH6Q0AB03DJ,1SRCH7F014TAHX,1U5X071EXP5ZJG,109.7,0.1,3.2,1.58174,2.23694,0,0,Mavic Mini,1SDCH7G0169R0K,1SFLH6Q0AB03DJ,1SRCH7F014TAHX,1U5X071EXP5ZJG,DJI Fly,,1.12.8,5436CD7B-0171-AE3B-E96F-A3CD34ECDEF5,1SDCH7G0169R0K,,,,,6.974677057,79.91439194,10,,
2/13/2024,14:16.1,0m 4.8s,4.8,6.974697671,79.91477906,3.2,3.2,3.9,70,1.6,0,0.223694,0,0,0,0,0,0,2.3,-0.5,175,175,,P-GPS,Auto Fly,,9,4,TRUE,,Mavic Mini,TRUE,FALSE,,Smart,RC,FALSE,TRUE,FALSE,,,TRUE,,FALSE,FALSE,FALSE,FALSE,FALSE,FALSE,FALSE,FALSE,FALSE,FALSE,0,Follow Yaw,0.2,0,176,176,FALSE,FALSE,FALSE,FALSE,FALSE,FALSE,,TRUE,Normal,,100,1024,1024,1024,1024,1,FALSE,FALSE,FALSE,FALSE,FALSE,0,FALSE,FALSE,FALSE,FALSE,96,7.888,1966,2054,7.868,FALSE,3.945,3.944,0.008,FALSE,FALSE,NA,80.6,80.4,80.6,0,0,0,0,5,4862.4,1215.61,,Idle,0,20,FALSE,5,TRUE,8,Go Home,FALSE,FALSE,FALSE,FALSE,FALSE,FALSE,FALSE,FALSE,TRUE,FALSE,FALSE,FALSE,6.974697335,79.91478068,0.6,114.7,328,TRUE,1,1,FALSE,FALSE,FALSE,FALSE,,TRUE,FALSE,FALSE,Course Lock,246,303.7,16.4,Calm,23,,1.12.8,Mavic Mini,1SDCH7G0169R0K,1SFLH6Q0AB03DJ,1SRCH7F014TAHX,1U5X071EXP5ZJG,109.7,0.1,3.2,1.58174,2.23694,0,0,Mavic Mini,1SDCH7G0169R0K,1SFLH6Q0AB03DJ,1SRCH7F014TAHX,1U5X071EXP5ZJG,DJI Fly,,1.12.8,5436CD7B-0171-AE3B-E96F-A3CD34ECDEF5,1SDCH7G0169R0K,,,,,6.974677057,79.91439194,10,,
2/13/2024,14:16.2,0m 4.9s,4.9,6.974697619,79.91477903,3.2,3.2,3.9,70,1.6,0,0.223694,0,0,0,0,0,0,2.3,-0.6,175,175,,P-GPS,Auto Fly,,9,4,TRUE,,Mavic Mini,TRUE,FALSE,,Smart,RC,FALSE,TRUE,FALSE,,,TRUE,,FALSE,FALSE,FALSE,FALSE,FALSE,FALSE,FALSE,FALSE,FALSE,FALSE,0,Follow Yaw,0.2,0,176,176,FALSE,FALSE,FALSE,FALSE,FALSE,FALSE,,TRUE,Normal,,100,1024,1024,1024,1024,1,FALSE,FALSE,FALSE,FALSE,FALSE,0,FALSE,FALSE,FALSE,FALSE,96,7.888,1966,2054,7.868,FALSE,3.945,3.944,0.008,FALSE,FALSE,NA,80.6,80.4,80.6,0,0,0,0,5,4862.4,1215.61,,Idle,0,20,FALSE,5,TRUE,8,Go Home,FALSE,FALSE,FALSE,FALSE,FALSE,FALSE,FALSE,FALSE,TRUE,FALSE,FALSE,FALSE,6.974697335,79.91478068,0.6,114.7,328,TRUE,1,1,FALSE,FALSE,FALSE,FALSE,,TRUE,FALSE,FALSE,Course Lock,246,303.7,16.4,Calm,23,,1.12.8,Mavic Mini,1SDCH7G0169R0K,1SFLH6Q0AB03DJ,1SRCH7F014TAHX,1U5X071EXP5ZJG,109.7,0.1,3.2,1.58174,2.23694,0,0,Mavic Mini,1SDCH7G0169R0K,1SFLH6Q0AB03DJ,1SRCH7F014TAHX,1U5X071EXP5ZJG,DJI Fly,,1.12.8,5436CD7B-0171-AE3B-E96F-A3CD34ECDEF5,1SDCH7G0169R0K,,,,,6.974677057,79.91439194,10,,
2/13/2024,14:16.3,0m 5.0s,5,6.974697578,79.91477899,3.2,3.2,3.9,70,1.6,0,0.223694,0,0,0,0,0,0,2.2,-0.6,175.1,175.1,,P-GPS,Auto Fly,,9,4,TRUE,,Mavic Mini,TRUE,FALSE,,Smart,RC,FALSE,TRUE,FALSE,,,TRUE,,FALSE,FALSE,FALSE,FALSE,FALSE,FALSE,FALSE,FALSE,FALSE,FALSE,0,Follow Yaw,0.2,0,176,176,FALSE,FALSE,FALSE,FALSE,FALSE,FALSE,,TRUE,Normal,,100,1024,1024,1024,1024,1,FALSE,FALSE,FALSE,FALSE,FALSE,0,FALSE,FALSE,FALSE,FALSE,96,7.888,1966,2054,7.868,FALSE,3.945,3.944,0.008,FALSE,FALSE,NA,80.6,80.4,80.6,0,0,0,0,5,4862.4,1215.61,,Idle,0,20,FALSE,5,TRUE,8,Go Home,FALSE,FALSE,FALSE,FALSE,FALSE,FALSE,FALSE,FALSE,TRUE,FALSE,FALSE,FALSE,6.974697335,79.91478068,0.6,114.7,328,TRUE,1,1,FALSE,FALSE,FALSE,FALSE,,TRUE,FALSE,FALSE,Course Lock,246,303.7,16.4,Calm,23,,1.12.8,Mavic Mini,1SDCH7G0169R0K,1SFLH6Q0AB03DJ,1SRCH7F014TAHX,1U5X071EXP5ZJG,109.7,0.1,3.2,1.58174,2.23694,0,0,Mavic Mini,1SDCH7G0169R0K,1SFLH6Q0AB03DJ,1SRCH7F014TAHX,1U5X071EXP5ZJG,DJI Fly,,1.12.8,5436CD7B-0171-AE3B-E96F-A3CD34ECDEF5,1SDCH7G0169R0K,,,,,6.974677057,79.91439194,10,,
2/13/2024,14:16.4,0m 5.1s,5.1,6.974697546,79.91477895,3.2,3.2,3.9,70,1.6,0,0.223694,0,0,0,0,0,0,2.1,-0.7,175.1,175.1,,P-GPS,Auto Fly,,9,4,TRUE,,Mavic Mini,TRUE,FALSE,,Smart,RC,FALSE,TRUE,FALSE,,,TRUE,,FALSE,FALSE,FALSE,FALSE,FALSE,FALSE,FALSE,FALSE,FALSE,FALSE,0,Follow Yaw,0.2,0,176,176,FALSE,FALSE,FALSE,FALSE,FALSE,FALSE,,TRUE,Normal,,100,1024,1024,1024,1024,1,FALSE,FALSE,FALSE,FALSE,FALSE,0,FALSE,FALSE,FALSE,FALSE,96,7.888,1966,2054,7.868,FALSE,3.945,3.944,0.008,FALSE,FALSE,NA,80.6,80.4,80.6,0,0,0,0,5,4862.4,1215.61,,Idle,0,20,FALSE,5,TRUE,8,Go Home,FALSE,FALSE,FALSE,FALSE,FALSE,FALSE,FALSE,FALSE,TRUE,FALSE,FALSE,FALSE,6.974697335,79.91478068,0.6,114.7,328,TRUE,1,1,FALSE,FALSE,FALSE,FALSE,,TRUE,FALSE,FALSE,Course Lock,246,303.7,16.4,Calm,23,,1.12.8,Mavic Mini,1SDCH7G0169R0K,1SFLH6Q0AB03DJ,1SRCH7F014TAHX,1U5X071EXP5ZJG,109.7,0.1,3.2,1.58174,2.23694,0,0,Mavic Mini,1SDCH7G0169R0K,1SFLH6Q0AB03DJ,1SRCH7F014TAHX,1U5X071EXP5ZJG,DJI Fly,,1.12.8,5436CD7B-0171-AE3B-E96F-A3CD34ECDEF5,1SDCH7G0169R0K,,,,,6.974677057,79.91439194,10,,
2/13/2024,14:16.6,0m 5.2s,5.2,6.974697476,79.91477903,3.2,3.2,3.9,70,1.7,0,0.223694,0,0,0,0,0,0,2.1,-0.8,175.2,175.2,,P-GPS,Auto Fly,,9,4,TRUE,,Mavic Mini,TRUE,FALSE,,Smart,RC,FALSE,TRUE,FALSE,,,TRUE,,FALSE,FALSE,FALSE,FALSE,FALSE,FALSE,FALSE,FALSE,FALSE,FALSE,0,Follow Yaw,0.2,0,176,176,FALSE,FALSE,FALSE,FALSE,FALSE,FALSE,,TRUE,Normal,,100,1024,1024,1024,1024,1,FALSE,FALSE,FALSE,FALSE,FALSE,0,FALSE,FALSE,FALSE,FALSE,96,7.888,1966,2054,7.868,FALSE,3.945,3.944,0.008,FALSE,FALSE,NA,80.6,80.4,80.6,0,0,0,0,5,4862.4,1215.61,,Idle,0,20,FALSE,5,TRUE,8,Go Home,FALSE,FALSE,FALSE,FALSE,FALSE,FALSE,FALSE,FALSE,TRUE,FALSE,FALSE,FALSE,6.974697335,79.91478068,0.5,114.7,328,TRUE,1,1,FALSE,FALSE,FALSE,FALSE,,TRUE,FALSE,FALSE,Course Lock,246,303.7,16.4,Calm,23,,1.12.8,Mavic Mini,1SDCH7G0169R0K,1SFLH6Q0AB03DJ,1SRCH7F014TAHX,1U5X071EXP5ZJG,109.7,0.1,3.2,1.58174,2.23694,0,0,Mavic Mini,1SDCH7G0169R0K,1SFLH6Q0AB03DJ,1SRCH7F014TAHX,1U5X071EXP5ZJG,DJI Fly,,1.12.8,5436CD7B-0171-AE3B-E96F-A3CD34ECDEF5,1SDCH7G0169R0K,,,,,6.974677057,79.91439194,10,,
