CUSTOM.date [local],CUSTOM.updateTime [local],OSD.flyTime,OSD.flyTime [s],OSD.latitude,OSD.longitude,OSD.height [ft],OSD.heightMax [ft],OSD.vpsHeight [ft],OSD.altitude [ft],OSD.mileage [ft],OSD.hSpeed [MPH],OSD.hSpeedMax [MPH],OSD.xSpeed [MPH],OSD.xSpeedMax [MPH],OSD.ySpeed [MPH],OSD.ySpeedMax [MPH],OSD.zSpeed [MPH],OSD.zSpeedMax [MPH],OSD.pitch,OSD.roll,OSD.yaw,OSD.yaw [360],OSD.directionOfTravel,OSD.flycState,OSD.flycCommand,OSD.flightAction,OSD.gpsNum,OSD.gpsLevel,OSD.isGPSUsed,OSD.nonGPSCause,OSD.droneType,OSD.isSwaveWork,OSD.waveError,OSD.goHomeStatus,OSD.batteryType,OSD.ctrlDevice,OSD.isOnGround,OSD.isMotorOn,OSD.isMotorBlocked,OSD.motorStartFailedCause,OSD.motorFailReason,OSD.isImuPreheated,OSD.imuInitFailReason,OSD.isAcceletorOverRange,OSD.isBarometerDeadInAir,OSD.isCompassError,OSD.isGoHomeHeightModified,OSD.canIOCWork,OSD.isNotEnoughForce,OSD.isOutOfLimit,OSD.isPropellerCatapult,OSD.isVibrating,OSD.isVisionUsed,OSD.voltageWarning,GIMBAL.mode,GIMBAL.pitch,GIMBAL.roll,GIMBAL.yaw,GIMBAL.yaw [360],GIMBAL.isPitchAtLimit,GIMBAL.isRollAtLimit,GIMBAL.isYawAtLimit,GIMBAL.isStuck,CAMERA.isPhoto,CAMERA.isVideo,CAMERA.filename,CAMERA.sdCardIsInserted,CAMERA.sdCardState,RC.downlinkSignal,RC.uplinkSignal,RC.aileron,RC.elevator,RC.throttle,RC.rudder,RC.mode,RC.goHomeDepressed,RC.recordDepressed,RC.shutterDepressed,RC.playbackDepressed,RC.wheelDepressed,RC.wheelOffset,RC.custom1Depressed,RC.custom2Depressed,RC.custom3Depressed,RC.custom4Depressed,BATTERY.chargeLevel,BATTERY.currentPV [V],BATTERY.currentCapacity [mAh],BATTERY.fullCapacity [mAh],BATTERY.voltage [V],BATTERY.isCellVoltageEstimated,BATTERY.cellVoltage1 [V],BATTERY.cellVoltage2 [V],BATTERY.maxCellVoltageDeviation,BATTERY.isCellVoltageDeviationHigh,BATTERY.isVoltageLow,BATTERY.current [A],BATTERY.temperature [F],BATTERY.minTemperature [F],BATTERY.maxTemperature [F],BATTERY.usefulTime [s],BATTERY.goHomeTime [s],BATTERY.landTime [s],BATTERY.goHomeBattery,BATTERY.landBattery,BATTERY.safeFlyRadius,BATTERY.volumeConsume,BATTERY.status,BATTERY.goHomeStatus,BATTERY.goHomeCountdown,BATTERY.lowWarning,BATTERY.lowWarningGoHome,BATTERY.seriousLowWarning,BATTERY.seriousLowWarningLanding,BATTERY.timesCharged,MC.failSafeAction,MC.isObstacleAvoidanceEnabled,MC.isCollisionAvoidanceEnabled,MC.isRthObstacleAvoidanceEnabled,MC.isBraking,MC.isAvoidingObstacle,MC.isAvoidingActiveObstacle,MC.isAscentLimitedByObstacle,MC.isLandingConfirmationNeeded,MC.atLowAltitudeLimit,MC.atDistanceLimit,MC.atAirportAltitudeLimit,MC.atAirportBoundary,HOME.latitude,HOME.longitude,HOME.distance [ft],HOME.height [ft],HOME.heightLimit [ft],HOME.isHomeRecord,HOME.goHomeMode,HOME.aircraftHeadDirection,HOME.isDynamicHomePointEnabled,HOME.isReachedLimitDistance,HOME.isReachedLimitHeight,HOME.isCompassCalibrating,HOME.compassCalibrationState,HOME.isMultipleFlightModeEnabled,HOME.isBeginnerMode,HOME.isIOCEnabled,HOME.iocMode,HOME.goHomeHeight [ft],HOME.courseLockAngle,HOME.forceLandingHeight [ft],HOME.wind,HOME.dataRecorderFileIndex,RECOVER.appType,RECOVER.appVersion,RECOVER.aircraftName,RECOVER.aircraftSerial,RECOVER.cameraSerial,RECOVER.rcSerial,RECOVER.batterySerial,DETAILS.totalTime [s],DETAILS.totalDistance [ft],DETAILS.maxHeight [ft],DETAILS.maxHorizontalSpeed [MPH],DETAILS.maxVerticalSpeed [MPH],DETAILS.photoNum,DETAILS.videoTime [s],DETAILS.aircraftName,DETAILS.aircraftSerial,DETAILS.cameraSerial,DETAILS.rcSerial,DETAILS.batterySerial,DETAILS.appName,DETAILS.appType,DETAILS.appVersion,DETAILS.guid,SERIAL.flightController,SERIAL.camera,SERIAL.gimbal,SERIAL.rc,SERIAL.battery,APPGPS.latitude,APPGPS.longitude,APPGPS.accuracy,APP.tip,APP.warning
3/2/2024,05:58.2,4m 39.6s,279.6,6.972889463,79.91595816,0,0,,56,0,0,0,0,0,0,0,0,0,3,3.5,-49.4,310.6,,Starting Motors,Other,Takeoff (RC Assisted),17,5,TRUE,,Mavic Mini,FALSE,FALSE,,Smart,RC,TRUE,TRUE,FALSE,,,TRUE,,FALSE,FALSE,FALSE,FALSE,FALSE,FALSE,FALSE,FALSE,FALSE,FALSE,0,Follow Yaw,0,0,-32,328,FALSE,FALSE,FALSE,FALSE,FALSE,FALSE,,TRUE,Normal,,,1024,1024,1024,1024,2,FALSE,FALSE,FALSE,FALSE,FALSE,0,FALSE,FALSE,FALSE,FALSE,78,7.846,1610,2065,7.846,TRUE,3.923,3.923,,FALSE,FALSE,NA,104.2,104.1,104.1,,,,,,,,,Idle,,,TRUE,,FALSE,11,Go Home,FALSE,FALSE,FALSE,FALSE,FALSE,FALSE,FALSE,FALSE,FALSE,FALSE,FALSE,FALSE,,,,,,FALSE,,,FALSE,FALSE,FALSE,FALSE,,FALSE,FALSE,FALSE,,,,,Calm,,,1.12.8,Mavic Mini,1SDCH7G0169R0K,1SFLH6Q0AB03DJ,1SRCH7F014TAHX,1U5X071EXP5ZJG,74.7,0.3,3.2,8.712657,2.23694,0,0,Mavic Mini,1SDCH7G0169R0K,1SFLH6Q0AB03DJ,1SRCH7F014TAHX,1U5X071EXP5ZJG,DJI Fly,,1.12.8,C3A3412D-4793-CB97-2B32-9F5F9959E777,1SDCH7G0169R0K,,,,,,,,Flight mode changed to Starting Motors.,
3/2/2024,05:58.2,4m 39.7s,279.7,6.972889455,79.91595812,0,0,,56,0,0,0,0,0,0,0,0,0,3,3.5,-49.4,310.6,,Starting Motors,Other,Takeoff (RC Assisted),17,5,TRUE,,Mavic Mini,FALSE,FALSE,,Smart,RC,TRUE,TRUE,FALSE,,,TRUE,,FALSE,FALSE,FALSE,FALSE,FALSE,FALSE,FALSE,FALSE,FALSE,FALSE,0,Follow Yaw,0,0,-32,328,FALSE,FALSE,FALSE,FALSE,FALSE,FALSE,,TRUE,Normal,,,1024,1024,1024,1024,2,FALSE,FALSE,FALSE,FALSE,FALSE,0,FALSE,FALSE,FALSE,FALSE,78,7.846,1610,2065,7.844,TRUE,3.922,3.922,,FALSE,FALSE,NA,104.2,104.1,104.1,0,0,0,0,5,2538.3,634.58,,Idle,0,20,FALSE,5,TRUE,11,Go Home,FALSE,FALSE,FALSE,FALSE,FALSE,FALSE,FALSE,FALSE,FALSE,FALSE,FALSE,FALSE,6.972893548,79.91595276,2.4,120.9,328,TRUE,1,1,FALSE,FALSE,FALSE,FALSE,,TRUE,FALSE,FALSE,Course Lock,49.2,,16.4,Calm,41,,1.12.8,Mavic Mini,1SDCH7G0169R0K,1SFLH6Q0AB03DJ,1SRCH7F014TAHX,1U5X071EXP5ZJG,74.7,0.3,3.2,8.712657,2.23694,0,0,Mavic Mini,1SDCH7G0169R0K,1SFLH6Q0AB03DJ,1SRCH7F014TAHX,1U5X071EXP5ZJG,DJI Fly,,1.12.8,C3A3412D-4793-CB97-2B32-9F5F9959E777,1SDCH7G0169R0K,,,,,,,,Data Recorder File Index is 41.; Set Return to Home (RTH) altitude to 15 m (49 ft).; Set maximum flight altitude to 100 m (328 ft).,
3/2/2024,05:58.2,4m 39.8s,279.8,6.972889449,79.91595809,0,0,0.3,56,0,0,0,0,0,0,0,0,0,3,3.5,-49.4,310.6,,Starting Motors,Other,Takeoff (RC Assisted),17,5,TRUE,,Mavic Mini,TRUE,FALSE,,Smart,RC,TRUE,TRUE,FALSE,,,TRUE,,FALSE,FALSE,FALSE,FALSE,FALSE,FALSE,FALSE,FALSE,FALSE,FALSE,0,Follow Yaw,0,0,-32,328,FALSE,FALSE,FALSE,FALSE,FALSE,FALSE,,TRUE,Normal,,100,1024,1024,1024,1024,2,FALSE,FALSE,FALSE,FALSE,FALSE,0,FALSE,FALSE,FALSE,FALSE,78,7.846,1610,2065,7.844,TRUE,3.922,3.922,,FALSE,FALSE,NA,104.2,104.1,104.1,0,0,0,0,5,2538.3,634.58,,Idle,0,20,FALSE,5,TRUE,11,Go Home,FALSE,FALSE,FALSE,FALSE,FALSE,FALSE,FALSE,FALSE,FALSE,FALSE,FALSE,FALSE,6.972893548,79.91595276,2.4,120.9,328,TRUE,1,1,FALSE,FALSE,FALSE,FALSE,,TRUE,FALSE,FALSE,Course Lock,49.2,,16.4,Calm,41,,1.12.8,Mavic Mini,1SDCH7G0169R0K,1SFLH6Q0AB03DJ,1SRCH7F014TAHX,1U5X071EXP5ZJG,74.7,0.3,3.2,8.712657,2.23694,0,0,Mavic Mini,1SDCH7G0169R0K,1SFLH6Q0AB03DJ,1SRCH7F014TAHX,1U5X071EXP5ZJG,DJI Fly,,1.12.8,C3A3412D-4793-CB97-2B32-9F5F9959E777,1SDCH7G0169R0K,,,,,,,,,
3/2/2024,05:58.3,4m 39.9s,279.9,6.972889434,79.91595805,0,0,0.3,56,0,0,0,0,0,0,0,0,0,3.1,3.5,-49.4,310.6,,Starting Motors,Other,Takeoff (RC Assisted),17,5,TRUE,,Mavic Mini,TRUE,FALSE,,Smart,RC,TRUE,TRUE,FALSE,,,TRUE,,FALSE,FALSE,FALSE,FALSE,FALSE,FALSE,FALSE,FALSE,FALSE,FALSE,0,Follow Yaw,0,0,-32,328,FALSE,FALSE,FALSE,FALSE,FALSE,FALSE,,TRUE,Normal,,100,1024,1024,1024,1024,2,FALSE,FALSE,FALSE,FALSE,FALSE,0,FALSE,FALSE,FALSE,FALSE,78,7.846,1610,2065,7.844,TRUE,3.922,3.922,,FALSE,FALSE,NA,104.2,104.1,104.1,0,0,0,0,5,2538.3,634.58,,Idle,0,20,FALSE,5,TRUE,11,Go Home,FALSE,FALSE,FALSE,FALSE,FALSE,FALSE,FALSE,FALSE,FALSE,FALSE,FALSE,FALSE,6.972893548,79.91595276,2.4,120.9,328,TRUE,1,1,FALSE,FALSE,FALSE,FALSE,,TRUE,FALSE,FALSE,Course Lock,49.2,,16.4,Calm,41,,1.12.8,Mavic Mini,1SDCH7G0169R0K,1SFLH6Q0AB03DJ,1SRCH7F014TAHX,1U5X071EXP5ZJG,74.7,0.3,3.2,8.712657,2.23694,0,0,Mavic Mini,1SDCH7G0169R0K,1SFLH6Q0AB03DJ,1SRCH7F014TAHX,1U5X071EXP5ZJG,DJI Fly,,1.12.8,C3A3412D-4793-CB97-2B32-9F5F9959E777,1SDCH7G0169R0K,,,,,,,,,
3/2/2024,05:58.4,4m 40.0s,280,6.97288943,79.91595805,0,0,0.3,56,0,0,0,0,0,0,0,0,0,3.1,3.3,-49.4,310.6,,Starting Motors,Other,Takeoff (RC Assisted),17,5,TRUE,,Mavic Mini,TRUE,FALSE,,Smart,RC,TRUE,TRUE,FALSE,,,TRUE,,FALSE,FALSE,FALSE,FALSE,FALSE,FALSE,FALSE,FALSE,FALSE,FALSE,0,Follow Yaw,0,0,-32,328,FALSE,FALSE,FALSE,FALSE,FALSE,FALSE,,TRUE,Normal,,100,1024,1024,1024,1024,2,FALSE,FALSE,FALSE,FALSE,FALSE,0,FALSE,FALSE,FALSE,FALSE,78,7.846,1610,2065,7.844,TRUE,3.922,3.922,,FALSE,FALSE,NA,104.2,104.1,104.1,0,0,0,0,5,2538.3,634.58,,Idle,0,20,FALSE,5,TRUE,11,Go Home,FALSE,FALSE,FALSE,FALSE,FALSE,FALSE,FALSE,FALSE,FALSE,FALSE,FALSE,FALSE,6.972893548,79.91595276,2.4,120.9,328,TRUE,1,1,FALSE,FALSE,FALSE,FALSE,,TRUE,FALSE,FALSE,Course Lock,49.2,,16.4,Calm,41,,1.12.8,Mavic Mini,1SDCH7G0169R0K,1SFLH6Q0AB03DJ,1SRCH7F014TAHX,1U5X071EXP5ZJG,74.7,0.3,3.2,8.712657,2.23694,0,0,Mavic Mini,1SDCH7G0169R0K,1SFLH6Q0AB03DJ,1SRCH7F014TAHX,1U5X071EXP5ZJG,DJI Fly,,1.12.8,C3A3412D-4793-CB97-2B32-9F5F9959E777,1SDCH7G0169R0K,,,,,,,,,
3/2/2024,05:58.5,4m 40.1s,280.1,6.972889426,79.91595806,0,0,0.3,56,0,0,0,0,0,0,0,0,0,3.1,3.3,-49.6,310.4,,Starting Motors,Other,Takeoff (RC Assisted),17,5,TRUE,,Mavic Mini,TRUE,FALSE,,Smart,RC,TRUE,TRUE,FALSE,,,TRUE,,FALSE,FALSE,FALSE,FALSE,FALSE,FALSE,FALSE,FALSE,FALSE,FALSE,0,Follow Yaw,0,0,-32.1,327.9,FALSE,FALSE,FALSE,FALSE,FALSE,FALSE,,TRUE,Normal,,100,1024,1024,1024,1024,2,FALSE,FALSE,FALSE,FALSE,FALSE,0,FALSE,FALSE,FALSE,FALSE,78,7.846,1610,2065,7.844,TRUE,3.922,3.922,,FALSE,FALSE,NA,104.2,104.1,104.1,0,0,0,0,5,2538.3,634.58,,Idle,0,20,FALSE,5,TRUE,11,Go Home,FALSE,FALSE,FALSE,FALSE,FALSE,FALSE,FALSE,FALSE,FALSE,FALSE,FALSE,FALSE,6.972893548,79.91595276,2.4,120.9,328,TRUE,1,1,FALSE,FALSE,FALSE,FALSE,,TRUE,FALSE,FALSE,Course Lock,49.2,,16.4,Calm,41,,1.12.8,Mavic Mini,1SDCH7G0169R0K,1SFLH6Q0AB03DJ,1SRCH7F014TAHX,1U5X071EXP5ZJG,74.7,0.3,3.2,8.712657,2.23694,0,0,Mavic Mini,1SDCH7G0169R0K,1SFLH6Q0AB03DJ,1SRCH7F014TAHX,1U5X071EXP5ZJG,DJI Fly,,1.12.8,C3A3412D-4793-CB97-2B32-9F5F9959E777,1SDCH7G0169R0K,,,,,,,,,
3/2/2024,05:58.6,4m 40.2s,280.2,6.972889423,79.91595807,0,0,0.3,56,0,0,0,0,0,0,0,0,0,3.1,3.4,-49.7,310.3,,Starting Motors,Other,Takeoff (RC Assisted),17,5,TRUE,,Mavic Mini,TRUE,FALSE,,Smart,RC,TRUE,TRUE,FALSE,,,TRUE,,FALSE,FALSE,FALSE,FALSE,FALSE,FALSE,FALSE,FALSE,FALSE,FALSE,0,Follow Yaw,0,0,-32.2,327.8,FALSE,FALSE,FALSE,FALSE,FALSE,FALSE,,TRUE,Normal,,100,1024,1024,1024,1024,2,FALSE,FALSE,FALSE,FALSE,FALSE,0,FALSE,FALSE,FALSE,FALSE,78,7.846,1610,2065,7.844,TRUE,3.922,3.922,,FALSE,FALSE,NA,104.2,104.1,104.1,0,0,0,0,5,2538.3,634.58,,Idle,0,20,FALSE,5,TRUE,11,Go Home,FALSE,FALSE,FALSE,FALSE,FALSE,FALSE,FALSE,FALSE,FALSE,FALSE,FALSE,FALSE,6.972893548,79.91595276,2.4,120.9,328,TRUE,1,1,FALSE,FALSE,FALSE,FALSE,,TRUE,FALSE,FALSE,Course Lock,49.2,,16.4,Calm,41,,1.12.8,Mavic Mini,1SDCH7G0169R0K,1SFLH6Q0AB03DJ,1SRCH7F014TAHX,1U5X071EXP5ZJG,74.7,0.3,3.2,8.712657,2.23694,0,0,Mavic Mini,1SDCH7G0169R0K,1SFLH6Q0AB03DJ,1SRCH7F014TAHX,1U5X071EXP5ZJG,DJI Fly,,1.12.8,C3A3412D-4793-CB97-2B32-9F5F9959E777,1SDCH7G0169R0K,,,,,,,,,
3/2/2024,05:58.6,4m 40.3s,280.3,6.97288942,79.91595808,0,0,0.3,56,0,0,0,0,0,0,0,0,0,3,3.5,-49.7,310.3,,Starting Motors,Other,Takeoff (RC Assisted),17,5,TRUE,,Mavic Mini,TRUE,FALSE,,Smart,RC,TRUE,TRUE,FALSE,,,TRUE,,FALSE,FALSE,FALSE,FALSE,FALSE,FALSE,FALSE,FALSE,FALSE,FALSE,0,Follow Yaw,0,0,-32.2,327.8,FALSE,FALSE,FALSE,FALSE,FALSE,FALSE,,TRUE,Normal,,100,1024,1024,1024,1024,2,FALSE,FALSE,FALSE,FALSE,FALSE,0,FALSE,FALSE,FALSE,FALSE,78,7.846,1610,2065,7.844,TRUE,3.922,3.922,,FALSE,FALSE,NA,104.2,104.1,104.1,0,0,0,0,5,2538.3,634.58,,Idle,0,20,FALSE,5,TRUE,11,Go Home,FALSE,FALSE,FALSE,FALSE,FALSE,FALSE,FALSE,FALSE,FALSE,FALSE,FALSE,FALSE,6.972893548,79.91595276,2.4,120.9,328,TRUE,1,1,FALSE,FALSE,FALSE,FALSE,,TRUE,FALSE,FALSE,Course Lock,49.2,,16.4,Calm,41,,1.12.8,Mavic Mini,1SDCH7G0169R0K,1SFLH6Q0AB03DJ,1SRCH7F014TAHX,1U5X071EXP5ZJG,74.7,0.3,3.2,8.712657,2.23694,0,0,Mavic Mini,1SDCH7G0169R0K,1SFLH6Q0AB03DJ,1SRCH7F014TAHX,1U5X071EXP5ZJG,DJI Fly,,1.12.8,C3A3412D-4793-CB97-2B32-9F5F9959E777,1SDCH7G0169R0K,,,,,,,,,
3/2/2024,05:59.0,4m 40.4s,280.4,6.972889429,79.91595811,0,0,0.3,56,0,0,0,0,0,0,0,0,0,3.1,3.4,-49.7,310.3,,Starting Motors,Other,Takeoff (RC Assisted),17,5,TRUE,,Mavic Mini,TRUE,FALSE,,Smart,RC,TRUE,TRUE,FALSE,,,TRUE,,FALSE,FALSE,FALSE,FALSE,FALSE,FALSE,FALSE,FALSE,FALSE,FALSE,0,Follow Yaw,0,0,-32.3,327.7,FALSE,FALSE,FALSE,FALSE,FALSE,FALSE,,TRUE,Normal,,100,1024,1024,1024,1024,2,FALSE,FALSE,FALSE,FALSE,FALSE,0,FALSE,FALSE,FALSE,FALSE,78,7.832,1610,2065,7.844,FALSE,3.916,3.916,,FALSE,FALSE,NA,104.2,104.1,104.1,0,0,0,0,5,2538.3,634.58,,Idle,0,20,FALSE,5,TRUE,11,Go Home,FALSE,FALSE,FALSE,FALSE,FALSE,FALSE,FALSE,FALSE,FALSE,FALSE,FALSE,FALSE,6.972893548,79.91595276,2.4,120.9,328,TRUE,1,1,FALSE,FALSE,FALSE,FALSE,,TRUE,FALSE,FALSE,Course Lock,49.2,,16.4,Calm,41,,1.12.8,Mavic Mini,1SDCH7G0169R0K,1SFLH6Q0AB03DJ,1SRCH7F014TAHX,1U5X071EXP5ZJG,74.7,0.3,3.2,8.712657,2.23694,0,0,Mavic Mini,1SDCH7G0169R0K,1SFLH6Q0AB03DJ,1SRCH7F014TAHX,1U5X071EXP5ZJG,DJI Fly,,1.12.8,C3A3412D-4793-CB97-2B32-9F5F9959E777,1SDCH7G0169R0K,,,,,,,,,
3/2/2024,05:59.0,4m 40.5s,280.5,6.972889426,79.91595806,0,0,0.3,56,0,0,0,0,0,0,0,0,0,3.1,3.4,-49.7,310.3,,Starting Motors,Other,Takeoff (RC Assisted),17,5,TRUE,,Mavic Mini,TRUE,FALSE,,Smart,RC,TRUE,TRUE,FALSE,,,TRUE,,FALSE,FALSE,FALSE,FALSE,FALSE,FALSE,FALSE,FALSE,FALSE,FALSE,0,Follow Yaw,0,0,-32.3,327.7,FALSE,FALSE,FALSE,FALSE,FALSE,FALSE,,TRUE,Normal,,100,1024,1024,1024,1024,2,FALSE,FALSE,FALSE,FALSE,FALSE,0,FALSE,FALSE,FALSE,FALSE,78,7.832,1610,2065,7.844,FALSE,3.916,3.916,,FALSE,FALSE,NA,104.2,104.1,104.1,0,0,0,0,5,2538.3,634.58,,Idle,0,20,FALSE,5,TRUE,11,Go Home,FALSE,FALSE,FALSE,FALSE,FALSE,FALSE,FALSE,FALSE,FALSE,FALSE,FALSE,FALSE,6.972893548,79.91595276,2.4,120.9,328,TRUE,1,1,FALSE,FALSE,FALSE,FALSE,,TRUE,FALSE,FALSE,Course Lock,49.2,,16.4,Calm,41,,1.12.8,Mavic Mini,1SDCH7G0169R0K,1SFLH6Q0AB03DJ,1SRCH7F014TAHX,1U5X071EXP5ZJG,74.7,0.3,3.2,8.712657,2.23694,0,0,Mavic Mini,1SDCH7G0169R0K,1SFLH6Q0AB03DJ,1SRCH7F014TAHX,1U5X071EXP5ZJG,DJI Fly,,1.12.8,C3A3412D-4793-CB97-2B32-9F5F9959E777,1SDCH7G0169R0K,,,,,,,,,
3/2/2024,05:59.1,4m 40.6s,280.6,6.972889424,79.91595804,0,0,0.3,56,0,0,0,0,0,0,0,0,0,3.1,3.4,-49.7,310.3,,Starting Motors,Other,Takeoff (RC Assisted),17,5,TRUE,,Mavic Mini,TRUE,FALSE,,Smart,RC,TRUE,TRUE,FALSE,,,TRUE,,FALSE,FALSE,FALSE,FALSE,FALSE,FALSE,FALSE,FALSE,FALSE,FALSE,0,Follow Yaw,0,0,-32.3,327.7,FALSE,FALSE,FALSE,FALSE,FALSE,FALSE,,TRUE,Normal,,100,1024,1024,1024,1024,2,FALSE,FALSE,FALSE,FALSE,FALSE,0,FALSE,FALSE,FALSE,FALSE,78,7.832,1610,2065,7.844,FALSE,3.916,3.916,,FALSE,FALSE,NA,104.2,104.1,104.1,0,0,0,0,5,2538.3,634.58,,Idle,0,20,FALSE,5,TRUE,11,Go Home,FALSE,FALSE,FALSE,FALSE,FALSE,FALSE,FALSE,FALSE,FALSE,FALSE,FALSE,FALSE,6.972893548,79.91595276,2.4,120.9,328,TRUE,1,1,FALSE,FALSE,FALSE,FALSE,,TRUE,FALSE,FALSE,Course Lock,49.2,,16.4,Calm,41,,1.12.8,Mavic Mini,1SDCH7G0169R0K,1SFLH6Q0AB03DJ,1SRCH7F014TAHX,1U5X071EXP5ZJG,74.7,0.3,3.2,8.712657,2.23694,0,0,Mavic Mini,1SDCH7G0169R0K,1SFLH6Q0AB03DJ,1SRCH7F014TAHX,1U5X071EXP5ZJG,DJI Fly,,1.12.8,C3A3412D-4793-CB97-2B32-9F5F9959E777,1SDCH7G0169R0K,,,,,,,,,
3/2/2024,05:59.1,4m 40.7s,280.7,6.972889422,79.91595803,0,0,0.3,56,0,0,0,0,0,0,0,0,0,3.1,3.4,-49.8,310.2,,Manual Takeoff,Other,Takeoff (RC Assisted),17,5,TRUE,,Mavic Mini,TRUE,FALSE,,Smart,RC,TRUE,TRUE,FALSE,,,TRUE,,FALSE,FALSE,FALSE,FALSE,FALSE,FALSE,FALSE,FALSE,FALSE,FALSE,0,Follow Yaw,0,0,-32.3,327.7,FALSE,FALSE,FALSE,FALSE,FALSE,FALSE,,TRUE,Normal,,100,1024,1024,1024,1024,2,FALSE,FALSE,FALSE,FALSE,FALSE,0,FALSE,FALSE,FALSE,FALSE,78,7.832,1610,2065,7.842,FALSE,3.916,3.916,,FALSE,FALSE,NA,104.2,104.1,104.1,0,0,0,0,5,2628.8,657.2,,Idle,0,20,FALSE,5,TRUE,11,Go Home,FALSE,FALSE,FALSE,FALSE,FALSE,FALSE,FALSE,FALSE,FALSE,FALSE,FALSE,FALSE,6.972893548,79.91595276,2.4,120.9,328,TRUE,1,1,FALSE,FALSE,FALSE,FALSE,,TRUE,FALSE,FALSE,Course Lock,49.2,,16.4,Calm,41,,1.12.8,Mavic Mini,1SDCH7G0169R0K,1SFLH6Q0AB03DJ,1SRCH7F014TAHX,1U5X071EXP5ZJG,74.7,0.3,3.2,8.712657,2.23694,0,0,Mavic Mini,1SDCH7G0169R0K,1SFLH6Q0AB03DJ,1SRCH7F014TAHX,1U5X071EXP5ZJG,DJI Fly,,1.12.8,C3A3412D-4793-CB97-2B32-9F5F9959E777,1SDCH7G0169R0K,,,,,,,,Flight mode changed to Manual Takeoff.,
3/2/2024,05:59.2,4m 40.8s,280.8,6.972889439,79.91595799,0,0,0.3,56,0,0,0,0,0,0,0,0,0,3.1,3.4,-49.8,310.2,,Manual Takeoff,Other,Takeoff (RC Assisted),17,5,TRUE,,Mavic Mini,TRUE,FALSE,,Smart,RC,TRUE,TRUE,FALSE,,,TRUE,,FALSE,FALSE,FALSE,FALSE,FALSE,FALSE,FALSE,FALSE,FALSE,FALSE,0,Follow Yaw,0,0,-32.3,327.7,FALSE,FALSE,FALSE,FALSE,FALSE,FALSE,,TRUE,Normal,,100,1024,1024,1025,1024,2,FALSE,FALSE,FALSE,FALSE,FALSE,0,FALSE,FALSE,FALSE,FALSE,78,7.832,1610,2065,7.842,FALSE,3.916,3.916,,FALSE,FALSE,NA,104.2,104.1,104.1,0,0,0,0,5,2628.8,657.2,,Idle,0,20,FALSE,5,TRUE,11,Go Home,FALSE,FALSE,FALSE,FALSE,FALSE,FALSE,FALSE,FALSE,FALSE,FALSE,FALSE,FALSE,6.972893548,79.91595276,2.4,120.9,328,TRUE,1,1,FALSE,FALSE,FALSE,FALSE,,TRUE,FALSE,FALSE,Course Lock,49.2,,16.4,Calm,41,,1.12.8,Mavic Mini,1SDCH7G0169R0K,1SFLH6Q0AB03DJ,1SRCH7F014TAHX,1U5X071EXP5ZJG,74.7,0.3,3.2,8.712657,2.23694,0,0,Mavic Mini,1SDCH7G0169R0K,1SFLH6Q0AB03DJ,1SRCH7F014TAHX,1U5X071EXP5ZJG,DJI Fly,,1.12.8,C3A3412D-4793-CB97-2B32-9F5F9959E777,1SDCH7G0169R0K,,,,,,,,,
3/2/2024,05:59.3,4m 40.9s,280.9,6.972889435,79.91595799,0,0,0.3,56,0,0,0,0,0,0,0,0,0,3.1,3.4,-49.8,310.2,,Manual Takeoff,Other,Takeoff (RC Assisted),17,5,TRUE,,Mavic Mini,TRUE,FALSE,,Smart,RC,TRUE,TRUE,FALSE,,,TRUE,,FALSE,FALSE,FALSE,FALSE,FALSE,FALSE,FALSE,FALSE,FALSE,FALSE,0,Follow Yaw,0,0,-32.4,327.6,FALSE,FALSE,FALSE,FALSE,FALSE,FALSE,,TRUE,Normal,,100,1024,1024,1112,1024,2,FALSE,FALSE,FALSE,FALSE,FALSE,0,FALSE,FALSE,FALSE,FALSE,78,7.832,1610,2065,7.842,FALSE,3.916,3.916,,FALSE,FALSE,NA,104.2,104.1,104.1,0,0,0,0,5,2628.8,657.2,,Idle,0,20,FALSE,5,TRUE,11,Go Home,FALSE,FALSE,FALSE,FALSE,FALSE,FALSE,FALSE,FALSE,FALSE,FALSE,FALSE,FALSE,6.972893548,79.91595276,2.4,120.9,328,TRUE,1,1,FALSE,FALSE,FALSE,FALSE,,TRUE,FALSE,FALSE,Course Lock,49.2,,16.4,Calm,41,,1.12.8,Mavic Mini,1SDCH7G0169R0K,1SFLH6Q0AB03DJ,1SRCH7F014TAHX,1U5X071EXP5ZJG,74.7,0.3,3.2,8.712657,2.23694,0,0,Mavic Mini,1SDCH7G0169R0K,1SFLH6Q0AB03DJ,1SRCH7F014TAHX,1U5X071EXP5ZJG,DJI Fly,,1.12.8,C3A3412D-4793-CB97-2B32-9F5F9959E777,1SDCH7G0169R0K,,,,,,,,,
3/2/2024,05:59.4,4m 41.0s,281,6.97288943,79.915958,0,0,0.3,56,0,0,0,0,0,0,0,0,0,3.1,3.4,-49.8,310.2,,Manual Takeoff,Other,Takeoff (RC Assisted),17,5,TRUE,,Mavic Mini,TRUE,FALSE,,Smart,RC,TRUE,TRUE,FALSE,,,TRUE,,FALSE,FALSE,FALSE,FALSE,FALSE,FALSE,FALSE,FALSE,FALSE,FALSE,0,Follow Yaw,0,0,-32.4,327.6,FALSE,FALSE,FALSE,FALSE,FALSE,FALSE,,TRUE,Normal,,100,1024,1024,1167,1024,2,FALSE,FALSE,FALSE,FALSE,FALSE,0,FALSE,FALSE,FALSE,FALSE,78,7.832,1610,2065,7.842,FALSE,3.916,3.916,,FALSE,FALSE,NA,104.2,104.1,104.1,0,0,0,0,5,2628.8,657.2,,Idle,0,20,FALSE,5,TRUE,11,Go Home,FALSE,FALSE,FALSE,FALSE,FALSE,FALSE,FALSE,FALSE,FALSE,FALSE,FALSE,FALSE,6.972893548,79.91595276,2.4,120.9,328,TRUE,1,1,FALSE,FALSE,FALSE,FALSE,,TRUE,FALSE,FALSE,Course Lock,49.2,,16.4,Calm,41,,1.12.8,Mavic Mini,1SDCH7G0169R0K,1SFLH6Q0AB03DJ,1SRCH7F014TAHX,1U5X071EXP5ZJG,74.7,0.3,3.2,8.712657,2.23694,0,0,Mavic Mini,1SDCH7G0169R0K,1SFLH6Q0AB03DJ,1SRCH7F014TAHX,1U5X071EXP5ZJG,DJI Fly,,1.12.8,C3A3412D-4793-CB97-2B32-9F5F9959E777,1SDCH7G0169R0K,,,,,,,,,
3/2/2024,05:59.5,4m 41.1s,281.1,6.972889424,79.91595801,0,0,0.3,56,0.1,0,0,0,0,0,0,0,0,3.1,3.4,-49.8,310.2,,Manual Takeoff,Other,Takeoff (RC Assisted),17,5,TRUE,,Mavic Mini,TRUE,FALSE,,Smart,RC,TRUE,TRUE,FALSE,,,TRUE,,FALSE,FALSE,FALSE,FALSE,FALSE,FALSE,FALSE,FALSE,FALSE,FALSE,0,Follow Yaw,0,0,-32.4,327.6,FALSE,FALSE,FALSE,FALSE,FALSE,FALSE,,TRUE,Normal,,100,1024,1024,1189,1024,2,FALSE,FALSE,FALSE,FALSE,FALSE,0,FALSE,FALSE,FALSE,FALSE,78,7.832,1610,2065,7.842,FALSE,3.916,3.916,,FALSE,FALSE,NA,104.2,104.1,104.1,0,0,0,0,5,2628.8,657.2,,Idle,0,20,FALSE,5,TRUE,11,Go Home,FALSE,FALSE,FALSE,FALSE,FALSE,FALSE,FALSE,FALSE,FALSE,FALSE,FALSE,FALSE,6.972893548,79.91595276,2.4,120.9,328,TRUE,1,1,FALSE,FALSE,FALSE,FALSE,,TRUE,FALSE,FALSE,Course Lock,49.2,,16.4,Calm,41,,1.12.8,Mavic Mini,1SDCH7G0169R0K,1SFLH6Q0AB03DJ,1SRCH7F014TAHX,1U5X071EXP5ZJG,74.7,0.3,3.2,8.712657,2.23694,0,0,Mavic Mini,1SDCH7G0169R0K,1SFLH6Q0AB03DJ,1SRCH7F014TAHX,1U5X071EXP5ZJG,DJI Fly,,1.12.8,C3A3412D-4793-CB97-2B32-9F5F9959E777,1SDCH7G0169R0K,,,,,,,,,
3/2/2024,05:59.6,4m 41.2s,281.2,6.972889434,79.91595793,0,0,0.3,56,0.1,0,0,0,0,0,0,0,0,3,3.1,-49.8,310.2,,Manual Takeoff,Other,Takeoff (RC Assisted),17,5,TRUE,,Mavic Mini,TRUE,FALSE,,Smart,RC,TRUE,TRUE,FALSE,,,TRUE,,FALSE,FALSE,FALSE,FALSE,FALSE,FALSE,FALSE,FALSE,FALSE,FALSE,0,Follow Yaw,0,0,-32.4,327.6,FALSE,FALSE,FALSE,FALSE,FALSE,FALSE,,TRUE,Normal,,100,1024,1024,1211,1024,2,FALSE,FALSE,FALSE,FALSE,FALSE,0,FALSE,FALSE,FALSE,FALSE,78,7.832,1610,2065,7.842,FALSE,3.916,3.916,,FALSE,FALSE,NA,104.2,104.1,104.1,0,0,0,0,5,2628.8,657.2,,Idle,0,20,FALSE,5,TRUE,11,Go Home,FALSE,FALSE,FALSE,FALSE,FALSE,FALSE,FALSE,FALSE,FALSE,FALSE,FALSE,FALSE,6.972893548,79.91595276,2.4,120.9,328,TRUE,1,1,FALSE,FALSE,FALSE,FALSE,,TRUE,FALSE,FALSE,Course Lock,49.2,,16.4,Calm,41,,1.12.8,Mavic Mini,1SDCH7G0169R0K,1SFLH6Q0AB03DJ,1SRCH7F014TAHX,1U5X071EXP5ZJG,74.7,0.3,3.2,8.712657,2.23694,0,0,Mavic Mini,1SDCH7G0169R0K,1SFLH6Q0AB03DJ,1SRCH7F014TAHX,1U5X071EXP5ZJG,DJI Fly,,1.12.8,C3A3412D-4793-CB97-2B32-9F5F9959E777,1SDCH7G0169R0K,,,,,,,,,
3/2/2024,05:59.7,4m 41.3s,281.3,6.972889425,79.91595788,0,0,0.3,56,0.1,0,0,0,0,0,0,0,0,2.8,2.2,-49.9,310.1,,Manual Takeoff,Other,Takeoff (RC Assisted),17,5,TRUE,,Mavic Mini,TRUE,FALSE,,Smart,RC,TRUE,TRUE,FALSE,,,TRUE,,FALSE,FALSE,FALSE,FALSE,FALSE,FALSE,FALSE,FALSE,FALSE,FALSE,0,Follow Yaw,0,0,-32.4,327.6,FALSE,FALSE,FALSE,FALSE,FALSE,FALSE,,TRUE,Normal,,100,1024,1024,1215,1024,2,FALSE,FALSE,FALSE,FALSE,FALSE,0,FALSE,FALSE,FALSE,FALSE,78,7.832,1610,2065,7.842,FALSE,3.916,3.916,,FALSE,FALSE,NA,104.2,104.1,104.1,0,0,0,0,5,2628.8,657.2,,Idle,0,20,FALSE,5,TRUE,11,Go Home,FALSE,FALSE,FALSE,FALSE,FALSE,FALSE,FALSE,FALSE,FALSE,FALSE,FALSE,FALSE,6.972893548,79.91595276,2.3,120.9,328,TRUE,1,1,FALSE,FALSE,FALSE,FALSE,,TRUE,FALSE,FALSE,Course Lock,49.2,,16.4,Calm,41,,1.12.8,Mavic Mini,1SDCH7G0169R0K,1SFLH6Q0AB03DJ,1SRCH7F014TAHX,1U5X071EXP5ZJG,74.7,0.3,3.2,8.712657,2.23694,0,0,Mavic Mini,1SDCH7G0169R0K,1SFLH6Q0AB03DJ,1SRCH7F014TAHX,1U5X071EXP5ZJG,DJI Fly,,1.12.8,C3A3412D-4793-CB97-2B32-9F5F9959E777,1SDCH7G0169R0K,,,,,,,,,
3/2/2024,05:59.8,4m 41.4s,281.4,6.972889415,79.91595785,0,0,0.3,56,0.1,0,0,0,0,0,0,0,0,2.8,1.9,-50,310,,Manual Takeoff,Other,Takeoff (RC Assisted),17,5,TRUE,,Mavic Mini,TRUE,FALSE,,Smart,RC,TRUE,TRUE,FALSE,,,TRUE,,FALSE,FALSE,FALSE,FALSE,FALSE,FALSE,FALSE,FALSE,FALSE,FALSE,0,Follow Yaw,0,0,-32.4,327.6,FALSE,FALSE,FALSE,FALSE,FALSE,FALSE,,TRUE,Normal,,100,1024,1024,1215,1024,2,FALSE,FALSE,FALSE,FALSE,FALSE,0,FALSE,FALSE,FALSE,FALSE,78,7.832,1610,2065,7.842,FALSE,3.916,3.916,,FALSE,FALSE,NA,104.2,104.1,104.1,0,0,0,0,5,2628.8,657.2,,Idle,0,20,FALSE,5,TRUE,11,Go Home,FALSE,FALSE,FALSE,FALSE,FALSE,FALSE,FALSE,FALSE,FALSE,FALSE,FALSE,FALSE,6.972893548,79.91595276,2.3,120.9,328,TRUE,1,1,FALSE,FALSE,FALSE,FALSE,,TRUE,FALSE,FALSE,Course Lock,49.2,,16.4,Calm,41,,1.12.8,Mavic Mini,1SDCH7G0169R0K,1SFLH6Q0AB03DJ,1SRCH7F014TAHX,1U5X071EXP5ZJG,74.7,0.3,3.2,8.712657,2.23694,0,0,Mavic Mini,1SDCH7G0169R0K,1SFLH6Q0AB03DJ,1SRCH7F014TAHX,1U5X071EXP5ZJG,DJI Fly,,1.12.8,C3A3412D-4793-CB97-2B32-9F5F9959E777,1SDCH7G0169R0K,,,,,,,,,
3/2/2024,05:59.9,4m 41.5s,281.5,6.972889408,79.91595783,0,0,0.3,56,0.1,0,0,0,0,0,0,0,0,2.7,1.6,-50.8,309.2,,Manual Takeoff,Other,Takeoff (RC Assisted),17,5,TRUE,,Mavic Mini,TRUE,FALSE,,Smart,RC,TRUE,TRUE,FALSE,,,TRUE,,FALSE,FALSE,FALSE,FALSE,FALSE,FALSE,FALSE,FALSE,FALSE,FALSE,0,Follow Yaw,0,0,-32.6,327.4,FALSE,FALSE,FALSE,FALSE,FALSE,FALSE,,TRUE,Normal,,100,1024,1024,1215,1024,2,FALSE,FALSE,FALSE,FALSE,FALSE,0,FALSE,FALSE,FALSE,FALSE,78,7.832,1610,2065,7.842,FALSE,3.916,3.916,,FALSE,FALSE,NA,104.2,104.1,104.1,0,0,0,0,5,2628.8,657.2,,Idle,0,20,FALSE,5,TRUE,11,Go Home,FALSE,FALSE,FALSE,FALSE,FALSE,FALSE,FALSE,FALSE,FALSE,FALSE,FALSE,FALSE,6.972893548,79.91595276,2.3,120.9,328,TRUE,1,1,FALSE,FALSE,FALSE,FALSE,,TRUE,FALSE,FALSE,Course Lock,49.2,,16.4,Calm,41,,1.12.8,Mavic Mini,1SDCH7G0169R0K,1SFLH6Q0AB03DJ,1SRCH7F014TAHX,1U5X071EXP5ZJG,74.7,0.3,3.2,8.712657,2.23694,0,0,Mavic Mini,1SDCH7G0169R0K,1SFLH6Q0AB03DJ,1SRCH7F014TAHX,1U5X071EXP5ZJG,DJI Fly,,1.12.8,C3A3412D-4793-CB97-2B32-9F5F9959E777,1SDCH7G0169R0K,,,,,,,,,
3/2/2024,06:00.1,4m 41.6s,281.6,6.972889524,79.91595776,0,0,0.3,56,0.2,0,0,0,0,0,0,0,0,2.7,1.2,-51.9,308.1,,Manual Takeoff,Other,Takeoff (RC Assisted),17,5,TRUE,,Mavic Mini,TRUE,FALSE,,Smart,RC,TRUE,TRUE,FALSE,,,TRUE,,FALSE,FALSE,FALSE,FALSE,FALSE,FALSE,FALSE,FALSE,FALSE,FALSE,0,Follow Yaw,0,0,-33.5,326.5,FALSE,FALSE,FALSE,FALSE,FALSE,FALSE,,TRUE,Normal,,100,1024,1024,1215,1024,2,FALSE,FALSE,FALSE,FALSE,FALSE,0,FALSE,FALSE,FALSE,FALSE,78,7.814,1609,2065,7.842,FALSE,3.908,3.906,0.002,FALSE,FALSE,NA,104.2,104.1,104.1,0,0,0,0,5,2628.8,657.2,,Idle,0,20,FALSE,5,TRUE,11,Go Home,FALSE,FALSE,FALSE,FALSE,FALSE,FALSE,FALSE,FALSE,FALSE,FALSE,FALSE,FALSE,6.972893548,79.91595276,2.3,120.9,328,TRUE,1,1,FALSE,FALSE,FALSE,FALSE,,TRUE,FALSE,FALSE,Course Lock,49.2,,16.4,Calm,41,,1.12.8,Mavic Mini,1SDCH7G0169R0K,1SFLH6Q0AB03DJ,1SRCH7F014TAHX,1U5X071EXP5ZJG,74.7,0.3,3.2,8.712657,2.23694,0,0,Mavic Mini,1SDCH7G0169R0K,1SFLH6Q0AB03DJ,1SRCH7F014TAHX,1U5X071EXP5ZJG,DJI Fly,,1.12.8,C3A3412D-4793-CB97-2B32-9F5F9959E777,1SDCH7G0169R0K,,,,,6.972850556,79.91591175,5,,
3/2/2024,06:00.1,4m 41.7s,281.7,6.972889568,79.91595772,0,0,0.3,56,0.2,0,0,0,0,0,0,0,0,1.9,0.9,-53.4,306.6,,Manual Takeoff,Other,Takeoff (RC Assisted),17,5,TRUE,,Mavic Mini,TRUE,FALSE,,Smart,RC,TRUE,TRUE,FALSE,,,TRUE,,FALSE,FALSE,FALSE,FALSE,FALSE,FALSE,FALSE,FALSE,FALSE,FALSE,0,Follow Yaw,0,0,-34.8,325.2,FALSE,FALSE,FALSE,FALSE,FALSE,FALSE,,TRUE,Normal,,100,1024,1024,1215,1024,2,FALSE,FALSE,FALSE,FALSE,FALSE,0,FALSE,FALSE,FALSE,FALSE,78,7.814,1609,2065,7.797,FALSE,3.908,3.906,0.002,FALSE,FALSE,NA,104.2,104.1,104.1,0,0,0,0,5,2812.4,703.1,,Idle,0,20,FALSE,5,TRUE,11,Go Home,FALSE,FALSE,FALSE,FALSE,FALSE,FALSE,FALSE,FALSE,FALSE,FALSE,FALSE,FALSE,6.972893548,79.91595276,2.3,120.9,328,TRUE,1,1,FALSE,FALSE,FALSE,FALSE,,TRUE,FALSE,FALSE,Course Lock,49.2,,16.4,Calm,41,,1.12.8,Mavic Mini,1SDCH7G0169R0K,1SFLH6Q0AB03DJ,1SRCH7F014TAHX,1U5X071EXP5ZJG,74.7,0.3,3.2,8.712657,2.23694,0,0,Mavic Mini,1SDCH7G0169R0K,1SFLH6Q0AB03DJ,1SRCH7F014TAHX,1U5X071EXP5ZJG,DJI Fly,,1.12.8,C3A3412D-4793-CB97-2B32-9F5F9959E777,1SDCH7G0169R0K,,,,,6.972850556,79.91591175,5,,
3/2/2024,06:00.2,4m 41.8s,281.8,6.972889574,79.9159577,0,0,0.3,56,0.2,0,0,0,0,0,0,0,0,0.1,0.6,-54.9,305.1,,Manual Takeoff,Other,Takeoff (RC Assisted),17,5,TRUE,,Mavic Mini,TRUE,FALSE,,Smart,RC,TRUE,TRUE,FALSE,,,TRUE,,FALSE,FALSE,FALSE,FALSE,FALSE,FALSE,FALSE,FALSE,FALSE,FALSE,0,Follow Yaw,0,0,-36.3,323.7,FALSE,FALSE,FALSE,FALSE,FALSE,FALSE,,TRUE,Normal,,100,1024,1024,1216,1024,2,FALSE,FALSE,FALSE,FALSE,FALSE,0,FALSE,FALSE,FALSE,FALSE,78,7.814,1609,2065,7.797,FALSE,3.908,3.906,0.002,FALSE,FALSE,NA,104.2,104.1,104.1,0,0,0,0,5,2812.4,703.1,,Idle,0,20,FALSE,5,TRUE,11,Go Home,FALSE,FALSE,FALSE,FALSE,FALSE,FALSE,FALSE,FALSE,FALSE,FALSE,FALSE,FALSE,6.972893548,79.91595276,2.3,120.9,328,TRUE,1,1,FALSE,FALSE,FALSE,FALSE,,TRUE,FALSE,FALSE,Course Lock,49.2,,16.4,Calm,41,,1.12.8,Mavic Mini,1SDCH7G0169R0K,1SFLH6Q0AB03DJ,1SRCH7F014TAHX,1U5X071EXP5ZJG,74.7,0.3,3.2,8.712657,2.23694,0,0,Mavic Mini,1SDCH7G0169R0K,1SFLH6Q0AB03DJ,1SRCH7F014TAHX,1U5X071EXP5ZJG,DJI Fly,,1.12.8,C3A3412D-4793-CB97-2B32-9F5F9959E777,1SDCH7G0169R0K,,,,,6.972850556,79.91591175,5,,
3/2/2024,06:00.3,4m 41.9s,281.9,6.972889571,79.91595769,0,0,0.3,56,0.2,0,0,0,0,0,0,0,0,-0.9,0.1,-56.1,303.9,,Manual Takeoff,Other,Takeoff (RC Assisted),17,5,TRUE,,Mavic Mini,TRUE,FALSE,,Smart,RC,TRUE,TRUE,FALSE,,,TRUE,,FALSE,FALSE,FALSE,FALSE,FALSE,FALSE,FALSE,FALSE,FALSE,FALSE,0,Follow Yaw,0,0,-37.5,322.5,FALSE,FALSE,FALSE,FALSE,FALSE,FALSE,,TRUE,Normal,,100,1024,1024,1217,1024,2,FALSE,FALSE,FALSE,FALSE,FALSE,0,FALSE,FALSE,FALSE,FALSE,78,7.814,1609,2065,7.797,FALSE,3.908,3.906,0.002,FALSE,FALSE,NA,104.2,104.1,104.1,0,0,0,0,5,2812.4,703.1,,Idle,0,20,FALSE,5,TRUE,11,Go Home,FALSE,FALSE,FALSE,FALSE,FALSE,FALSE,FALSE,FALSE,FALSE,FALSE,FALSE,FALSE,6.972893548,79.91595276,2.3,120.9,328,TRUE,1,1,FALSE,FALSE,FALSE,FALSE,,TRUE,FALSE,FALSE,Course Lock,49.2,,16.4,Calm,41,,1.12.8,Mavic Mini,1SDCH7G0169R0K,1SFLH6Q0AB03DJ,1SRCH7F014TAHX,1U5X071EXP5ZJG,74.7,0.3,3.2,8.712657,2.23694,0,0,Mavic Mini,1SDCH7G0169R0K,1SFLH6Q0AB03DJ,1SRCH7F014TAHX,1U5X071EXP5ZJG,DJI Fly,,1.12.8,C3A3412D-4793-CB97-2B32-9F5F9959E777,1SDCH7G0169R0K,,,,,6.972850556,79.91591175,5,,
3/2/2024,06:00.4,4m 42.0s,282,6.972889653,79.9159577,0,0,0.3,56,0.2,0.223694,0.223694,0.223694,0.223694,0,0,-0.223694,0,-0.2,-0.3,-57.2,302.8,5.1,Manual Takeoff,Other,Takeoff (RC Assisted),17,5,TRUE,,Mavic Mini,TRUE,FALSE,,Smart,RC,TRUE,TRUE,FALSE,,,TRUE,,FALSE,FALSE,FALSE,FALSE,FALSE,FALSE,FALSE,FALSE,FALSE,FALSE,0,Follow Yaw,0,0,-38.6,321.4,FALSE,FALSE,FALSE,FALSE,FALSE,FALSE,,TRUE,Normal,,100,1024,1024,1217,1024,2,FALSE,FALSE,FALSE,FALSE,FALSE,0,FALSE,FALSE,FALSE,FALSE,78,7.814,1609,2065,7.797,FALSE,3.908,3.906,0.002,FALSE,FALSE,NA,104.2,104.1,104.1,0,0,0,0,5,2812.4,703.1,,Idle,0,20,FALSE,5,TRUE,11,Go Home,FALSE,FALSE,FALSE,FALSE,FALSE,FALSE,FALSE,FALSE,FALSE,FALSE,FALSE,FALSE,6.972893548,79.91595276,2.2,120.9,328,TRUE,1,1,FALSE,FALSE,FALSE,FALSE,,TRUE,FALSE,FALSE,Course Lock,49.2,,16.4,Calm,41,,1.12.8,Mavic Mini,1SDCH7G0169R0K,1SFLH6Q0AB03DJ,1SRCH7F014TAHX,1U5X071EXP5ZJG,74.7,0.3,3.2,8.712657,2.23694,0,0,Mavic Mini,1SDCH7G0169R0K,1SFLH6Q0AB03DJ,1SRCH7F014TAHX,1U5X071EXP5ZJG,DJI Fly,,1.12.8,C3A3412D-4793-CB97-2B32-9F5F9959E777,1SDCH7G0169R0K,,,,,6.972850556,79.91591175,5,,
3/2/2024,06:00.5,4m 42.1s,282.1,6.972889819,79.91595779,0,0,0.3,56,0.3,0.223694,0.223694,0.223694,0.223694,0,0,-0.447388,0,-0.4,-0.5,-57.5,302.5,23.5,Tripod,Other,,17,5,TRUE,,Mavic Mini,TRUE,FALSE,,Smart,RC,FALSE,TRUE,FALSE,,,TRUE,,FALSE,FALSE,FALSE,FALSE,FALSE,FALSE,FALSE,FALSE,FALSE,FALSE,0,Follow Yaw,0,0,-39.2,320.8,FALSE,FALSE,FALSE,FALSE,FALSE,FALSE,,TRUE,Normal,,100,1024,1024,1216,1024,2,FALSE,FALSE,FALSE,FALSE,FALSE,0,FALSE,FALSE,FALSE,FALSE,78,7.814,1609,2065,7.797,FALSE,3.908,3.906,0.002,FALSE,FALSE,NA,104.2,104.1,104.1,0,0,0,0,5,2812.4,703.1,,Idle,0,20,FALSE,5,TRUE,11,Go Home,FALSE,FALSE,FALSE,FALSE,FALSE,FALSE,FALSE,FALSE,FALSE,FALSE,FALSE,FALSE,6.972893548,79.91595276,2.2,120.9,328,TRUE,1,1,FALSE,FALSE,FALSE,FALSE,,TRUE,FALSE,FALSE,Course Lock,49.2,,16.4,Calm,41,,1.12.8,Mavic Mini,1SDCH7G0169R0K,1SFLH6Q0AB03DJ,1SRCH7F014TAHX,1U5X071EXP5ZJG,74.7,0.3,3.2,8.712657,2.23694,0,0,Mavic Mini,1SDCH7G0169R0K,1SFLH6Q0AB03DJ,1SRCH7F014TAHX,1U5X071EXP5ZJG,DJI Fly,,1.12.8,C3A3412D-4793-CB97-2B32-9F5F9959E777,1SDCH7G0169R0K,,,,,6.972850556,79.91591175,5,Flight mode changed to Tripod.,
3/2/2024,06:00.6,4m 42.2s,282.2,6.972889989,79.9159578,0,0,0.3,56,0.4,0.223694,0.223694,0.223694,0.223694,0,0,-0.671082,0,1,-1.5,-57.3,302.7,2.9,Tripod,Other,,17,5,TRUE,,Mavic Mini,TRUE,FALSE,,Smart,RC,FALSE,TRUE,FALSE,,,TRUE,,FALSE,FALSE,FALSE,FALSE,FALSE,FALSE,FALSE,FALSE,FALSE,FALSE,0,Follow Yaw,0,0,-39.2,320.8,FALSE,FALSE,FALSE,FALSE,FALSE,FALSE,,TRUE,Normal,,100,1024,1024,1215,1024,2,FALSE,FALSE,FALSE,FALSE,FALSE,0,FALSE,FALSE,FALSE,FALSE,78,7.814,1609,2065,7.797,FALSE,3.908,3.906,0.002,FALSE,FALSE,NA,104.2,104.1,104.1,0,0,0,0,5,2812.4,703.1,,Idle,0,20,FALSE,5,TRUE,11,Go Home,FALSE,FALSE,FALSE,FALSE,FALSE,FALSE,FALSE,FALSE,FALSE,FALSE,FALSE,FALSE,6.972893548,79.91595276,2.2,120.9,328,TRUE,1,1,FALSE,FALSE,FALSE,FALSE,,TRUE,FALSE,FALSE,Course Lock,49.2,,16.4,Calm,41,,1.12.8,Mavic Mini,1SDCH7G0169R0K,1SFLH6Q0AB03DJ,1SRCH7F014TAHX,1U5X071EXP5ZJG,74.7,0.3,3.2,8.712657,2.23694,0,0,Mavic Mini,1SDCH7G0169R0K,1SFLH6Q0AB03DJ,1SRCH7F014TAHX,1U5X071EXP5ZJG,DJI Fly,,1.12.8,C3A3412D-4793-CB97-2B32-9F5F9959E777,1SDCH7G0169R0K,,,,,6.972850556,79.91591175,5,,
3/2/2024,06:00.7,4m 42.3s,282.3,6.972890146,79.9159578,0,0,0.6,56,0.4,0.223694,0.223694,0.223694,0.223694,0,0,-0.894776,0,1.5,-1.5,-57.2,302.8,359.6,Tripod,Other,,17,5,TRUE,,Mavic Mini,TRUE,FALSE,,Smart,RC,FALSE,TRUE,FALSE,,,TRUE,,FALSE,FALSE,FALSE,FALSE,FALSE,FALSE,FALSE,FALSE,FALSE,FALSE,0,Follow Yaw,0,0,-39.2,320.8,FALSE,FALSE,FALSE,FALSE,FALSE,FALSE,,TRUE,Normal,,100,1024,1024,1215,1024,2,FALSE,FALSE,FALSE,FALSE,FALSE,0,FALSE,FALSE,FALSE,FALSE,78,7.814,1609,2065,7.797,FALSE,3.908,3.906,0.002,FALSE,FALSE,NA,104.2,104.1,104.1,0,0,0,0,5,2812.4,703.1,,Idle,0,20,FALSE,5,TRUE,11,Go Home,FALSE,FALSE,FALSE,FALSE,FALSE,FALSE,FALSE,FALSE,FALSE,FALSE,FALSE,FALSE,6.972893548,79.91595276,2.2,120.9,328,TRUE,1,1,FALSE,FALSE,FALSE,FALSE,,TRUE,FALSE,FALSE,Course Lock,49.2,,16.4,Calm,41,,1.12.8,Mavic Mini,1SDCH7G0169R0K,1SFLH6Q0AB03DJ,1SRCH7F014TAHX,1U5X071EXP5ZJG,74.7,0.3,3.2,8.712657,2.23694,0,0,Mavic Mini,1SDCH7G0169R0K,1SFLH6Q0AB03DJ,1SRCH7F014TAHX,1U5X071EXP5ZJG,DJI Fly,,1.12.8,C3A3412D-4793-CB97-2B32-9F5F9959E777,1SDCH7G0169R0K,,,,,6.972850556,79.91591175,5,,
3/2/2024,06:00.8,4m 42.4s,282.4,6.972890316,79.91595777,0.3,0.3,0.6,56,0.5,0.223694,0.223694,0.223694,0.223694,0,0,-1.11847,0,1.4,-1.6,-57.3,302.7,351.8,Tripod,Other,,17,5,TRUE,,Mavic Mini,TRUE,FALSE,,Smart,RC,FALSE,TRUE,FALSE,,,TRUE,,FALSE,FALSE,FALSE,FALSE,FALSE,FALSE,FALSE,FALSE,FALSE,FALSE,0,Follow Yaw,0,0,-39.2,320.8,FALSE,FALSE,FALSE,FALSE,FALSE,FALSE,,TRUE,Normal,,100,1024,1024,1215,1024,2,FALSE,FALSE,FALSE,FALSE,FALSE,0,FALSE,FALSE,FALSE,FALSE,78,7.814,1609,2065,7.797,FALSE,3.908,3.906,0.002,FALSE,FALSE,NA,104.2,104.1,104.1,0,0,0,0,5,2812.4,703.1,,Idle,0,20,FALSE,5,TRUE,11,Go Home,FALSE,FALSE,FALSE,FALSE,FALSE,FALSE,FALSE,FALSE,FALSE,FALSE,FALSE,FALSE,6.972893548,79.91595276,2.1,120.9,328,TRUE,1,1,FALSE,FALSE,FALSE,FALSE,,TRUE,FALSE,FALSE,Course Lock,49.2,,16.4,Calm,41,,1.12.8,Mavic Mini,1SDCH7G0169R0K,1SFLH6Q0AB03DJ,1SRCH7F014TAHX,1U5X071EXP5ZJG,74.7,0.3,3.2,8.712657,2.23694,0,0,Mavic Mini,1SDCH7G0169R0K,1SFLH6Q0AB03DJ,1SRCH7F014TAHX,1U5X071EXP5ZJG,DJI Fly,,1.12.8,C3A3412D-4793-CB97-2B32-9F5F9959E777,1SDCH7G0169R0K,,,,,6.972850556,79.91591175,5,,
3/2/2024,06:00.8,4m 42.5s,282.5,6.972890637,79.91595769,0.3,0.3,0.9,56,0.6,0.223694,0.223694,0.223694,0.223694,0,0,-1.342164,0,1.3,-1.6,-57.2,302.8,349.6,Tripod,Other,,17,5,TRUE,,Mavic Mini,TRUE,FALSE,,Smart,RC,FALSE,TRUE,FALSE,,,TRUE,,FALSE,FALSE,FALSE,FALSE,FALSE,FALSE,FALSE,FALSE,FALSE,FALSE,0,Follow Yaw,0,0,-39.2,320.8,FALSE,FALSE,FALSE,FALSE,FALSE,FALSE,,TRUE,Normal,,100,1024,1024,1213,1024,2,FALSE,FALSE,FALSE,FALSE,FALSE,0,FALSE,FALSE,FALSE,FALSE,78,7.814,1609,2065,7.797,FALSE,3.908,3.906,0.002,FALSE,FALSE,NA,104.2,104.1,104.1,0,0,0,0,5,2812.4,703.1,,Idle,0,20,FALSE,5,TRUE,11,Go Home,FALSE,FALSE,FALSE,FALSE,FALSE,FALSE,FALSE,FALSE,FALSE,FALSE,FALSE,FALSE,6.972893548,79.91595276,2,120.9,328,TRUE,1,1,FALSE,FALSE,FALSE,FALSE,,TRUE,FALSE,FALSE,Course Lock,49.2,,16.4,Calm,41,,1.12.8,Mavic Mini,1SDCH7G0169R0K,1SFLH6Q0AB03DJ,1SRCH7F014TAHX,1U5X071EXP5ZJG,74.7,0.3,3.2,8.712657,2.23694,0,0,Mavic Mini,1SDCH7G0169R0K,1SFLH6Q0AB03DJ,1SRCH7F014TAHX,1U5X071EXP5ZJG,DJI Fly,,1.12.8,C3A3412D-4793-CB97-2B32-9F5F9959E777,1SDCH7G0169R0K,,,,,6.972850556,79.91591175,5,,
3/2/2024,06:00.9,4m 42.6s,282.6,6.972890817,79.91595766,0.6,0.6,0.9,57,0.7,0.223694,0.223694,0.223694,0.223694,0,0,-1.342164,0,1.6,-2.1,-57.3,302.7,352.5,Tripod,Other,,17,5,TRUE,,Mavic Mini,TRUE,FALSE,,Smart,RC,FALSE,TRUE,FALSE,,,TRUE,,FALSE,FALSE,FALSE,FALSE,FALSE,FALSE,FALSE,FALSE,FALSE,FALSE,0,Follow Yaw,0,0,-39.2,320.8,FALSE,FALSE,FALSE,FALSE,FALSE,FALSE,,TRUE,Normal,,100,1024,1024,1208,1024,2,FALSE,FALSE,FALSE,FALSE,FALSE,0,FALSE,FALSE,FALSE,FALSE,78,7.814,1609,2065,7.797,FALSE,3.908,3.906,0.002,FALSE,FALSE,NA,104.2,104.1,104.1,0,0,0,0,5,2812.4,703.1,,Idle,0,20,FALSE,5,TRUE,11,Go Home,FALSE,FALSE,FALSE,FALSE,FALSE,FALSE,FALSE,FALSE,FALSE,FALSE,FALSE,FALSE,6.972893548,79.91595276,2,120.9,328,TRUE,1,1,FALSE,FALSE,FALSE,FALSE,,TRUE,FALSE,FALSE,Course Lock,49.2,,16.4,Calm,41,,1.12.8,Mavic Mini,1SDCH7G0169R0K,1SFLH6Q0AB03DJ,1SRCH7F014TAHX,1U5X071EXP5ZJG,74.7,0.3,3.2,8.712657,2.23694,0,0,Mavic Mini,1SDCH7G0169R0K,1SFLH6Q0AB03DJ,1SRCH7F014TAHX,1U5X071EXP5ZJG,DJI Fly,,1.12.8,C3A3412D-4793-CB97-2B32-9F5F9959E777,1SDCH7G0169R0K,,,,,6.972850556,79.91591175,5,,
3/2/2024,06:01.1,4m 42.7s,282.7,6.972890988,79.91595765,0.9,0.9,1.3,57,0.7,0,0.223694,0,0.223694,0,0,-1.11847,0,1.7,-2.2,-57.2,302.8,,Tripod,Other,,17,5,TRUE,,Mavic Mini,TRUE,FALSE,,Smart,RC,FALSE,TRUE,FALSE,,,TRUE,,FALSE,FALSE,FALSE,FALSE,FALSE,FALSE,FALSE,FALSE,FALSE,FALSE,0,Follow Yaw,0,0,-39.2,320.8,FALSE,FALSE,FALSE,FALSE,FALSE,FALSE,,TRUE,Normal,,100,1024,1024,1196,1024,2,FALSE,FALSE,FALSE,FALSE,FALSE,0,FALSE,FALSE,FALSE,FALSE,78,7.658,1608,2065,7.821,FALSE,3.829,3.829,0.002,FALSE,FALSE,NA,104.4,104.1,104.3,0,0,1,0,5,2812.4,703.1,,Idle,0,20,FALSE,5,TRUE,11,Go Home,FALSE,FALSE,FALSE,FALSE,FALSE,FALSE,FALSE,FALSE,FALSE,FALSE,FALSE,FALSE,6.972889721,79.91595778,0.4,120.9,328,TRUE,1,1,FALSE,FALSE,FALSE,FALSE,,TRUE,FALSE,FALSE,Course Lock,49.2,,16.4,Calm,41,,1.12.8,Mavic Mini,1SDCH7G0169R0K,1SFLH6Q0AB03DJ,1SRCH7F014TAHX,1U5X071EXP5ZJG,74.7,0.3,3.2,8.712657,2.23694,0,0,Mavic Mini,1SDCH7G0169R0K,1SFLH6Q0AB03DJ,1SRCH7F014TAHX,1U5X071EXP5ZJG,DJI Fly,,1.12.8,C3A3412D-4793-CB97-2B32-9F5F9959E777,1SDCH7G0169R0K,,,,,6.972850556,79.91591175,5,Home Point Updated.,
3/2/2024,06:01.2,4m 42.8s,282.8,6.972891071,79.91595762,0.9,0.9,1.3,57,0.8,0,0.223694,0,0.223694,0,0,-1.11847,0,1.4,-2,-57.2,302.8,,Tripod,Other,,17,5,TRUE,,Mavic Mini,TRUE,FALSE,,Smart,RC,FALSE,TRUE,FALSE,,,TRUE,,FALSE,FALSE,FALSE,FALSE,FALSE,FALSE,FALSE,FALSE,FALSE,FALSE,0,Follow Yaw,0,0,-39.2,320.8,FALSE,FALSE,FALSE,FALSE,FALSE,FALSE,,TRUE,Normal,,100,1024,1024,1182,1024,2,FALSE,FALSE,FALSE,FALSE,FALSE,0,FALSE,FALSE,FALSE,FALSE,78,7.658,1608,2065,7.821,FALSE,3.829,3.829,0.002,FALSE,FALSE,NA,104.4,104.1,104.3,0,0,1,0,5,2812.4,703.1,,Idle,0,20,FALSE,5,TRUE,11,Go Home,FALSE,FALSE,FALSE,FALSE,FALSE,FALSE,FALSE,FALSE,FALSE,FALSE,FALSE,FALSE,6.972889721,79.91595778,0.4,120.9,328,TRUE,1,1,FALSE,FALSE,FALSE,FALSE,,TRUE,FALSE,FALSE,Course Lock,49.2,,16.4,Calm,41,,1.12.8,Mavic Mini,1SDCH7G0169R0K,1SFLH6Q0AB03DJ,1SRCH7F014TAHX,1U5X071EXP5ZJG,74.7,0.3,3.2,8.712657,2.23694,0,0,Mavic Mini,1SDCH7G0169R0K,1SFLH6Q0AB03DJ,1SRCH7F014TAHX,1U5X071EXP5ZJG,DJI Fly,,1.12.8,C3A3412D-4793-CB97-2B32-9F5F9959E777,1SDCH7G0169R0K,,,,,6.972850556,79.91591175,5,Home Point updated. RTH altitude adjusted to 15 m! (Code: 120852).,
3/2/2024,06:01.3,4m 42.9s,282.9,6.972891038,79.91595754,0.9,0.9,1.6,57,0.8,0,0.223694,0,0.223694,0,0,-0.894776,0,1.1,-1.7,-57.2,302.8,,Tripod,Other,,17,5,TRUE,,Mavic Mini,TRUE,FALSE,,Smart,RC,FALSE,TRUE,FALSE,,,TRUE,,FALSE,FALSE,FALSE,FALSE,FALSE,FALSE,FALSE,FALSE,FALSE,FALSE,0,Follow Yaw,0,0,-39.2,320.8,FALSE,FALSE,FALSE,FALSE,FALSE,FALSE,,TRUE,Normal,,100,1024,1024,1114,1024,2,FALSE,FALSE,FALSE,FALSE,FALSE,0,FALSE,FALSE,FALSE,FALSE,78,7.658,1608,2065,7.821,FALSE,3.829,3.829,0.002,FALSE,FALSE,NA,104.4,104.1,104.3,0,0,1,0,5,2812.4,703.1,,Idle,0,20,FALSE,5,TRUE,11,Go Home,FALSE,FALSE,FALSE,FALSE,FALSE,FALSE,FALSE,FALSE,FALSE,FALSE,FALSE,FALSE,6.972889721,79.91595778,0.4,120.9,328,TRUE,1,1,FALSE,FALSE,FALSE,FALSE,,TRUE,FALSE,FALSE,Course Lock,49.2,,16.4,Calm,41,,1.12.8,Mavic Mini,1SDCH7G0169R0K,1SFLH6Q0AB03DJ,1SRCH7F014TAHX,1U5X071EXP5ZJG,74.7,0.3,3.2,8.712657,2.23694,0,0,Mavic Mini,1SDCH7G0169R0K,1SFLH6Q0AB03DJ,1SRCH7F014TAHX,1U5X071EXP5ZJG,DJI Fly,,1.12.8,C3A3412D-4793-CB97-2B32-9F5F9959E777,1SDCH7G0169R0K,,,,,6.972850556,79.91591175,5,,
3/2/2024,06:01.4,4m 43.0s,283,6.972891072,79.91595753,1.3,1.3,1.6,57,0.8,0,0.223694,0,0.223694,0,0,-0.671082,0,1,-1.3,-57.2,302.8,,Tripod,Other,,17,5,TRUE,,Mavic Mini,TRUE,FALSE,,Smart,RC,FALSE,TRUE,FALSE,,,TRUE,,FALSE,FALSE,FALSE,FALSE,FALSE,FALSE,FALSE,FALSE,FALSE,FALSE,0,Follow Yaw,0,0,-39.2,320.8,FALSE,FALSE,FALSE,FALSE,FALSE,FALSE,,TRUE,Normal,,100,1024,1024,1024,1024,2,FALSE,FALSE,FALSE,FALSE,FALSE,0,FALSE,FALSE,FALSE,FALSE,78,7.658,1608,2065,7.821,FALSE,3.829,3.829,0.002,FALSE,FALSE,NA,104.4,104.1,104.3,0,0,1,0,5,2812.4,703.1,,Idle,0,20,FALSE,5,TRUE,11,Go Home,FALSE,FALSE,FALSE,FALSE,FALSE,FALSE,FALSE,FALSE,FALSE,FALSE,FALSE,FALSE,6.972889721,79.91595778,0.5,120.9,328,TRUE,1,1,FALSE,FALSE,FALSE,FALSE,,TRUE,FALSE,FALSE,Course Lock,49.2,,16.4,Calm,41,,1.12.8,Mavic Mini,1SDCH7G0169R0K,1SFLH6Q0AB03DJ,1SRCH7F014TAHX,1U5X071EXP5ZJG,74.7,0.3,3.2,8.712657,2.23694,0,0,Mavic Mini,1SDCH7G0169R0K,1SFLH6Q0AB03DJ,1SRCH7F014TAHX,1U5X071EXP5ZJG,DJI Fly,,1.12.8,C3A3412D-4793-CB97-2B32-9F5F9959E777,1SDCH7G0169R0K,,,,,6.972850556,79.91591175,5,,
3/2/2024,06:01.4,4m 43.1s,283.1,6.972891117,79.91595754,1.3,1.3,1.9,57,0.8,0,0.223694,0,0.223694,0,0,-0.447388,0,1.1,-1.4,-57.2,302.8,,Tripod,Other,,17,5,TRUE,,Mavic Mini,TRUE,FALSE,,Smart,RC,FALSE,TRUE,FALSE,,,TRUE,,FALSE,FALSE,FALSE,FALSE,FALSE,FALSE,FALSE,FALSE,FALSE,FALSE,0,Follow Yaw,0,0,-39.2,320.8,FALSE,FALSE,FALSE,FALSE,FALSE,FALSE,,TRUE,Normal,,100,1024,1024,1024,1024,2,FALSE,FALSE,FALSE,FALSE,FALSE,0,FALSE,FALSE,FALSE,FALSE,78,7.658,1608,2065,7.821,FALSE,3.829,3.829,0.002,FALSE,FALSE,NA,104.4,104.1,104.3,0,0,1,0,5,2812.4,703.1,,Idle,0,20,FALSE,5,TRUE,11,Go Home,FALSE,FALSE,FALSE,FALSE,FALSE,FALSE,FALSE,FALSE,FALSE,FALSE,FALSE,FALSE,6.972889721,79.91595778,0.5,120.9,328,TRUE,1,1,FALSE,FALSE,FALSE,FALSE,,TRUE,FALSE,FALSE,Course Lock,49.2,,16.4,Calm,41,,1.12.8,Mavic Mini,1SDCH7G0169R0K,1SFLH6Q0AB03DJ,1SRCH7F014TAHX,1U5X071EXP5ZJG,74.7,0.3,3.2,8.712657,2.23694,0,0,Mavic Mini,1SDCH7G0169R0K,1SFLH6Q0AB03DJ,1SRCH7F014TAHX,1U5X071EXP5ZJG,DJI Fly,,1.12.8,C3A3412D-4793-CB97-2B32-9F5F9959E777,1SDCH7G0169R0K,,,,,6.972850556,79.91591175,5,,
3/2/2024,06:01.5,4m 43.2s,283.2,6.972891181,79.91595753,1.3,1.3,1.9,57,0.9,0,0.223694,0,0.223694,0,0,-0.223694,0,1.6,-1.4,-57.2,302.8,,Tripod,Other,,17,5,TRUE,,Mavic Mini,TRUE,FALSE,,Smart,RC,FALSE,TRUE,FALSE,,,TRUE,,FALSE,FALSE,FALSE,FALSE,FALSE,FALSE,FALSE,FALSE,FALSE,FALSE,0,Follow Yaw,0,0,-39.2,320.8,FALSE,FALSE,FALSE,FALSE,FALSE,FALSE,,TRUE,Normal,,100,1024,1024,1024,1024,2,FALSE,FALSE,FALSE,FALSE,FALSE,0,FALSE,FALSE,FALSE,FALSE,78,7.658,1608,2065,7.821,FALSE,3.829,3.829,0.002,FALSE,FALSE,NA,104.4,104.1,104.3,0,0,1,0,5,2812.4,703.1,,Idle,0,20,FALSE,5,TRUE,11,Go Home,FALSE,FALSE,FALSE,FALSE,FALSE,FALSE,FALSE,FALSE,FALSE,FALSE,FALSE,FALSE,6.972889721,79.91595778,0.5,120.9,328,TRUE,1,1,FALSE,FALSE,FALSE,FALSE,,TRUE,FALSE,FALSE,Course Lock,49.2,,16.4,Calm,41,,1.12.8,Mavic Mini,1SDCH7G0169R0K,1SFLH6Q0AB03DJ,1SRCH7F014TAHX,1U5X071EXP5ZJG,74.7,0.3,3.2,8.712657,2.23694,0,0,Mavic Mini,1SDCH7G0169R0K,1SFLH6Q0AB03DJ,1SRCH7F014TAHX,1U5X071EXP5ZJG,DJI Fly,,1.12.8,C3A3412D-4793-CB97-2B32-9F5F9959E777,1SDCH7G0169R0K,,,,,6.972850556,79.91591175,5,,
3/2/2024,06:01.7,4m 43.3s,283.3,6.972891277,79.9159575,1.3,1.3,1.9,57,0.9,0,0.223694,0,0.223694,0,0,0,0,1.5,-1.3,-57.2,302.8,,Tripod,Other,,17,5,TRUE,,Mavic Mini,TRUE,FALSE,,Smart,RC,FALSE,TRUE,FALSE,,,TRUE,,FALSE,FALSE,FALSE,FALSE,FALSE,FALSE,FALSE,FALSE,FALSE,FALSE,0,Follow Yaw,0,0,-39.2,320.8,FALSE,FALSE,FALSE,FALSE,FALSE,FALSE,,TRUE,Normal,,100,1024,1024,1024,1024,2,FALSE,FALSE,FALSE,FALSE,FALSE,0,FALSE,FALSE,FALSE,FALSE,78,7.658,1608,2065,7.821,FALSE,3.829,3.829,0.002,FALSE,FALSE,NA,104.4,104.1,104.3,0,0,1,0,5,2812.4,703.1,,Idle,0,20,FALSE,5,TRUE,11,Go Home,FALSE,FALSE,FALSE,FALSE,FALSE,FALSE,FALSE,FALSE,FALSE,FALSE,FALSE,FALSE,6.972889721,79.91595778,0.5,120.9,328,TRUE,1,1,FALSE,FALSE,FALSE,FALSE,,TRUE,FALSE,FALSE,Course Lock,49.2,,16.4,Calm,41,,1.12.8,Mavic Mini,1SDCH7G0169R0K,1SFLH6Q0AB03DJ,1SRCH7F014TAHX,1U5X071EXP5ZJG,74.7,0.3,3.2,8.712657,2.23694,0,0,Mavic Mini,1SDCH7G0169R0K,1SFLH6Q0AB03DJ,1SRCH7F014TAHX,1U5X071EXP5ZJG,DJI Fly,,1.12.8,C3A3412D-4793-CB97-2B32-9F5F9959E777,1SDCH7G0169R0K,,,,,6.972850556,79.91591175,5,,
3/2/2024,06:01.8,4m 43.4s,283.4,6.972891278,79.91595748,1.3,1.3,1.9,57,0.9,0,0.223694,0,0.223694,0,0,0,0,1.3,-1,-57.2,302.8,,Tripod,Other,,17,5,TRUE,,Mavic Mini,TRUE,FALSE,,Smart,RC,FALSE,TRUE,FALSE,,,TRUE,,FALSE,FALSE,FALSE,FALSE,FALSE,FALSE,FALSE,FALSE,FALSE,FALSE,0,Follow Yaw,0,0,-39.2,320.8,FALSE,FALSE,FALSE,FALSE,FALSE,FALSE,,TRUE,Normal,,100,1024,1024,1145,1024,2,FALSE,FALSE,FALSE,FALSE,FALSE,0,FALSE,FALSE,FALSE,FALSE,78,7.658,1608,2065,7.821,FALSE,3.829,3.829,0.002,FALSE,FALSE,NA,104.4,104.1,104.3,0,0,1,0,5,2812.4,703.1,,Idle,0,20,FALSE,5,TRUE,11,Go Home,FALSE,FALSE,FALSE,FALSE,FALSE,FALSE,FALSE,FALSE,FALSE,FALSE,FALSE,FALSE,6.972889721,79.91595778,0.5,120.9,328,TRUE,1,1,FALSE,FALSE,FALSE,FALSE,,TRUE,FALSE,FALSE,Course Lock,49.2,,16.4,Calm,41,,1.12.8,Mavic Mini,1SDCH7G0169R0K,1SFLH6Q0AB03DJ,1SRCH7F014TAHX,1U5X071EXP5ZJG,74.7,0.3,3.2,8.712657,2.23694,0,0,Mavic Mini,1SDCH7G0169R0K,1SFLH6Q0AB03DJ,1SRCH7F014TAHX,1U5X071EXP5ZJG,DJI Fly,,1.12.8,C3A3412D-4793-CB97-2B32-9F5F9959E777,1SDCH7G0169R0K,,,,,6.972850556,79.91591175,5,,
3/2/2024,06:01.8,4m 43.5s,283.5,6.972891233,79.91595748,1.3,1.3,1.9,57,0.9,0,0.223694,0,0.223694,0,0,0,0,1.2,-0.9,-57.2,302.8,,Tripod,Other,,17,5,TRUE,,Mavic Mini,TRUE,FALSE,,Smart,RC,FALSE,TRUE,FALSE,,,TRUE,,FALSE,FALSE,FALSE,FALSE,FALSE,FALSE,FALSE,FALSE,FALSE,FALSE,0,Follow Yaw,0,0,-39.2,320.8,FALSE,FALSE,FALSE,FALSE,FALSE,FALSE,,TRUE,Normal,,100,1024,1024,1367,1024,2,FALSE,FALSE,FALSE,FALSE,FALSE,0,FALSE,FALSE,FALSE,FALSE,78,7.658,1608,2065,7.821,FALSE,3.829,3.829,0.002,FALSE,FALSE,NA,104.4,104.1,104.3,0,0,1,0,5,2812.4,703.1,,Idle,0,20,FALSE,5,TRUE,11,Go Home,FALSE,FALSE,FALSE,FALSE,FALSE,FALSE,FALSE,FALSE,FALSE,FALSE,FALSE,FALSE,6.972889721,79.91595778,0.5,120.9,328,TRUE,1,1,FALSE,FALSE,FALSE,FALSE,,TRUE,FALSE,FALSE,Course Lock,49.2,,16.4,Calm,41,,1.12.8,Mavic Mini,1SDCH7G0169R0K,1SFLH6Q0AB03DJ,1SRCH7F014TAHX,1U5X071EXP5ZJG,74.7,0.3,3.2,8.712657,2.23694,0,0,Mavic Mini,1SDCH7G0169R0K,1SFLH6Q0AB03DJ,1SRCH7F014TAHX,1U5X071EXP5ZJG,DJI Fly,,1.12.8,C3A3412D-4793-CB97-2B32-9F5F9959E777,1SDCH7G0169R0K,,,,,6.972850556,79.91591175,5,,
3/2/2024,06:02.1,4m 43.6s,283.6,6.972891238,79.91595745,1.3,1.3,1.9,57,0.9,0,0.223694,0,0.223694,0,0,0,0,1.2,-0.9,-57.2,302.8,,Tripod,Other,,17,5,TRUE,,Mavic Mini,TRUE,FALSE,,Smart,RC,FALSE,TRUE,FALSE,,,TRUE,,FALSE,FALSE,FALSE,FALSE,FALSE,FALSE,FALSE,FALSE,FALSE,FALSE,0,Follow Yaw,0,0,-39.2,320.8,FALSE,FALSE,FALSE,FALSE,FALSE,FALSE,,TRUE,Normal,,100,1024,1024,1382,1024,2,FALSE,FALSE,FALSE,FALSE,FALSE,0,FALSE,FALSE,FALSE,FALSE,78,7.658,1608,2065,7.821,FALSE,3.829,3.829,0.002,FALSE,FALSE,NA,104.4,104.1,104.3,0,0,1,0,5,2812.4,703.1,,Idle,0,20,FALSE,5,TRUE,11,Go Home,FALSE,FALSE,FALSE,FALSE,FALSE,FALSE,FALSE,FALSE,FALSE,FALSE,FALSE,FALSE,6.972889721,79.91595778,0.5,120.9,328,TRUE,1,1,FALSE,FALSE,FALSE,FALSE,,TRUE,FALSE,FALSE,Course Lock,49.2,,16.4,Calm,41,,1.12.8,Mavic Mini,1SDCH7G0169R0K,1SFLH6Q0AB03DJ,1SRCH7F014TAHX,1U5X071EXP5ZJG,74.7,0.3,3.2,8.712657,2.23694,0,0,Mavic Mini,1SDCH7G0169R0K,1SFLH6Q0AB03DJ,1SRCH7F014TAHX,1U5X071EXP5ZJG,DJI Fly,,1.12.8,C3A3412D-4793-CB97-2B32-9F5F9959E777,1SDCH7G0169R0K,,,,,6.972850556,79.91591175,5,,
3/2/2024,06:02.1,4m 43.7s,283.7,6.972891278,79.91595741,1.3,1.3,1.9,57,0.9,0,0.223694,0,0.223694,0,0,0,0,1.2,-0.8,-57,303,,Tripod,Other,,17,5,TRUE,,Mavic Mini,TRUE,FALSE,,Smart,RC,FALSE,TRUE,FALSE,,,TRUE,,FALSE,FALSE,FALSE,FALSE,FALSE,FALSE,FALSE,FALSE,FALSE,FALSE,0,Follow Yaw,0,0,-39.2,320.8,FALSE,FALSE,FALSE,FALSE,FALSE,FALSE,,TRUE,Normal,,100,1024,1024,1382,1024,2,FALSE,FALSE,FALSE,FALSE,FALSE,0,FALSE,FALSE,FALSE,FALSE,78,7.658,1608,2065,7.643,FALSE,3.829,3.829,0.002,FALSE,FALSE,NA,104.4,104.1,104.3,0,0,1,0,5,3404.4,851.1,,Idle,0,20,FALSE,5,TRUE,11,Go Home,FALSE,FALSE,FALSE,FALSE,FALSE,FALSE,FALSE,FALSE,FALSE,FALSE,FALSE,FALSE,6.972889721,79.91595778,0.5,120.9,328,TRUE,1,1,FALSE,FALSE,FALSE,FALSE,,TRUE,FALSE,FALSE,Course Lock,49.2,,16.4,Calm,41,,1.12.8,Mavic Mini,1SDCH7G0169R0K,1SFLH6Q0AB03DJ,1SRCH7F014TAHX,1U5X071EXP5ZJG,74.7,0.3,3.2,8.712657,2.23694,0,0,Mavic Mini,1SDCH7G0169R0K,1SFLH6Q0AB03DJ,1SRCH7F014TAHX,1U5X071EXP5ZJG,DJI Fly,,1.12.8,C3A3412D-4793-CB97-2B32-9F5F9959E777,1SDCH7G0169R0K,,,,,6.972850556,79.91591175,5,,
3/2/2024,06:02.2,4m 43.8s,283.8,6.972891251,79.91595735,1.3,1.3,2.2,57,1,0,0.223694,0,0.223694,0,0,-0.447388,0,1.2,-1.2,-56.9,303.1,,Tripod,Other,,17,5,TRUE,,Mavic Mini,TRUE,FALSE,,Smart,RC,FALSE,TRUE,FALSE,,,TRUE,,FALSE,FALSE,FALSE,FALSE,FALSE,FALSE,FALSE,FALSE,FALSE,FALSE,0,Follow Yaw,0,0,-39.2,320.8,FALSE,FALSE,FALSE,FALSE,FALSE,FALSE,,TRUE,Normal,,100,1024,1024,1353,1024,2,FALSE,FALSE,FALSE,FALSE,FALSE,0,FALSE,FALSE,FALSE,FALSE,78,7.658,1608,2065,7.643,FALSE,3.829,3.829,0.002,FALSE,FALSE,NA,104.4,104.1,104.3,0,0,1,0,5,3404.4,851.1,,Idle,0,20,FALSE,5,TRUE,11,Go Home,FALSE,FALSE,FALSE,FALSE,FALSE,FALSE,FALSE,FALSE,FALSE,FALSE,FALSE,FALSE,6.972889721,79.91595778,0.5,120.9,328,TRUE,1,1,FALSE,FALSE,FALSE,FALSE,,TRUE,FALSE,FALSE,Course Lock,49.2,,16.4,Calm,41,,1.12.8,Mavic Mini,1SDCH7G0169R0K,1SFLH6Q0AB03DJ,1SRCH7F014TAHX,1U5X071EXP5ZJG,74.7,0.3,3.2,8.712657,2.23694,0,0,Mavic Mini,1SDCH7G0169R0K,1SFLH6Q0AB03DJ,1SRCH7F014TAHX,1U5X071EXP5ZJG,DJI Fly,,1.12.8,C3A3412D-4793-CB97-2B32-9F5F9959E777,1SDCH7G0169R0K,,,,,6.972850556,79.91591175,5,,
3/2/2024,06:02.3,4m 43.9s,283.9,6.972891286,79.91595734,1.3,1.3,2.2,57,1,0,0.223694,0,0.223694,0,0,-0.894776,0,1.1,-1.1,-56.9,303.1,,Tripod,Other,,17,5,TRUE,,Mavic Mini,TRUE,FALSE,,Smart,RC,FALSE,TRUE,FALSE,,,TRUE,,FALSE,FALSE,FALSE,FALSE,FALSE,FALSE,FALSE,FALSE,FALSE,FALSE,0,Follow Yaw,0,0,-39.2,320.8,FALSE,FALSE,FALSE,FALSE,FALSE,FALSE,,TRUE,Normal,,100,1024,1024,1024,1024,2,FALSE,FALSE,FALSE,FALSE,FALSE,0,FALSE,FALSE,FALSE,FALSE,78,7.669,1607,2065,7.643,FALSE,3.835,3.834,0.002,FALSE,FALSE,NA,104.4,104.1,104.3,0,0,1,0,5,3404.4,851.1,,Idle,0,20,FALSE,5,TRUE,11,Go Home,FALSE,FALSE,FALSE,FALSE,FALSE,FALSE,FALSE,FALSE,FALSE,FALSE,FALSE,FALSE,6.972889721,79.91595778,0.5,120.9,328,TRUE,1,1,FALSE,FALSE,FALSE,FALSE,,TRUE,FALSE,FALSE,Course Lock,49.2,,16.4,Calm,41,,1.12.8,Mavic Mini,1SDCH7G0169R0K,1SFLH6Q0AB03DJ,1SRCH7F014TAHX,1U5X071EXP5ZJG,74.7,0.3,3.2,8.712657,2.23694,0,0,Mavic Mini,1SDCH7G0169R0K,1SFLH6Q0AB03DJ,1SRCH7F014TAHX,1U5X071EXP5ZJG,DJI Fly,,1.12.8,C3A3412D-4793-CB97-2B32-9F5F9959E777,1SDCH7G0169R0K,,,,,6.972850556,79.91591175,5,,
3/2/2024,06:02.4,4m 44.0s,284,6.972891319,79.91595732,1.6,1.6,2.6,58,1,0,0.223694,0,0.223694,0,0,-1.11847,0,1.1,-0.9,-56.8,303.2,,Tripod,Other,,17,5,TRUE,,Mavic Mini,TRUE,FALSE,,Smart,RC,FALSE,TRUE,FALSE,,,TRUE,,FALSE,FALSE,FALSE,FALSE,FALSE,FALSE,FALSE,FALSE,FALSE,FALSE,0,Follow Yaw,0,0,-39.2,320.8,FALSE,FALSE,FALSE,FALSE,FALSE,FALSE,,TRUE,Normal,,100,1024,1024,1024,1024,2,FALSE,FALSE,FALSE,FALSE,FALSE,0,FALSE,FALSE,FALSE,FALSE,78,7.669,1607,2065,7.643,FALSE,3.835,3.834,0.002,FALSE,FALSE,NA,104.4,104.1,104.3,0,0,1,0,5,3404.4,851.1,,Idle,0,20,FALSE,5,TRUE,11,Go Home,FALSE,FALSE,FALSE,FALSE,FALSE,FALSE,FALSE,FALSE,FALSE,FALSE,FALSE,FALSE,6.972889721,79.91595778,0.6,120.9,328,TRUE,1,1,FALSE,FALSE,FALSE,FALSE,,TRUE,FALSE,FALSE,Course Lock,49.2,,16.4,Calm,41,,1.12.8,Mavic Mini,1SDCH7G0169R0K,1SFLH6Q0AB03DJ,1SRCH7F014TAHX,1U5X071EXP5ZJG,74.7,0.3,3.2,8.712657,2.23694,0,0,Mavic Mini,1SDCH7G0169R0K,1SFLH6Q0AB03DJ,1SRCH7F014TAHX,1U5X071EXP5ZJG,DJI Fly,,1.12.8,C3A3412D-4793-CB97-2B32-9F5F9959E777,1SDCH7G0169R0K,,,,,6.972850556,79.91591175,5,,
3/2/2024,06:02.4,4m 44.1s,284.1,6.972891354,79.91595727,1.6,1.6,2.6,58,1,0,0.223694,0,0.223694,0,0,-1.11847,0,1.3,-1.2,-56.8,303.2,,Tripod,Other,,17,5,TRUE,,Mavic Mini,TRUE,FALSE,,Smart,RC,FALSE,TRUE,FALSE,,,TRUE,,FALSE,FALSE,FALSE,FALSE,FALSE,FALSE,FALSE,FALSE,FALSE,FALSE,0,Follow Yaw,0,0,-39.2,320.8,FALSE,FALSE,FALSE,FALSE,FALSE,FALSE,,TRUE,Normal,,100,1024,1024,1024,1024,2,FALSE,FALSE,FALSE,FALSE,FALSE,0,FALSE,FALSE,FALSE,FALSE,78,7.669,1607,2065,7.643,FALSE,3.835,3.834,0.002,FALSE,FALSE,NA,104.4,104.1,104.3,0,0,1,0,5,3404.4,851.1,,Idle,0,20,FALSE,5,TRUE,11,Go Home,FALSE,FALSE,FALSE,FALSE,FALSE,FALSE,FALSE,FALSE,FALSE,FALSE,FALSE,FALSE,6.972889721,79.91595778,0.6,120.9,328,TRUE,1,1,FALSE,FALSE,FALSE,FALSE,,TRUE,FALSE,FALSE,Course Lock,49.2,,16.4,Calm,41,,1.12.8,Mavic Mini,1SDCH7G0169R0K,1SFLH6Q0AB03DJ,1SRCH7F014TAHX,1U5X071EXP5ZJG,74.7,0.3,3.2,8.712657,2.23694,0,0,Mavic Mini,1SDCH7G0169R0K,1SFLH6Q0AB03DJ,1SRCH7F014TAHX,1U5X071EXP5ZJG,DJI Fly,,1.12.8,C3A3412D-4793-CB97-2B32-9F5F9959E777,1SDCH7G0169R0K,,,,,6.972850556,79.91591175,5,,
3/2/2024,06:02.6,4m 44.2s,284.2,6.972891607,79.91595725,1.9,1.9,2.9,58,1.1,0,0.223694,0,0.223694,0,0,-0.894776,0,1.6,-1.4,-56.7,303.3,,Tripod,Other,,17,5,TRUE,,Mavic Mini,TRUE,FALSE,,Smart,RC,FALSE,TRUE,FALSE,,,TRUE,,FALSE,FALSE,FALSE,FALSE,FALSE,FALSE,FALSE,FALSE,FALSE,FALSE,0,Follow Yaw,0,0,-39.2,320.8,FALSE,FALSE,FALSE,FALSE,FALSE,FALSE,,TRUE,Normal,,100,1024,1024,1024,1024,2,FALSE,FALSE,FALSE,FALSE,FALSE,0,FALSE,FALSE,FALSE,FALSE,78,7.669,1607,2065,7.643,FALSE,3.835,3.834,0.002,FALSE,FALSE,NA,104.4,104.1,104.3,0,0,1,0,5,3404.4,851.1,,Idle,0,20,FALSE,5,TRUE,11,Go Home,FALSE,FALSE,FALSE,FALSE,FALSE,FALSE,FALSE,FALSE,FALSE,FALSE,FALSE,FALSE,6.972889721,79.91595778,0.7,120.9,328,TRUE,1,1,FALSE,FALSE,FALSE,FALSE,,TRUE,FALSE,FALSE,Course Lock,49.2,,16.4,Calm,41,,1.12.8,Mavic Mini,1SDCH7G0169R0K,1SFLH6Q0AB03DJ,1SRCH7F014TAHX,1U5X071EXP5ZJG,74.7,0.3,3.2,8.712657,2.23694,0,0,Mavic Mini,1SDCH7G0169R0K,1SFLH6Q0AB03DJ,1SRCH7F014TAHX,1U5X071EXP5ZJG,DJI Fly,,1.12.8,C3A3412D-4793-CB97-2B32-9F5F9959E777,1SDCH7G0169R0K,,,,,6.972850556,79.91591175,5,,
3/2/2024,06:02.7,4m 44.3s,284.3,6.97289169,79.91595725,1.9,1.9,2.9,58,1.1,0,0.223694,0,0.223694,0,0,-0.447388,0,1.5,-1.3,-56.8,303.2,,Tripod,Other,,17,5,TRUE,,Mavic Mini,TRUE,FALSE,,Smart,RC,FALSE,TRUE,FALSE,,,TRUE,,FALSE,FALSE,FALSE,FALSE,FALSE,FALSE,FALSE,FALSE,FALSE,FALSE,0,Follow Yaw,0,0,-39.2,320.8,FALSE,FALSE,FALSE,FALSE,FALSE,FALSE,,TRUE,Normal,,100,1024,1024,1024,1024,2,FALSE,FALSE,FALSE,FALSE,FALSE,0,FALSE,FALSE,FALSE,FALSE,78,7.669,1607,2065,7.643,FALSE,3.835,3.834,0.002,FALSE,FALSE,NA,104.4,104.1,104.3,0,0,1,0,5,3404.4,851.1,,Idle,0,20,FALSE,5,TRUE,11,Go Home,FALSE,FALSE,FALSE,FALSE,FALSE,FALSE,FALSE,FALSE,FALSE,FALSE,FALSE,FALSE,6.972889721,79.91595778,0.7,120.9,328,TRUE,1,1,FALSE,FALSE,FALSE,FALSE,,TRUE,FALSE,FALSE,Course Lock,49.2,,16.4,Calm,41,,1.12.8,Mavic Mini,1SDCH7G0169R0K,1SFLH6Q0AB03DJ,1SRCH7F014TAHX,1U5X071EXP5ZJG,74.7,0.3,3.2,8.712657,2.23694,0,0,Mavic Mini,1SDCH7G0169R0K,1SFLH6Q0AB03DJ,1SRCH7F014TAHX,1U5X071EXP5ZJG,DJI Fly,,1.12.8,C3A3412D-4793-CB97-2B32-9F5F9959E777,1SDCH7G0169R0K,,,,,6.972850556,79.91591175,5,,
3/2/2024,06:02.8,4m 44.4s,284.4,6.972891749,79.91595723,1.9,1.9,2.9,58,1.2,0,0.223694,0,0.223694,0,0,-0.223694,0,1.4,-1.4,-56.8,303.2,,Tripod,Other,,17,5,TRUE,,Mavic Mini,TRUE,FALSE,,Smart,RC,FALSE,TRUE,FALSE,,,TRUE,,FALSE,FALSE,FALSE,FALSE,FALSE,FALSE,FALSE,FALSE,FALSE,FALSE,0,Follow Yaw,0,0,-39.2,320.8,FALSE,FALSE,FALSE,FALSE,FALSE,FALSE,,TRUE,Normal,,100,1024,1024,1024,1024,2,FALSE,FALSE,FALSE,FALSE,FALSE,0,FALSE,FALSE,FALSE,FALSE,78,7.669,1607,2065,7.643,FALSE,3.835,3.834,0.002,FALSE,FALSE,NA,104.4,104.1,104.3,0,0,1,0,5,3404.4,851.1,,Idle,0,20,FALSE,5,TRUE,11,Go Home,FALSE,FALSE,FALSE,FALSE,FALSE,FALSE,FALSE,FALSE,FALSE,FALSE,FALSE,FALSE,6.972889721,79.91595778,0.7,120.9,328,TRUE,1,1,FALSE,FALSE,FALSE,FALSE,,TRUE,FALSE,FALSE,Course Lock,49.2,,16.4,Calm,41,,1.12.8,Mavic Mini,1SDCH7G0169R0K,1SFLH6Q0AB03DJ,1SRCH7F014TAHX,1U5X071EXP5ZJG,74.7,0.3,3.2,8.712657,2.23694,0,0,Mavic Mini,1SDCH7G0169R0K,1SFLH6Q0AB03DJ,1SRCH7F014TAHX,1U5X071EXP5ZJG,DJI Fly,,1.12.8,C3A3412D-4793-CB97-2B32-9F5F9959E777,1SDCH7G0169R0K,,,,,6.972850556,79.91591175,5,,
3/2/2024,06:03.0,4m 44.5s,284.5,6.972891793,79.9159572,1.9,1.9,2.9,58,1.2,0,0.223694,0,0.223694,0,0,0,0,1,-1.5,-56.9,303.1,,Tripod,Other,,17,5,TRUE,,Mavic Mini,TRUE,FALSE,,Smart,RC,FALSE,TRUE,FALSE,,,TRUE,,FALSE,FALSE,FALSE,FALSE,FALSE,FALSE,FALSE,FALSE,FALSE,FALSE,0,Follow Yaw,0,0,-39.2,320.8,FALSE,FALSE,FALSE,FALSE,FALSE,FALSE,,TRUE,Normal,,100,1024,1237,1024,1024,2,FALSE,FALSE,FALSE,FALSE,FALSE,0,FALSE,FALSE,FALSE,FALSE,78,7.669,1607,2065,7.643,FALSE,3.835,3.834,0.002,FALSE,FALSE,NA,104.4,104.1,104.3,0,0,1,0,5,3404.4,851.1,,Idle,0,20,FALSE,5,TRUE,11,Go Home,FALSE,FALSE,FALSE,FALSE,FALSE,FALSE,FALSE,FALSE,FALSE,FALSE,FALSE,FALSE,6.972889721,79.91595778,0.7,120.9,328,TRUE,1,1,FALSE,FALSE,FALSE,FALSE,,TRUE,FALSE,FALSE,Course Lock,49.2,,16.4,Calm,41,,1.12.8,Mavic Mini,1SDCH7G0169R0K,1SFLH6Q0AB03DJ,1SRCH7F014TAHX,1U5X071EXP5ZJG,74.7,0.3,3.2,8.712657,2.23694,0,0,Mavic Mini,1SDCH7G0169R0K,1SFLH6Q0AB03DJ,1SRCH7F014TAHX,1U5X071EXP5ZJG,DJI Fly,,1.12.8,C3A3412D-4793-CB97-2B32-9F5F9959E777,1SDCH7G0169R0K,,,,,6.972850556,79.91591175,5,,
3/2/2024,06:03.0,4m 44.6s,284.6,6.972891859,79.91595707,1.9,1.9,2.9,58,1.2,0,0.223694,0,0.223694,0,0,0,0,1.2,-1.5,-56.9,303.1,,Tripod,Other,,17,5,TRUE,,Mavic Mini,TRUE,FALSE,,Smart,RC,FALSE,TRUE,FALSE,,,TRUE,,FALSE,FALSE,FALSE,FALSE,FALSE,FALSE,FALSE,FALSE,FALSE,FALSE,0,Follow Yaw,0,0,-39.2,320.8,FALSE,FALSE,FALSE,FALSE,FALSE,FALSE,,TRUE,Normal,,100,1024,1654,1024,1024,2,FALSE,FALSE,FALSE,FALSE,FALSE,0,FALSE,FALSE,FALSE,FALSE,78,7.669,1607,2065,7.643,FALSE,3.835,3.834,0.002,FALSE,FALSE,NA,104.4,104.1,104.3,0,0,1,0,5,3404.4,851.1,,Idle,0,20,FALSE,5,TRUE,11,Go Home,FALSE,FALSE,FALSE,FALSE,FALSE,FALSE,FALSE,FALSE,FALSE,FALSE,FALSE,FALSE,6.972889721,79.91595778,0.8,120.9,328,TRUE,1,1,FALSE,FALSE,FALSE,FALSE,,TRUE,FALSE,FALSE,Course Lock,49.2,,16.4,Calm,41,,1.12.8,Mavic Mini,1SDCH7G0169R0K,1SFLH6Q0AB03DJ,1SRCH7F014TAHX,1U5X071EXP5ZJG,74.7,0.3,3.2,8.712657,2.23694,0,0,Mavic Mini,1SDCH7G0169R0K,1SFLH6Q0AB03DJ,1SRCH7F014TAHX,1U5X071EXP5ZJG,DJI Fly,,1.12.8,C3A3412D-4793-CB97-2B32-9F5F9959E777,1SDCH7G0169R0K,,,,,6.972850556,79.91591175,5,,
3/2/2024,06:03.1,4m 44.7s,284.7,6.972891887,79.91595701,1.9,1.9,2.9,58,1.3,0,0.223694,0,0.223694,0,0,0,0,1.1,-1.4,-57,303,,Tripod,Other,,17,5,TRUE,,Mavic Mini,TRUE,FALSE,,Smart,RC,FALSE,TRUE,FALSE,,,TRUE,,FALSE,FALSE,FALSE,FALSE,FALSE,FALSE,FALSE,FALSE,FALSE,FALSE,0,Follow Yaw,0,0,-39.2,320.8,FALSE,FALSE,FALSE,FALSE,FALSE,FALSE,,TRUE,Normal,,100,1024,1684,1024,1024,2,FALSE,FALSE,FALSE,FALSE,FALSE,0,FALSE,FALSE,FALSE,FALSE,78,7.669,1607,2065,7.667,FALSE,3.835,3.834,0.002,FALSE,FALSE,NA,104.4,104.1,104.3,0,0,1,0,5,4794.5,1198.64,,Idle,0,20,FALSE,5,TRUE,11,Go Home,FALSE,FALSE,FALSE,FALSE,FALSE,FALSE,FALSE,FALSE,FALSE,FALSE,FALSE,FALSE,6.972889721,79.91595778,0.8,120.9,328,TRUE,1,1,FALSE,FALSE,FALSE,FALSE,,TRUE,FALSE,FALSE,Course Lock,49.2,,16.4,Calm,41,,1.12.8,Mavic Mini,1SDCH7G0169R0K,1SFLH6Q0AB03DJ,1SRCH7F014TAHX,1U5X071EXP5ZJG,74.7,0.3,3.2,8.712657,2.23694,0,0,Mavic Mini,1SDCH7G0169R0K,1SFLH6Q0AB03DJ,1SRCH7F014TAHX,1U5X071EXP5ZJG,DJI Fly,,1.12.8,C3A3412D-4793-CB97-2B32-9F5F9959E777,1SDCH7G0169R0K,,,,,6.972850556,79.91591175,5,,
3/2/2024,06:03.2,4m 44.8s,284.8,6.972891885,79.91595698,1.9,1.9,2.9,58,1.3,0,0.223694,0,0.223694,0,0,0,0,-2,-1.1,-57,303,,Tripod,Other,,17,5,TRUE,,Mavic Mini,TRUE,FALSE,,Smart,RC,FALSE,TRUE,FALSE,,,TRUE,,FALSE,FALSE,FALSE,FALSE,FALSE,FALSE,FALSE,FALSE,FALSE,FALSE,0,Follow Yaw,0,0,-39.2,320.8,FALSE,FALSE,FALSE,FALSE,FALSE,FALSE,,TRUE,Normal,,100,1024,1684,1024,1024,2,FALSE,FALSE,FALSE,FALSE,FALSE,0,FALSE,FALSE,FALSE,FALSE,78,7.669,1607,2065,7.667,FALSE,3.835,3.834,0.002,FALSE,FALSE,NA,104.4,104.1,104.3,0,0,1,0,5,4794.5,1198.64,,Idle,0,20,FALSE,5,TRUE,11,Go Home,FALSE,FALSE,FALSE,FALSE,FALSE,FALSE,FALSE,FALSE,FALSE,FALSE,FALSE,FALSE,6.972889721,79.91595778,0.8,120.9,328,TRUE,1,1,FALSE,FALSE,FALSE,FALSE,,TRUE,FALSE,FALSE,Course Lock,49.2,,16.4,Calm,41,,1.12.8,Mavic Mini,1SDCH7G0169R0K,1SFLH6Q0AB03DJ,1SRCH7F014TAHX,1U5X071EXP5ZJG,74.7,0.3,3.2,8.712657,2.23694,0,0,Mavic Mini,1SDCH7G0169R0K,1SFLH6Q0AB03DJ,1SRCH7F014TAHX,1U5X071EXP5ZJG,DJI Fly,,1.12.8,C3A3412D-4793-CB97-2B32-9F5F9959E777,1SDCH7G0169R0K,,,,,6.972850556,79.91591175,5,,
