CUSTOM.date [local],CUSTOM.updateTime [local],OSD.flyTime,OSD.flyTime [s],OSD.latitude,OSD.longitude,OSD.height [ft],OSD.heightMax [ft],OSD.vpsHeight [ft],OSD.altitude [ft],OSD.mileage [ft],OSD.hSpeed [MPH],OSD.hSpeedMax [MPH],OSD.xSpeed [MPH],OSD.xSpeedMax [MPH],OSD.ySpeed [MPH],OSD.ySpeedMax [MPH],OSD.zSpeed [MPH],OSD.zSpeedMax [MPH],OSD.pitch,OSD.roll,OSD.yaw,OSD.yaw [360],OSD.directionOfTravel,OSD.flycState,OSD.flycCommand,OSD.flightAction,OSD.gpsNum,OSD.gpsLevel,OSD.isGPSUsed,OSD.nonGPSCause,OSD.droneType,OSD.isSwaveWork,OSD.waveError,OSD.goHomeStatus,OSD.batteryType,OSD.ctrlDevice,OSD.isOnGround,OSD.isMotorOn,OSD.isMotorBlocked,OSD.motorStartFailedCause,OSD.motorFailReason,OSD.isImuPreheated,OSD.imuInitFailReason,OSD.isAcceletorOverRange,OSD.isBarometerDeadInAir,OSD.isCompassError,OSD.isGoHomeHeightModified,OSD.canIOCWork,OSD.isNotEnoughForce,OSD.isOutOfLimit,OSD.isPropellerCatapult,OSD.isVibrating,OSD.isVisionUsed,OSD.voltageWarning,GIMBAL.mode,GIMBAL.pitch,GIMBAL.roll,GIMBAL.yaw,GIMBAL.yaw [360],GIMBAL.isPitchAtLimit,GIMBAL.isRollAtLimit,GIMBAL.isYawAtLimit,GIMBAL.isStuck,CAMERA.isPhoto,CAMERA.isVideo,CAMERA.filename,CAMERA.sdCardIsInserted,CAMERA.sdCardState,RC.downlinkSignal,RC.uplinkSignal,RC.aileron,RC.elevator,RC.throttle,RC.rudder,RC.mode,RC.goHomeDepressed,RC.recordDepressed,RC.shutterDepressed,RC.playbackDepressed,RC.wheelDepressed,RC.wheelOffset,RC.custom1Depressed,RC.custom2Depressed,RC.custom3Depressed,RC.custom4Depressed,BATTERY.chargeLevel,BATTERY.currentPV [V],BATTERY.currentCapacity [mAh],BATTERY.fullCapacity [mAh],BATTERY.voltage [V],BATTERY.isCellVoltageEstimated,BATTERY.cellVoltage1 [V],BATTERY.cellVoltage2 [V],BATTERY.maxCellVoltageDeviation,BATTERY.isCellVoltageDeviationHigh,BATTERY.isVoltageLow,BATTERY.current [A],BATTERY.temperature [F],BATTERY.minTemperature [F],BATTERY.maxTemperature [F],BATTERY.usefulTime [s],BATTERY.goHomeTime [s],BATTERY.landTime [s],BATTERY.goHomeBattery,BATTERY.landBattery,BATTERY.safeFlyRadius,BATTERY.volumeConsume,BATTERY.status,BATTERY.goHomeStatus,BATTERY.goHomeCountdown,BATTERY.lowWarning,BATTERY.lowWarningGoHome,BATTERY.seriousLowWarning,BATTERY.seriousLowWarningLanding,BATTERY.timesCharged,MC.failSafeAction,MC.isObstacleAvoidanceEnabled,MC.isCollisionAvoidanceEnabled,MC.isRthObstacleAvoidanceEnabled,MC.isBraking,MC.isAvoidingObstacle,MC.isAvoidingActiveObstacle,MC.isAscentLimitedByObstacle,MC.isLandingConfirmationNeeded,MC.atLowAltitudeLimit,MC.atDistanceLimit,MC.atAirportAltitudeLimit,MC.atAirportBoundary,HOME.latitude,HOME.longitude,HOME.distance [ft],HOME.height [ft],HOME.heightLimit [ft],HOME.isHomeRecord,HOME.goHomeMode,HOME.aircraftHeadDirection,HOME.isDynamicHomePointEnabled,HOME.isReachedLimitDistance,HOME.isReachedLimitHeight,HOME.isCompassCalibrating,HOME.compassCalibrationState,HOME.isMultipleFlightModeEnabled,HOME.isBeginnerMode,HOME.isIOCEnabled,HOME.iocMode,HOME.goHomeHeight [ft],HOME.courseLockAngle,HOME.forceLandingHeight [ft],HOME.wind,HOME.dataRecorderFileIndex,RECOVER.appType,RECOVER.appVersion,RECOVER.aircraftName,RECOVER.aircraftSerial,RECOVER.cameraSerial,RECOVER.rcSerial,RECOVER.batterySerial,DETAILS.totalTime [s],DETAILS.totalDistance [ft],DETAILS.maxHeight [ft],DETAILS.maxHorizontalSpeed [MPH],DETAILS.maxVerticalSpeed [MPH],DETAILS.photoNum,DETAILS.videoTime [s],DETAILS.aircraftName,DETAILS.aircraftSerial,DETAILS.cameraSerial,DETAILS.rcSerial,DETAILS.batterySerial,DETAILS.appName,DETAILS.appType,DETAILS.appVersion,DETAILS.guid,SERIAL.flightController,SERIAL.camera,SERIAL.gimbal,SERIAL.rc,SERIAL.battery,APPGPS.latitude,APPGPS.longitude,APPGPS.accuracy,APP.tip,APP.warning
2/15/2024,35:24.9,4m 46.6s,286.6,6.974497016,79.91427636,0,0,0.6,49,0,0,0,0,0,0,0,0,0,4.2,0.5,34.5,34.5,,Starting Motors,Auto Fly,Takeoff (RC Assisted),15,5,TRUE,,Mavic Mini,FALSE,FALSE,,Smart,RC,TRUE,TRUE,FALSE,,,TRUE,,FALSE,FALSE,FALSE,FALSE,FALSE,FALSE,FALSE,FALSE,FALSE,FALSE,0,Follow Yaw,1.3,0,61,61,FALSE,FALSE,FALSE,FALSE,FALSE,FALSE,,TRUE,Normal,,,1024,1024,1024,1024,2,FALSE,FALSE,FALSE,FALSE,FALSE,0,FALSE,FALSE,FALSE,FALSE,79,7.86,1672,2113,7.86,TRUE,3.93,3.93,,FALSE,FALSE,NA,101.8,101.8,101.8,,,,,,,,,Idle,,,TRUE,,FALSE,9,Go Home,FALSE,FALSE,FALSE,FALSE,FALSE,FALSE,FALSE,FALSE,FALSE,FALSE,FALSE,FALSE,,,,,,FALSE,,,FALSE,FALSE,FALSE,FALSE,,FALSE,FALSE,FALSE,,,,,Calm,,,1.12.8,Mavic Mini,1SDCH7G0169R0K,1SFLH6Q0AB03DJ,1SRCH7F014TAHX,1U5X071EXP5ZJG,86,0.2,3.2,3.957594,1.342164,0,0,Mavic Mini,1SDCH7G0169R0K,1SFLH6Q0AB03DJ,1SRCH7F014TAHX,1U5X071EXP5ZJG,DJI Fly,,1.12.8,643323A1-DC5B-F874-98C7-D14794B392C3,1SDCH7G0169R0K,,,,,,,,Flight mode changed to Starting Motors.,
2/15/2024,30:38.4,4m 46.7s,286.7,6.974497015,79.91427631,0,0,0.6,49,0,0,0,0,0,0,0,0,0,4.2,0.5,34.5,34.5,,Starting Motors,Auto Fly,Takeoff (RC Assisted),15,5,TRUE,,Mavic Mini,FALSE,FALSE,,Smart,RC,TRUE,TRUE,FALSE,,,TRUE,,FALSE,FALSE,FALSE,FALSE,FALSE,FALSE,FALSE,FALSE,FALSE,FALSE,0,Follow Yaw,1.4,0,61,61,FALSE,FALSE,FALSE,FALSE,FALSE,FALSE,,TRUE,Normal,,,1024,1024,1024,1024,2,FALSE,FALSE,FALSE,FALSE,FALSE,0,FALSE,FALSE,FALSE,FALSE,79,7.861,1671,2113,7.861,FALSE,3.931,3.93,0.001,FALSE,FALSE,NA,101.8,101.8,101.8,,,,,,,,,Idle,,,TRUE,,FALSE,9,Go Home,FALSE,FALSE,FALSE,FALSE,FALSE,FALSE,FALSE,FALSE,FALSE,FALSE,FALSE,FALSE,,,,,,FALSE,,,FALSE,FALSE,FALSE,FALSE,,FALSE,FALSE,FALSE,,,,,Calm,,,1.12.8,Mavic Mini,1SDCH7G0169R0K,1SFLH6Q0AB03DJ,1SRCH7F014TAHX,1U5X071EXP5ZJG,86,0.2,3.2,3.957594,1.342164,0,0,Mavic Mini,1SDCH7G0169R0K,1SFLH6Q0AB03DJ,1SRCH7F014TAHX,1U5X071EXP5ZJG,DJI Fly,,1.12.8,643323A1-DC5B-F874-98C7-D14794B392C3,1SDCH7G0169R0K,,,,,,,,,
2/15/2024,30:38.7,4m 46.8s,286.8,6.974497013,79.91427627,0,0,0.6,49,0,0,0,0,0,0,0,0,0,4.2,0.4,34.5,34.5,,Starting Motors,Auto Fly,Takeoff (RC Assisted),15,5,TRUE,,Mavic Mini,FALSE,FALSE,,Smart,RC,TRUE,TRUE,FALSE,,,TRUE,,FALSE,FALSE,FALSE,FALSE,FALSE,FALSE,FALSE,FALSE,FALSE,FALSE,0,Follow Yaw,1.5,0,61,61,FALSE,FALSE,FALSE,FALSE,FALSE,FALSE,,TRUE,Normal,,,1024,1024,1024,1024,2,FALSE,FALSE,FALSE,FALSE,FALSE,0,FALSE,FALSE,FALSE,FALSE,79,7.861,1671,2113,7.855,FALSE,3.931,3.93,0.001,FALSE,FALSE,NA,101.8,101.8,101.8,0,0,0,0,5,2617.5,654.38,,Idle,0,20,FALSE,5,TRUE,9,Go Home,FALSE,FALSE,FALSE,FALSE,FALSE,FALSE,FALSE,FALSE,FALSE,FALSE,FALSE,FALSE,6.974495792,79.91427629,0.4,126.8,328,TRUE,1,1,FALSE,FALSE,FALSE,FALSE,,TRUE,FALSE,FALSE,Course Lock,65.6,41.9,16.4,Calm,27,,1.12.8,Mavic Mini,1SDCH7G0169R0K,1SFLH6Q0AB03DJ,1SRCH7F014TAHX,1U5X071EXP5ZJG,86,0.2,3.2,3.957594,1.342164,0,0,Mavic Mini,1SDCH7G0169R0K,1SFLH6Q0AB03DJ,1SRCH7F014TAHX,1U5X071EXP5ZJG,DJI Fly,,1.12.8,643323A1-DC5B-F874-98C7-D14794B392C3,1SDCH7G0169R0K,,,,,,,,Data Recorder File Index is 27.; Set Return to Home (RTH) altitude to 20 m (66 ft).; Set maximum flight altitude to 100 m (328 ft).,
2/15/2024,30:38.8,4m 46.9s,286.9,6.974497011,79.91427625,0,0,0.3,49,0,0,0,0,0,0,0,0,0,4.2,0.5,34.5,34.5,,Starting Motors,Auto Fly,Takeoff (RC Assisted),15,5,TRUE,,Mavic Mini,TRUE,FALSE,,Smart,RC,TRUE,TRUE,FALSE,,,TRUE,,FALSE,FALSE,FALSE,FALSE,FALSE,FALSE,FALSE,FALSE,FALSE,FALSE,0,Follow Yaw,1.6,0,61,61,FALSE,FALSE,FALSE,FALSE,FALSE,FALSE,,TRUE,Normal,,,1024,1024,1024,1024,2,FALSE,FALSE,FALSE,FALSE,FALSE,0,FALSE,FALSE,FALSE,FALSE,79,7.861,1671,2113,7.855,FALSE,3.931,3.93,0.001,FALSE,FALSE,NA,101.8,101.8,101.8,0,0,0,0,5,2617.5,654.38,,Idle,0,20,FALSE,5,TRUE,9,Go Home,FALSE,FALSE,FALSE,FALSE,FALSE,FALSE,FALSE,FALSE,FALSE,FALSE,FALSE,FALSE,6.974495792,79.91427629,0.4,126.8,328,TRUE,1,1,FALSE,FALSE,FALSE,FALSE,,TRUE,FALSE,FALSE,Course Lock,65.6,41.9,16.4,Calm,27,,1.12.8,Mavic Mini,1SDCH7G0169R0K,1SFLH6Q0AB03DJ,1SRCH7F014TAHX,1U5X071EXP5ZJG,86,0.2,3.2,3.957594,1.342164,0,0,Mavic Mini,1SDCH7G0169R0K,1SFLH6Q0AB03DJ,1SRCH7F014TAHX,1U5X071EXP5ZJG,DJI Fly,,1.12.8,643323A1-DC5B-F874-98C7-D14794B392C3,1SDCH7G0169R0K,,,,,,,,,
2/15/2024,30:38.8,4m 47.0s,287,6.974496993,79.9142762,0,0,0.3,49,0,0,0,0,0,0,0,0,0,4.1,0.5,34.5,34.5,,Starting Motors,Auto Fly,Takeoff (RC Assisted),15,5,TRUE,,Mavic Mini,TRUE,FALSE,,Smart,RC,TRUE,TRUE,FALSE,,,TRUE,,FALSE,FALSE,FALSE,FALSE,FALSE,FALSE,FALSE,FALSE,FALSE,FALSE,0,Follow Yaw,1.6,0,61,61,FALSE,FALSE,FALSE,FALSE,FALSE,FALSE,,TRUE,Normal,,100,1024,1024,1024,1024,2,FALSE,FALSE,FALSE,FALSE,FALSE,0,FALSE,FALSE,FALSE,FALSE,79,7.861,1671,2113,7.855,FALSE,3.931,3.93,0.001,FALSE,FALSE,NA,101.8,101.8,101.8,0,0,0,0,5,2617.5,654.38,,Idle,0,20,FALSE,5,TRUE,9,Go Home,FALSE,FALSE,FALSE,FALSE,FALSE,FALSE,FALSE,FALSE,FALSE,FALSE,FALSE,FALSE,6.974495792,79.91427629,0.4,126.8,328,TRUE,1,1,FALSE,FALSE,FALSE,FALSE,,TRUE,FALSE,FALSE,Course Lock,65.6,41.9,16.4,Calm,27,,1.12.8,Mavic Mini,1SDCH7G0169R0K,1SFLH6Q0AB03DJ,1SRCH7F014TAHX,1U5X071EXP5ZJG,86,0.2,3.2,3.957594,1.342164,0,0,Mavic Mini,1SDCH7G0169R0K,1SFLH6Q0AB03DJ,1SRCH7F014TAHX,1U5X071EXP5ZJG,DJI Fly,,1.12.8,643323A1-DC5B-F874-98C7-D14794B392C3,1SDCH7G0169R0K,,,,,,,,,
2/15/2024,30:38.9,4m 47.1s,287.1,6.974496936,79.91427615,0,0,0.3,49,0,0,0,0,0,0,0,0,0,4.2,0.4,34.5,34.5,,Starting Motors,Auto Fly,Takeoff (RC Assisted),15,5,TRUE,,Mavic Mini,TRUE,FALSE,,Smart,RC,TRUE,TRUE,FALSE,,,TRUE,,FALSE,FALSE,FALSE,FALSE,FALSE,FALSE,FALSE,FALSE,FALSE,FALSE,0,Follow Yaw,1.7,0,61,61,FALSE,FALSE,FALSE,FALSE,FALSE,FALSE,,TRUE,Normal,,100,1024,1024,1024,1024,2,FALSE,FALSE,FALSE,FALSE,FALSE,0,FALSE,FALSE,FALSE,FALSE,79,7.861,1671,2113,7.855,FALSE,3.931,3.93,0.001,FALSE,FALSE,NA,101.8,101.8,101.8,0,0,0,0,5,2617.5,654.38,,Idle,0,20,FALSE,5,TRUE,9,Go Home,FALSE,FALSE,FALSE,FALSE,FALSE,FALSE,FALSE,FALSE,FALSE,FALSE,FALSE,FALSE,6.974495792,79.91427629,0.4,126.8,328,TRUE,1,1,FALSE,FALSE,FALSE,FALSE,,TRUE,FALSE,FALSE,Course Lock,65.6,41.9,16.4,Calm,27,,1.12.8,Mavic Mini,1SDCH7G0169R0K,1SFLH6Q0AB03DJ,1SRCH7F014TAHX,1U5X071EXP5ZJG,86,0.2,3.2,3.957594,1.342164,0,0,Mavic Mini,1SDCH7G0169R0K,1SFLH6Q0AB03DJ,1SRCH7F014TAHX,1U5X071EXP5ZJG,DJI Fly,,1.12.8,643323A1-DC5B-F874-98C7-D14794B392C3,1SDCH7G0169R0K,,,,,,,,,
2/15/2024,30:39.0,4m 47.2s,287.2,6.974496894,79.91427612,0,0,0.3,49,0,0,0,0,0,0,0,0,0,4.1,0.6,34.4,34.4,,Starting Motors,Auto Fly,Takeoff (RC Assisted),15,5,TRUE,,Mavic Mini,TRUE,FALSE,,Smart,RC,TRUE,TRUE,FALSE,,,TRUE,,FALSE,FALSE,FALSE,FALSE,FALSE,FALSE,FALSE,FALSE,FALSE,FALSE,0,Follow Yaw,1.7,0,60.9,60.9,FALSE,FALSE,FALSE,FALSE,FALSE,FALSE,,TRUE,Normal,,100,1024,1024,1024,1024,2,FALSE,FALSE,FALSE,FALSE,FALSE,0,FALSE,FALSE,FALSE,FALSE,79,7.861,1671,2113,7.855,FALSE,3.931,3.93,0.001,FALSE,FALSE,NA,101.8,101.8,101.8,0,0,0,0,5,2617.5,654.38,,Idle,0,20,FALSE,5,TRUE,9,Go Home,FALSE,FALSE,FALSE,FALSE,FALSE,FALSE,FALSE,FALSE,FALSE,FALSE,FALSE,FALSE,6.974495792,79.91427629,0.4,126.8,328,TRUE,1,1,FALSE,FALSE,FALSE,FALSE,,TRUE,FALSE,FALSE,Course Lock,65.6,41.9,16.4,Calm,27,,1.12.8,Mavic Mini,1SDCH7G0169R0K,1SFLH6Q0AB03DJ,1SRCH7F014TAHX,1U5X071EXP5ZJG,86,0.2,3.2,3.957594,1.342164,0,0,Mavic Mini,1SDCH7G0169R0K,1SFLH6Q0AB03DJ,1SRCH7F014TAHX,1U5X071EXP5ZJG,DJI Fly,,1.12.8,643323A1-DC5B-F874-98C7-D14794B392C3,1SDCH7G0169R0K,,,,,,,,,
2/15/2024,30:39.1,4m 47.3s,287.3,6.974496875,79.9142761,0,0,0.3,49,0,0,0,0,0,0,0,0,0,4.2,0.4,34.3,34.3,,Starting Motors,Auto Fly,Takeoff (RC Assisted),15,5,TRUE,,Mavic Mini,TRUE,FALSE,,Smart,RC,TRUE,TRUE,FALSE,,,TRUE,,FALSE,FALSE,FALSE,FALSE,FALSE,FALSE,FALSE,FALSE,FALSE,FALSE,0,Follow Yaw,1.7,0,60.9,60.9,FALSE,FALSE,FALSE,FALSE,FALSE,FALSE,,TRUE,Normal,,100,1024,1024,1024,1024,2,FALSE,FALSE,FALSE,FALSE,FALSE,0,FALSE,FALSE,FALSE,FALSE,79,7.861,1671,2113,7.855,FALSE,3.931,3.93,0.001,FALSE,FALSE,NA,101.8,101.8,101.8,0,0,0,0,5,2617.5,654.38,,Idle,0,20,FALSE,5,TRUE,9,Go Home,FALSE,FALSE,FALSE,FALSE,FALSE,FALSE,FALSE,FALSE,FALSE,FALSE,FALSE,FALSE,6.974495792,79.91427629,0.4,126.8,328,TRUE,1,1,FALSE,FALSE,FALSE,FALSE,,TRUE,FALSE,FALSE,Course Lock,65.6,41.9,16.4,Calm,27,,1.12.8,Mavic Mini,1SDCH7G0169R0K,1SFLH6Q0AB03DJ,1SRCH7F014TAHX,1U5X071EXP5ZJG,86,0.2,3.2,3.957594,1.342164,0,0,Mavic Mini,1SDCH7G0169R0K,1SFLH6Q0AB03DJ,1SRCH7F014TAHX,1U5X071EXP5ZJG,DJI Fly,,1.12.8,643323A1-DC5B-F874-98C7-D14794B392C3,1SDCH7G0169R0K,,,,,,,,,
2/15/2024,30:39.2,4m 47.4s,287.4,6.974496796,79.91427608,0,0,0.3,49,0.1,0,0,0,0,0,0,0,0,4.2,0.3,34.4,34.4,,Starting Motors,Auto Fly,Takeoff (RC Assisted),15,5,TRUE,,Mavic Mini,TRUE,FALSE,,Smart,RC,TRUE,TRUE,FALSE,,,TRUE,,FALSE,FALSE,FALSE,FALSE,FALSE,FALSE,FALSE,FALSE,FALSE,FALSE,0,Follow Yaw,1.8,0,60.9,60.9,FALSE,FALSE,FALSE,FALSE,FALSE,FALSE,,TRUE,Normal,,100,1024,1024,1024,1024,2,FALSE,FALSE,FALSE,FALSE,FALSE,0,FALSE,FALSE,FALSE,FALSE,79,7.861,1671,2113,7.855,FALSE,3.931,3.93,0.001,FALSE,FALSE,NA,101.8,101.8,101.8,0,0,0,0,5,2617.5,654.38,,Idle,0,20,FALSE,5,TRUE,9,Go Home,FALSE,FALSE,FALSE,FALSE,FALSE,FALSE,FALSE,FALSE,FALSE,FALSE,FALSE,FALSE,6.974495792,79.91427629,0.3,126.8,328,TRUE,1,1,FALSE,FALSE,FALSE,FALSE,,TRUE,FALSE,FALSE,Course Lock,65.6,41.9,16.4,Calm,27,,1.12.8,Mavic Mini,1SDCH7G0169R0K,1SFLH6Q0AB03DJ,1SRCH7F014TAHX,1U5X071EXP5ZJG,86,0.2,3.2,3.957594,1.342164,0,0,Mavic Mini,1SDCH7G0169R0K,1SFLH6Q0AB03DJ,1SRCH7F014TAHX,1U5X071EXP5ZJG,DJI Fly,,1.12.8,643323A1-DC5B-F874-98C7-D14794B392C3,1SDCH7G0169R0K,,,,,,,,,
2/15/2024,30:39.3,4m 47.5s,287.5,6.974496794,79.91427603,0,0,0.3,49,0.1,0,0,0,0,0,0,0,0,4.2,0.3,34.4,34.4,,Starting Motors,Auto Fly,Takeoff (RC Assisted),15,5,TRUE,,Mavic Mini,TRUE,FALSE,,Smart,RC,TRUE,TRUE,FALSE,,,TRUE,,FALSE,FALSE,FALSE,FALSE,FALSE,FALSE,FALSE,FALSE,FALSE,FALSE,0,Follow Yaw,1.8,0,60.9,60.9,FALSE,FALSE,FALSE,FALSE,FALSE,FALSE,,TRUE,Normal,,100,1024,1024,1024,1024,2,FALSE,FALSE,FALSE,FALSE,FALSE,0,FALSE,FALSE,FALSE,FALSE,79,7.861,1671,2113,7.855,FALSE,3.931,3.93,0.001,FALSE,FALSE,NA,101.8,101.8,101.8,0,0,0,0,5,2617.5,654.38,,Idle,0,20,FALSE,5,TRUE,9,Go Home,FALSE,FALSE,FALSE,FALSE,FALSE,FALSE,FALSE,FALSE,FALSE,FALSE,FALSE,FALSE,6.974495792,79.91427629,0.3,126.8,328,TRUE,1,1,FALSE,FALSE,FALSE,FALSE,,TRUE,FALSE,FALSE,Course Lock,65.6,41.9,16.4,Calm,27,,1.12.8,Mavic Mini,1SDCH7G0169R0K,1SFLH6Q0AB03DJ,1SRCH7F014TAHX,1U5X071EXP5ZJG,86,0.2,3.2,3.957594,1.342164,0,0,Mavic Mini,1SDCH7G0169R0K,1SFLH6Q0AB03DJ,1SRCH7F014TAHX,1U5X071EXP5ZJG,DJI Fly,,1.12.8,643323A1-DC5B-F874-98C7-D14794B392C3,1SDCH7G0169R0K,,,,,,,,,
2/15/2024,30:39.4,4m 47.6s,287.6,6.974496795,79.91427598,0,0,0.3,49,0.1,0,0,0,0,0,0,0,0,4.3,0.4,34.4,34.4,,Starting Motors,Auto Fly,Takeoff (RC Assisted),15,5,TRUE,,Mavic Mini,TRUE,FALSE,,Smart,RC,TRUE,TRUE,FALSE,,,TRUE,,FALSE,FALSE,FALSE,FALSE,FALSE,FALSE,FALSE,FALSE,FALSE,FALSE,0,Follow Yaw,1.8,0,60.9,60.9,FALSE,FALSE,FALSE,FALSE,FALSE,FALSE,,TRUE,Normal,,100,1024,1024,1024,1024,2,FALSE,FALSE,FALSE,FALSE,FALSE,0,FALSE,FALSE,FALSE,FALSE,79,7.861,1671,2113,7.855,FALSE,3.931,3.93,0.001,FALSE,FALSE,NA,101.8,101.8,101.8,0,0,0,0,5,2617.5,654.38,,Idle,0,20,FALSE,5,TRUE,9,Go Home,FALSE,FALSE,FALSE,FALSE,FALSE,FALSE,FALSE,FALSE,FALSE,FALSE,FALSE,FALSE,6.974495792,79.91427629,0.3,126.8,328,TRUE,1,1,FALSE,FALSE,FALSE,FALSE,,TRUE,FALSE,FALSE,Course Lock,65.6,41.9,16.4,Calm,27,,1.12.8,Mavic Mini,1SDCH7G0169R0K,1SFLH6Q0AB03DJ,1SRCH7F014TAHX,1U5X071EXP5ZJG,86,0.2,3.2,3.957594,1.342164,0,0,Mavic Mini,1SDCH7G0169R0K,1SFLH6Q0AB03DJ,1SRCH7F014TAHX,1U5X071EXP5ZJG,DJI Fly,,1.12.8,643323A1-DC5B-F874-98C7-D14794B392C3,1SDCH7G0169R0K,,,,,,,,,
2/15/2024,30:39.5,4m 47.7s,287.7,6.9744968,79.91427592,0,0,0.3,49,0.1,0,0,0,0,0,0,0,0,4.2,0.4,34.4,34.4,,Manual Takeoff,Auto Fly,Takeoff (RC Assisted),15,5,TRUE,,Mavic Mini,TRUE,FALSE,,Smart,RC,TRUE,TRUE,FALSE,,,TRUE,,FALSE,FALSE,FALSE,FALSE,FALSE,FALSE,FALSE,FALSE,FALSE,FALSE,0,Follow Yaw,1.8,0,60.9,60.9,FALSE,FALSE,FALSE,FALSE,FALSE,FALSE,,TRUE,Normal,,100,1024,1024,1024,1024,2,FALSE,FALSE,FALSE,FALSE,FALSE,0,FALSE,FALSE,FALSE,FALSE,79,7.861,1671,2113,7.855,FALSE,3.931,3.93,0.001,FALSE,FALSE,NA,101.8,101.8,101.8,0,0,0,0,5,2617.5,654.38,,Idle,0,20,FALSE,5,TRUE,9,Go Home,FALSE,FALSE,FALSE,FALSE,FALSE,FALSE,FALSE,FALSE,FALSE,FALSE,FALSE,FALSE,6.974495792,79.91427629,0.3,126.8,328,TRUE,1,1,FALSE,FALSE,FALSE,FALSE,,TRUE,FALSE,FALSE,Course Lock,65.6,41.9,16.4,Calm,27,,1.12.8,Mavic Mini,1SDCH7G0169R0K,1SFLH6Q0AB03DJ,1SRCH7F014TAHX,1U5X071EXP5ZJG,86,0.2,3.2,3.957594,1.342164,0,0,Mavic Mini,1SDCH7G0169R0K,1SFLH6Q0AB03DJ,1SRCH7F014TAHX,1U5X071EXP5ZJG,DJI Fly,,1.12.8,643323A1-DC5B-F874-98C7-D14794B392C3,1SDCH7G0169R0K,,,,,,,,Flight mode changed to Manual Takeoff.,
2/15/2024,30:39.6,4m 47.8s,287.8,6.974496894,79.91427588,0,0,0.3,49,0.2,0,0,0,0,0,0,0,0,4.2,0.4,34.4,34.4,,Manual Takeoff,Auto Fly,Takeoff (RC Assisted),15,5,TRUE,,Mavic Mini,TRUE,FALSE,,Smart,RC,TRUE,TRUE,FALSE,,,TRUE,,FALSE,FALSE,FALSE,FALSE,FALSE,FALSE,FALSE,FALSE,FALSE,FALSE,0,Follow Yaw,1.8,0,60.9,60.9,FALSE,FALSE,FALSE,FALSE,FALSE,FALSE,,TRUE,Normal,,100,1024,1024,1024,1024,2,FALSE,FALSE,FALSE,FALSE,FALSE,0,FALSE,FALSE,FALSE,FALSE,79,7.861,1671,2113,7.867,FALSE,3.931,3.93,0.001,FALSE,FALSE,NA,101.8,101.8,101.8,0,0,0,0,5,2617.5,654.38,,Idle,0,20,FALSE,5,TRUE,9,Go Home,FALSE,FALSE,FALSE,FALSE,FALSE,FALSE,FALSE,FALSE,FALSE,FALSE,FALSE,FALSE,6.974495792,79.91427629,0.4,126.8,328,TRUE,1,1,FALSE,FALSE,FALSE,FALSE,,TRUE,FALSE,FALSE,Course Lock,65.6,41.9,16.4,Calm,27,,1.12.8,Mavic Mini,1SDCH7G0169R0K,1SFLH6Q0AB03DJ,1SRCH7F014TAHX,1U5X071EXP5ZJG,86,0.2,3.2,3.957594,1.342164,0,0,Mavic Mini,1SDCH7G0169R0K,1SFLH6Q0AB03DJ,1SRCH7F014TAHX,1U5X071EXP5ZJG,DJI Fly,,1.12.8,643323A1-DC5B-F874-98C7-D14794B392C3,1SDCH7G0169R0K,,,,,,,,,
2/15/2024,30:39.7,4m 47.9s,287.9,6.974496898,79.91427587,0,0,0.3,49,0.2,0,0,0,0,0,0,0,0,4.2,0.4,34.4,34.4,,Manual Takeoff,Auto Fly,Takeoff (RC Assisted),15,5,TRUE,,Mavic Mini,TRUE,FALSE,,Smart,RC,TRUE,TRUE,FALSE,,,TRUE,,FALSE,FALSE,FALSE,FALSE,FALSE,FALSE,FALSE,FALSE,FALSE,FALSE,0,Follow Yaw,1.8,0,60.9,60.9,FALSE,FALSE,FALSE,FALSE,FALSE,FALSE,,TRUE,Normal,,100,1024,1024,1024,1024,2,FALSE,FALSE,FALSE,FALSE,FALSE,0,FALSE,FALSE,FALSE,FALSE,79,7.841,1671,2113,7.867,FALSE,3.918,3.923,0.005,FALSE,FALSE,NA,101.8,101.8,101.8,0,0,0,0,5,2617.5,654.38,,Idle,0,20,FALSE,5,TRUE,9,Go Home,FALSE,FALSE,FALSE,FALSE,FALSE,FALSE,FALSE,FALSE,FALSE,FALSE,FALSE,FALSE,6.974495792,79.91427629,0.4,126.8,328,TRUE,1,1,FALSE,FALSE,FALSE,FALSE,,TRUE,FALSE,FALSE,Course Lock,65.6,41.9,16.4,Calm,27,,1.12.8,Mavic Mini,1SDCH7G0169R0K,1SFLH6Q0AB03DJ,1SRCH7F014TAHX,1U5X071EXP5ZJG,86,0.2,3.2,3.957594,1.342164,0,0,Mavic Mini,1SDCH7G0169R0K,1SFLH6Q0AB03DJ,1SRCH7F014TAHX,1U5X071EXP5ZJG,DJI Fly,,1.12.8,643323A1-DC5B-F874-98C7-D14794B392C3,1SDCH7G0169R0K,,,,,,,,,
2/15/2024,30:39.8,4m 48.0s,288,6.974496883,79.91427585,0,0,0.3,49,0.2,0,0,0,0,0,0,0,0,4.2,0.4,34.4,34.4,,Manual Takeoff,Auto Fly,Takeoff (RC Assisted),15,5,TRUE,,Mavic Mini,TRUE,FALSE,,Smart,RC,TRUE,TRUE,FALSE,,,TRUE,,FALSE,FALSE,FALSE,FALSE,FALSE,FALSE,FALSE,FALSE,FALSE,FALSE,0,Follow Yaw,1.8,0,60.9,60.9,FALSE,FALSE,FALSE,FALSE,FALSE,FALSE,,TRUE,Normal,,100,1024,1024,1024,1024,2,FALSE,FALSE,FALSE,FALSE,FALSE,0,FALSE,FALSE,FALSE,FALSE,79,7.841,1671,2113,7.867,FALSE,3.918,3.923,0.005,FALSE,FALSE,NA,101.8,101.8,101.8,0,0,0,0,5,2617.5,654.38,,Idle,0,20,FALSE,5,TRUE,9,Go Home,FALSE,FALSE,FALSE,FALSE,FALSE,FALSE,FALSE,FALSE,FALSE,FALSE,FALSE,FALSE,6.974495792,79.91427629,0.4,126.8,328,TRUE,1,1,FALSE,FALSE,FALSE,FALSE,,TRUE,FALSE,FALSE,Course Lock,65.6,41.9,16.4,Calm,27,,1.12.8,Mavic Mini,1SDCH7G0169R0K,1SFLH6Q0AB03DJ,1SRCH7F014TAHX,1U5X071EXP5ZJG,86,0.2,3.2,3.957594,1.342164,0,0,Mavic Mini,1SDCH7G0169R0K,1SFLH6Q0AB03DJ,1SRCH7F014TAHX,1U5X071EXP5ZJG,DJI Fly,,1.12.8,643323A1-DC5B-F874-98C7-D14794B392C3,1SDCH7G0169R0K,,,,,,,,,
2/15/2024,30:39.9,4m 48.1s,288.1,6.974496833,79.91427581,0,0,0.3,49,0.2,0,0,0,0,0,0,0,0,4.2,0.4,34.4,34.4,,Manual Takeoff,Auto Fly,Takeoff (RC Assisted),15,5,TRUE,,Mavic Mini,TRUE,FALSE,,Smart,RC,TRUE,TRUE,FALSE,,,TRUE,,FALSE,FALSE,FALSE,FALSE,FALSE,FALSE,FALSE,FALSE,FALSE,FALSE,0,Follow Yaw,1.8,0,60.9,60.9,FALSE,FALSE,FALSE,FALSE,FALSE,FALSE,,TRUE,Normal,,100,1024,1024,1024,1024,2,FALSE,FALSE,FALSE,FALSE,FALSE,0,FALSE,FALSE,FALSE,FALSE,79,7.841,1671,2113,7.867,FALSE,3.918,3.923,0.005,FALSE,FALSE,NA,101.8,101.8,101.8,0,0,0,0,5,2617.5,654.38,,Idle,0,20,FALSE,5,TRUE,9,Go Home,FALSE,FALSE,FALSE,FALSE,FALSE,FALSE,FALSE,FALSE,FALSE,FALSE,FALSE,FALSE,6.974495792,79.91427629,0.4,126.8,328,TRUE,1,1,FALSE,FALSE,FALSE,FALSE,,TRUE,FALSE,FALSE,Course Lock,65.6,41.9,16.4,Calm,27,,1.12.8,Mavic Mini,1SDCH7G0169R0K,1SFLH6Q0AB03DJ,1SRCH7F014TAHX,1U5X071EXP5ZJG,86,0.2,3.2,3.957594,1.342164,0,0,Mavic Mini,1SDCH7G0169R0K,1SFLH6Q0AB03DJ,1SRCH7F014TAHX,1U5X071EXP5ZJG,DJI Fly,,1.12.8,643323A1-DC5B-F874-98C7-D14794B392C3,1SDCH7G0169R0K,,,,,,,,,
2/15/2024,30:40.0,4m 48.2s,288.2,6.974496741,79.91427581,0,0,0.3,49,0.2,0,0,0,0,0,0,0,0,4.2,0.4,34.5,34.5,,Manual Takeoff,Auto Fly,Takeoff (RC Assisted),15,5,TRUE,,Mavic Mini,TRUE,FALSE,,Smart,RC,TRUE,TRUE,FALSE,,,TRUE,,FALSE,FALSE,FALSE,FALSE,FALSE,FALSE,FALSE,FALSE,FALSE,FALSE,0,Follow Yaw,1.9,0,60.9,60.9,FALSE,FALSE,FALSE,FALSE,FALSE,FALSE,,TRUE,Normal,,100,1024,1024,1024,1024,2,FALSE,FALSE,FALSE,FALSE,FALSE,0,FALSE,FALSE,FALSE,FALSE,79,7.841,1671,2113,7.867,FALSE,3.918,3.923,0.005,FALSE,FALSE,NA,101.8,101.8,101.8,0,0,0,0,5,2617.5,654.38,,Idle,0,20,FALSE,5,TRUE,9,Go Home,FALSE,FALSE,FALSE,FALSE,FALSE,FALSE,FALSE,FALSE,FALSE,FALSE,FALSE,FALSE,6.974495792,79.91427629,0.3,126.8,328,TRUE,1,1,FALSE,FALSE,FALSE,FALSE,,TRUE,FALSE,FALSE,Course Lock,65.6,41.9,16.4,Calm,27,,1.12.8,Mavic Mini,1SDCH7G0169R0K,1SFLH6Q0AB03DJ,1SRCH7F014TAHX,1U5X071EXP5ZJG,86,0.2,3.2,3.957594,1.342164,0,0,Mavic Mini,1SDCH7G0169R0K,1SFLH6Q0AB03DJ,1SRCH7F014TAHX,1U5X071EXP5ZJG,DJI Fly,,1.12.8,643323A1-DC5B-F874-98C7-D14794B392C3,1SDCH7G0169R0K,,,,,,,,,
2/15/2024,30:40.0,4m 48.3s,288.3,6.974496725,79.91427581,0,0,0.3,49,0.2,0,0,0,0,0,0,0,0,4.2,0.4,34.4,34.4,,Manual Takeoff,Auto Fly,Takeoff (RC Assisted),15,5,TRUE,,Mavic Mini,TRUE,FALSE,,Smart,RC,TRUE,TRUE,FALSE,,,TRUE,,FALSE,FALSE,FALSE,FALSE,FALSE,FALSE,FALSE,FALSE,FALSE,FALSE,0,Follow Yaw,1.9,0,60.9,60.9,FALSE,FALSE,FALSE,FALSE,FALSE,FALSE,,TRUE,Normal,,100,1024,1024,1024,1024,2,FALSE,FALSE,FALSE,FALSE,FALSE,0,FALSE,FALSE,FALSE,FALSE,79,7.841,1671,2113,7.867,FALSE,3.918,3.923,0.005,FALSE,FALSE,NA,101.8,101.8,101.8,0,0,0,0,5,2617.5,654.38,,Idle,0,20,FALSE,5,TRUE,9,Go Home,FALSE,FALSE,FALSE,FALSE,FALSE,FALSE,FALSE,FALSE,FALSE,FALSE,FALSE,FALSE,6.974495792,79.91427629,0.3,126.8,328,TRUE,1,1,FALSE,FALSE,FALSE,FALSE,,TRUE,FALSE,FALSE,Course Lock,65.6,41.9,16.4,Calm,27,,1.12.8,Mavic Mini,1SDCH7G0169R0K,1SFLH6Q0AB03DJ,1SRCH7F014TAHX,1U5X071EXP5ZJG,86,0.2,3.2,3.957594,1.342164,0,0,Mavic Mini,1SDCH7G0169R0K,1SFLH6Q0AB03DJ,1SRCH7F014TAHX,1U5X071EXP5ZJG,DJI Fly,,1.12.8,643323A1-DC5B-F874-98C7-D14794B392C3,1SDCH7G0169R0K,,,,,,,,,
2/15/2024,30:40.1,4m 48.4s,288.4,6.974496716,79.91427579,0,0,0.3,49,0.3,0,0,0,0,0,0,0,0,4.2,0.4,34.4,34.4,,Manual Takeoff,Auto Fly,Takeoff (RC Assisted),15,5,TRUE,,Mavic Mini,TRUE,FALSE,,Smart,RC,TRUE,TRUE,FALSE,,,TRUE,,FALSE,FALSE,FALSE,FALSE,FALSE,FALSE,FALSE,FALSE,FALSE,FALSE,0,Follow Yaw,1.9,0,60.9,60.9,FALSE,FALSE,FALSE,FALSE,FALSE,FALSE,,TRUE,Normal,,100,1024,1024,1024,1024,2,FALSE,FALSE,FALSE,FALSE,FALSE,0,FALSE,FALSE,FALSE,FALSE,79,7.841,1671,2113,7.867,FALSE,3.918,3.923,0.005,FALSE,FALSE,NA,101.8,101.8,101.8,0,0,0,0,5,2617.5,654.38,,Idle,0,20,FALSE,5,TRUE,9,Go Home,FALSE,FALSE,FALSE,FALSE,FALSE,FALSE,FALSE,FALSE,FALSE,FALSE,FALSE,FALSE,6.974495792,79.91427629,0.3,126.8,328,TRUE,1,1,FALSE,FALSE,FALSE,FALSE,,TRUE,FALSE,FALSE,Course Lock,65.6,41.9,16.4,Calm,27,,1.12.8,Mavic Mini,1SDCH7G0169R0K,1SFLH6Q0AB03DJ,1SRCH7F014TAHX,1U5X071EXP5ZJG,86,0.2,3.2,3.957594,1.342164,0,0,Mavic Mini,1SDCH7G0169R0K,1SFLH6Q0AB03DJ,1SRCH7F014TAHX,1U5X071EXP5ZJG,DJI Fly,,1.12.8,643323A1-DC5B-F874-98C7-D14794B392C3,1SDCH7G0169R0K,,,,,,,,,
2/15/2024,30:40.2,4m 48.5s,288.5,6.974496716,79.91427575,0,0,0.3,49,0.3,0,0,0,0,0,0,0,0,4.2,0.4,34.4,34.4,,Manual Takeoff,Auto Fly,Takeoff (RC Assisted),15,5,TRUE,,Mavic Mini,TRUE,FALSE,,Smart,RC,TRUE,TRUE,FALSE,,,TRUE,,FALSE,FALSE,FALSE,FALSE,FALSE,FALSE,FALSE,FALSE,FALSE,FALSE,0,Follow Yaw,1.9,0,60.9,60.9,FALSE,FALSE,FALSE,FALSE,FALSE,FALSE,,TRUE,Normal,,100,1024,1024,1024,1024,2,FALSE,FALSE,FALSE,FALSE,FALSE,0,FALSE,FALSE,FALSE,FALSE,79,7.841,1671,2113,7.867,FALSE,3.918,3.923,0.005,FALSE,FALSE,NA,101.8,101.8,101.8,0,0,0,0,5,2617.5,654.38,,Idle,0,20,FALSE,5,TRUE,9,Go Home,FALSE,FALSE,FALSE,FALSE,FALSE,FALSE,FALSE,FALSE,FALSE,FALSE,FALSE,FALSE,6.974495792,79.91427629,0.3,126.8,328,TRUE,1,1,FALSE,FALSE,FALSE,FALSE,,TRUE,FALSE,FALSE,Course Lock,65.6,41.9,16.4,Calm,27,,1.12.8,Mavic Mini,1SDCH7G0169R0K,1SFLH6Q0AB03DJ,1SRCH7F014TAHX,1U5X071EXP5ZJG,86,0.2,3.2,3.957594,1.342164,0,0,Mavic Mini,1SDCH7G0169R0K,1SFLH6Q0AB03DJ,1SRCH7F014TAHX,1U5X071EXP5ZJG,DJI Fly,,1.12.8,643323A1-DC5B-F874-98C7-D14794B392C3,1SDCH7G0169R0K,,,,,,,,,
2/15/2024,30:40.3,4m 48.6s,288.6,6.974496718,79.9142757,0,0,0.3,49,0.3,0,0,0,0,0,0,0,0,4.2,0.4,34.4,34.4,,Manual Takeoff,Auto Fly,Takeoff (RC Assisted),15,5,TRUE,,Mavic Mini,TRUE,FALSE,,Smart,RC,TRUE,TRUE,FALSE,,,TRUE,,FALSE,FALSE,FALSE,FALSE,FALSE,FALSE,FALSE,FALSE,FALSE,FALSE,0,Follow Yaw,1.9,0,60.9,60.9,FALSE,FALSE,FALSE,FALSE,FALSE,FALSE,,TRUE,Normal,,100,1024,1024,1024,1024,2,FALSE,FALSE,FALSE,FALSE,FALSE,0,FALSE,FALSE,FALSE,FALSE,79,7.841,1671,2113,7.867,FALSE,3.918,3.923,0.005,FALSE,FALSE,NA,101.8,101.8,101.8,0,0,0,0,5,2617.5,654.38,,Idle,0,20,FALSE,5,TRUE,9,Go Home,FALSE,FALSE,FALSE,FALSE,FALSE,FALSE,FALSE,FALSE,FALSE,FALSE,FALSE,FALSE,6.974495792,79.91427629,0.3,126.8,328,TRUE,1,1,FALSE,FALSE,FALSE,FALSE,,TRUE,FALSE,FALSE,Course Lock,65.6,41.9,16.4,Calm,27,,1.12.8,Mavic Mini,1SDCH7G0169R0K,1SFLH6Q0AB03DJ,1SRCH7F014TAHX,1U5X071EXP5ZJG,86,0.2,3.2,3.957594,1.342164,0,0,Mavic Mini,1SDCH7G0169R0K,1SFLH6Q0AB03DJ,1SRCH7F014TAHX,1U5X071EXP5ZJG,DJI Fly,,1.12.8,643323A1-DC5B-F874-98C7-D14794B392C3,1SDCH7G0169R0K,,,,,6.974492152,79.91423487,5,,
2/15/2024,30:40.4,4m 48.7s,288.7,6.974496765,79.91427559,0,0,0.3,49,0.3,0,0,0,0,0,0,0,0,4.2,0.4,34.4,34.4,,Manual Takeoff,Auto Fly,Takeoff (RC Assisted),15,5,TRUE,,Mavic Mini,TRUE,FALSE,,Smart,RC,TRUE,TRUE,FALSE,,,TRUE,,FALSE,FALSE,FALSE,FALSE,FALSE,FALSE,FALSE,FALSE,FALSE,FALSE,0,Follow Yaw,1.9,0,60.9,60.9,FALSE,FALSE,FALSE,FALSE,FALSE,FALSE,,TRUE,Normal,,100,1024,1024,1024,1024,2,FALSE,FALSE,FALSE,FALSE,FALSE,0,FALSE,FALSE,FALSE,FALSE,79,7.841,1671,2113,7.867,FALSE,3.918,3.923,0.005,FALSE,FALSE,NA,101.8,101.8,101.8,0,0,0,0,5,2617.5,654.38,,Idle,0,20,FALSE,5,TRUE,9,Go Home,FALSE,FALSE,FALSE,FALSE,FALSE,FALSE,FALSE,FALSE,FALSE,FALSE,FALSE,FALSE,6.974495792,79.91427629,0.4,126.8,328,TRUE,1,1,FALSE,FALSE,FALSE,FALSE,,TRUE,FALSE,FALSE,Course Lock,65.6,41.9,16.4,Calm,27,,1.12.8,Mavic Mini,1SDCH7G0169R0K,1SFLH6Q0AB03DJ,1SRCH7F014TAHX,1U5X071EXP5ZJG,86,0.2,3.2,3.957594,1.342164,0,0,Mavic Mini,1SDCH7G0169R0K,1SFLH6Q0AB03DJ,1SRCH7F014TAHX,1U5X071EXP5ZJG,DJI Fly,,1.12.8,643323A1-DC5B-F874-98C7-D14794B392C3,1SDCH7G0169R0K,,,,,6.974492152,79.91423487,5,,
2/15/2024,30:40.5,4m 48.8s,288.8,6.974496747,79.91427555,0,0,0.3,49,0.3,0,0,0,0,0,0,0,0,4.2,0.4,34.4,34.4,,Manual Takeoff,Auto Fly,Takeoff (RC Assisted),15,5,TRUE,,Mavic Mini,TRUE,FALSE,,Smart,RC,TRUE,TRUE,FALSE,,,TRUE,,FALSE,FALSE,FALSE,FALSE,FALSE,FALSE,FALSE,FALSE,FALSE,FALSE,0,Follow Yaw,1.9,0,60.9,60.9,FALSE,FALSE,FALSE,FALSE,FALSE,FALSE,,TRUE,Normal,,100,1024,1024,1095,1024,2,FALSE,FALSE,FALSE,FALSE,FALSE,0,FALSE,FALSE,FALSE,FALSE,79,7.841,1671,2113,7.844,FALSE,3.918,3.923,0.005,FALSE,FALSE,NA,101.8,101.8,101.8,0,0,0,0,5,2701.4,675.37,,Idle,0,20,FALSE,5,TRUE,9,Go Home,FALSE,FALSE,FALSE,FALSE,FALSE,FALSE,FALSE,FALSE,FALSE,FALSE,FALSE,FALSE,6.974495792,79.91427629,0.4,126.8,328,TRUE,1,1,FALSE,FALSE,FALSE,FALSE,,TRUE,FALSE,FALSE,Course Lock,65.6,41.9,16.4,Calm,27,,1.12.8,Mavic Mini,1SDCH7G0169R0K,1SFLH6Q0AB03DJ,1SRCH7F014TAHX,1U5X071EXP5ZJG,86,0.2,3.2,3.957594,1.342164,0,0,Mavic Mini,1SDCH7G0169R0K,1SFLH6Q0AB03DJ,1SRCH7F014TAHX,1U5X071EXP5ZJG,DJI Fly,,1.12.8,643323A1-DC5B-F874-98C7-D14794B392C3,1SDCH7G0169R0K,,,,,6.974492152,79.91423487,5,,
2/15/2024,30:40.7,4m 48.9s,288.9,6.974496695,79.91427554,0,0,0.3,49,0.4,0,0,0,0,0,0,0,0,4.2,0.4,34.4,34.4,,Manual Takeoff,Auto Fly,Takeoff (RC Assisted),15,5,TRUE,,Mavic Mini,TRUE,FALSE,,Smart,RC,TRUE,TRUE,FALSE,,,TRUE,,FALSE,FALSE,FALSE,FALSE,FALSE,FALSE,FALSE,FALSE,FALSE,FALSE,0,Follow Yaw,1.8,0,60.9,60.9,FALSE,FALSE,FALSE,FALSE,FALSE,FALSE,,TRUE,Normal,,100,1024,1024,1162,1024,2,FALSE,FALSE,FALSE,FALSE,FALSE,0,FALSE,FALSE,FALSE,FALSE,79,7.853,1671,2113,7.844,FALSE,3.927,3.926,0.005,FALSE,FALSE,NA,101.8,101.8,101.8,0,0,0,0,5,2701.4,675.37,,Idle,0,20,FALSE,5,TRUE,9,Go Home,FALSE,FALSE,FALSE,FALSE,FALSE,FALSE,FALSE,FALSE,FALSE,FALSE,FALSE,FALSE,6.974495792,79.91427629,0.4,126.8,328,TRUE,1,1,FALSE,FALSE,FALSE,FALSE,,TRUE,FALSE,FALSE,Course Lock,65.6,41.9,16.4,Calm,27,,1.12.8,Mavic Mini,1SDCH7G0169R0K,1SFLH6Q0AB03DJ,1SRCH7F014TAHX,1U5X071EXP5ZJG,86,0.2,3.2,3.957594,1.342164,0,0,Mavic Mini,1SDCH7G0169R0K,1SFLH6Q0AB03DJ,1SRCH7F014TAHX,1U5X071EXP5ZJG,DJI Fly,,1.12.8,643323A1-DC5B-F874-98C7-D14794B392C3,1SDCH7G0169R0K,,,,,6.974492152,79.91423487,5,,
2/15/2024,30:40.8,4m 49.0s,289,6.974496672,79.91427552,0,0,0.3,49,0.4,0,0,0,0,0,0,0,0,4.2,0.4,34.4,34.4,,Manual Takeoff,Auto Fly,Takeoff (RC Assisted),15,5,TRUE,,Mavic Mini,TRUE,FALSE,,Smart,RC,TRUE,TRUE,FALSE,,,TRUE,,FALSE,FALSE,FALSE,FALSE,FALSE,FALSE,FALSE,FALSE,FALSE,FALSE,0,Follow Yaw,1.8,0,60.9,60.9,FALSE,FALSE,FALSE,FALSE,FALSE,FALSE,,TRUE,Normal,,100,1024,1024,1210,1024,2,FALSE,FALSE,FALSE,FALSE,FALSE,0,FALSE,FALSE,FALSE,FALSE,79,7.853,1671,2113,7.844,FALSE,3.927,3.926,0.005,FALSE,FALSE,NA,101.8,101.8,101.8,0,0,0,0,5,2701.4,675.37,,Idle,0,20,FALSE,5,TRUE,9,Go Home,FALSE,FALSE,FALSE,FALSE,FALSE,FALSE,FALSE,FALSE,FALSE,FALSE,FALSE,FALSE,6.974495792,79.91427629,0.4,126.8,328,TRUE,1,1,FALSE,FALSE,FALSE,FALSE,,TRUE,FALSE,FALSE,Course Lock,65.6,41.9,16.4,Calm,27,,1.12.8,Mavic Mini,1SDCH7G0169R0K,1SFLH6Q0AB03DJ,1SRCH7F014TAHX,1U5X071EXP5ZJG,86,0.2,3.2,3.957594,1.342164,0,0,Mavic Mini,1SDCH7G0169R0K,1SFLH6Q0AB03DJ,1SRCH7F014TAHX,1U5X071EXP5ZJG,DJI Fly,,1.12.8,643323A1-DC5B-F874-98C7-D14794B392C3,1SDCH7G0169R0K,,,,,6.974492152,79.91423487,5,,
2/15/2024,30:40.9,4m 49.1s,289.1,6.974496758,79.9142755,0,0,0.3,49,0.4,0,0,0,0,0,0,0,0,4.2,0.4,34.5,34.5,,Manual Takeoff,Auto Fly,Takeoff (RC Assisted),15,5,TRUE,,Mavic Mini,TRUE,FALSE,,Smart,RC,TRUE,TRUE,FALSE,,,TRUE,,FALSE,FALSE,FALSE,FALSE,FALSE,FALSE,FALSE,FALSE,FALSE,FALSE,0,Follow Yaw,1.8,0,60.9,60.9,FALSE,FALSE,FALSE,FALSE,FALSE,FALSE,,TRUE,Normal,,100,1024,1024,1250,1024,2,FALSE,FALSE,FALSE,FALSE,FALSE,0,FALSE,FALSE,FALSE,FALSE,79,7.853,1671,2113,7.844,FALSE,3.927,3.926,0.005,FALSE,FALSE,NA,101.8,101.8,101.8,0,0,0,0,5,2701.4,675.37,,Idle,0,20,FALSE,5,TRUE,9,Go Home,FALSE,FALSE,FALSE,FALSE,FALSE,FALSE,FALSE,FALSE,FALSE,FALSE,FALSE,FALSE,6.974495792,79.91427629,0.4,126.8,328,TRUE,1,1,FALSE,FALSE,FALSE,FALSE,,TRUE,FALSE,FALSE,Course Lock,65.6,41.9,16.4,Calm,27,,1.12.8,Mavic Mini,1SDCH7G0169R0K,1SFLH6Q0AB03DJ,1SRCH7F014TAHX,1U5X071EXP5ZJG,86,0.2,3.2,3.957594,1.342164,0,0,Mavic Mini,1SDCH7G0169R0K,1SFLH6Q0AB03DJ,1SRCH7F014TAHX,1U5X071EXP5ZJG,DJI Fly,,1.12.8,643323A1-DC5B-F874-98C7-D14794B392C3,1SDCH7G0169R0K,,,,,6.974492152,79.91423487,5,,
2/15/2024,30:41.0,4m 49.2s,289.2,6.974496773,79.91427547,0,0,0.3,49,0.4,0,0,0,0,0,0,0,0,4.2,0.3,34.4,34.4,,Manual Takeoff,Auto Fly,Takeoff (RC Assisted),15,5,TRUE,,Mavic Mini,TRUE,FALSE,,Smart,RC,TRUE,TRUE,FALSE,,,TRUE,,FALSE,FALSE,FALSE,FALSE,FALSE,FALSE,FALSE,FALSE,FALSE,FALSE,0,Follow Yaw,1.9,0,60.9,60.9,FALSE,FALSE,FALSE,FALSE,FALSE,FALSE,,TRUE,Normal,,100,1024,1024,1301,1024,2,FALSE,FALSE,FALSE,FALSE,FALSE,0,FALSE,FALSE,FALSE,FALSE,79,7.853,1671,2113,7.844,FALSE,3.927,3.926,0.005,FALSE,FALSE,NA,101.8,101.8,101.8,0,0,0,0,5,2701.4,675.37,,Idle,0,20,FALSE,5,TRUE,9,Go Home,FALSE,FALSE,FALSE,FALSE,FALSE,FALSE,FALSE,FALSE,FALSE,FALSE,FALSE,FALSE,6.974495792,79.91427629,0.4,126.8,328,TRUE,1,1,FALSE,FALSE,FALSE,FALSE,,TRUE,FALSE,FALSE,Course Lock,65.6,41.9,16.4,Calm,27,,1.12.8,Mavic Mini,1SDCH7G0169R0K,1SFLH6Q0AB03DJ,1SRCH7F014TAHX,1U5X071EXP5ZJG,86,0.2,3.2,3.957594,1.342164,0,0,Mavic Mini,1SDCH7G0169R0K,1SFLH6Q0AB03DJ,1SRCH7F014TAHX,1U5X071EXP5ZJG,DJI Fly,,1.12.8,643323A1-DC5B-F874-98C7-D14794B392C3,1SDCH7G0169R0K,,,,,6.974492152,79.91423487,5,,
2/15/2024,30:41.1,4m 49.3s,289.3,6.974496738,79.91427547,0,0,0.3,49,0.4,0,0,0,0,0,0,0,0,4.1,0.3,34.4,34.4,,Manual Takeoff,Auto Fly,Takeoff (RC Assisted),15,5,TRUE,,Mavic Mini,TRUE,FALSE,,Smart,RC,TRUE,TRUE,FALSE,,,TRUE,,FALSE,FALSE,FALSE,FALSE,FALSE,FALSE,FALSE,FALSE,FALSE,FALSE,0,Follow Yaw,1.9,0,60.9,60.9,FALSE,FALSE,FALSE,FALSE,FALSE,FALSE,,TRUE,Normal,,100,1024,1024,1364,1024,2,FALSE,FALSE,FALSE,FALSE,FALSE,0,FALSE,FALSE,FALSE,FALSE,79,7.853,1671,2113,7.844,FALSE,3.927,3.926,0.005,FALSE,FALSE,NA,101.8,101.8,101.8,0,0,0,0,5,2701.4,675.37,,Idle,0,20,FALSE,5,TRUE,9,Go Home,FALSE,FALSE,FALSE,FALSE,FALSE,FALSE,FALSE,FALSE,FALSE,FALSE,FALSE,FALSE,6.974495792,79.91427629,0.4,126.8,328,TRUE,1,1,FALSE,FALSE,FALSE,FALSE,,TRUE,FALSE,FALSE,Course Lock,65.6,41.9,16.4,Calm,27,,1.12.8,Mavic Mini,1SDCH7G0169R0K,1SFLH6Q0AB03DJ,1SRCH7F014TAHX,1U5X071EXP5ZJG,86,0.2,3.2,3.957594,1.342164,0,0,Mavic Mini,1SDCH7G0169R0K,1SFLH6Q0AB03DJ,1SRCH7F014TAHX,1U5X071EXP5ZJG,DJI Fly,,1.12.8,643323A1-DC5B-F874-98C7-D14794B392C3,1SDCH7G0169R0K,,,,,6.974492152,79.91423487,5,,
2/15/2024,30:41.2,4m 49.4s,289.4,6.974496711,79.91427544,0,0,0.3,49,0.4,0,0,0,0,0,0,0,0,4.1,0.2,34.4,34.4,,Manual Takeoff,Auto Fly,Takeoff (RC Assisted),15,5,TRUE,,Mavic Mini,TRUE,FALSE,,Smart,RC,TRUE,TRUE,FALSE,,,TRUE,,FALSE,FALSE,FALSE,FALSE,FALSE,FALSE,FALSE,FALSE,FALSE,FALSE,0,Follow Yaw,1.9,0,60.9,60.9,FALSE,FALSE,FALSE,FALSE,FALSE,FALSE,,TRUE,Normal,,100,1024,1024,1373,1024,2,FALSE,FALSE,FALSE,FALSE,FALSE,0,FALSE,FALSE,FALSE,FALSE,79,7.853,1671,2113,7.844,FALSE,3.927,3.926,0.005,FALSE,FALSE,NA,101.8,101.8,101.8,0,0,0,0,5,2701.4,675.37,,Idle,0,20,FALSE,5,TRUE,9,Go Home,FALSE,FALSE,FALSE,FALSE,FALSE,FALSE,FALSE,FALSE,FALSE,FALSE,FALSE,FALSE,6.974495792,79.91427629,0.4,126.8,328,TRUE,1,1,FALSE,FALSE,FALSE,FALSE,,TRUE,FALSE,FALSE,Course Lock,65.6,41.9,16.4,Calm,27,,1.12.8,Mavic Mini,1SDCH7G0169R0K,1SFLH6Q0AB03DJ,1SRCH7F014TAHX,1U5X071EXP5ZJG,86,0.2,3.2,3.957594,1.342164,0,0,Mavic Mini,1SDCH7G0169R0K,1SFLH6Q0AB03DJ,1SRCH7F014TAHX,1U5X071EXP5ZJG,DJI Fly,,1.12.8,643323A1-DC5B-F874-98C7-D14794B392C3,1SDCH7G0169R0K,,,,,6.974492152,79.91423487,5,,
2/15/2024,30:41.3,4m 49.5s,289.5,6.974496653,79.91427542,0,0,0.3,49,0.5,0,0,0,0,0,0,0,0,4.2,0.1,34.1,34.1,,Manual Takeoff,Auto Fly,Takeoff (RC Assisted),15,5,TRUE,,Mavic Mini,TRUE,FALSE,,Smart,RC,TRUE,TRUE,FALSE,,,TRUE,,FALSE,FALSE,FALSE,FALSE,FALSE,FALSE,FALSE,FALSE,FALSE,FALSE,0,Follow Yaw,1.9,0,60.9,60.9,FALSE,FALSE,FALSE,FALSE,FALSE,FALSE,,TRUE,Normal,,100,1024,1024,1373,1024,2,FALSE,FALSE,FALSE,FALSE,FALSE,0,FALSE,FALSE,FALSE,FALSE,79,7.853,1671,2113,7.844,FALSE,3.927,3.926,0.005,FALSE,FALSE,NA,101.8,101.8,101.8,0,0,0,0,5,2701.4,675.37,,Idle,0,20,FALSE,5,TRUE,9,Go Home,FALSE,FALSE,FALSE,FALSE,FALSE,FALSE,FALSE,FALSE,FALSE,FALSE,FALSE,FALSE,6.974495792,79.91427629,0.4,126.8,328,TRUE,1,1,FALSE,FALSE,FALSE,FALSE,,TRUE,FALSE,FALSE,Course Lock,65.6,41.9,16.4,Calm,27,,1.12.8,Mavic Mini,1SDCH7G0169R0K,1SFLH6Q0AB03DJ,1SRCH7F014TAHX,1U5X071EXP5ZJG,86,0.2,3.2,3.957594,1.342164,0,0,Mavic Mini,1SDCH7G0169R0K,1SFLH6Q0AB03DJ,1SRCH7F014TAHX,1U5X071EXP5ZJG,DJI Fly,,1.12.8,643323A1-DC5B-F874-98C7-D14794B392C3,1SDCH7G0169R0K,,,,,6.974492152,79.91423487,5,,
2/15/2024,30:41.4,4m 49.6s,289.6,6.974496639,79.91427536,0,0,0.3,49,0.5,0,0,0,0,0,0,0,0,4,0.1,33.8,33.8,,Manual Takeoff,Auto Fly,Takeoff (RC Assisted),15,5,TRUE,,Mavic Mini,TRUE,FALSE,,Smart,RC,TRUE,TRUE,FALSE,,,TRUE,,FALSE,FALSE,FALSE,FALSE,FALSE,FALSE,FALSE,FALSE,FALSE,FALSE,0,Follow Yaw,1.9,0,60.7,60.7,FALSE,FALSE,FALSE,FALSE,FALSE,FALSE,,TRUE,Normal,,100,1024,1024,1376,1024,2,FALSE,FALSE,FALSE,FALSE,FALSE,0,FALSE,FALSE,FALSE,FALSE,79,7.853,1671,2113,7.844,FALSE,3.927,3.926,0.005,FALSE,FALSE,NA,101.8,101.8,101.8,0,0,0,0,5,2701.4,675.37,,Idle,0,20,FALSE,5,TRUE,9,Go Home,FALSE,FALSE,FALSE,FALSE,FALSE,FALSE,FALSE,FALSE,FALSE,FALSE,FALSE,FALSE,6.974495792,79.91427629,0.4,126.8,328,TRUE,1,1,FALSE,FALSE,FALSE,FALSE,,TRUE,FALSE,FALSE,Course Lock,65.6,41.9,16.4,Calm,27,,1.12.8,Mavic Mini,1SDCH7G0169R0K,1SFLH6Q0AB03DJ,1SRCH7F014TAHX,1U5X071EXP5ZJG,86,0.2,3.2,3.957594,1.342164,0,0,Mavic Mini,1SDCH7G0169R0K,1SFLH6Q0AB03DJ,1SRCH7F014TAHX,1U5X071EXP5ZJG,DJI Fly,,1.12.8,643323A1-DC5B-F874-98C7-D14794B392C3,1SDCH7G0169R0K,,,,,6.974492152,79.91423487,5,,
2/15/2024,30:41.5,4m 49.7s,289.7,6.97449663,79.91427529,0,0,0.3,49,0.5,0,0,0,0,0,0,0,0,3,0.1,33.6,33.6,,Manual Takeoff,Auto Fly,Takeoff (RC Assisted),15,5,TRUE,,Mavic Mini,TRUE,FALSE,,Smart,RC,TRUE,TRUE,FALSE,,,TRUE,,FALSE,FALSE,FALSE,FALSE,FALSE,FALSE,FALSE,FALSE,FALSE,FALSE,0,Follow Yaw,1.9,0,60.6,60.6,FALSE,FALSE,FALSE,FALSE,FALSE,FALSE,,TRUE,Normal,,100,1024,1024,1384,1024,2,FALSE,FALSE,FALSE,FALSE,FALSE,0,FALSE,FALSE,FALSE,FALSE,79,7.853,1671,2113,7.844,FALSE,3.927,3.926,0.005,FALSE,FALSE,NA,101.8,101.8,101.8,0,0,0,0,5,2701.4,675.37,,Idle,0,20,FALSE,5,TRUE,9,Go Home,FALSE,FALSE,FALSE,FALSE,FALSE,FALSE,FALSE,FALSE,FALSE,FALSE,FALSE,FALSE,6.974495792,79.91427629,0.4,126.8,328,TRUE,1,1,FALSE,FALSE,FALSE,FALSE,,TRUE,FALSE,FALSE,Course Lock,65.6,41.9,16.4,Calm,27,,1.12.8,Mavic Mini,1SDCH7G0169R0K,1SFLH6Q0AB03DJ,1SRCH7F014TAHX,1U5X071EXP5ZJG,86,0.2,3.2,3.957594,1.342164,0,0,Mavic Mini,1SDCH7G0169R0K,1SFLH6Q0AB03DJ,1SRCH7F014TAHX,1U5X071EXP5ZJG,DJI Fly,,1.12.8,643323A1-DC5B-F874-98C7-D14794B392C3,1SDCH7G0169R0K,,,,,6.974492152,79.91423487,5,,
2/15/2024,30:41.6,4m 49.8s,289.8,6.974496626,79.91427522,0,0,0.3,49,0.5,0,0,0,0,0,0,0,0,0.9,-2,33.1,33.1,,Manual Takeoff,Auto Fly,Takeoff (RC Assisted),15,5,TRUE,,Mavic Mini,TRUE,FALSE,,Smart,RC,TRUE,TRUE,FALSE,,,TRUE,,FALSE,FALSE,FALSE,FALSE,FALSE,FALSE,FALSE,FALSE,FALSE,FALSE,0,Follow Yaw,1.9,0,60.4,60.4,FALSE,FALSE,FALSE,FALSE,FALSE,FALSE,,TRUE,Normal,,100,1024,1024,1387,1024,2,FALSE,FALSE,FALSE,FALSE,FALSE,0,FALSE,FALSE,FALSE,FALSE,79,7.853,1671,2113,7.818,FALSE,3.927,3.926,0.005,FALSE,FALSE,NA,101.8,101.8,101.8,0,0,0,0,5,2856.9,714.24,,Idle,0,20,FALSE,5,TRUE,9,Go Home,FALSE,FALSE,FALSE,FALSE,FALSE,FALSE,FALSE,FALSE,FALSE,FALSE,FALSE,FALSE,6.974495792,79.91427629,0.4,126.8,328,TRUE,1,1,FALSE,FALSE,FALSE,FALSE,,TRUE,FALSE,FALSE,Course Lock,65.6,41.9,16.4,Calm,27,,1.12.8,Mavic Mini,1SDCH7G0169R0K,1SFLH6Q0AB03DJ,1SRCH7F014TAHX,1U5X071EXP5ZJG,86,0.2,3.2,3.957594,1.342164,0,0,Mavic Mini,1SDCH7G0169R0K,1SFLH6Q0AB03DJ,1SRCH7F014TAHX,1U5X071EXP5ZJG,DJI Fly,,1.12.8,643323A1-DC5B-F874-98C7-D14794B392C3,1SDCH7G0169R0K,,,,,6.974492152,79.91423487,5,,
2/15/2024,30:41.7,4m 49.9s,289.9,6.974496694,79.91427517,0,0,0.3,49,0.6,0,0,0,0,0,0,-0.223694,0,0.3,-2.3,31.6,31.6,,Manual Takeoff,Auto Fly,,15,5,TRUE,,Mavic Mini,TRUE,FALSE,,Smart,RC,FALSE,TRUE,FALSE,,,TRUE,,FALSE,FALSE,FALSE,FALSE,FALSE,FALSE,FALSE,FALSE,FALSE,FALSE,0,Follow Yaw,1.9,0,59.5,59.5,FALSE,FALSE,FALSE,FALSE,FALSE,FALSE,,TRUE,Normal,,100,1024,1024,1387,1024,2,FALSE,FALSE,FALSE,FALSE,FALSE,0,FALSE,FALSE,FALSE,FALSE,79,7.853,1671,2113,7.818,FALSE,3.927,3.926,0.005,FALSE,FALSE,NA,101.8,101.8,101.8,0,0,0,0,5,2856.9,714.24,,Idle,0,20,FALSE,5,TRUE,9,Go Home,FALSE,FALSE,FALSE,FALSE,FALSE,FALSE,FALSE,FALSE,FALSE,FALSE,FALSE,FALSE,6.974495792,79.91427629,0.5,126.8,328,TRUE,1,1,FALSE,FALSE,FALSE,FALSE,,TRUE,FALSE,FALSE,Course Lock,65.6,41.9,16.4,Calm,27,,1.12.8,Mavic Mini,1SDCH7G0169R0K,1SFLH6Q0AB03DJ,1SRCH7F014TAHX,1U5X071EXP5ZJG,86,0.2,3.2,3.957594,1.342164,0,0,Mavic Mini,1SDCH7G0169R0K,1SFLH6Q0AB03DJ,1SRCH7F014TAHX,1U5X071EXP5ZJG,DJI Fly,,1.12.8,643323A1-DC5B-F874-98C7-D14794B392C3,1SDCH7G0169R0K,,,,,6.974492152,79.91423487,5,,
2/15/2024,30:41.7,4m 50.0s,290,6.974496748,79.91427507,0,0,0.3,49,0.6,0.223694,0.223694,0,0,-0.223694,0,-0.447388,0,-0.2,-0.7,31.6,31.6,304.3,Tripod,Auto Fly,,15,5,TRUE,,Mavic Mini,TRUE,FALSE,,Smart,RC,FALSE,TRUE,FALSE,,,TRUE,,FALSE,FALSE,FALSE,FALSE,FALSE,FALSE,FALSE,FALSE,FALSE,FALSE,0,Follow Yaw,1.9,0,58.9,58.9,FALSE,FALSE,FALSE,FALSE,FALSE,FALSE,,TRUE,Normal,,100,1024,1024,1383,1024,2,FALSE,FALSE,FALSE,FALSE,FALSE,0,FALSE,FALSE,FALSE,FALSE,79,7.853,1671,2113,7.818,FALSE,3.927,3.926,0.005,FALSE,FALSE,NA,101.8,101.8,101.8,0,0,0,0,5,2856.9,714.24,,Idle,0,20,FALSE,5,TRUE,9,Go Home,FALSE,FALSE,FALSE,FALSE,FALSE,FALSE,FALSE,FALSE,FALSE,FALSE,FALSE,FALSE,6.974495792,79.91427629,0.5,126.8,328,TRUE,1,1,FALSE,FALSE,FALSE,FALSE,,TRUE,FALSE,FALSE,Course Lock,65.6,41.9,16.4,Calm,27,,1.12.8,Mavic Mini,1SDCH7G0169R0K,1SFLH6Q0AB03DJ,1SRCH7F014TAHX,1U5X071EXP5ZJG,86,0.2,3.2,3.957594,1.342164,0,0,Mavic Mini,1SDCH7G0169R0K,1SFLH6Q0AB03DJ,1SRCH7F014TAHX,1U5X071EXP5ZJG,DJI Fly,,1.12.8,643323A1-DC5B-F874-98C7-D14794B392C3,1SDCH7G0169R0K,,,,,6.974492152,79.91423487,5,Flight mode changed to Tripod.,
2/15/2024,30:41.9,4m 50.1s,290.1,6.974496844,79.91427493,0,0,0.3,49,0.7,0.316351,0.316351,0.223694,0.223694,-0.223694,0,-0.671082,0,-0.2,0.6,31.8,31.8,312.2,Tripod,Auto Fly,,15,5,TRUE,,Mavic Mini,TRUE,FALSE,,Smart,RC,FALSE,TRUE,FALSE,,,TRUE,,FALSE,FALSE,FALSE,FALSE,FALSE,FALSE,FALSE,FALSE,FALSE,FALSE,0,Follow Yaw,1.9,0,58.9,58.9,FALSE,FALSE,FALSE,FALSE,FALSE,FALSE,,TRUE,Normal,,100,1024,1024,1378,1024,2,FALSE,FALSE,FALSE,FALSE,FALSE,0,FALSE,FALSE,FALSE,FALSE,79,7.698,1671,2113,7.818,FALSE,3.851,3.847,0.005,FALSE,FALSE,NA,101.8,101.8,101.8,0,0,0,0,5,2856.9,714.24,,Idle,0,20,FALSE,5,TRUE,9,Go Home,FALSE,FALSE,FALSE,FALSE,FALSE,FALSE,FALSE,FALSE,FALSE,FALSE,FALSE,FALSE,6.974495792,79.91427629,0.6,126.8,328,TRUE,1,1,FALSE,FALSE,FALSE,FALSE,,TRUE,FALSE,FALSE,Course Lock,65.6,41.9,16.4,Calm,27,,1.12.8,Mavic Mini,1SDCH7G0169R0K,1SFLH6Q0AB03DJ,1SRCH7F014TAHX,1U5X071EXP5ZJG,86,0.2,3.2,3.957594,1.342164,0,0,Mavic Mini,1SDCH7G0169R0K,1SFLH6Q0AB03DJ,1SRCH7F014TAHX,1U5X071EXP5ZJG,DJI Fly,,1.12.8,643323A1-DC5B-F874-98C7-D14794B392C3,1SDCH7G0169R0K,,,,,6.974492152,79.91423487,5,,
2/15/2024,30:41.9,4m 50.2s,290.2,6.974496944,79.91427482,0.3,0.3,0.6,49,0.7,0.223694,0.316351,0.223694,0.223694,0,0,-0.894776,0,0.8,1,32,32,318.4,Tripod,Auto Fly,,15,5,TRUE,,Mavic Mini,TRUE,FALSE,,Smart,RC,FALSE,TRUE,FALSE,,,TRUE,,FALSE,FALSE,FALSE,FALSE,FALSE,FALSE,FALSE,FALSE,FALSE,FALSE,0,Follow Yaw,1.9,0,58.9,58.9,FALSE,FALSE,FALSE,FALSE,FALSE,FALSE,,TRUE,Normal,,100,1024,1024,1376,1024,2,FALSE,FALSE,FALSE,FALSE,FALSE,0,FALSE,FALSE,FALSE,FALSE,79,7.698,1671,2113,7.818,FALSE,3.851,3.847,0.005,FALSE,FALSE,NA,102,101.8,102,0,0,0,0,5,2856.9,714.24,,Idle,0,20,FALSE,5,TRUE,9,Go Home,FALSE,FALSE,FALSE,FALSE,FALSE,FALSE,FALSE,FALSE,FALSE,FALSE,FALSE,FALSE,6.974495792,79.91427629,0.6,126.8,328,TRUE,1,1,FALSE,FALSE,FALSE,FALSE,,TRUE,FALSE,FALSE,Course Lock,65.6,41.9,16.4,Calm,27,,1.12.8,Mavic Mini,1SDCH7G0169R0K,1SFLH6Q0AB03DJ,1SRCH7F014TAHX,1U5X071EXP5ZJG,86,0.2,3.2,3.957594,1.342164,0,0,Mavic Mini,1SDCH7G0169R0K,1SFLH6Q0AB03DJ,1SRCH7F014TAHX,1U5X071EXP5ZJG,DJI Fly,,1.12.8,643323A1-DC5B-F874-98C7-D14794B392C3,1SDCH7G0169R0K,,,,,6.974492152,79.91423487,5,,
2/15/2024,30:42.1,4m 50.3s,290.3,6.974497031,79.91427472,0.3,0.3,0.6,49,0.8,0.223694,0.316351,0.223694,0.223694,0,0,-1.11847,0,1.5,1.3,32.1,32.1,319,Tripod,Auto Fly,,15,5,TRUE,,Mavic Mini,TRUE,FALSE,,Smart,RC,FALSE,TRUE,FALSE,,,TRUE,,FALSE,FALSE,FALSE,FALSE,FALSE,FALSE,FALSE,FALSE,FALSE,FALSE,0,Follow Yaw,1.9,0,58.9,58.9,FALSE,FALSE,FALSE,FALSE,FALSE,FALSE,,TRUE,Normal,,100,1024,1024,1374,1024,2,FALSE,FALSE,FALSE,FALSE,FALSE,0,FALSE,FALSE,FALSE,FALSE,79,7.698,1671,2113,7.818,FALSE,3.851,3.847,0.005,FALSE,FALSE,NA,102,101.8,102,0,0,0,0,5,2856.9,714.24,,Idle,0,20,FALSE,5,TRUE,9,Go Home,FALSE,FALSE,FALSE,FALSE,FALSE,FALSE,FALSE,FALSE,FALSE,FALSE,FALSE,FALSE,6.974495792,79.91427629,0.7,126.8,328,TRUE,1,1,FALSE,FALSE,FALSE,FALSE,,TRUE,FALSE,FALSE,Course Lock,65.6,41.9,16.4,Calm,27,,1.12.8,Mavic Mini,1SDCH7G0169R0K,1SFLH6Q0AB03DJ,1SRCH7F014TAHX,1U5X071EXP5ZJG,86,0.2,3.2,3.957594,1.342164,0,0,Mavic Mini,1SDCH7G0169R0K,1SFLH6Q0AB03DJ,1SRCH7F014TAHX,1U5X071EXP5ZJG,DJI Fly,,1.12.8,643323A1-DC5B-F874-98C7-D14794B392C3,1SDCH7G0169R0K,,,,,6.974492152,79.91423487,5,,
2/15/2024,30:42.1,4m 50.4s,290.4,6.974497064,79.9142746,0.6,0.6,0.9,49,0.8,0.223694,0.316351,0.223694,0.223694,0,0,-1.342164,0,1.9,1.4,32.1,32.1,289.3,Tripod,Auto Fly,,15,5,TRUE,,Mavic Mini,TRUE,FALSE,,Smart,RC,FALSE,TRUE,FALSE,,,TRUE,,FALSE,FALSE,FALSE,FALSE,FALSE,FALSE,FALSE,FALSE,FALSE,FALSE,0,Follow Yaw,1.9,0,58.9,58.9,FALSE,FALSE,FALSE,FALSE,FALSE,FALSE,,TRUE,Normal,,100,1024,1024,1374,1024,2,FALSE,FALSE,FALSE,FALSE,FALSE,0,FALSE,FALSE,FALSE,FALSE,79,7.698,1671,2113,7.818,FALSE,3.851,3.847,0.005,FALSE,FALSE,NA,102,101.8,102,0,0,0,0,5,2856.9,714.24,,Idle,0,20,FALSE,5,TRUE,9,Go Home,FALSE,FALSE,FALSE,FALSE,FALSE,FALSE,FALSE,FALSE,FALSE,FALSE,FALSE,FALSE,6.974495792,79.91427629,0.7,126.8,328,TRUE,1,1,FALSE,FALSE,FALSE,FALSE,,TRUE,FALSE,FALSE,Course Lock,65.6,41.9,16.4,Calm,27,,1.12.8,Mavic Mini,1SDCH7G0169R0K,1SFLH6Q0AB03DJ,1SRCH7F014TAHX,1U5X071EXP5ZJG,86,0.2,3.2,3.957594,1.342164,0,0,Mavic Mini,1SDCH7G0169R0K,1SFLH6Q0AB03DJ,1SRCH7F014TAHX,1U5X071EXP5ZJG,DJI Fly,,1.12.8,643323A1-DC5B-F874-98C7-D14794B392C3,1SDCH7G0169R0K,,,,,6.974492152,79.91423487,5,,
2/15/2024,30:42.3,4m 50.5s,290.5,6.974497149,79.91427447,0.6,0.6,0.9,49,0.9,0.223694,0.316351,0.223694,0.223694,0,0,-1.342164,0,1.8,1.6,32.2,32.2,310.7,Tripod,Auto Fly,,15,5,TRUE,,Mavic Mini,TRUE,FALSE,,Smart,RC,FALSE,TRUE,FALSE,,,TRUE,,FALSE,FALSE,FALSE,FALSE,FALSE,FALSE,FALSE,FALSE,FALSE,FALSE,0,Follow Yaw,1.9,0,58.9,58.9,FALSE,FALSE,FALSE,FALSE,FALSE,FALSE,,TRUE,Normal,,100,1024,1024,1373,1024,2,FALSE,FALSE,FALSE,FALSE,FALSE,0,FALSE,FALSE,FALSE,FALSE,79,7.698,1671,2113,7.818,FALSE,3.851,3.847,0.005,FALSE,FALSE,NA,102,101.8,102,0,0,0,0,5,2856.9,714.24,,Idle,0,20,FALSE,5,TRUE,9,Go Home,FALSE,FALSE,FALSE,FALSE,FALSE,FALSE,FALSE,FALSE,FALSE,FALSE,FALSE,FALSE,6.974495792,79.91427629,0.8,126.8,328,TRUE,1,1,FALSE,FALSE,FALSE,FALSE,,TRUE,FALSE,FALSE,Course Lock,65.6,41.9,16.4,Calm,27,,1.12.8,Mavic Mini,1SDCH7G0169R0K,1SFLH6Q0AB03DJ,1SRCH7F014TAHX,1U5X071EXP5ZJG,86,0.2,3.2,3.957594,1.342164,0,0,Mavic Mini,1SDCH7G0169R0K,1SFLH6Q0AB03DJ,1SRCH7F014TAHX,1U5X071EXP5ZJG,DJI Fly,,1.12.8,643323A1-DC5B-F874-98C7-D14794B392C3,1SDCH7G0169R0K,,,,,6.974491146,79.91423151,5,,
2/15/2024,30:42.4,4m 50.6s,290.6,6.974497235,79.91427436,0.9,0.9,1.3,50,0.9,0,0.316351,0,0.223694,0,0,-1.342164,0,1.9,1.7,32.3,32.3,,Tripod,Auto Fly,,15,5,TRUE,,Mavic Mini,TRUE,FALSE,,Smart,RC,FALSE,TRUE,FALSE,,,TRUE,,FALSE,FALSE,FALSE,FALSE,FALSE,FALSE,FALSE,FALSE,FALSE,FALSE,0,Follow Yaw,1.9,0,58.9,58.9,FALSE,FALSE,FALSE,FALSE,FALSE,FALSE,,TRUE,Normal,,100,1024,1024,1366,1024,2,FALSE,FALSE,FALSE,FALSE,FALSE,0,FALSE,FALSE,FALSE,FALSE,79,7.698,1671,2113,7.818,FALSE,3.851,3.847,0.005,FALSE,FALSE,NA,102,101.8,102,0,0,0,0,5,2856.9,714.24,,Idle,0,20,FALSE,5,TRUE,9,Go Home,FALSE,FALSE,FALSE,FALSE,FALSE,FALSE,FALSE,FALSE,FALSE,FALSE,FALSE,FALSE,6.974495792,79.91427629,0.8,126.8,328,TRUE,1,1,FALSE,FALSE,FALSE,FALSE,,TRUE,FALSE,FALSE,Course Lock,65.6,41.9,16.4,Calm,27,,1.12.8,Mavic Mini,1SDCH7G0169R0K,1SFLH6Q0AB03DJ,1SRCH7F014TAHX,1U5X071EXP5ZJG,86,0.2,3.2,3.957594,1.342164,0,0,Mavic Mini,1SDCH7G0169R0K,1SFLH6Q0AB03DJ,1SRCH7F014TAHX,1U5X071EXP5ZJG,DJI Fly,,1.12.8,643323A1-DC5B-F874-98C7-D14794B392C3,1SDCH7G0169R0K,,,,,6.974491146,79.91423151,5,,
2/15/2024,30:42.5,4m 50.7s,290.7,6.974497343,79.91427428,0.9,0.9,1.3,50,1,0,0.316351,0,0.223694,0,0,-1.342164,0,1.9,1.5,32.4,32.4,,Tripod,Auto Fly,,15,5,TRUE,,Mavic Mini,TRUE,FALSE,,Smart,RC,FALSE,TRUE,FALSE,,,TRUE,,FALSE,FALSE,FALSE,FALSE,FALSE,FALSE,FALSE,FALSE,FALSE,FALSE,0,Follow Yaw,1.9,0,58.9,58.9,FALSE,FALSE,FALSE,FALSE,FALSE,FALSE,,TRUE,Normal,,100,1024,1024,1359,1024,2,FALSE,FALSE,FALSE,FALSE,FALSE,0,FALSE,FALSE,FALSE,FALSE,79,7.698,1671,2113,7.818,FALSE,3.851,3.847,0.005,FALSE,FALSE,NA,102,101.8,102,0,0,0,0,5,2856.9,714.24,,Idle,0,20,FALSE,5,TRUE,9,Go Home,FALSE,FALSE,FALSE,FALSE,FALSE,FALSE,FALSE,FALSE,FALSE,FALSE,FALSE,FALSE,6.974495792,79.91427629,0.9,126.8,328,TRUE,1,1,FALSE,FALSE,FALSE,FALSE,,TRUE,FALSE,FALSE,Course Lock,65.6,41.9,16.4,Calm,27,,1.12.8,Mavic Mini,1SDCH7G0169R0K,1SFLH6Q0AB03DJ,1SRCH7F014TAHX,1U5X071EXP5ZJG,86,0.2,3.2,3.957594,1.342164,0,0,Mavic Mini,1SDCH7G0169R0K,1SFLH6Q0AB03DJ,1SRCH7F014TAHX,1U5X071EXP5ZJG,DJI Fly,,1.12.8,643323A1-DC5B-F874-98C7-D14794B392C3,1SDCH7G0169R0K,,,,,6.974491146,79.91423151,5,,
2/15/2024,30:42.6,4m 50.8s,290.8,6.974497474,79.91427412,1.3,1.3,1.6,50,1.1,0,0.316351,0,0.223694,0,0,-1.342164,0,2,1.5,32.3,32.3,,Tripod,Auto Fly,,15,5,TRUE,,Mavic Mini,TRUE,FALSE,,Smart,RC,FALSE,TRUE,FALSE,,,TRUE,,FALSE,FALSE,FALSE,FALSE,FALSE,FALSE,FALSE,FALSE,FALSE,FALSE,0,Follow Yaw,1.9,0,58.9,58.9,FALSE,FALSE,FALSE,FALSE,FALSE,FALSE,,TRUE,Normal,,100,1024,1024,1352,1024,2,FALSE,FALSE,FALSE,FALSE,FALSE,0,FALSE,FALSE,FALSE,FALSE,79,7.698,1671,2113,7.722,FALSE,3.851,3.847,0.005,FALSE,FALSE,NA,102,101.8,102,0,0,1,0,5,3258.3,814.59,,Idle,0,20,FALSE,5,TRUE,9,Go Home,FALSE,FALSE,FALSE,FALSE,FALSE,FALSE,FALSE,FALSE,FALSE,FALSE,FALSE,FALSE,6.974496694,79.91427517,0.4,126.8,328,TRUE,1,1,FALSE,FALSE,FALSE,FALSE,,TRUE,FALSE,FALSE,Course Lock,65.6,41.9,16.4,Calm,27,,1.12.8,Mavic Mini,1SDCH7G0169R0K,1SFLH6Q0AB03DJ,1SRCH7F014TAHX,1U5X071EXP5ZJG,86,0.2,3.2,3.957594,1.342164,0,0,Mavic Mini,1SDCH7G0169R0K,1SFLH6Q0AB03DJ,1SRCH7F014TAHX,1U5X071EXP5ZJG,DJI Fly,,1.12.8,643323A1-DC5B-F874-98C7-D14794B392C3,1SDCH7G0169R0K,,,,,6.974491146,79.91423151,5,Home Point updated. RTH altitude adjusted to 20 m!׷ (Code: 120852).,
2/15/2024,30:42.7,4m 50.9s,290.9,6.974497582,79.91427415,1.6,1.6,1.9,50,1.1,0,0.316351,0,0.223694,0,0,-1.342164,0,2,1.2,32.4,32.4,,Tripod,Auto Fly,,15,5,TRUE,,Mavic Mini,TRUE,FALSE,,Smart,RC,FALSE,TRUE,FALSE,,,TRUE,,FALSE,FALSE,FALSE,FALSE,FALSE,FALSE,FALSE,FALSE,FALSE,FALSE,0,Follow Yaw,1.9,0,58.9,58.9,FALSE,FALSE,FALSE,FALSE,FALSE,FALSE,,TRUE,Normal,,100,1024,1024,1347,1024,2,FALSE,FALSE,FALSE,FALSE,FALSE,0,FALSE,FALSE,FALSE,FALSE,79,7.698,1671,2113,7.722,FALSE,3.851,3.847,0.005,FALSE,FALSE,NA,102,101.8,102,0,0,1,0,5,3258.3,814.59,,Idle,0,20,FALSE,5,TRUE,9,Go Home,FALSE,FALSE,FALSE,FALSE,FALSE,FALSE,FALSE,FALSE,FALSE,FALSE,FALSE,FALSE,6.974496694,79.91427517,0.4,126.8,328,TRUE,1,1,FALSE,FALSE,FALSE,FALSE,,TRUE,FALSE,FALSE,Course Lock,65.6,41.9,16.4,Calm,27,,1.12.8,Mavic Mini,1SDCH7G0169R0K,1SFLH6Q0AB03DJ,1SRCH7F014TAHX,1U5X071EXP5ZJG,86,0.2,3.2,3.957594,1.342164,0,0,Mavic Mini,1SDCH7G0169R0K,1SFLH6Q0AB03DJ,1SRCH7F014TAHX,1U5X071EXP5ZJG,DJI Fly,,1.12.8,643323A1-DC5B-F874-98C7-D14794B392C3,1SDCH7G0169R0K,,,,,6.974491146,79.91423151,5,,
2/15/2024,30:42.8,4m 51.0s,291,6.974497673,79.91427417,1.6,1.6,1.9,50,1.1,0,0.316351,0,0.223694,0,0,-1.11847,0,1.9,1.1,32.5,32.5,,Tripod,Auto Fly,,15,5,TRUE,,Mavic Mini,TRUE,FALSE,,Smart,RC,FALSE,TRUE,FALSE,,,TRUE,,FALSE,FALSE,FALSE,FALSE,FALSE,FALSE,FALSE,FALSE,FALSE,FALSE,0,Follow Yaw,1.9,0,58.9,58.9,FALSE,FALSE,FALSE,FALSE,FALSE,FALSE,,TRUE,Normal,,100,1024,1024,1334,1024,2,FALSE,FALSE,FALSE,FALSE,FALSE,0,FALSE,FALSE,FALSE,FALSE,79,7.698,1671,2113,7.722,FALSE,3.851,3.847,0.005,FALSE,FALSE,NA,102,101.8,102,0,0,1,0,5,3258.3,814.59,,Idle,0,20,FALSE,5,TRUE,9,Go Home,FALSE,FALSE,FALSE,FALSE,FALSE,FALSE,FALSE,FALSE,FALSE,FALSE,FALSE,FALSE,6.974496694,79.91427517,0.5,126.8,328,TRUE,1,1,FALSE,FALSE,FALSE,FALSE,,TRUE,FALSE,FALSE,Course Lock,65.6,41.9,16.4,Calm,27,,1.12.8,Mavic Mini,1SDCH7G0169R0K,1SFLH6Q0AB03DJ,1SRCH7F014TAHX,1U5X071EXP5ZJG,86,0.2,3.2,3.957594,1.342164,0,0,Mavic Mini,1SDCH7G0169R0K,1SFLH6Q0AB03DJ,1SRCH7F014TAHX,1U5X071EXP5ZJG,DJI Fly,,1.12.8,643323A1-DC5B-F874-98C7-D14794B392C3,1SDCH7G0169R0K,,,,,6.974491146,79.91423151,5,,
2/15/2024,30:42.9,4m 51.1s,291.1,6.974497759,79.91427417,1.9,1.9,2.2,51,1.2,0,0.316351,0,0.223694,0,0,-1.11847,0,1.6,0.8,32.5,32.5,,Tripod,Auto Fly,,15,5,TRUE,,Mavic Mini,TRUE,FALSE,,Smart,RC,FALSE,TRUE,FALSE,,,TRUE,,FALSE,FALSE,FALSE,FALSE,FALSE,FALSE,FALSE,FALSE,FALSE,FALSE,0,Follow Yaw,1.9,0,58.9,58.9,FALSE,FALSE,FALSE,FALSE,FALSE,FALSE,,TRUE,Normal,,100,1024,1024,1312,1024,2,FALSE,FALSE,FALSE,FALSE,FALSE,0,FALSE,FALSE,FALSE,FALSE,79,7.698,1671,2113,7.722,FALSE,3.851,3.847,0.005,FALSE,FALSE,NA,102,101.8,102,0,0,1,0,5,3258.3,814.59,,Idle,0,20,FALSE,5,TRUE,9,Go Home,FALSE,FALSE,FALSE,FALSE,FALSE,FALSE,FALSE,FALSE,FALSE,FALSE,FALSE,FALSE,6.974496694,79.91427517,0.5,126.8,328,TRUE,1,1,FALSE,FALSE,FALSE,FALSE,,TRUE,FALSE,FALSE,Course Lock,65.6,41.9,16.4,Calm,27,,1.12.8,Mavic Mini,1SDCH7G0169R0K,1SFLH6Q0AB03DJ,1SRCH7F014TAHX,1U5X071EXP5ZJG,86,0.2,3.2,3.957594,1.342164,0,0,Mavic Mini,1SDCH7G0169R0K,1SFLH6Q0AB03DJ,1SRCH7F014TAHX,1U5X071EXP5ZJG,DJI Fly,,1.12.8,643323A1-DC5B-F874-98C7-D14794B392C3,1SDCH7G0169R0K,,,,,6.974491146,79.91423151,5,,
2/15/2024,30:43.0,4m 51.2s,291.2,6.974497857,79.91427436,1.9,1.9,2.6,51,1.2,0,0.316351,0,0.223694,0,0,-1.11847,0,1.5,0,32.5,32.5,,Tripod,Auto Fly,,15,5,TRUE,,Mavic Mini,TRUE,FALSE,,Smart,RC,FALSE,TRUE,FALSE,,,TRUE,,FALSE,FALSE,FALSE,FALSE,FALSE,FALSE,FALSE,FALSE,FALSE,FALSE,0,Follow Yaw,1.9,0,58.9,58.9,FALSE,FALSE,FALSE,FALSE,FALSE,FALSE,,TRUE,Normal,,100,1024,1024,1294,1024,2,FALSE,FALSE,FALSE,FALSE,FALSE,0,FALSE,FALSE,FALSE,FALSE,79,7.698,1671,2113,7.722,FALSE,3.851,3.847,0.005,FALSE,FALSE,NA,102,101.8,102,0,0,1,0,5,3258.3,814.59,,Idle,0,20,FALSE,5,TRUE,9,Go Home,FALSE,FALSE,FALSE,FALSE,FALSE,FALSE,FALSE,FALSE,FALSE,FALSE,FALSE,FALSE,6.974496694,79.91427517,0.5,126.8,328,TRUE,1,1,FALSE,FALSE,FALSE,FALSE,,TRUE,FALSE,FALSE,Course Lock,65.6,41.9,16.4,Calm,27,,1.12.8,Mavic Mini,1SDCH7G0169R0K,1SFLH6Q0AB03DJ,1SRCH7F014TAHX,1U5X071EXP5ZJG,86,0.2,3.2,3.957594,1.342164,0,0,Mavic Mini,1SDCH7G0169R0K,1SFLH6Q0AB03DJ,1SRCH7F014TAHX,1U5X071EXP5ZJG,DJI Fly,,1.12.8,643323A1-DC5B-F874-98C7-D14794B392C3,1SDCH7G0169R0K,,,,,6.974491146,79.91423151,5,,
2/15/2024,30:43.1,4m 51.3s,291.3,6.974497857,79.91427444,2.2,2.2,2.6,51,1.3,0,0.316351,0,0.223694,0,0,-1.11847,0,2,-0.3,32.4,32.4,,Tripod,Auto Fly,,15,5,TRUE,,Mavic Mini,TRUE,FALSE,,Smart,RC,FALSE,TRUE,FALSE,,,TRUE,,FALSE,FALSE,FALSE,FALSE,FALSE,FALSE,FALSE,FALSE,FALSE,FALSE,0,Follow Yaw,1.9,0,58.9,58.9,FALSE,FALSE,FALSE,FALSE,FALSE,FALSE,,TRUE,Normal,,100,1024,1024,1294,1024,2,FALSE,FALSE,FALSE,FALSE,FALSE,0,FALSE,FALSE,FALSE,FALSE,79,7.676,1669,2113,7.722,FALSE,3.838,3.838,0.005,FALSE,FALSE,NA,102,101.8,102,0,0,1,0,5,3258.3,814.59,,Idle,0,20,FALSE,5,TRUE,9,Go Home,FALSE,FALSE,FALSE,FALSE,FALSE,FALSE,FALSE,FALSE,FALSE,FALSE,FALSE,FALSE,6.974496694,79.91427517,0.5,126.8,328,TRUE,1,1,FALSE,FALSE,FALSE,FALSE,,TRUE,FALSE,FALSE,Course Lock,65.6,41.9,16.4,Calm,27,,1.12.8,Mavic Mini,1SDCH7G0169R0K,1SFLH6Q0AB03DJ,1SRCH7F014TAHX,1U5X071EXP5ZJG,86,0.2,3.2,3.957594,1.342164,0,0,Mavic Mini,1SDCH7G0169R0K,1SFLH6Q0AB03DJ,1SRCH7F014TAHX,1U5X071EXP5ZJG,DJI Fly,,1.12.8,643323A1-DC5B-F874-98C7-D14794B392C3,1SDCH7G0169R0K,,,,,6.974491146,79.91423151,5,,
2/15/2024,30:43.3,4m 51.4s,291.4,6.97449786,79.91427451,2.2,2.2,2.9,51,1.3,0,0.316351,0,0.223694,0,0,-1.11847,0,2.3,-0.1,32.3,32.3,,Tripod,Auto Fly,,15,5,TRUE,,Mavic Mini,TRUE,FALSE,,Smart,RC,FALSE,TRUE,FALSE,,,TRUE,,FALSE,FALSE,FALSE,FALSE,FALSE,FALSE,FALSE,FALSE,FALSE,FALSE,0,Follow Yaw,1.9,0,58.9,58.9,FALSE,FALSE,FALSE,FALSE,FALSE,FALSE,,TRUE,Normal,,100,1024,1024,1277,1024,2,FALSE,FALSE,FALSE,FALSE,FALSE,0,FALSE,FALSE,FALSE,FALSE,79,7.676,1669,2113,7.722,FALSE,3.838,3.838,0.005,FALSE,FALSE,NA,102,101.8,102,0,0,1,0,5,3258.3,814.59,,Idle,0,20,FALSE,5,TRUE,9,Go Home,FALSE,FALSE,FALSE,FALSE,FALSE,FALSE,FALSE,FALSE,FALSE,FALSE,FALSE,FALSE,6.974496694,79.91427517,0.4,126.8,328,TRUE,1,1,FALSE,FALSE,FALSE,FALSE,,TRUE,FALSE,FALSE,Course Lock,65.6,41.9,16.4,Calm,27,,1.12.8,Mavic Mini,1SDCH7G0169R0K,1SFLH6Q0AB03DJ,1SRCH7F014TAHX,1U5X071EXP5ZJG,86,0.2,3.2,3.957594,1.342164,0,0,Mavic Mini,1SDCH7G0169R0K,1SFLH6Q0AB03DJ,1SRCH7F014TAHX,1U5X071EXP5ZJG,DJI Fly,,1.12.8,643323A1-DC5B-F874-98C7-D14794B392C3,1SDCH7G0169R0K,,,,,6.974491146,79.91423151,5,,
2/15/2024,30:43.3,4m 51.5s,291.5,6.974497864,79.91427458,2.6,2.6,3.2,51,1.3,0,0.316351,0,0.223694,0,0,-1.11847,0,2.8,0.3,32.2,32.2,,Tripod,Auto Fly,,15,5,TRUE,,Mavic Mini,TRUE,FALSE,,Smart,RC,FALSE,TRUE,FALSE,,,TRUE,,FALSE,FALSE,FALSE,FALSE,FALSE,FALSE,FALSE,FALSE,FALSE,FALSE,0,Follow Yaw,1.9,0,58.9,58.9,FALSE,FALSE,FALSE,FALSE,FALSE,FALSE,,TRUE,Normal,,100,1024,1024,1274,1024,2,FALSE,FALSE,FALSE,FALSE,FALSE,0,FALSE,FALSE,FALSE,FALSE,79,7.676,1669,2113,7.722,FALSE,3.838,3.838,0.005,FALSE,FALSE,NA,102,101.8,102,0,0,1,0,5,3258.3,814.59,,Idle,0,20,FALSE,5,TRUE,9,Go Home,FALSE,FALSE,FALSE,FALSE,FALSE,FALSE,FALSE,FALSE,FALSE,FALSE,FALSE,FALSE,6.974496694,79.91427517,0.4,126.8,328,TRUE,1,1,FALSE,FALSE,FALSE,FALSE,,TRUE,FALSE,FALSE,Course Lock,65.6,41.9,16.4,Calm,27,,1.12.8,Mavic Mini,1SDCH7G0169R0K,1SFLH6Q0AB03DJ,1SRCH7F014TAHX,1U5X071EXP5ZJG,86,0.2,3.2,3.957594,1.342164,0,0,Mavic Mini,1SDCH7G0169R0K,1SFLH6Q0AB03DJ,1SRCH7F014TAHX,1U5X071EXP5ZJG,DJI Fly,,1.12.8,643323A1-DC5B-F874-98C7-D14794B392C3,1SDCH7G0169R0K,,,,,6.974491146,79.91423151,5,,
2/15/2024,30:43.3,4m 51.6s,291.6,6.974497829,79.91427461,2.6,2.6,3.2,51,1.3,0,0.316351,0,0.223694,0,0,-0.894776,0,2.7,0.2,32.1,32.1,,Tripod,Auto Fly,,15,5,TRUE,,Mavic Mini,TRUE,FALSE,,Smart,RC,FALSE,TRUE,FALSE,,,TRUE,,FALSE,FALSE,FALSE,FALSE,FALSE,FALSE,FALSE,FALSE,FALSE,FALSE,0,Follow Yaw,1.9,0,58.9,58.9,FALSE,FALSE,FALSE,FALSE,FALSE,FALSE,,TRUE,Normal,,100,1024,1024,1274,1024,2,FALSE,FALSE,FALSE,FALSE,FALSE,0,FALSE,FALSE,FALSE,FALSE,79,7.676,1669,2113,7.722,FALSE,3.838,3.838,0.005,FALSE,FALSE,NA,102,101.8,102,0,0,1,0,5,3258.3,814.59,,Idle,0,20,FALSE,5,TRUE,9,Go Home,FALSE,FALSE,FALSE,FALSE,FALSE,FALSE,FALSE,FALSE,FALSE,FALSE,FALSE,FALSE,6.974496694,79.91427517,0.4,126.8,328,TRUE,1,1,FALSE,FALSE,FALSE,FALSE,,TRUE,FALSE,FALSE,Course Lock,65.6,41.9,16.4,Calm,27,,1.12.8,Mavic Mini,1SDCH7G0169R0K,1SFLH6Q0AB03DJ,1SRCH7F014TAHX,1U5X071EXP5ZJG,86,0.2,3.2,3.957594,1.342164,0,0,Mavic Mini,1SDCH7G0169R0K,1SFLH6Q0AB03DJ,1SRCH7F014TAHX,1U5X071EXP5ZJG,DJI Fly,,1.12.8,643323A1-DC5B-F874-98C7-D14794B392C3,1SDCH7G0169R0K,,,,,6.974491146,79.91423151,5,,
2/15/2024,30:43.5,4m 51.7s,291.7,6.974497846,79.91427463,2.9,2.9,3.6,51,1.3,0,0.316351,0,0.223694,0,0,-0.894776,0,3,0,32.1,32.1,,Tripod,Auto Fly,,15,5,TRUE,,Mavic Mini,TRUE,FALSE,,Smart,RC,FALSE,TRUE,FALSE,,,TRUE,,FALSE,FALSE,FALSE,FALSE,FALSE,FALSE,FALSE,FALSE,FALSE,FALSE,0,Follow Yaw,1.9,0,58.9,58.9,FALSE,FALSE,FALSE,FALSE,FALSE,FALSE,,TRUE,Normal,,100,1024,1024,1273,1024,2,FALSE,FALSE,FALSE,FALSE,FALSE,0,FALSE,FALSE,FALSE,FALSE,79,7.676,1669,2113,7.722,FALSE,3.838,3.838,0.005,FALSE,FALSE,NA,102,101.8,102,0,0,1,0,5,3258.3,814.59,,Idle,0,20,FALSE,5,TRUE,9,Go Home,FALSE,FALSE,FALSE,FALSE,FALSE,FALSE,FALSE,FALSE,FALSE,FALSE,FALSE,FALSE,6.974496694,79.91427517,0.4,126.8,328,TRUE,1,1,FALSE,FALSE,FALSE,FALSE,,TRUE,FALSE,FALSE,Course Lock,65.6,41.9,16.4,Calm,27,,1.12.8,Mavic Mini,1SDCH7G0169R0K,1SFLH6Q0AB03DJ,1SRCH7F014TAHX,1U5X071EXP5ZJG,86,0.2,3.2,3.957594,1.342164,0,0,Mavic Mini,1SDCH7G0169R0K,1SFLH6Q0AB03DJ,1SRCH7F014TAHX,1U5X071EXP5ZJG,DJI Fly,,1.12.8,643323A1-DC5B-F874-98C7-D14794B392C3,1SDCH7G0169R0K,,,,,6.974491146,79.91423151,5,,
2/15/2024,30:43.7,4m 51.8s,291.8,6.974497859,79.91427467,2.9,2.9,3.6,51,1.4,0,0.316351,0,0.223694,0,0,-0.894776,0,2.7,0.2,32.2,32.2,,Tripod,Auto Fly,,15,5,TRUE,,Mavic Mini,TRUE,FALSE,,Smart,RC,FALSE,TRUE,FALSE,,,TRUE,,FALSE,FALSE,FALSE,FALSE,FALSE,FALSE,FALSE,FALSE,FALSE,FALSE,0,Follow Yaw,1.9,0,58.9,58.9,FALSE,FALSE,FALSE,FALSE,FALSE,FALSE,,TRUE,Normal,,100,1024,1024,1271,1024,2,FALSE,FALSE,FALSE,FALSE,FALSE,0,FALSE,FALSE,FALSE,FALSE,79,7.676,1669,2113,7.685,FALSE,3.838,3.838,0.005,FALSE,FALSE,NA,102,101.8,102,0,0,1,0,5,4319.9,1079.99,,Idle,0,20,FALSE,5,TRUE,9,Go Home,FALSE,FALSE,FALSE,FALSE,FALSE,FALSE,FALSE,FALSE,FALSE,FALSE,FALSE,FALSE,6.974496694,79.91427517,0.4,126.8,328,TRUE,1,1,FALSE,FALSE,FALSE,FALSE,,TRUE,FALSE,FALSE,Course Lock,65.6,41.9,16.4,Calm,27,,1.12.8,Mavic Mini,1SDCH7G0169R0K,1SFLH6Q0AB03DJ,1SRCH7F014TAHX,1U5X071EXP5ZJG,86,0.2,3.2,3.957594,1.342164,0,0,Mavic Mini,1SDCH7G0169R0K,1SFLH6Q0AB03DJ,1SRCH7F014TAHX,1U5X071EXP5ZJG,DJI Fly,,1.12.8,643323A1-DC5B-F874-98C7-D14794B392C3,1SDCH7G0169R0K,,,,,6.974491146,79.91423151,5,,
