CUSTOM.date [local],CUSTOM.updateTime [local],OSD.flyTime,OSD.flyTime [s],OSD.latitude,OSD.longitude,OSD.height [ft],OSD.heightMax [ft],OSD.vpsHeight [ft],OSD.altitude [ft],OSD.mileage [ft],OSD.hSpeed [MPH],OSD.hSpeedMax [MPH],OSD.xSpeed [MPH],OSD.xSpeedMax [MPH],OSD.ySpeed [MPH],OSD.ySpeedMax [MPH],OSD.zSpeed [MPH],OSD.zSpeedMax [MPH],OSD.pitch,OSD.roll,OSD.yaw,OSD.yaw [360],OSD.directionOfTravel,OSD.flycState,OSD.flycCommand,OSD.flightAction,OSD.gpsNum,OSD.gpsLevel,OSD.isGPSUsed,OSD.nonGPSCause,OSD.droneType,OSD.isSwaveWork,OSD.waveError,OSD.goHomeStatus,OSD.batteryType,OSD.ctrlDevice,OSD.isOnGround,OSD.isMotorOn,OSD.isMotorBlocked,OSD.motorStartFailedCause,OSD.motorFailReason,OSD.isImuPreheated,OSD.imuInitFailReason,OSD.isAcceletorOverRange,OSD.isBarometerDeadInAir,OSD.isCompassError,OSD.isGoHomeHeightModified,OSD.canIOCWork,OSD.isNotEnoughForce,OSD.isOutOfLimit,OSD.isPropellerCatapult,OSD.isVibrating,OSD.isVisionUsed,OSD.voltageWarning,GIMBAL.mode,GIMBAL.pitch,GIMBAL.roll,GIMBAL.yaw,GIMBAL.yaw [360],GIMBAL.isPitchAtLimit,GIMBAL.isRollAtLimit,GIMBAL.isYawAtLimit,GIMBAL.isStuck,CAMERA.isPhoto,CAMERA.isVideo,CAMERA.filename,CAMERA.sdCardIsInserted,CAMERA.sdCardState,RC.downlinkSignal,RC.uplinkSignal,RC.aileron,RC.elevator,RC.throttle,RC.rudder,RC.mode,RC.goHomeDepressed,RC.recordDepressed,RC.shutterDepressed,RC.playbackDepressed,RC.wheelDepressed,RC.wheelOffset,RC.custom1Depressed,RC.custom2Depressed,RC.custom3Depressed,RC.custom4Depressed,BATTERY.chargeLevel,BATTERY.currentPV [V],BATTERY.currentCapacity [mAh],BATTERY.fullCapacity [mAh],BATTERY.voltage [V],BATTERY.isCellVoltageEstimated,BATTERY.cellVoltage1 [V],BATTERY.cellVoltage2 [V],BATTERY.maxCellVoltageDeviation,BATTERY.isCellVoltageDeviationHigh,BATTERY.isVoltageLow,BATTERY.current [A],BATTERY.temperature [F],BATTERY.minTemperature [F],BATTERY.maxTemperature [F],BATTERY.usefulTime [s],BATTERY.goHomeTime [s],BATTERY.landTime [s],BATTERY.goHomeBattery,BATTERY.landBattery,BATTERY.safeFlyRadius,BATTERY.volumeConsume,BATTERY.status,BATTERY.goHomeStatus,BATTERY.goHomeCountdown,BATTERY.lowWarning,BATTERY.lowWarningGoHome,BATTERY.seriousLowWarning,BATTERY.seriousLowWarningLanding,BATTERY.timesCharged,MC.failSafeAction,MC.isObstacleAvoidanceEnabled,MC.isCollisionAvoidanceEnabled,MC.isRthObstacleAvoidanceEnabled,MC.isBraking,MC.isAvoidingObstacle,MC.isAvoidingActiveObstacle,MC.isAscentLimitedByObstacle,MC.isLandingConfirmationNeeded,MC.atLowAltitudeLimit,MC.atDistanceLimit,MC.atAirportAltitudeLimit,MC.atAirportBoundary,HOME.latitude,HOME.longitude,HOME.distance [ft],HOME.height [ft],HOME.heightLimit [ft],HOME.isHomeRecord,HOME.goHomeMode,HOME.aircraftHeadDirection,HOME.isDynamicHomePointEnabled,HOME.isReachedLimitDistance,HOME.isReachedLimitHeight,HOME.isCompassCalibrating,HOME.compassCalibrationState,HOME.isMultipleFlightModeEnabled,HOME.isBeginnerMode,HOME.isIOCEnabled,HOME.iocMode,HOME.goHomeHeight [ft],HOME.courseLockAngle,HOME.forceLandingHeight [ft],HOME.wind,HOME.dataRecorderFileIndex,RECOVER.appType,RECOVER.appVersion,RECOVER.aircraftName,RECOVER.aircraftSerial,RECOVER.cameraSerial,RECOVER.rcSerial,RECOVER.batterySerial,DETAILS.totalTime [s],DETAILS.totalDistance [ft],DETAILS.maxHeight [ft],DETAILS.maxHorizontalSpeed [MPH],DETAILS.maxVerticalSpeed [MPH],DETAILS.photoNum,DETAILS.videoTime [s],DETAILS.aircraftName,DETAILS.aircraftSerial,DETAILS.cameraSerial,DETAILS.rcSerial,DETAILS.batterySerial,DETAILS.appName,DETAILS.appType,DETAILS.appVersion,DETAILS.guid,SERIAL.flightController,SERIAL.camera,SERIAL.gimbal,SERIAL.rc,SERIAL.battery,APPGPS.latitude,APPGPS.longitude,APPGPS.accuracy,APP.tip,APP.warning
2/22/2024,49:07.0,16m 8.3s,968.3,6.974220689,79.91415805,0,0,0.6,50,0,0,0,0,0,0,0,0,0,5.6,2.6,-53.1,306.9,,Starting Motors,Drop Calibration,Takeoff (RC Assisted),14,5,TRUE,,Mavic Mini,FALSE,FALSE,,Smart,RC,TRUE,TRUE,FALSE,,,TRUE,,FALSE,FALSE,FALSE,FALSE,FALSE,FALSE,FALSE,FALSE,FALSE,FALSE,0,Follow Yaw,0,0,-36.6,323.4,FALSE,FALSE,FALSE,FALSE,FALSE,FALSE,,TRUE,Normal,,,1024,1024,1024,1024,1,FALSE,FALSE,FALSE,FALSE,FALSE,0,FALSE,FALSE,FALSE,FALSE,33,7.223,678,2056,7.223,TRUE,3.612,3.612,,FALSE,FALSE,NA,121.1,121.1,121.1,,,,,,,,,Idle,,,TRUE,,FALSE,6,Go Home,FALSE,FALSE,FALSE,FALSE,FALSE,FALSE,FALSE,FALSE,FALSE,FALSE,FALSE,FALSE,,,,,,FALSE,,,FALSE,FALSE,FALSE,FALSE,,FALSE,FALSE,FALSE,,,,,Calm,,,1.12.8,Mavic Mini,1SDCH7G0169R0K,1SFLH6Q0AB03DJ,1SRCH7F014TAHX,1U5X071EXP6C9Y,75.2,0.2,3.2,4.906056,3.802798,0,0,Mavic Mini,1SDCH7G0169R0K,1SFLH6Q0AB03DJ,1SRCH7F014TAHX,1U5X071EXP6C9Y,DJI Fly,,1.12.8,B383E97B-255A-C089-695C-E09D6CCB33F4,1SDCH7G0169R0K,,,,,,,,Flight mode changed to Starting Motors.,
2/22/2024,32:58.9,16m 8.4s,968.4,6.974220634,79.914158,0,0,0.6,50,0,0,0,0,0,0,0,0,0,5.6,2.6,-53.1,306.9,,Starting Motors,Drop Calibration,Takeoff (RC Assisted),13,5,TRUE,,Mavic Mini,FALSE,FALSE,,Smart,RC,TRUE,TRUE,FALSE,,,TRUE,,FALSE,FALSE,FALSE,FALSE,FALSE,FALSE,FALSE,FALSE,FALSE,FALSE,0,Follow Yaw,0,0,-36.6,323.4,FALSE,FALSE,FALSE,FALSE,FALSE,FALSE,,TRUE,Normal,,,1024,1024,1024,1024,1,FALSE,FALSE,FALSE,FALSE,FALSE,0,FALSE,FALSE,FALSE,FALSE,33,7.223,678,2056,7.218,TRUE,3.609,3.609,,FALSE,FALSE,NA,121.1,121.1,121.1,0,0,0,0,5,2790.7,697.68,,Idle,0,20,FALSE,5,TRUE,6,Go Home,FALSE,FALSE,FALSE,FALSE,FALSE,FALSE,FALSE,FALSE,FALSE,FALSE,FALSE,FALSE,6.974222069,79.91416657,3.1,94.2,328,TRUE,1,1,FALSE,FALSE,FALSE,FALSE,,TRUE,FALSE,FALSE,Course Lock,49.2,,16.4,Calm,33,,1.12.8,Mavic Mini,1SDCH7G0169R0K,1SFLH6Q0AB03DJ,1SRCH7F014TAHX,1U5X071EXP6C9Y,75.2,0.2,3.2,4.906056,3.802798,0,0,Mavic Mini,1SDCH7G0169R0K,1SFLH6Q0AB03DJ,1SRCH7F014TAHX,1U5X071EXP6C9Y,DJI Fly,,1.12.8,B383E97B-255A-C089-695C-E09D6CCB33F4,1SDCH7G0169R0K,,,,,,,,Data Recorder File Index is 33.; Set Return to Home (RTH) altitude to 15 m (49 ft).; Set maximum flight altitude to 100 m (328 ft).,
2/22/2024,32:59.0,16m 8.5s,968.5,6.974220582,79.91415794,0,0,0.3,50,0,0,0,0,0,0,0,0,0,5.6,2.6,-53.1,306.9,,Starting Motors,Drop Calibration,Takeoff (RC Assisted),13,5,TRUE,,Mavic Mini,TRUE,FALSE,,Smart,RC,TRUE,TRUE,FALSE,,,TRUE,,FALSE,FALSE,FALSE,FALSE,FALSE,FALSE,FALSE,FALSE,FALSE,FALSE,0,Follow Yaw,0,0,-36.6,323.4,FALSE,FALSE,FALSE,FALSE,FALSE,FALSE,,TRUE,Normal,,100,1024,1024,1024,1024,1,FALSE,FALSE,FALSE,FALSE,FALSE,0,FALSE,FALSE,FALSE,FALSE,33,7.223,678,2056,7.218,TRUE,3.609,3.609,,FALSE,FALSE,NA,121.1,121.1,121.1,0,0,0,0,5,2790.7,697.68,,Idle,0,20,FALSE,5,TRUE,6,Go Home,FALSE,FALSE,FALSE,FALSE,FALSE,FALSE,FALSE,FALSE,FALSE,FALSE,FALSE,FALSE,6.974222069,79.91416657,3.1,94.2,328,TRUE,1,1,FALSE,FALSE,FALSE,FALSE,,TRUE,FALSE,FALSE,Course Lock,49.2,,16.4,Calm,33,,1.12.8,Mavic Mini,1SDCH7G0169R0K,1SFLH6Q0AB03DJ,1SRCH7F014TAHX,1U5X071EXP6C9Y,75.2,0.2,3.2,4.906056,3.802798,0,0,Mavic Mini,1SDCH7G0169R0K,1SFLH6Q0AB03DJ,1SRCH7F014TAHX,1U5X071EXP6C9Y,DJI Fly,,1.12.8,B383E97B-255A-C089-695C-E09D6CCB33F4,1SDCH7G0169R0K,,,,,,,,,
2/22/2024,32:59.1,16m 8.6s,968.6,6.974220525,79.91415787,0,0,0.3,50,0,0,0,0,0,0,0,0,0,5.7,2.6,-53.1,306.9,,Starting Motors,Drop Calibration,Takeoff (RC Assisted),14,5,TRUE,,Mavic Mini,TRUE,FALSE,,Smart,RC,TRUE,TRUE,FALSE,,,TRUE,,FALSE,FALSE,FALSE,FALSE,FALSE,FALSE,FALSE,FALSE,FALSE,FALSE,0,Follow Yaw,0,0,-36.6,323.4,FALSE,FALSE,FALSE,FALSE,FALSE,FALSE,,TRUE,Normal,,100,1024,1024,1024,1024,1,FALSE,FALSE,FALSE,FALSE,FALSE,0,FALSE,FALSE,FALSE,FALSE,33,7.223,678,2056,7.218,TRUE,3.609,3.609,,FALSE,FALSE,NA,121.1,121.1,121.1,0,0,0,0,5,2790.7,697.68,,Idle,0,20,FALSE,5,TRUE,6,Go Home,FALSE,FALSE,FALSE,FALSE,FALSE,FALSE,FALSE,FALSE,FALSE,FALSE,FALSE,FALSE,6.974222069,79.91416657,3.1,94.2,328,TRUE,1,1,FALSE,FALSE,FALSE,FALSE,,TRUE,FALSE,FALSE,Course Lock,49.2,,16.4,Calm,33,,1.12.8,Mavic Mini,1SDCH7G0169R0K,1SFLH6Q0AB03DJ,1SRCH7F014TAHX,1U5X071EXP6C9Y,75.2,0.2,3.2,4.906056,3.802798,0,0,Mavic Mini,1SDCH7G0169R0K,1SFLH6Q0AB03DJ,1SRCH7F014TAHX,1U5X071EXP6C9Y,DJI Fly,,1.12.8,B383E97B-255A-C089-695C-E09D6CCB33F4,1SDCH7G0169R0K,,,,,,,,,
2/22/2024,32:59.2,16m 8.7s,968.7,6.974220421,79.91415785,0,0,0.3,50,0,0,0,0,0,0,0,0,0,5.6,2.7,-53.1,306.9,,Starting Motors,Drop Calibration,Takeoff (RC Assisted),14,5,TRUE,,Mavic Mini,TRUE,FALSE,,Smart,RC,TRUE,TRUE,FALSE,,,TRUE,,FALSE,FALSE,FALSE,FALSE,FALSE,FALSE,FALSE,FALSE,FALSE,FALSE,0,Follow Yaw,0,0,-36.6,323.4,FALSE,FALSE,FALSE,FALSE,FALSE,FALSE,,TRUE,Normal,,100,1024,1024,1024,1024,1,FALSE,FALSE,FALSE,FALSE,FALSE,0,FALSE,FALSE,FALSE,FALSE,33,7.223,678,2056,7.218,TRUE,3.609,3.609,,FALSE,FALSE,NA,121.1,121.1,121.1,0,0,0,0,5,2790.7,697.68,,Idle,0,20,FALSE,5,TRUE,6,Go Home,FALSE,FALSE,FALSE,FALSE,FALSE,FALSE,FALSE,FALSE,FALSE,FALSE,FALSE,FALSE,6.974222069,79.91416657,3.2,94.2,328,TRUE,1,1,FALSE,FALSE,FALSE,FALSE,,TRUE,FALSE,FALSE,Course Lock,49.2,,16.4,Calm,33,,1.12.8,Mavic Mini,1SDCH7G0169R0K,1SFLH6Q0AB03DJ,1SRCH7F014TAHX,1U5X071EXP6C9Y,75.2,0.2,3.2,4.906056,3.802798,0,0,Mavic Mini,1SDCH7G0169R0K,1SFLH6Q0AB03DJ,1SRCH7F014TAHX,1U5X071EXP6C9Y,DJI Fly,,1.12.8,B383E97B-255A-C089-695C-E09D6CCB33F4,1SDCH7G0169R0K,,,,,,,,,
2/22/2024,32:59.3,16m 8.8s,968.8,6.974220309,79.91415784,0,0,0.3,50,0.1,0,0,0,0,0,0,0,0,5.6,2.6,-53.1,306.9,,Starting Motors,Drop Calibration,Takeoff (RC Assisted),14,5,TRUE,,Mavic Mini,TRUE,FALSE,,Smart,RC,TRUE,TRUE,FALSE,,,TRUE,,FALSE,FALSE,FALSE,FALSE,FALSE,FALSE,FALSE,FALSE,FALSE,FALSE,0,Follow Yaw,0,0,-36.6,323.4,FALSE,FALSE,FALSE,FALSE,FALSE,FALSE,,TRUE,Normal,,100,1024,1024,1024,1024,1,FALSE,FALSE,FALSE,FALSE,FALSE,0,FALSE,FALSE,FALSE,FALSE,33,7.223,678,2056,7.218,TRUE,3.609,3.609,,FALSE,FALSE,NA,121.1,121.1,121.1,0,0,0,0,5,2790.7,697.68,,Idle,0,20,FALSE,5,TRUE,6,Go Home,FALSE,FALSE,FALSE,FALSE,FALSE,FALSE,FALSE,FALSE,FALSE,FALSE,FALSE,FALSE,6.974222069,79.91416657,3.2,94.2,328,TRUE,1,1,FALSE,FALSE,FALSE,FALSE,,TRUE,FALSE,FALSE,Course Lock,49.2,,16.4,Calm,33,,1.12.8,Mavic Mini,1SDCH7G0169R0K,1SFLH6Q0AB03DJ,1SRCH7F014TAHX,1U5X071EXP6C9Y,75.2,0.2,3.2,4.906056,3.802798,0,0,Mavic Mini,1SDCH7G0169R0K,1SFLH6Q0AB03DJ,1SRCH7F014TAHX,1U5X071EXP6C9Y,DJI Fly,,1.12.8,B383E97B-255A-C089-695C-E09D6CCB33F4,1SDCH7G0169R0K,,,,,,,,,
2/22/2024,32:59.3,16m 8.9s,968.9,6.974220285,79.9141578,0,0,0.3,50,0.1,0,0,0,0,0,0,0,0,5.7,2.6,-53.1,306.9,,Starting Motors,Drop Calibration,Takeoff (RC Assisted),14,5,TRUE,,Mavic Mini,TRUE,FALSE,,Smart,RC,TRUE,TRUE,FALSE,,,TRUE,,FALSE,FALSE,FALSE,FALSE,FALSE,FALSE,FALSE,FALSE,FALSE,FALSE,0,Follow Yaw,0,0,-36.6,323.4,FALSE,FALSE,FALSE,FALSE,FALSE,FALSE,,TRUE,Normal,,100,1024,1024,1024,1024,1,FALSE,FALSE,FALSE,FALSE,FALSE,0,FALSE,FALSE,FALSE,FALSE,33,7.223,678,2056,7.218,TRUE,3.609,3.609,,FALSE,FALSE,NA,121.1,121.1,121.1,0,0,0,0,5,2790.7,697.68,,Idle,0,20,FALSE,5,TRUE,6,Go Home,FALSE,FALSE,FALSE,FALSE,FALSE,FALSE,FALSE,FALSE,FALSE,FALSE,FALSE,FALSE,6.974222069,79.91416657,3.2,94.2,328,TRUE,1,1,FALSE,FALSE,FALSE,FALSE,,TRUE,FALSE,FALSE,Course Lock,49.2,,16.4,Calm,33,,1.12.8,Mavic Mini,1SDCH7G0169R0K,1SFLH6Q0AB03DJ,1SRCH7F014TAHX,1U5X071EXP6C9Y,75.2,0.2,3.2,4.906056,3.802798,0,0,Mavic Mini,1SDCH7G0169R0K,1SFLH6Q0AB03DJ,1SRCH7F014TAHX,1U5X071EXP6C9Y,DJI Fly,,1.12.8,B383E97B-255A-C089-695C-E09D6CCB33F4,1SDCH7G0169R0K,,,,,,,,,
2/22/2024,32:59.4,16m 9.0s,969,6.974220262,79.91415776,0,0,0.3,50,0.1,0,0,0,0,0,0,0,0,5.7,2.5,-53.1,306.9,,Starting Motors,Drop Calibration,Takeoff (RC Assisted),14,5,TRUE,,Mavic Mini,TRUE,FALSE,,Smart,RC,TRUE,TRUE,FALSE,,,TRUE,,FALSE,FALSE,FALSE,FALSE,FALSE,FALSE,FALSE,FALSE,FALSE,FALSE,0,Follow Yaw,0,0,-36.6,323.4,FALSE,FALSE,FALSE,FALSE,FALSE,FALSE,,TRUE,Normal,,100,1024,1024,1024,1024,1,FALSE,FALSE,FALSE,FALSE,FALSE,0,FALSE,FALSE,FALSE,FALSE,33,7.223,678,2056,7.218,TRUE,3.609,3.609,,FALSE,FALSE,NA,121.1,121.1,121.1,0,0,0,0,5,2790.7,697.68,,Idle,0,20,FALSE,5,TRUE,6,Go Home,FALSE,FALSE,FALSE,FALSE,FALSE,FALSE,FALSE,FALSE,FALSE,FALSE,FALSE,FALSE,6.974222069,79.91416657,3.2,94.2,328,TRUE,1,1,FALSE,FALSE,FALSE,FALSE,,TRUE,FALSE,FALSE,Course Lock,49.2,,16.4,Calm,33,,1.12.8,Mavic Mini,1SDCH7G0169R0K,1SFLH6Q0AB03DJ,1SRCH7F014TAHX,1U5X071EXP6C9Y,75.2,0.2,3.2,4.906056,3.802798,0,0,Mavic Mini,1SDCH7G0169R0K,1SFLH6Q0AB03DJ,1SRCH7F014TAHX,1U5X071EXP6C9Y,DJI Fly,,1.12.8,B383E97B-255A-C089-695C-E09D6CCB33F4,1SDCH7G0169R0K,,,,,,,,,
2/22/2024,32:59.5,16m 9.1s,969.1,6.974220242,79.91415779,0,0,0.3,50,0.1,0,0,0,0,0,0,0,0,5.6,2.5,-53.1,306.9,,Starting Motors,Drop Calibration,Takeoff (RC Assisted),14,5,TRUE,,Mavic Mini,TRUE,FALSE,,Smart,RC,TRUE,TRUE,FALSE,,,TRUE,,FALSE,FALSE,FALSE,FALSE,FALSE,FALSE,FALSE,FALSE,FALSE,FALSE,0,Follow Yaw,0,0,-36.6,323.4,FALSE,FALSE,FALSE,FALSE,FALSE,FALSE,,TRUE,Normal,,100,1024,1024,1024,1024,1,FALSE,FALSE,FALSE,FALSE,FALSE,0,FALSE,FALSE,FALSE,FALSE,33,7.18,678,2056,7.218,FALSE,3.585,3.595,0.01,FALSE,FALSE,NA,121.1,121.1,121.1,0,0,0,0,5,2790.7,697.68,,Idle,0,20,FALSE,5,TRUE,6,Go Home,FALSE,FALSE,FALSE,FALSE,FALSE,FALSE,FALSE,FALSE,FALSE,FALSE,FALSE,FALSE,6.974222069,79.91416657,3.2,94.2,328,TRUE,1,1,FALSE,FALSE,FALSE,FALSE,,TRUE,FALSE,FALSE,Course Lock,49.2,,16.4,Calm,33,,1.12.8,Mavic Mini,1SDCH7G0169R0K,1SFLH6Q0AB03DJ,1SRCH7F014TAHX,1U5X071EXP6C9Y,75.2,0.2,3.2,4.906056,3.802798,0,0,Mavic Mini,1SDCH7G0169R0K,1SFLH6Q0AB03DJ,1SRCH7F014TAHX,1U5X071EXP6C9Y,DJI Fly,,1.12.8,B383E97B-255A-C089-695C-E09D6CCB33F4,1SDCH7G0169R0K,,,,,,,,,
2/22/2024,32:59.6,16m 9.2s,969.2,6.974220146,79.91415778,0,0,0.3,50,0.2,0,0,0,0,0,0,0,0,5.6,2.5,-53,307,,Starting Motors,Drop Calibration,Takeoff (RC Assisted),13,5,TRUE,,Mavic Mini,TRUE,FALSE,,Smart,RC,TRUE,TRUE,FALSE,,,TRUE,,FALSE,FALSE,FALSE,FALSE,FALSE,FALSE,FALSE,FALSE,FALSE,FALSE,0,Follow Yaw,0,0,-36.6,323.4,FALSE,FALSE,FALSE,FALSE,FALSE,FALSE,,TRUE,Normal,,100,1024,1024,1024,1024,1,FALSE,FALSE,FALSE,FALSE,FALSE,0,FALSE,FALSE,FALSE,FALSE,33,7.18,677,2056,7.218,FALSE,3.585,3.595,0.01,FALSE,FALSE,NA,121.3,121.1,121.2,0,0,0,0,5,2790.7,697.68,,Idle,0,20,FALSE,5,TRUE,6,Go Home,FALSE,FALSE,FALSE,FALSE,FALSE,FALSE,FALSE,FALSE,FALSE,FALSE,FALSE,FALSE,6.974222069,79.91416657,3.2,94.2,328,TRUE,1,1,FALSE,FALSE,FALSE,FALSE,,TRUE,FALSE,FALSE,Course Lock,49.2,,16.4,Calm,33,,1.12.8,Mavic Mini,1SDCH7G0169R0K,1SFLH6Q0AB03DJ,1SRCH7F014TAHX,1U5X071EXP6C9Y,75.2,0.2,3.2,4.906056,3.802798,0,0,Mavic Mini,1SDCH7G0169R0K,1SFLH6Q0AB03DJ,1SRCH7F014TAHX,1U5X071EXP6C9Y,DJI Fly,,1.12.8,B383E97B-255A-C089-695C-E09D6CCB33F4,1SDCH7G0169R0K,,,,,,,,,
2/22/2024,32:59.7,16m 9.3s,969.3,6.974220126,79.91415774,0,0,0.3,50,0.2,0,0,0,0,0,0,0,0,5.7,2.6,-53,307,,Starting Motors,Drop Calibration,Takeoff (RC Assisted),13,5,TRUE,,Mavic Mini,TRUE,FALSE,,Smart,RC,TRUE,TRUE,FALSE,,,TRUE,,FALSE,FALSE,FALSE,FALSE,FALSE,FALSE,FALSE,FALSE,FALSE,FALSE,0,Follow Yaw,0,0,-36.6,323.4,FALSE,FALSE,FALSE,FALSE,FALSE,FALSE,,TRUE,Normal,,100,1024,1024,1024,1024,1,FALSE,FALSE,FALSE,FALSE,FALSE,0,FALSE,FALSE,FALSE,FALSE,33,7.18,677,2056,7.218,FALSE,3.585,3.595,0.01,FALSE,FALSE,NA,121.3,121.1,121.2,0,0,0,0,5,2790.7,697.68,,Idle,0,20,FALSE,5,TRUE,6,Go Home,FALSE,FALSE,FALSE,FALSE,FALSE,FALSE,FALSE,FALSE,FALSE,FALSE,FALSE,FALSE,6.974222069,79.91416657,3.2,94.2,328,TRUE,1,1,FALSE,FALSE,FALSE,FALSE,,TRUE,FALSE,FALSE,Course Lock,49.2,,16.4,Calm,33,,1.12.8,Mavic Mini,1SDCH7G0169R0K,1SFLH6Q0AB03DJ,1SRCH7F014TAHX,1U5X071EXP6C9Y,75.2,0.2,3.2,4.906056,3.802798,0,0,Mavic Mini,1SDCH7G0169R0K,1SFLH6Q0AB03DJ,1SRCH7F014TAHX,1U5X071EXP6C9Y,DJI Fly,,1.12.8,B383E97B-255A-C089-695C-E09D6CCB33F4,1SDCH7G0169R0K,,,,,,,,,
2/22/2024,32:59.9,16m 9.4s,969.4,6.974220106,79.91415769,0,0,0.3,50,0.2,0,0,0,0,0,0,0,0,5.7,2.6,-53,307,,Manual Takeoff,Drop Calibration,Takeoff (RC Assisted),13,5,TRUE,,Mavic Mini,TRUE,FALSE,,Smart,RC,TRUE,TRUE,FALSE,,,TRUE,,FALSE,FALSE,FALSE,FALSE,FALSE,FALSE,FALSE,FALSE,FALSE,FALSE,0,Follow Yaw,0,0,-36.6,323.4,FALSE,FALSE,FALSE,FALSE,FALSE,FALSE,,TRUE,Normal,,100,1024,1024,1024,1024,1,FALSE,FALSE,FALSE,FALSE,FALSE,0,FALSE,FALSE,FALSE,FALSE,33,7.18,677,2056,7.215,FALSE,3.585,3.595,0.01,FALSE,FALSE,NA,121.3,121.1,121.2,0,0,0,0,5,2851.1,712.79,,Idle,0,20,FALSE,5,TRUE,6,Go Home,FALSE,FALSE,FALSE,FALSE,FALSE,FALSE,FALSE,FALSE,FALSE,FALSE,FALSE,FALSE,6.974222069,79.91416657,3.2,94.2,328,TRUE,1,1,FALSE,FALSE,FALSE,FALSE,,TRUE,FALSE,FALSE,Course Lock,49.2,,16.4,Calm,33,,1.12.8,Mavic Mini,1SDCH7G0169R0K,1SFLH6Q0AB03DJ,1SRCH7F014TAHX,1U5X071EXP6C9Y,75.2,0.2,3.2,4.906056,3.802798,0,0,Mavic Mini,1SDCH7G0169R0K,1SFLH6Q0AB03DJ,1SRCH7F014TAHX,1U5X071EXP6C9Y,DJI Fly,,1.12.8,B383E97B-255A-C089-695C-E09D6CCB33F4,1SDCH7G0169R0K,,,,,,,,Flight mode changed to Manual Takeoff.,
2/22/2024,33:00.0,16m 9.5s,969.5,6.974220192,79.91415769,0,0,0.3,50,0.2,0,0,0,0,0,0,0,0,5.7,2.6,-52.9,307.1,,Manual Takeoff,Drop Calibration,Takeoff (RC Assisted),13,5,TRUE,,Mavic Mini,TRUE,FALSE,,Smart,RC,TRUE,TRUE,FALSE,,,TRUE,,FALSE,FALSE,FALSE,FALSE,FALSE,FALSE,FALSE,FALSE,FALSE,FALSE,0,Follow Yaw,0,0,-36.5,323.5,FALSE,FALSE,FALSE,FALSE,FALSE,FALSE,,TRUE,Normal,,100,1024,1024,1024,1024,1,FALSE,FALSE,FALSE,FALSE,FALSE,0,FALSE,FALSE,FALSE,FALSE,33,7.18,677,2056,7.215,FALSE,3.585,3.595,0.01,FALSE,FALSE,NA,121.3,121.1,121.2,0,0,0,0,5,2851.1,712.79,,Idle,0,20,FALSE,5,TRUE,6,Go Home,FALSE,FALSE,FALSE,FALSE,FALSE,FALSE,FALSE,FALSE,FALSE,FALSE,FALSE,FALSE,6.974222069,79.91416657,3.2,94.2,328,TRUE,1,1,FALSE,FALSE,FALSE,FALSE,,TRUE,FALSE,FALSE,Course Lock,49.2,,16.4,Calm,33,,1.12.8,Mavic Mini,1SDCH7G0169R0K,1SFLH6Q0AB03DJ,1SRCH7F014TAHX,1U5X071EXP6C9Y,75.2,0.2,3.2,4.906056,3.802798,0,0,Mavic Mini,1SDCH7G0169R0K,1SFLH6Q0AB03DJ,1SRCH7F014TAHX,1U5X071EXP6C9Y,DJI Fly,,1.12.8,B383E97B-255A-C089-695C-E09D6CCB33F4,1SDCH7G0169R0K,,,,,,,,,
2/22/2024,33:00.1,16m 9.6s,969.6,6.974220147,79.91415768,0,0,0.3,50,0.3,0,0,0,0,0,0,0,0,5.6,2.6,-53,307,,Manual Takeoff,Drop Calibration,Takeoff (RC Assisted),13,5,TRUE,,Mavic Mini,TRUE,FALSE,,Smart,RC,TRUE,TRUE,FALSE,,,TRUE,,FALSE,FALSE,FALSE,FALSE,FALSE,FALSE,FALSE,FALSE,FALSE,FALSE,0,Follow Yaw,0,0,-36.5,323.5,FALSE,FALSE,FALSE,FALSE,FALSE,FALSE,,TRUE,Normal,,100,1024,1024,1024,1024,1,FALSE,FALSE,FALSE,FALSE,FALSE,0,FALSE,FALSE,FALSE,FALSE,33,7.18,677,2056,7.215,FALSE,3.585,3.595,0.01,FALSE,FALSE,NA,121.3,121.1,121.2,0,0,0,0,5,2851.1,712.79,,Idle,0,20,FALSE,5,TRUE,6,Go Home,FALSE,FALSE,FALSE,FALSE,FALSE,FALSE,FALSE,FALSE,FALSE,FALSE,FALSE,FALSE,6.974222069,79.91416657,3.2,94.2,328,TRUE,1,1,FALSE,FALSE,FALSE,FALSE,,TRUE,FALSE,FALSE,Course Lock,49.2,,16.4,Calm,33,,1.12.8,Mavic Mini,1SDCH7G0169R0K,1SFLH6Q0AB03DJ,1SRCH7F014TAHX,1U5X071EXP6C9Y,75.2,0.2,3.2,4.906056,3.802798,0,0,Mavic Mini,1SDCH7G0169R0K,1SFLH6Q0AB03DJ,1SRCH7F014TAHX,1U5X071EXP6C9Y,DJI Fly,,1.12.8,B383E97B-255A-C089-695C-E09D6CCB33F4,1SDCH7G0169R0K,,,,,,,,,
2/22/2024,33:00.2,16m 9.7s,969.7,6.974220094,79.91415764,0,0,0.3,50,0.3,0,0,0,0,0,0,0,0,5.7,2.6,-52.9,307.1,,Manual Takeoff,Drop Calibration,Takeoff (RC Assisted),13,5,TRUE,,Mavic Mini,TRUE,FALSE,,Smart,RC,TRUE,TRUE,FALSE,,,TRUE,,FALSE,FALSE,FALSE,FALSE,FALSE,FALSE,FALSE,FALSE,FALSE,FALSE,0,Follow Yaw,0,0,-36.5,323.5,FALSE,FALSE,FALSE,FALSE,FALSE,FALSE,,TRUE,Normal,,100,1024,1024,1024,1024,1,FALSE,FALSE,FALSE,FALSE,FALSE,0,FALSE,FALSE,FALSE,FALSE,33,7.18,677,2056,7.215,FALSE,3.585,3.595,0.01,FALSE,FALSE,NA,121.3,121.1,121.2,0,0,0,0,5,2851.1,712.79,,Idle,0,20,FALSE,5,TRUE,6,Go Home,FALSE,FALSE,FALSE,FALSE,FALSE,FALSE,FALSE,FALSE,FALSE,FALSE,FALSE,FALSE,6.974222069,79.91416657,3.3,94.2,328,TRUE,1,1,FALSE,FALSE,FALSE,FALSE,,TRUE,FALSE,FALSE,Course Lock,49.2,,16.4,Calm,33,,1.12.8,Mavic Mini,1SDCH7G0169R0K,1SFLH6Q0AB03DJ,1SRCH7F014TAHX,1U5X071EXP6C9Y,75.2,0.2,3.2,4.906056,3.802798,0,0,Mavic Mini,1SDCH7G0169R0K,1SFLH6Q0AB03DJ,1SRCH7F014TAHX,1U5X071EXP6C9Y,DJI Fly,,1.12.8,B383E97B-255A-C089-695C-E09D6CCB33F4,1SDCH7G0169R0K,,,,,,,,,
2/22/2024,33:00.3,16m 9.8s,969.8,6.974220034,79.91415759,0,0,0.3,50,0.3,0,0,0,0,0,0,0,0,5.7,2.6,-53,307,,Manual Takeoff,Drop Calibration,Takeoff (RC Assisted),13,5,TRUE,,Mavic Mini,TRUE,FALSE,,Smart,RC,TRUE,TRUE,FALSE,,,TRUE,,FALSE,FALSE,FALSE,FALSE,FALSE,FALSE,FALSE,FALSE,FALSE,FALSE,0,Follow Yaw,0,0,-36.5,323.5,FALSE,FALSE,FALSE,FALSE,FALSE,FALSE,,TRUE,Normal,,100,1024,1024,1070,1024,1,FALSE,FALSE,FALSE,FALSE,FALSE,0,FALSE,FALSE,FALSE,FALSE,33,7.18,677,2056,7.215,FALSE,3.585,3.595,0.01,FALSE,FALSE,NA,121.3,121.1,121.2,0,0,0,0,5,2851.1,712.79,,Idle,0,20,FALSE,5,TRUE,6,Go Home,FALSE,FALSE,FALSE,FALSE,FALSE,FALSE,FALSE,FALSE,FALSE,FALSE,FALSE,FALSE,6.974222069,79.91416657,3.3,94.2,328,TRUE,1,1,FALSE,FALSE,FALSE,FALSE,,TRUE,FALSE,FALSE,Course Lock,49.2,,16.4,Calm,33,,1.12.8,Mavic Mini,1SDCH7G0169R0K,1SFLH6Q0AB03DJ,1SRCH7F014TAHX,1U5X071EXP6C9Y,75.2,0.2,3.2,4.906056,3.802798,0,0,Mavic Mini,1SDCH7G0169R0K,1SFLH6Q0AB03DJ,1SRCH7F014TAHX,1U5X071EXP6C9Y,DJI Fly,,1.12.8,B383E97B-255A-C089-695C-E09D6CCB33F4,1SDCH7G0169R0K,,,,,,,,,
2/22/2024,33:00.4,16m 9.9s,969.9,6.974219973,79.9141576,0,0,0.3,50,0.3,0,0,0,0,0,0,0,0,5.7,2.5,-53,307,,Manual Takeoff,Drop Calibration,Takeoff (RC Assisted),13,5,TRUE,,Mavic Mini,TRUE,FALSE,,Smart,RC,TRUE,TRUE,FALSE,,,TRUE,,FALSE,FALSE,FALSE,FALSE,FALSE,FALSE,FALSE,FALSE,FALSE,FALSE,0,Follow Yaw,0,0,-36.5,323.5,FALSE,FALSE,FALSE,FALSE,FALSE,FALSE,,TRUE,Normal,,100,1024,1024,1276,1024,1,FALSE,FALSE,FALSE,FALSE,FALSE,0,FALSE,FALSE,FALSE,FALSE,33,7.18,677,2056,7.215,FALSE,3.585,3.595,0.01,FALSE,FALSE,NA,121.3,121.1,121.2,0,0,0,0,5,2851.1,712.79,,Idle,0,20,FALSE,5,TRUE,6,Go Home,FALSE,FALSE,FALSE,FALSE,FALSE,FALSE,FALSE,FALSE,FALSE,FALSE,FALSE,FALSE,6.974222069,79.91416657,3.3,94.2,328,TRUE,1,1,FALSE,FALSE,FALSE,FALSE,,TRUE,FALSE,FALSE,Course Lock,49.2,,16.4,Calm,33,,1.12.8,Mavic Mini,1SDCH7G0169R0K,1SFLH6Q0AB03DJ,1SRCH7F014TAHX,1U5X071EXP6C9Y,75.2,0.2,3.2,4.906056,3.802798,0,0,Mavic Mini,1SDCH7G0169R0K,1SFLH6Q0AB03DJ,1SRCH7F014TAHX,1U5X071EXP6C9Y,DJI Fly,,1.12.8,B383E97B-255A-C089-695C-E09D6CCB33F4,1SDCH7G0169R0K,,,,,,,,,
2/22/2024,33:00.5,16m 10.0s,970,6.974219904,79.91415759,0,0,0.3,50,0.4,0,0,0,0,0,0,0,0,5.7,2.5,-53,307,,Manual Takeoff,Drop Calibration,Takeoff (RC Assisted),14,5,TRUE,,Mavic Mini,TRUE,FALSE,,Smart,RC,TRUE,TRUE,FALSE,,,TRUE,,FALSE,FALSE,FALSE,FALSE,FALSE,FALSE,FALSE,FALSE,FALSE,FALSE,0,Follow Yaw,0,0,-36.5,323.5,FALSE,FALSE,FALSE,FALSE,FALSE,FALSE,,TRUE,Normal,,100,1024,1024,1380,1024,1,FALSE,FALSE,FALSE,FALSE,FALSE,0,FALSE,FALSE,FALSE,FALSE,33,7.18,677,2056,7.215,FALSE,3.585,3.595,0.01,FALSE,FALSE,NA,121.3,121.1,121.2,0,0,0,0,5,2851.1,712.79,,Idle,0,20,FALSE,5,TRUE,6,Go Home,FALSE,FALSE,FALSE,FALSE,FALSE,FALSE,FALSE,FALSE,FALSE,FALSE,FALSE,FALSE,6.974222069,79.91416657,3.3,94.2,328,TRUE,1,1,FALSE,FALSE,FALSE,FALSE,,TRUE,FALSE,FALSE,Course Lock,49.2,,16.4,Calm,33,,1.12.8,Mavic Mini,1SDCH7G0169R0K,1SFLH6Q0AB03DJ,1SRCH7F014TAHX,1U5X071EXP6C9Y,75.2,0.2,3.2,4.906056,3.802798,0,0,Mavic Mini,1SDCH7G0169R0K,1SFLH6Q0AB03DJ,1SRCH7F014TAHX,1U5X071EXP6C9Y,DJI Fly,,1.12.8,B383E97B-255A-C089-695C-E09D6CCB33F4,1SDCH7G0169R0K,,,,,,,,,
2/22/2024,33:00.6,16m 10.1s,970.1,6.974219791,79.9141576,0,0,0.3,50,0.4,0,0,0,0,0,0,0,0,5.6,2.5,-52.9,307.1,,Manual Takeoff,Drop Calibration,Takeoff (RC Assisted),14,5,TRUE,,Mavic Mini,TRUE,FALSE,,Smart,RC,TRUE,TRUE,FALSE,,,TRUE,,FALSE,FALSE,FALSE,FALSE,FALSE,FALSE,FALSE,FALSE,FALSE,FALSE,0,Follow Yaw,0,0,-36.5,323.5,FALSE,FALSE,FALSE,FALSE,FALSE,FALSE,,TRUE,Normal,,100,1024,1024,1380,1024,1,FALSE,FALSE,FALSE,FALSE,FALSE,0,FALSE,FALSE,FALSE,FALSE,33,7.18,677,2056,7.215,FALSE,3.585,3.595,0.01,FALSE,FALSE,NA,121.3,121.1,121.2,0,0,0,0,5,2851.1,712.79,,Idle,0,20,FALSE,5,TRUE,6,Go Home,FALSE,FALSE,FALSE,FALSE,FALSE,FALSE,FALSE,FALSE,FALSE,FALSE,FALSE,FALSE,6.974222069,79.91416657,3.3,94.2,328,TRUE,1,1,FALSE,FALSE,FALSE,FALSE,,TRUE,FALSE,FALSE,Course Lock,49.2,,16.4,Calm,33,,1.12.8,Mavic Mini,1SDCH7G0169R0K,1SFLH6Q0AB03DJ,1SRCH7F014TAHX,1U5X071EXP6C9Y,75.2,0.2,3.2,4.906056,3.802798,0,0,Mavic Mini,1SDCH7G0169R0K,1SFLH6Q0AB03DJ,1SRCH7F014TAHX,1U5X071EXP6C9Y,DJI Fly,,1.12.8,B383E97B-255A-C089-695C-E09D6CCB33F4,1SDCH7G0169R0K,,,,,,,,,
2/22/2024,33:00.6,16m 10.2s,970.2,6.97421967,79.9141576,0,0,0.3,50,0.4,0,0,0,0,0,0,0,0,5.6,2.5,-53,307,,Manual Takeoff,Drop Calibration,Takeoff (RC Assisted),14,5,TRUE,,Mavic Mini,TRUE,FALSE,,Smart,RC,TRUE,TRUE,FALSE,,,TRUE,,FALSE,FALSE,FALSE,FALSE,FALSE,FALSE,FALSE,FALSE,FALSE,FALSE,0,Follow Yaw,0,0,-36.5,323.5,FALSE,FALSE,FALSE,FALSE,FALSE,FALSE,,TRUE,Normal,,100,1024,1024,1437,1024,1,FALSE,FALSE,FALSE,FALSE,FALSE,0,FALSE,FALSE,FALSE,FALSE,33,7.18,677,2056,7.215,FALSE,3.585,3.595,0.01,FALSE,FALSE,NA,121.3,121.1,121.2,0,0,0,0,5,2851.1,712.79,,Idle,0,20,FALSE,5,TRUE,6,Go Home,FALSE,FALSE,FALSE,FALSE,FALSE,FALSE,FALSE,FALSE,FALSE,FALSE,FALSE,FALSE,6.974222069,79.91416657,3.3,94.2,328,TRUE,1,1,FALSE,FALSE,FALSE,FALSE,,TRUE,FALSE,FALSE,Course Lock,49.2,,16.4,Calm,33,,1.12.8,Mavic Mini,1SDCH7G0169R0K,1SFLH6Q0AB03DJ,1SRCH7F014TAHX,1U5X071EXP6C9Y,75.2,0.2,3.2,4.906056,3.802798,0,0,Mavic Mini,1SDCH7G0169R0K,1SFLH6Q0AB03DJ,1SRCH7F014TAHX,1U5X071EXP6C9Y,DJI Fly,,1.12.8,B383E97B-255A-C089-695C-E09D6CCB33F4,1SDCH7G0169R0K,,,,,,,,,
2/22/2024,33:00.7,16m 10.3s,970.3,6.97421964,79.91415756,0,0,0.3,50,0.5,0,0,0,0,0,0,0,0,5.5,2.4,-53,307,,Manual Takeoff,Drop Calibration,Takeoff (RC Assisted),14,5,TRUE,,Mavic Mini,TRUE,FALSE,,Smart,RC,TRUE,TRUE,FALSE,,,TRUE,,FALSE,FALSE,FALSE,FALSE,FALSE,FALSE,FALSE,FALSE,FALSE,FALSE,0,Follow Yaw,0,0,-36.5,323.5,FALSE,FALSE,FALSE,FALSE,FALSE,FALSE,,TRUE,Normal,,100,1024,1024,1438,1024,1,FALSE,FALSE,FALSE,FALSE,FALSE,0,FALSE,FALSE,FALSE,FALSE,33,7.201,677,2056,7.215,FALSE,3.604,3.597,0.01,FALSE,FALSE,NA,121.3,121.1,121.2,0,0,0,0,5,2851.1,712.79,,Idle,0,20,FALSE,5,TRUE,6,Go Home,FALSE,FALSE,FALSE,FALSE,FALSE,FALSE,FALSE,FALSE,FALSE,FALSE,FALSE,FALSE,6.974222069,79.91416657,3.3,94.2,328,TRUE,1,1,FALSE,FALSE,FALSE,FALSE,,TRUE,FALSE,FALSE,Course Lock,49.2,,16.4,Calm,33,,1.12.8,Mavic Mini,1SDCH7G0169R0K,1SFLH6Q0AB03DJ,1SRCH7F014TAHX,1U5X071EXP6C9Y,75.2,0.2,3.2,4.906056,3.802798,0,0,Mavic Mini,1SDCH7G0169R0K,1SFLH6Q0AB03DJ,1SRCH7F014TAHX,1U5X071EXP6C9Y,DJI Fly,,1.12.8,B383E97B-255A-C089-695C-E09D6CCB33F4,1SDCH7G0169R0K,,,,,6.974217729,79.91413957,5,,
2/22/2024,33:00.9,16m 10.4s,970.4,6.974219649,79.91415753,0,0,0.3,50,0.5,0,0,0,0,0,0,0,0,5.8,2.4,-53.8,306.2,,Manual Takeoff,Drop Calibration,Takeoff (RC Assisted),13,5,TRUE,,Mavic Mini,TRUE,FALSE,,Smart,RC,TRUE,TRUE,FALSE,,,TRUE,,FALSE,FALSE,FALSE,FALSE,FALSE,FALSE,FALSE,FALSE,FALSE,FALSE,0,Follow Yaw,0,0,-36.6,323.4,FALSE,FALSE,FALSE,FALSE,FALSE,FALSE,,TRUE,Normal,,100,1024,1024,1438,1024,1,FALSE,FALSE,FALSE,FALSE,FALSE,0,FALSE,FALSE,FALSE,FALSE,33,7.201,677,2056,7.174,FALSE,3.604,3.597,0.01,FALSE,FALSE,NA,121.3,121.1,121.2,0,0,0,0,5,2977.8,744.45,,Idle,0,20,FALSE,5,TRUE,6,Go Home,FALSE,FALSE,FALSE,FALSE,FALSE,FALSE,FALSE,FALSE,FALSE,FALSE,FALSE,FALSE,6.974222069,79.91416657,3.3,94.2,328,TRUE,1,1,FALSE,FALSE,FALSE,FALSE,,TRUE,FALSE,FALSE,Course Lock,49.2,,16.4,Calm,33,,1.12.8,Mavic Mini,1SDCH7G0169R0K,1SFLH6Q0AB03DJ,1SRCH7F014TAHX,1U5X071EXP6C9Y,75.2,0.2,3.2,4.906056,3.802798,0,0,Mavic Mini,1SDCH7G0169R0K,1SFLH6Q0AB03DJ,1SRCH7F014TAHX,1U5X071EXP6C9Y,DJI Fly,,1.12.8,B383E97B-255A-C089-695C-E09D6CCB33F4,1SDCH7G0169R0K,,,,,6.974217729,79.91413957,5,,
2/22/2024,33:01.0,16m 10.5s,970.5,6.974219613,79.91415753,0,0,0.3,50,0.5,0,0,0,0,0,0,0,0,5.4,2.5,-55.6,304.4,,Manual Takeoff,Drop Calibration,Takeoff (RC Assisted),13,5,TRUE,,Mavic Mini,TRUE,FALSE,,Smart,RC,TRUE,TRUE,FALSE,,,TRUE,,FALSE,FALSE,FALSE,FALSE,FALSE,FALSE,FALSE,FALSE,FALSE,FALSE,0,Follow Yaw,0,0,-37.9,322.1,FALSE,FALSE,FALSE,FALSE,FALSE,FALSE,,TRUE,Normal,,100,1024,1024,1438,1024,1,FALSE,FALSE,FALSE,FALSE,FALSE,0,FALSE,FALSE,FALSE,FALSE,33,7.201,677,2056,7.174,FALSE,3.604,3.597,0.01,FALSE,FALSE,NA,121.3,121.1,121.2,0,0,0,0,5,2977.8,744.45,,Idle,0,20,FALSE,5,TRUE,6,Go Home,FALSE,FALSE,FALSE,FALSE,FALSE,FALSE,FALSE,FALSE,FALSE,FALSE,FALSE,FALSE,6.974222069,79.91416657,3.3,94.2,328,TRUE,1,1,FALSE,FALSE,FALSE,FALSE,,TRUE,FALSE,FALSE,Course Lock,49.2,,16.4,Calm,33,,1.12.8,Mavic Mini,1SDCH7G0169R0K,1SFLH6Q0AB03DJ,1SRCH7F014TAHX,1U5X071EXP6C9Y,75.2,0.2,3.2,4.906056,3.802798,0,0,Mavic Mini,1SDCH7G0169R0K,1SFLH6Q0AB03DJ,1SRCH7F014TAHX,1U5X071EXP6C9Y,DJI Fly,,1.12.8,B383E97B-255A-C089-695C-E09D6CCB33F4,1SDCH7G0169R0K,,,,,6.974217729,79.91413957,5,,
2/22/2024,33:01.0,16m 10.6s,970.6,6.974219582,79.91415754,0,0,0.3,50,0.5,0,0,0,0,0,0,0,0,4.5,2.8,-57.4,302.6,,Manual Takeoff,Drop Calibration,Takeoff (RC Assisted),14,5,TRUE,,Mavic Mini,TRUE,FALSE,,Smart,RC,TRUE,TRUE,FALSE,,,TRUE,,FALSE,FALSE,FALSE,FALSE,FALSE,FALSE,FALSE,FALSE,FALSE,FALSE,0,Follow Yaw,0,0,-39.7,320.3,FALSE,FALSE,FALSE,FALSE,FALSE,FALSE,,TRUE,Normal,,100,1024,1024,1438,1024,1,FALSE,FALSE,FALSE,FALSE,FALSE,0,FALSE,FALSE,FALSE,FALSE,33,7.201,677,2056,7.174,FALSE,3.604,3.597,0.01,FALSE,FALSE,NA,121.3,121.1,121.2,0,0,0,0,5,2977.8,744.45,,Idle,0,20,FALSE,5,TRUE,6,Go Home,FALSE,FALSE,FALSE,FALSE,FALSE,FALSE,FALSE,FALSE,FALSE,FALSE,FALSE,FALSE,6.974222069,79.91416657,3.3,94.2,328,TRUE,1,1,FALSE,FALSE,FALSE,FALSE,,TRUE,FALSE,FALSE,Course Lock,49.2,,16.4,Calm,33,,1.12.8,Mavic Mini,1SDCH7G0169R0K,1SFLH6Q0AB03DJ,1SRCH7F014TAHX,1U5X071EXP6C9Y,75.2,0.2,3.2,4.906056,3.802798,0,0,Mavic Mini,1SDCH7G0169R0K,1SFLH6Q0AB03DJ,1SRCH7F014TAHX,1U5X071EXP6C9Y,DJI Fly,,1.12.8,B383E97B-255A-C089-695C-E09D6CCB33F4,1SDCH7G0169R0K,,,,,6.974217729,79.91413957,5,,
2/22/2024,33:01.1,16m 10.7s,970.7,6.974219566,79.91415758,0,0,0.3,50,0.5,0,0,0,0,0,0,0,0,4,2.8,-59.3,300.7,,Manual Takeoff,Drop Calibration,Takeoff (RC Assisted),14,5,TRUE,,Mavic Mini,TRUE,FALSE,,Smart,RC,TRUE,TRUE,FALSE,,,TRUE,,FALSE,FALSE,FALSE,FALSE,FALSE,FALSE,FALSE,FALSE,FALSE,FALSE,0,Follow Yaw,0,0,-41.5,318.5,FALSE,FALSE,FALSE,FALSE,FALSE,FALSE,,TRUE,Normal,,100,1024,1024,1439,1024,1,FALSE,FALSE,FALSE,FALSE,FALSE,0,FALSE,FALSE,FALSE,FALSE,33,7.201,677,2056,7.174,FALSE,3.604,3.597,0.01,FALSE,FALSE,NA,121.3,121.1,121.2,0,0,0,0,5,2977.8,744.45,,Idle,0,20,FALSE,5,TRUE,6,Go Home,FALSE,FALSE,FALSE,FALSE,FALSE,FALSE,FALSE,FALSE,FALSE,FALSE,FALSE,FALSE,6.974222069,79.91416657,3.3,94.2,328,TRUE,1,1,FALSE,FALSE,FALSE,FALSE,,TRUE,FALSE,FALSE,Course Lock,49.2,,16.4,Calm,33,,1.12.8,Mavic Mini,1SDCH7G0169R0K,1SFLH6Q0AB03DJ,1SRCH7F014TAHX,1U5X071EXP6C9Y,75.2,0.2,3.2,4.906056,3.802798,0,0,Mavic Mini,1SDCH7G0169R0K,1SFLH6Q0AB03DJ,1SRCH7F014TAHX,1U5X071EXP6C9Y,DJI Fly,,1.12.8,B383E97B-255A-C089-695C-E09D6CCB33F4,1SDCH7G0169R0K,,,,,6.974217729,79.91413957,5,,
2/22/2024,33:01.3,16m 10.8s,970.8,6.974219651,79.91415771,0,0,0.3,50,0.6,0,0,0,0,0,0,0,0,1.7,2.5,-60.6,299.4,,Manual Takeoff,Drop Calibration,Takeoff (RC Assisted),15,5,TRUE,,Mavic Mini,TRUE,FALSE,,Smart,RC,TRUE,TRUE,FALSE,,,TRUE,,FALSE,FALSE,FALSE,FALSE,FALSE,FALSE,FALSE,FALSE,FALSE,FALSE,0,Follow Yaw,0,0,-42.9,317.1,FALSE,FALSE,FALSE,FALSE,FALSE,FALSE,,TRUE,Normal,,100,1024,1024,1439,1024,1,FALSE,FALSE,FALSE,FALSE,FALSE,0,FALSE,FALSE,FALSE,FALSE,33,7.201,677,2056,7.174,FALSE,3.604,3.597,0.01,FALSE,FALSE,NA,121.3,121.1,121.2,0,0,0,0,5,2977.8,744.45,,Idle,0,20,FALSE,5,TRUE,6,Go Home,FALSE,FALSE,FALSE,FALSE,FALSE,FALSE,FALSE,FALSE,FALSE,FALSE,FALSE,FALSE,6.974222069,79.91416657,3.3,94.2,328,TRUE,1,1,FALSE,FALSE,FALSE,FALSE,,TRUE,FALSE,FALSE,Course Lock,49.2,,16.4,Calm,33,,1.12.8,Mavic Mini,1SDCH7G0169R0K,1SFLH6Q0AB03DJ,1SRCH7F014TAHX,1U5X071EXP6C9Y,75.2,0.2,3.2,4.906056,3.802798,0,0,Mavic Mini,1SDCH7G0169R0K,1SFLH6Q0AB03DJ,1SRCH7F014TAHX,1U5X071EXP6C9Y,DJI Fly,,1.12.8,B383E97B-255A-C089-695C-E09D6CCB33F4,1SDCH7G0169R0K,,,,,6.974217729,79.91413957,5,,
2/22/2024,33:01.4,16m 10.9s,970.9,6.974219711,79.91415776,0,0,0.3,50,0.6,0.316351,0.316351,0.223694,0.223694,0.223694,0.223694,0,0,-0.1,0.3,-62.5,297.5,35.2,Manual Takeoff,Drop Calibration,Takeoff (RC Assisted),15,5,TRUE,,Mavic Mini,TRUE,FALSE,,Smart,RC,TRUE,TRUE,FALSE,,,TRUE,,FALSE,FALSE,FALSE,FALSE,FALSE,FALSE,FALSE,FALSE,FALSE,FALSE,0,Follow Yaw,0,0,-44.3,315.7,FALSE,FALSE,FALSE,FALSE,FALSE,FALSE,,TRUE,Normal,,100,1024,1024,1445,1024,1,FALSE,FALSE,FALSE,FALSE,FALSE,0,FALSE,FALSE,FALSE,FALSE,33,7.201,677,2056,7.174,FALSE,3.604,3.597,0.01,FALSE,FALSE,NA,121.3,121.1,121.2,0,0,0,0,5,2977.8,744.45,,Idle,0,20,FALSE,5,TRUE,6,Go Home,FALSE,FALSE,FALSE,FALSE,FALSE,FALSE,FALSE,FALSE,FALSE,FALSE,FALSE,FALSE,6.974222069,79.91416657,3.3,94.2,328,TRUE,1,1,FALSE,FALSE,FALSE,FALSE,,TRUE,FALSE,FALSE,Course Lock,49.2,,16.4,Calm,33,,1.12.8,Mavic Mini,1SDCH7G0169R0K,1SFLH6Q0AB03DJ,1SRCH7F014TAHX,1U5X071EXP6C9Y,75.2,0.2,3.2,4.906056,3.802798,0,0,Mavic Mini,1SDCH7G0169R0K,1SFLH6Q0AB03DJ,1SRCH7F014TAHX,1U5X071EXP6C9Y,DJI Fly,,1.12.8,B383E97B-255A-C089-695C-E09D6CCB33F4,1SDCH7G0169R0K,,,,,6.974217729,79.91413957,5,,
2/22/2024,33:01.5,16m 11.0s,971,6.974219806,79.91415784,0,0,0.3,50,0.6,0.316351,0.316351,0.223694,0.223694,0.223694,0.223694,-0.223694,0,-0.7,-0.8,-65,295,30.7,Manual Takeoff,Drop Calibration,Takeoff (RC Assisted),15,5,TRUE,,Mavic Mini,TRUE,FALSE,,Smart,RC,FALSE,TRUE,FALSE,,,TRUE,,FALSE,FALSE,FALSE,FALSE,FALSE,FALSE,FALSE,FALSE,FALSE,FALSE,0,Follow Yaw,0,0,-46.6,313.4,FALSE,FALSE,FALSE,FALSE,FALSE,FALSE,,TRUE,Normal,,100,1024,1024,1412,1024,1,FALSE,FALSE,FALSE,FALSE,FALSE,0,FALSE,FALSE,FALSE,FALSE,33,7.201,677,2056,7.174,FALSE,3.604,3.597,0.01,FALSE,FALSE,NA,121.3,121.1,121.2,0,0,0,0,5,2977.8,744.45,,Idle,0,20,FALSE,5,TRUE,6,Go Home,FALSE,FALSE,FALSE,FALSE,FALSE,FALSE,FALSE,FALSE,FALSE,FALSE,FALSE,FALSE,6.974222069,79.91416657,3.2,94.2,328,TRUE,1,1,FALSE,FALSE,FALSE,FALSE,,TRUE,FALSE,FALSE,Course Lock,49.2,,16.4,Calm,33,,1.12.8,Mavic Mini,1SDCH7G0169R0K,1SFLH6Q0AB03DJ,1SRCH7F014TAHX,1U5X071EXP6C9Y,75.2,0.2,3.2,4.906056,3.802798,0,0,Mavic Mini,1SDCH7G0169R0K,1SFLH6Q0AB03DJ,1SRCH7F014TAHX,1U5X071EXP6C9Y,DJI Fly,,1.12.8,B383E97B-255A-C089-695C-E09D6CCB33F4,1SDCH7G0169R0K,,,,,6.974217729,79.91413957,5,,
2/22/2024,33:01.6,16m 11.1s,971.1,6.974219963,79.91415796,0,0,0.3,50,0.7,0.316351,0.316351,0.223694,0.223694,0.223694,0.223694,-0.447388,0,0.2,-1.7,-65.4,294.6,31.5,P-GPS,Drop Calibration,,15,5,TRUE,,Mavic Mini,TRUE,FALSE,,Smart,RC,FALSE,TRUE,FALSE,,,TRUE,,FALSE,FALSE,FALSE,FALSE,FALSE,FALSE,FALSE,FALSE,FALSE,FALSE,0,Follow Yaw,0,0,-47.9,312.1,FALSE,FALSE,FALSE,FALSE,FALSE,FALSE,,TRUE,Normal,,100,1024,1024,1411,1024,1,FALSE,FALSE,FALSE,FALSE,FALSE,0,FALSE,FALSE,FALSE,FALSE,33,7.201,677,2056,7.174,FALSE,3.604,3.597,0.01,FALSE,FALSE,NA,121.3,121.1,121.2,0,0,0,0,5,2977.8,744.45,,Idle,0,20,FALSE,5,TRUE,6,Go Home,FALSE,FALSE,FALSE,FALSE,FALSE,FALSE,FALSE,FALSE,FALSE,FALSE,FALSE,FALSE,6.974222069,79.91416657,3.2,94.2,328,TRUE,1,1,FALSE,FALSE,FALSE,FALSE,,TRUE,FALSE,FALSE,Course Lock,49.2,,16.4,Calm,33,,1.12.8,Mavic Mini,1SDCH7G0169R0K,1SFLH6Q0AB03DJ,1SRCH7F014TAHX,1U5X071EXP6C9Y,75.2,0.2,3.2,4.906056,3.802798,0,0,Mavic Mini,1SDCH7G0169R0K,1SFLH6Q0AB03DJ,1SRCH7F014TAHX,1U5X071EXP6C9Y,DJI Fly,,1.12.8,B383E97B-255A-C089-695C-E09D6CCB33F4,1SDCH7G0169R0K,,,,,6.974217729,79.91413957,5,Flight mode changed to P-GPS.,
2/22/2024,33:01.7,16m 11.2s,971.2,6.974220204,79.91415808,0,0,0.6,50,0.8,0.223694,0.316351,0.223694,0.223694,0,0.223694,-0.894776,0,0.7,-2.4,-65.5,294.5,20.2,P-GPS,Drop Calibration,,15,5,TRUE,,Mavic Mini,TRUE,FALSE,,Smart,RC,FALSE,TRUE,FALSE,,,TRUE,,FALSE,FALSE,FALSE,FALSE,FALSE,FALSE,FALSE,FALSE,FALSE,FALSE,0,Follow Yaw,0,0,-47.9,312.1,FALSE,FALSE,FALSE,FALSE,FALSE,FALSE,,TRUE,Normal,,100,1024,1024,1404,1024,1,FALSE,FALSE,FALSE,FALSE,FALSE,0,FALSE,FALSE,FALSE,FALSE,33,7.201,677,2056,7.174,FALSE,3.604,3.597,0.01,FALSE,FALSE,NA,121.3,121.1,121.2,0,0,0,0,5,2977.8,744.45,,Idle,0,20,FALSE,5,TRUE,6,Go Home,FALSE,FALSE,FALSE,FALSE,FALSE,FALSE,FALSE,FALSE,FALSE,FALSE,FALSE,FALSE,6.974222069,79.91416657,3.1,94.2,328,TRUE,1,1,FALSE,FALSE,FALSE,FALSE,,TRUE,FALSE,FALSE,Course Lock,49.2,,16.4,Calm,33,,1.12.8,Mavic Mini,1SDCH7G0169R0K,1SFLH6Q0AB03DJ,1SRCH7F014TAHX,1U5X071EXP6C9Y,75.2,0.2,3.2,4.906056,3.802798,0,0,Mavic Mini,1SDCH7G0169R0K,1SFLH6Q0AB03DJ,1SRCH7F014TAHX,1U5X071EXP6C9Y,DJI Fly,,1.12.8,B383E97B-255A-C089-695C-E09D6CCB33F4,1SDCH7G0169R0K,,,,,6.974217729,79.91413957,5,,
2/22/2024,33:01.8,16m 11.3s,971.3,6.974220345,79.91415808,0,0,0.6,50,0.9,0.223694,0.316351,0.223694,0.223694,0,0.223694,-1.342164,0,1.1,-1.7,-65.4,294.6,1,P-GPS,Drop Calibration,,15,5,TRUE,,Mavic Mini,TRUE,FALSE,,Smart,RC,FALSE,TRUE,FALSE,,,TRUE,,FALSE,FALSE,FALSE,FALSE,FALSE,FALSE,FALSE,FALSE,FALSE,FALSE,0,Follow Yaw,0,0,-47.9,312.1,FALSE,FALSE,FALSE,FALSE,FALSE,FALSE,,TRUE,Normal,,100,1024,1024,1404,1024,1,FALSE,FALSE,FALSE,FALSE,FALSE,0,FALSE,FALSE,FALSE,FALSE,33,7.201,677,2056,7.174,FALSE,3.604,3.597,0.01,FALSE,FALSE,NA,121.3,121.1,121.2,0,0,0,0,5,2977.8,744.45,,Idle,0,20,FALSE,5,TRUE,6,Go Home,FALSE,FALSE,FALSE,FALSE,FALSE,FALSE,FALSE,FALSE,FALSE,FALSE,FALSE,FALSE,6.974222069,79.91416657,3.1,94.2,328,TRUE,1,1,FALSE,FALSE,FALSE,FALSE,,TRUE,FALSE,FALSE,Course Lock,49.2,,16.4,Calm,33,,1.12.8,Mavic Mini,1SDCH7G0169R0K,1SFLH6Q0AB03DJ,1SRCH7F014TAHX,1U5X071EXP6C9Y,75.2,0.2,3.2,4.906056,3.802798,0,0,Mavic Mini,1SDCH7G0169R0K,1SFLH6Q0AB03DJ,1SRCH7F014TAHX,1U5X071EXP6C9Y,DJI Fly,,1.12.8,B383E97B-255A-C089-695C-E09D6CCB33F4,1SDCH7G0169R0K,,,,,6.974217729,79.91413957,5,,
2/22/2024,33:01.9,16m 11.4s,971.4,6.974220462,79.91415807,0.3,0.3,0.9,50,0.9,0,0.316351,0,0.223694,0,0.223694,-1.565858,0,0.9,-0.9,-65.2,294.8,,P-GPS,Drop Calibration,,15,5,TRUE,,Mavic Mini,TRUE,FALSE,,Smart,RC,FALSE,TRUE,FALSE,,,TRUE,,FALSE,FALSE,FALSE,FALSE,FALSE,FALSE,FALSE,FALSE,FALSE,FALSE,0,Follow Yaw,0,0,-47.9,312.1,FALSE,FALSE,FALSE,FALSE,FALSE,FALSE,,TRUE,Normal,,100,1024,1024,1404,1024,1,FALSE,FALSE,FALSE,FALSE,FALSE,0,FALSE,FALSE,FALSE,FALSE,33,7.004,676,2056,7.17,FALSE,3.505,3.499,0.01,FALSE,TRUE,NA,121.3,121.1,121.2,0,0,7,0,5,2977.8,744.45,,Idle,0,20,FALSE,5,TRUE,6,Go Home,FALSE,FALSE,FALSE,FALSE,FALSE,FALSE,FALSE,FALSE,FALSE,FALSE,FALSE,FALSE,6.974219831,79.91415786,0.2,94.2,328,TRUE,1,1,FALSE,FALSE,FALSE,FALSE,,TRUE,FALSE,FALSE,Course Lock,49.2,,16.4,Calm,33,,1.12.8,Mavic Mini,1SDCH7G0169R0K,1SFLH6Q0AB03DJ,1SRCH7F014TAHX,1U5X071EXP6C9Y,75.2,0.2,3.2,4.906056,3.802798,0,0,Mavic Mini,1SDCH7G0169R0K,1SFLH6Q0AB03DJ,1SRCH7F014TAHX,1U5X071EXP6C9Y,DJI Fly,,1.12.8,B383E97B-255A-C089-695C-E09D6CCB33F4,1SDCH7G0169R0K,,,,,6.974217729,79.91413957,5,Home Point Updated.,
2/22/2024,33:02.2,16m 11.5s,971.5,6.974220588,79.91415813,0.6,0.6,1.3,50,1,0,0.316351,0,0.223694,0,0.223694,-2.013246,0,0.4,-0.4,-65,295,,P-GPS,Drop Calibration,,15,5,TRUE,,Mavic Mini,TRUE,FALSE,,Smart,RC,FALSE,TRUE,FALSE,,,TRUE,,FALSE,FALSE,FALSE,FALSE,FALSE,FALSE,FALSE,FALSE,FALSE,FALSE,0,Follow Yaw,0,0,-47.9,312.1,FALSE,FALSE,FALSE,FALSE,FALSE,FALSE,,TRUE,Normal,,100,1024,1024,1398,1024,1,FALSE,FALSE,FALSE,FALSE,FALSE,0,FALSE,FALSE,FALSE,FALSE,33,7.004,676,2056,7.17,FALSE,3.505,3.499,0.01,FALSE,TRUE,NA,121.3,121.1,121.2,0,0,7,0,5,2977.8,744.45,,Idle,0,20,FALSE,5,TRUE,6,Go Home,FALSE,FALSE,FALSE,FALSE,FALSE,FALSE,FALSE,FALSE,FALSE,FALSE,FALSE,FALSE,6.974219831,79.91415786,0.2,94.2,328,TRUE,1,1,FALSE,FALSE,FALSE,FALSE,,TRUE,FALSE,FALSE,Course Lock,49.2,,16.4,Calm,33,,1.12.8,Mavic Mini,1SDCH7G0169R0K,1SFLH6Q0AB03DJ,1SRCH7F014TAHX,1U5X071EXP6C9Y,75.2,0.2,3.2,4.906056,3.802798,0,0,Mavic Mini,1SDCH7G0169R0K,1SFLH6Q0AB03DJ,1SRCH7F014TAHX,1U5X071EXP6C9Y,DJI Fly,,1.12.8,B383E97B-255A-C089-695C-E09D6CCB33F4,1SDCH7G0169R0K,,,,,6.974217729,79.91413957,5,,
2/22/2024,33:02.2,16m 11.6s,971.6,6.974220933,79.91415825,0.9,0.9,1.6,51,1.1,0,0.316351,0,0.223694,0,0.223694,-2.23694,0,0.5,-0.8,-65,295,,P-GPS,Drop Calibration,,13,5,TRUE,,Mavic Mini,TRUE,FALSE,,Smart,RC,FALSE,TRUE,FALSE,,,TRUE,,FALSE,FALSE,FALSE,FALSE,FALSE,FALSE,FALSE,FALSE,FALSE,FALSE,0,Follow Yaw,0,0,-47.9,312.1,FALSE,FALSE,FALSE,FALSE,FALSE,FALSE,,TRUE,Normal,,100,1024,1024,1398,1024,1,FALSE,FALSE,FALSE,FALSE,FALSE,0,FALSE,FALSE,FALSE,FALSE,33,7.004,676,2056,7.17,FALSE,3.505,3.499,0.01,FALSE,TRUE,NA,121.3,121.1,121.2,0,0,7,0,5,2977.8,744.45,,Idle,0,20,FALSE,5,TRUE,6,Go Home,FALSE,FALSE,FALSE,FALSE,FALSE,FALSE,FALSE,FALSE,FALSE,FALSE,FALSE,FALSE,6.974219831,79.91415786,0.4,94.2,328,TRUE,1,1,FALSE,FALSE,FALSE,FALSE,,TRUE,FALSE,FALSE,Course Lock,49.2,,16.4,Calm,33,,1.12.8,Mavic Mini,1SDCH7G0169R0K,1SFLH6Q0AB03DJ,1SRCH7F014TAHX,1U5X071EXP6C9Y,75.2,0.2,3.2,4.906056,3.802798,0,0,Mavic Mini,1SDCH7G0169R0K,1SFLH6Q0AB03DJ,1SRCH7F014TAHX,1U5X071EXP6C9Y,DJI Fly,,1.12.8,B383E97B-255A-C089-695C-E09D6CCB33F4,1SDCH7G0169R0K,,,,,6.974217729,79.91413957,5,Home Point updated. RTH altitude adjusted to 15 m! (Code: 120852).,
2/22/2024,33:02.2,16m 11.7s,971.7,6.974221019,79.91415819,1.3,1.3,1.9,51,1.1,0,0.316351,0,0.223694,0,0.223694,-2.23694,0,0.7,-0.4,-65.1,294.9,,P-GPS,Drop Calibration,,13,5,TRUE,,Mavic Mini,TRUE,FALSE,,Smart,RC,FALSE,TRUE,FALSE,,,TRUE,,FALSE,FALSE,FALSE,FALSE,FALSE,FALSE,FALSE,FALSE,FALSE,FALSE,0,Follow Yaw,0,0,-47.9,312.1,FALSE,FALSE,FALSE,FALSE,FALSE,FALSE,,TRUE,Normal,,100,1024,1024,1379,1024,1,FALSE,FALSE,FALSE,FALSE,FALSE,0,FALSE,FALSE,FALSE,FALSE,33,7.004,676,2056,7.17,FALSE,3.505,3.499,0.01,FALSE,TRUE,NA,121.3,121.1,121.2,0,0,7,0,5,2977.8,744.45,,Idle,0,20,FALSE,5,TRUE,6,Go Home,FALSE,FALSE,FALSE,FALSE,FALSE,FALSE,FALSE,FALSE,FALSE,FALSE,FALSE,FALSE,6.974219831,79.91415786,0.4,94.2,328,TRUE,1,1,FALSE,FALSE,FALSE,FALSE,,TRUE,FALSE,FALSE,Course Lock,49.2,,16.4,Calm,33,,1.12.8,Mavic Mini,1SDCH7G0169R0K,1SFLH6Q0AB03DJ,1SRCH7F014TAHX,1U5X071EXP6C9Y,75.2,0.2,3.2,4.906056,3.802798,0,0,Mavic Mini,1SDCH7G0169R0K,1SFLH6Q0AB03DJ,1SRCH7F014TAHX,1U5X071EXP6C9Y,DJI Fly,,1.12.8,B383E97B-255A-C089-695C-E09D6CCB33F4,1SDCH7G0169R0K,,,,,6.974217729,79.91413957,5,,
2/22/2024,33:02.3,16m 11.8s,971.8,6.974221125,79.91415812,1.6,1.6,2.2,51,1.2,0.223694,0.316351,0.223694,0.223694,0,0.223694,-2.23694,0,1.5,-1,-65.1,294.9,333.8,P-GPS,Drop Calibration,,14,5,TRUE,,Mavic Mini,TRUE,FALSE,,Smart,RC,FALSE,TRUE,FALSE,,,TRUE,,FALSE,FALSE,FALSE,FALSE,FALSE,FALSE,FALSE,FALSE,FALSE,FALSE,0,Follow Yaw,0,0,-47.9,312.1,FALSE,FALSE,FALSE,FALSE,FALSE,FALSE,,TRUE,Normal,,100,1024,1024,1359,1024,1,FALSE,FALSE,FALSE,FALSE,FALSE,0,FALSE,FALSE,FALSE,FALSE,33,7.004,676,2056,7.17,FALSE,3.505,3.499,0.01,FALSE,TRUE,NA,121.3,121.1,121.2,0,0,7,0,5,2977.8,744.45,,Idle,0,20,FALSE,5,TRUE,6,Go Home,FALSE,FALSE,FALSE,FALSE,FALSE,FALSE,FALSE,FALSE,FALSE,FALSE,FALSE,FALSE,6.974219831,79.91415786,0.4,94.2,328,TRUE,1,1,FALSE,FALSE,FALSE,FALSE,,TRUE,FALSE,FALSE,Course Lock,49.2,,16.4,Calm,33,,1.12.8,Mavic Mini,1SDCH7G0169R0K,1SFLH6Q0AB03DJ,1SRCH7F014TAHX,1U5X071EXP6C9Y,75.2,0.2,3.2,4.906056,3.802798,0,0,Mavic Mini,1SDCH7G0169R0K,1SFLH6Q0AB03DJ,1SRCH7F014TAHX,1U5X071EXP6C9Y,DJI Fly,,1.12.8,B383E97B-255A-C089-695C-E09D6CCB33F4,1SDCH7G0169R0K,,,,,6.974217729,79.91413957,5,,
2/22/2024,33:02.4,16m 11.9s,971.9,6.974221214,79.91415803,1.9,1.9,2.6,52,1.2,0,0.316351,0,0.223694,0,0.223694,-2.013246,0,1.7,-1.4,-65,295,,P-GPS,Drop Calibration,,14,5,TRUE,,Mavic Mini,TRUE,FALSE,,Smart,RC,FALSE,TRUE,FALSE,,,TRUE,,FALSE,FALSE,FALSE,FALSE,FALSE,FALSE,FALSE,FALSE,FALSE,FALSE,0,Follow Yaw,0,0,-47.9,312.1,FALSE,FALSE,FALSE,FALSE,FALSE,FALSE,,TRUE,Normal,,100,1024,1024,1231,1024,1,FALSE,FALSE,FALSE,FALSE,FALSE,0,FALSE,FALSE,FALSE,FALSE,33,7.004,676,2056,7.17,FALSE,3.505,3.499,0.01,FALSE,TRUE,NA,121.3,121.1,121.2,0,0,7,0,5,2977.8,744.45,,Idle,0,20,FALSE,5,TRUE,6,Go Home,FALSE,FALSE,FALSE,FALSE,FALSE,FALSE,FALSE,FALSE,FALSE,FALSE,FALSE,FALSE,6.974219831,79.91415786,0.5,94.2,328,TRUE,1,1,FALSE,FALSE,FALSE,FALSE,,TRUE,FALSE,FALSE,Course Lock,49.2,,16.4,Calm,33,,1.12.8,Mavic Mini,1SDCH7G0169R0K,1SFLH6Q0AB03DJ,1SRCH7F014TAHX,1U5X071EXP6C9Y,75.2,0.2,3.2,4.906056,3.802798,0,0,Mavic Mini,1SDCH7G0169R0K,1SFLH6Q0AB03DJ,1SRCH7F014TAHX,1U5X071EXP6C9Y,DJI Fly,,1.12.8,B383E97B-255A-C089-695C-E09D6CCB33F4,1SDCH7G0169R0K,,,,,6.974217729,79.91413957,5,,
2/22/2024,33:02.5,16m 12.0s,972,6.974221308,79.91415795,2.2,2.2,2.9,52,1.3,0.223694,0.316351,0.223694,0.223694,0,0.223694,-2.013246,0,1.8,-1.9,-64.8,295.2,325.5,P-GPS,Drop Calibration,,14,5,TRUE,,Mavic Mini,TRUE,FALSE,,Smart,RC,FALSE,TRUE,FALSE,,,TRUE,,FALSE,FALSE,FALSE,FALSE,FALSE,FALSE,FALSE,FALSE,FALSE,FALSE,0,Follow Yaw,0,0,-47.9,312.1,FALSE,FALSE,FALSE,FALSE,FALSE,FALSE,,TRUE,Normal,,100,1024,1024,1214,1024,1,FALSE,FALSE,FALSE,FALSE,FALSE,0,FALSE,FALSE,FALSE,FALSE,33,7.004,676,2056,7.17,FALSE,3.505,3.499,0.01,FALSE,TRUE,NA,121.3,121.1,121.2,0,0,7,0,5,2977.8,744.45,,Idle,0,20,FALSE,5,TRUE,6,Go Home,FALSE,FALSE,FALSE,FALSE,FALSE,FALSE,FALSE,FALSE,FALSE,FALSE,FALSE,FALSE,6.974219831,79.91415786,0.5,94.2,328,TRUE,1,1,FALSE,FALSE,FALSE,FALSE,,TRUE,FALSE,FALSE,Course Lock,49.2,,16.4,Calm,33,,1.12.8,Mavic Mini,1SDCH7G0169R0K,1SFLH6Q0AB03DJ,1SRCH7F014TAHX,1U5X071EXP6C9Y,75.2,0.2,3.2,4.906056,3.802798,0,0,Mavic Mini,1SDCH7G0169R0K,1SFLH6Q0AB03DJ,1SRCH7F014TAHX,1U5X071EXP6C9Y,DJI Fly,,1.12.8,B383E97B-255A-C089-695C-E09D6CCB33F4,1SDCH7G0169R0K,,,,,6.974217729,79.91413957,5,,
2/22/2024,33:02.6,16m 12.1s,972.1,6.974221544,79.91415758,2.2,2.2,3.2,52,1.4,0,0.316351,0,0.223694,0,0.223694,-1.789552,0,2.2,-1.6,-64.7,295.3,,P-GPS,Drop Calibration,,14,5,TRUE,,Mavic Mini,TRUE,FALSE,,Smart,RC,FALSE,TRUE,FALSE,,,TRUE,,FALSE,FALSE,FALSE,FALSE,FALSE,FALSE,FALSE,FALSE,FALSE,FALSE,0,Follow Yaw,0,0,-47.9,312.1,FALSE,FALSE,FALSE,FALSE,FALSE,FALSE,,TRUE,Normal,,100,1024,1024,1190,1024,1,FALSE,FALSE,FALSE,FALSE,FALSE,0,FALSE,FALSE,FALSE,FALSE,33,7.004,676,2056,7.17,FALSE,3.505,3.499,0.01,FALSE,TRUE,NA,121.3,121.1,121.2,0,0,7,0,5,2977.8,744.45,,Idle,0,20,FALSE,5,TRUE,6,Go Home,FALSE,FALSE,FALSE,FALSE,FALSE,FALSE,FALSE,FALSE,FALSE,FALSE,FALSE,FALSE,6.974219831,79.91415786,0.6,94.2,328,TRUE,1,1,FALSE,FALSE,FALSE,FALSE,,TRUE,FALSE,FALSE,Course Lock,49.2,,16.4,Calm,33,,1.12.8,Mavic Mini,1SDCH7G0169R0K,1SFLH6Q0AB03DJ,1SRCH7F014TAHX,1U5X071EXP6C9Y,75.2,0.2,3.2,4.906056,3.802798,0,0,Mavic Mini,1SDCH7G0169R0K,1SFLH6Q0AB03DJ,1SRCH7F014TAHX,1U5X071EXP6C9Y,DJI Fly,,1.12.8,B383E97B-255A-C089-695C-E09D6CCB33F4,1SDCH7G0169R0K,,,,,6.974217729,79.91413957,5,,
2/22/2024,33:02.7,16m 12.2s,972.2,6.974221704,79.91415752,2.6,2.6,3.6,52,1.5,0,0.316351,0,0.223694,0,0.223694,-1.565858,0,1.9,-1.5,-64.8,295.2,,P-GPS,Drop Calibration,,14,5,TRUE,,Mavic Mini,TRUE,FALSE,,Smart,RC,FALSE,TRUE,FALSE,,,TRUE,,FALSE,FALSE,FALSE,FALSE,FALSE,FALSE,FALSE,FALSE,FALSE,FALSE,0,Follow Yaw,0,0,-47.9,312.1,FALSE,FALSE,FALSE,FALSE,FALSE,FALSE,,TRUE,Normal,,100,1024,1024,1167,1024,1,FALSE,FALSE,FALSE,FALSE,FALSE,0,FALSE,FALSE,FALSE,FALSE,33,7.004,676,2056,7.17,FALSE,3.505,3.499,0.01,FALSE,TRUE,NA,121.3,121.1,121.2,0,0,7,0,5,2977.8,744.45,,Idle,0,20,FALSE,5,TRUE,6,Go Home,FALSE,FALSE,FALSE,FALSE,FALSE,FALSE,FALSE,FALSE,FALSE,FALSE,FALSE,FALSE,6.974219831,79.91415786,0.6,94.2,328,TRUE,1,1,FALSE,FALSE,FALSE,FALSE,,TRUE,FALSE,FALSE,Course Lock,49.2,,16.4,Calm,33,,1.12.8,Mavic Mini,1SDCH7G0169R0K,1SFLH6Q0AB03DJ,1SRCH7F014TAHX,1U5X071EXP6C9Y,75.2,0.2,3.2,4.906056,3.802798,0,0,Mavic Mini,1SDCH7G0169R0K,1SFLH6Q0AB03DJ,1SRCH7F014TAHX,1U5X071EXP6C9Y,DJI Fly,,1.12.8,B383E97B-255A-C089-695C-E09D6CCB33F4,1SDCH7G0169R0K,,,,,6.974217729,79.91413957,5,,
2/22/2024,33:02.8,16m 12.3s,972.3,6.974221823,79.91415767,2.9,2.9,3.6,53,1.6,0,0.316351,0,0.223694,0,0.223694,-1.11847,0,2.2,-1.2,-64.8,295.2,,P-GPS,Drop Calibration,,14,5,TRUE,,Mavic Mini,TRUE,FALSE,,Smart,RC,FALSE,TRUE,FALSE,,,TRUE,,FALSE,FALSE,FALSE,FALSE,FALSE,FALSE,FALSE,FALSE,FALSE,FALSE,0,Follow Yaw,0,0,-47.9,312.1,FALSE,FALSE,FALSE,FALSE,FALSE,FALSE,,TRUE,Normal,,100,1024,1024,1227,1024,1,FALSE,FALSE,FALSE,FALSE,FALSE,0,FALSE,FALSE,FALSE,FALSE,33,7.004,676,2056,7.17,FALSE,3.505,3.499,0.01,FALSE,TRUE,NA,121.3,121.1,121.2,0,0,7,0,5,2977.8,744.45,,Idle,0,20,FALSE,5,TRUE,6,Go Home,FALSE,FALSE,FALSE,FALSE,FALSE,FALSE,FALSE,FALSE,FALSE,FALSE,FALSE,FALSE,6.974219831,79.91415786,0.7,94.2,328,TRUE,1,1,FALSE,FALSE,FALSE,FALSE,,TRUE,FALSE,FALSE,Course Lock,49.2,,16.4,Calm,33,,1.12.8,Mavic Mini,1SDCH7G0169R0K,1SFLH6Q0AB03DJ,1SRCH7F014TAHX,1U5X071EXP6C9Y,75.2,0.2,3.2,4.906056,3.802798,0,0,Mavic Mini,1SDCH7G0169R0K,1SFLH6Q0AB03DJ,1SRCH7F014TAHX,1U5X071EXP6C9Y,DJI Fly,,1.12.8,B383E97B-255A-C089-695C-E09D6CCB33F4,1SDCH7G0169R0K,,,,,6.974217729,79.91413957,5,,
2/22/2024,33:02.9,16m 12.4s,972.4,6.974221944,79.91415784,2.9,2.9,3.9,53,1.6,0,0.316351,0,0.223694,0,0.223694,-0.894776,0,2.2,-1.1,-64.8,295.2,,P-GPS,Drop Calibration,,14,5,TRUE,,Mavic Mini,TRUE,FALSE,,Smart,RC,FALSE,TRUE,FALSE,,,TRUE,,FALSE,FALSE,FALSE,FALSE,FALSE,FALSE,FALSE,FALSE,FALSE,FALSE,0,Follow Yaw,0,0,-47.9,312.1,FALSE,FALSE,FALSE,FALSE,FALSE,FALSE,,TRUE,Normal,,100,1024,1024,1227,1024,1,FALSE,FALSE,FALSE,FALSE,FALSE,0,FALSE,FALSE,FALSE,FALSE,33,7.004,676,2056,7.042,FALSE,3.505,3.499,0.01,FALSE,TRUE,NA,121.3,121.1,121.2,0,0,7,0,5,3474.3,868.59,,Idle,0,20,FALSE,5,TRUE,6,Go Home,FALSE,FALSE,FALSE,FALSE,FALSE,FALSE,FALSE,FALSE,FALSE,FALSE,FALSE,FALSE,6.974219831,79.91415786,0.7,94.2,328,TRUE,1,1,FALSE,FALSE,FALSE,FALSE,,TRUE,FALSE,FALSE,Course Lock,49.2,,16.4,Calm,33,,1.12.8,Mavic Mini,1SDCH7G0169R0K,1SFLH6Q0AB03DJ,1SRCH7F014TAHX,1U5X071EXP6C9Y,75.2,0.2,3.2,4.906056,3.802798,0,0,Mavic Mini,1SDCH7G0169R0K,1SFLH6Q0AB03DJ,1SRCH7F014TAHX,1U5X071EXP6C9Y,DJI Fly,,1.12.8,B383E97B-255A-C089-695C-E09D6CCB33F4,1SDCH7G0169R0K,,,,,6.974217729,79.91413957,5,,
2/22/2024,33:03.0,16m 12.5s,972.5,6.97422187,79.91415817,2.9,2.9,3.9,53,1.8,0,0.316351,0,0.223694,0,0.223694,-0.671082,0,2.1,-0.7,-64.8,295.2,,P-GPS,Drop Calibration,,14,5,TRUE,,Mavic Mini,TRUE,FALSE,,Smart,RC,FALSE,TRUE,FALSE,,,TRUE,,FALSE,FALSE,FALSE,FALSE,FALSE,FALSE,FALSE,FALSE,FALSE,FALSE,0,Follow Yaw,0,0,-47.9,312.1,FALSE,FALSE,FALSE,FALSE,FALSE,FALSE,,TRUE,Normal,,100,1024,1024,1269,1024,1,FALSE,FALSE,FALSE,FALSE,FALSE,0,FALSE,FALSE,FALSE,FALSE,33,7.004,676,2056,7.042,FALSE,3.505,3.499,0.01,FALSE,TRUE,NA,121.3,121.1,121.2,0,0,7,0,5,3474.3,868.59,,Idle,0,20,FALSE,5,TRUE,6,Go Home,FALSE,FALSE,FALSE,FALSE,FALSE,FALSE,FALSE,FALSE,FALSE,FALSE,FALSE,FALSE,6.974219831,79.91415786,0.7,94.2,328,TRUE,1,1,FALSE,FALSE,FALSE,FALSE,,TRUE,FALSE,FALSE,Course Lock,49.2,,16.4,Calm,33,,1.12.8,Mavic Mini,1SDCH7G0169R0K,1SFLH6Q0AB03DJ,1SRCH7F014TAHX,1U5X071EXP6C9Y,75.2,0.2,3.2,4.906056,3.802798,0,0,Mavic Mini,1SDCH7G0169R0K,1SFLH6Q0AB03DJ,1SRCH7F014TAHX,1U5X071EXP6C9Y,DJI Fly,,1.12.8,B383E97B-255A-C089-695C-E09D6CCB33F4,1SDCH7G0169R0K,,,,,6.974217729,79.91413957,5,,
2/22/2024,33:03.1,16m 12.6s,972.6,6.974221909,79.91415821,3.2,3.2,4.2,53,1.8,0,0.316351,0,0.223694,0,0.223694,-0.447388,0,2.1,-1.3,-64.8,295.2,,P-GPS,Drop Calibration,,13,5,TRUE,,Mavic Mini,TRUE,FALSE,,Smart,RC,FALSE,TRUE,FALSE,,,TRUE,,FALSE,FALSE,FALSE,FALSE,FALSE,FALSE,FALSE,FALSE,FALSE,FALSE,0,Follow Yaw,0,0,-47.9,312.1,FALSE,FALSE,FALSE,FALSE,FALSE,FALSE,,TRUE,Normal,,100,1024,1024,1289,1024,1,FALSE,FALSE,FALSE,FALSE,FALSE,0,FALSE,FALSE,FALSE,FALSE,33,7.066,675,2056,7.042,FALSE,3.534,3.532,0.01,FALSE,FALSE,NA,121.3,121.1,121.2,0,0,7,0,5,3474.3,868.59,,Idle,0,20,FALSE,5,TRUE,6,Go Home,FALSE,FALSE,FALSE,FALSE,FALSE,FALSE,FALSE,FALSE,FALSE,FALSE,FALSE,FALSE,6.974219831,79.91415786,0.7,94.2,328,TRUE,1,1,FALSE,FALSE,FALSE,FALSE,,TRUE,FALSE,FALSE,Course Lock,49.2,,16.4,Calm,33,,1.12.8,Mavic Mini,1SDCH7G0169R0K,1SFLH6Q0AB03DJ,1SRCH7F014TAHX,1U5X071EXP6C9Y,75.2,0.2,3.2,4.906056,3.802798,0,0,Mavic Mini,1SDCH7G0169R0K,1SFLH6Q0AB03DJ,1SRCH7F014TAHX,1U5X071EXP6C9Y,DJI Fly,,1.12.8,B383E97B-255A-C089-695C-E09D6CCB33F4,1SDCH7G0169R0K,,,,,6.974217729,79.91413957,5,,
2/22/2024,33:03.2,16m 12.7s,972.7,6.974222072,79.91415823,3.2,3.2,4.2,53,1.8,0,0.316351,0,0.223694,0,0.223694,-0.447388,0,2.4,-1.1,-64.7,295.3,,P-GPS,Drop Calibration,,13,5,TRUE,,Mavic Mini,TRUE,FALSE,,Smart,RC,FALSE,TRUE,FALSE,,,TRUE,,FALSE,FALSE,FALSE,FALSE,FALSE,FALSE,FALSE,FALSE,FALSE,FALSE,0,Follow Yaw,0,0,-47.9,312.1,FALSE,FALSE,FALSE,FALSE,FALSE,FALSE,,TRUE,Normal,,100,1024,1024,1322,1024,1,FALSE,FALSE,FALSE,FALSE,FALSE,0,FALSE,FALSE,FALSE,FALSE,33,7.066,675,2056,7.042,FALSE,3.534,3.532,0.01,FALSE,FALSE,NA,121.3,121.1,121.2,0,0,7,0,5,3474.3,868.59,,Idle,0,20,FALSE,5,TRUE,6,Go Home,FALSE,FALSE,FALSE,FALSE,FALSE,FALSE,FALSE,FALSE,FALSE,FALSE,FALSE,FALSE,6.974219831,79.91415786,0.8,94.2,328,TRUE,1,1,FALSE,FALSE,FALSE,FALSE,,TRUE,FALSE,FALSE,Course Lock,49.2,,16.4,Calm,33,,1.12.8,Mavic Mini,1SDCH7G0169R0K,1SFLH6Q0AB03DJ,1SRCH7F014TAHX,1U5X071EXP6C9Y,75.2,0.2,3.2,4.906056,3.802798,0,0,Mavic Mini,1SDCH7G0169R0K,1SFLH6Q0AB03DJ,1SRCH7F014TAHX,1U5X071EXP6C9Y,DJI Fly,,1.12.8,B383E97B-255A-C089-695C-E09D6CCB33F4,1SDCH7G0169R0K,,,,,6.974217729,79.91413957,5,,
2/22/2024,33:03.3,16m 12.8s,972.8,6.974222246,79.91415825,3.2,3.2,4.2,53,1.9,0,0.316351,0,0.223694,0,0.223694,-0.671082,0,2.3,-1.4,-64.6,295.4,,P-GPS,Drop Calibration,,13,5,TRUE,,Mavic Mini,TRUE,FALSE,,Smart,RC,FALSE,TRUE,FALSE,,,TRUE,,FALSE,FALSE,FALSE,FALSE,FALSE,FALSE,FALSE,FALSE,FALSE,FALSE,0,Follow Yaw,0,0,-47.9,312.1,FALSE,FALSE,FALSE,FALSE,FALSE,FALSE,,TRUE,Normal,,100,1024,1024,1155,1024,1,FALSE,FALSE,FALSE,FALSE,FALSE,0,FALSE,FALSE,FALSE,FALSE,33,7.066,675,2056,7.042,FALSE,3.534,3.532,0.01,FALSE,FALSE,NA,121.3,121.1,121.2,0,0,7,0,5,3474.3,868.59,,Idle,0,20,FALSE,5,TRUE,6,Go Home,FALSE,FALSE,FALSE,FALSE,FALSE,FALSE,FALSE,FALSE,FALSE,FALSE,FALSE,FALSE,6.974219831,79.91415786,0.8,94.2,328,TRUE,1,1,FALSE,FALSE,FALSE,FALSE,,TRUE,FALSE,FALSE,Course Lock,49.2,,16.4,Calm,33,,1.12.8,Mavic Mini,1SDCH7G0169R0K,1SFLH6Q0AB03DJ,1SRCH7F014TAHX,1U5X071EXP6C9Y,75.2,0.2,3.2,4.906056,3.802798,0,0,Mavic Mini,1SDCH7G0169R0K,1SFLH6Q0AB03DJ,1SRCH7F014TAHX,1U5X071EXP6C9Y,DJI Fly,,1.12.8,B383E97B-255A-C089-695C-E09D6CCB33F4,1SDCH7G0169R0K,,,,,6.974217729,79.91413957,5,,
2/22/2024,33:03.3,16m 12.9s,972.9,6.974222517,79.91415828,3.6,3.6,4.5,53,2,0,0.316351,0,0.223694,0,0.223694,-0.894776,0,2.1,-1.6,-64.5,295.5,,P-GPS,Drop Calibration,,13,5,TRUE,,Mavic Mini,TRUE,FALSE,,Smart,RC,FALSE,TRUE,FALSE,,,TRUE,,FALSE,FALSE,FALSE,FALSE,FALSE,FALSE,FALSE,FALSE,FALSE,FALSE,0,Follow Yaw,0,0,-47.9,312.1,FALSE,FALSE,FALSE,FALSE,FALSE,FALSE,,TRUE,Normal,,100,1024,1024,1120,1024,1,FALSE,FALSE,FALSE,FALSE,FALSE,0,FALSE,FALSE,FALSE,FALSE,33,7.066,675,2056,7.042,FALSE,3.534,3.532,0.01,FALSE,FALSE,NA,121.3,121.1,121.2,0,0,7,0,5,3474.3,868.59,,Idle,0,20,FALSE,5,TRUE,6,Go Home,FALSE,FALSE,FALSE,FALSE,FALSE,FALSE,FALSE,FALSE,FALSE,FALSE,FALSE,FALSE,6.974219831,79.91415786,0.9,94.2,328,TRUE,1,1,FALSE,FALSE,FALSE,FALSE,,TRUE,FALSE,FALSE,Course Lock,49.2,,16.4,Calm,33,,1.12.8,Mavic Mini,1SDCH7G0169R0K,1SFLH6Q0AB03DJ,1SRCH7F014TAHX,1U5X071EXP6C9Y,75.2,0.2,3.2,4.906056,3.802798,0,0,Mavic Mini,1SDCH7G0169R0K,1SFLH6Q0AB03DJ,1SRCH7F014TAHX,1U5X071EXP6C9Y,DJI Fly,,1.12.8,B383E97B-255A-C089-695C-E09D6CCB33F4,1SDCH7G0169R0K,,,,,6.974217729,79.91413957,5,,
2/22/2024,33:03.4,16m 13.0s,973,6.974222639,79.91415834,3.6,3.6,4.5,53,2.1,0,0.316351,0,0.223694,0,0.223694,-0.894776,0,1.9,-1.9,-64.5,295.5,,P-GPS,Drop Calibration,,12,5,TRUE,,Mavic Mini,TRUE,FALSE,,Smart,RC,FALSE,TRUE,FALSE,,,TRUE,,FALSE,FALSE,FALSE,FALSE,FALSE,FALSE,FALSE,FALSE,FALSE,FALSE,0,Follow Yaw,0,0,-47.9,312.1,FALSE,FALSE,FALSE,FALSE,FALSE,FALSE,,TRUE,Normal,,100,1024,1024,1051,1024,1,FALSE,FALSE,FALSE,FALSE,FALSE,0,FALSE,FALSE,FALSE,FALSE,33,7.066,675,2056,7.042,FALSE,3.534,3.532,0.01,FALSE,FALSE,NA,121.3,121.1,121.2,0,0,7,0,5,3474.3,868.59,,Idle,0,20,FALSE,5,TRUE,6,Go Home,FALSE,FALSE,FALSE,FALSE,FALSE,FALSE,FALSE,FALSE,FALSE,FALSE,FALSE,FALSE,6.974219831,79.91415786,1,94.2,328,TRUE,1,1,FALSE,FALSE,FALSE,FALSE,,TRUE,FALSE,FALSE,Course Lock,49.2,,16.4,Calm,33,,1.12.8,Mavic Mini,1SDCH7G0169R0K,1SFLH6Q0AB03DJ,1SRCH7F014TAHX,1U5X071EXP6C9Y,75.2,0.2,3.2,4.906056,3.802798,0,0,Mavic Mini,1SDCH7G0169R0K,1SFLH6Q0AB03DJ,1SRCH7F014TAHX,1U5X071EXP6C9Y,DJI Fly,,1.12.8,B383E97B-255A-C089-695C-E09D6CCB33F4,1SDCH7G0169R0K,,,,,6.974217729,79.91413957,5,,
2/22/2024,33:03.6,16m 13.1s,973.1,6.974222725,79.91415839,3.9,3.9,4.9,54,2.1,0,0.316351,0,0.223694,0,0.223694,-0.894776,0,2.2,-1.4,-64.5,295.5,,P-GPS,Drop Calibration,,12,5,TRUE,,Mavic Mini,TRUE,FALSE,,Smart,RC,FALSE,TRUE,FALSE,,,TRUE,,FALSE,FALSE,FALSE,FALSE,FALSE,FALSE,FALSE,FALSE,FALSE,FALSE,0,Follow Yaw,0,0,-47.9,312.1,FALSE,FALSE,FALSE,FALSE,FALSE,FALSE,,TRUE,Normal,,100,1024,1024,1024,1024,1,FALSE,FALSE,FALSE,FALSE,FALSE,0,FALSE,FALSE,FALSE,FALSE,33,7.066,675,2056,7.042,FALSE,3.534,3.532,0.01,FALSE,FALSE,NA,121.3,121.1,121.2,0,0,7,0,5,3474.3,868.59,,Idle,0,20,FALSE,5,TRUE,6,Go Home,FALSE,FALSE,FALSE,FALSE,FALSE,FALSE,FALSE,FALSE,FALSE,FALSE,FALSE,FALSE,6.974219831,79.91415786,1,94.2,328,TRUE,1,1,FALSE,FALSE,FALSE,FALSE,,TRUE,FALSE,FALSE,Course Lock,49.2,,16.4,Calm,33,,1.12.8,Mavic Mini,1SDCH7G0169R0K,1SFLH6Q0AB03DJ,1SRCH7F014TAHX,1U5X071EXP6C9Y,75.2,0.2,3.2,4.906056,3.802798,0,0,Mavic Mini,1SDCH7G0169R0K,1SFLH6Q0AB03DJ,1SRCH7F014TAHX,1U5X071EXP6C9Y,DJI Fly,,1.12.8,B383E97B-255A-C089-695C-E09D6CCB33F4,1SDCH7G0169R0K,,,,,6.974217729,79.91413957,5,,
2/22/2024,33:03.6,16m 13.2s,973.2,6.974222809,79.91415844,3.9,3.9,4.9,54,2.1,0,0.316351,0,0.223694,0,0.223694,-0.671082,0,2.6,-1.5,-64.6,295.4,,P-GPS,Drop Calibration,,13,5,TRUE,,Mavic Mini,TRUE,FALSE,,Smart,RC,FALSE,TRUE,FALSE,,,TRUE,,FALSE,FALSE,FALSE,FALSE,FALSE,FALSE,FALSE,FALSE,FALSE,FALSE,0,Follow Yaw,0,0,-47.9,312.1,FALSE,FALSE,FALSE,FALSE,FALSE,FALSE,,TRUE,Normal,,100,1024,1024,1024,1024,1,FALSE,FALSE,FALSE,FALSE,FALSE,0,FALSE,FALSE,FALSE,FALSE,33,7.066,675,2056,7.042,FALSE,3.534,3.532,0.01,FALSE,FALSE,NA,121.3,121.1,121.2,0,0,7,0,5,3474.3,868.59,,Idle,0,20,FALSE,5,TRUE,6,Go Home,FALSE,FALSE,FALSE,FALSE,FALSE,FALSE,FALSE,FALSE,FALSE,FALSE,FALSE,FALSE,6.974219831,79.91415786,1.1,94.2,328,TRUE,1,1,FALSE,FALSE,FALSE,FALSE,,TRUE,FALSE,FALSE,Course Lock,49.2,,16.4,Calm,33,,1.12.8,Mavic Mini,1SDCH7G0169R0K,1SFLH6Q0AB03DJ,1SRCH7F014TAHX,1U5X071EXP6C9Y,75.2,0.2,3.2,4.906056,3.802798,0,0,Mavic Mini,1SDCH7G0169R0K,1SFLH6Q0AB03DJ,1SRCH7F014TAHX,1U5X071EXP6C9Y,DJI Fly,,1.12.8,B383E97B-255A-C089-695C-E09D6CCB33F4,1SDCH7G0169R0K,,,,,6.974217729,79.91413957,5,,
2/22/2024,33:03.8,16m 13.3s,973.3,6.974222942,79.91415851,3.9,3.9,4.9,54,2.2,0,0.316351,0,0.223694,0,0.223694,-0.223694,0,2.5,-2,-64.6,295.4,,P-GPS,Drop Calibration,,13,5,TRUE,,Mavic Mini,TRUE,FALSE,,Smart,RC,FALSE,TRUE,FALSE,,,TRUE,,FALSE,FALSE,FALSE,FALSE,FALSE,FALSE,FALSE,FALSE,FALSE,FALSE,0,Follow Yaw,0,0,-47.9,312.1,FALSE,FALSE,FALSE,FALSE,FALSE,FALSE,,TRUE,Normal,,100,1024,1024,1024,1024,1,FALSE,FALSE,FALSE,FALSE,FALSE,0,FALSE,FALSE,FALSE,FALSE,33,7.066,675,2056,7.042,FALSE,3.534,3.532,0.01,FALSE,FALSE,NA,121.3,121.1,121.2,0,0,7,0,5,3474.3,868.59,,Idle,0,20,FALSE,5,TRUE,6,Go Home,FALSE,FALSE,FALSE,FALSE,FALSE,FALSE,FALSE,FALSE,FALSE,FALSE,FALSE,FALSE,6.974219831,79.91415786,1.1,94.2,328,TRUE,1,1,FALSE,FALSE,FALSE,FALSE,,TRUE,FALSE,FALSE,Course Lock,49.2,,16.4,Calm,33,,1.12.8,Mavic Mini,1SDCH7G0169R0K,1SFLH6Q0AB03DJ,1SRCH7F014TAHX,1U5X071EXP6C9Y,75.2,0.2,3.2,4.906056,3.802798,0,0,Mavic Mini,1SDCH7G0169R0K,1SFLH6Q0AB03DJ,1SRCH7F014TAHX,1U5X071EXP6C9Y,DJI Fly,,1.12.8,B383E97B-255A-C089-695C-E09D6CCB33F4,1SDCH7G0169R0K,,,,,6.974217729,79.91413957,5,,
2/22/2024,33:03.9,16m 13.4s,973.4,6.974223043,79.91415855,3.9,3.9,5.2,54,2.2,0,0.316351,0,0.223694,0,0.223694,-0.223694,0,2.3,-2.5,-64.6,295.4,,P-GPS,Drop Calibration,,13,5,TRUE,,Mavic Mini,TRUE,FALSE,,Smart,RC,FALSE,TRUE,FALSE,,,TRUE,,FALSE,FALSE,FALSE,FALSE,FALSE,FALSE,FALSE,FALSE,FALSE,FALSE,0,Follow Yaw,0,0,-47.9,312.1,FALSE,FALSE,FALSE,FALSE,FALSE,FALSE,,TRUE,Normal,,100,1024,1024,1024,1024,1,FALSE,FALSE,FALSE,FALSE,FALSE,0,FALSE,FALSE,FALSE,FALSE,33,7.066,675,2056,7.072,FALSE,3.534,3.532,0.01,FALSE,FALSE,NA,121.3,121.1,121.2,0,0,7,0,5,4769,1192.25,,Idle,0,20,FALSE,5,TRUE,6,Go Home,FALSE,FALSE,FALSE,FALSE,FALSE,FALSE,FALSE,FALSE,FALSE,FALSE,FALSE,FALSE,6.974219831,79.91415786,1.1,94.2,328,TRUE,1,1,FALSE,FALSE,FALSE,FALSE,,TRUE,FALSE,FALSE,Course Lock,49.2,,16.4,Calm,33,,1.12.8,Mavic Mini,1SDCH7G0169R0K,1SFLH6Q0AB03DJ,1SRCH7F014TAHX,1U5X071EXP6C9Y,75.2,0.2,3.2,4.906056,3.802798,0,0,Mavic Mini,1SDCH7G0169R0K,1SFLH6Q0AB03DJ,1SRCH7F014TAHX,1U5X071EXP6C9Y,DJI Fly,,1.12.8,B383E97B-255A-C089-695C-E09D6CCB33F4,1SDCH7G0169R0K,,,,,6.974217729,79.91413957,5,,
