CUSTOM.date [local],CUSTOM.updateTime [local],OSD.flyTime,OSD.flyTime [s],OSD.latitude,OSD.longitude,OSD.height [ft],OSD.heightMax [ft],OSD.vpsHeight [ft],OSD.altitude [ft],OSD.mileage [ft],OSD.hSpeed [MPH],OSD.hSpeedMax [MPH],OSD.xSpeed [MPH],OSD.xSpeedMax [MPH],OSD.ySpeed [MPH],OSD.ySpeedMax [MPH],OSD.zSpeed [MPH],OSD.zSpeedMax [MPH],OSD.pitch,OSD.roll,OSD.yaw,OSD.yaw [360],OSD.directionOfTravel,OSD.flycState,OSD.flycCommand,OSD.flightAction,OSD.gpsNum,OSD.gpsLevel,OSD.isGPSUsed,OSD.nonGPSCause,OSD.droneType,OSD.isSwaveWork,OSD.waveError,OSD.goHomeStatus,OSD.batteryType,OSD.ctrlDevice,OSD.isOnGround,OSD.isMotorOn,OSD.isMotorBlocked,OSD.motorStartFailedCause,OSD.motorFailReason,OSD.isImuPreheated,OSD.imuInitFailReason,OSD.isAcceletorOverRange,OSD.isBarometerDeadInAir,OSD.isCompassError,OSD.isGoHomeHeightModified,OSD.canIOCWork,OSD.isNotEnoughForce,OSD.isOutOfLimit,OSD.isPropellerCatapult,OSD.isVibrating,OSD.isVisionUsed,OSD.voltageWarning,GIMBAL.mode,GIMBAL.pitch,GIMBAL.roll,GIMBAL.yaw,GIMBAL.yaw [360],GIMBAL.isPitchAtLimit,GIMBAL.isRollAtLimit,GIMBAL.isYawAtLimit,GIMBAL.isStuck,CAMERA.isPhoto,CAMERA.isVideo,CAMERA.filename,CAMERA.sdCardIsInserted,CAMERA.sdCardState,RC.downlinkSignal,RC.uplinkSignal,RC.aileron,RC.elevator,RC.throttle,RC.rudder,RC.mode,RC.goHomeDepressed,RC.recordDepressed,RC.shutterDepressed,RC.playbackDepressed,RC.wheelDepressed,RC.wheelOffset,RC.custom1Depressed,RC.custom2Depressed,RC.custom3Depressed,RC.custom4Depressed,BATTERY.chargeLevel,BATTERY.currentPV [V],BATTERY.currentCapacity [mAh],BATTERY.fullCapacity [mAh],BATTERY.voltage [V],BATTERY.isCellVoltageEstimated,BATTERY.cellVoltage1 [V],BATTERY.cellVoltage2 [V],BATTERY.maxCellVoltageDeviation,BATTERY.isCellVoltageDeviationHigh,BATTERY.isVoltageLow,BATTERY.current [A],BATTERY.temperature [F],BATTERY.minTemperature [F],BATTERY.maxTemperature [F],BATTERY.usefulTime [s],BATTERY.goHomeTime [s],BATTERY.landTime [s],BATTERY.goHomeBattery,BATTERY.landBattery,BATTERY.safeFlyRadius,BATTERY.volumeConsume,BATTERY.status,BATTERY.goHomeStatus,BATTERY.goHomeCountdown,BATTERY.lowWarning,BATTERY.lowWarningGoHome,BATTERY.seriousLowWarning,BATTERY.seriousLowWarningLanding,BATTERY.timesCharged,MC.failSafeAction,MC.isObstacleAvoidanceEnabled,MC.isCollisionAvoidanceEnabled,MC.isRthObstacleAvoidanceEnabled,MC.isBraking,MC.isAvoidingObstacle,MC.isAvoidingActiveObstacle,MC.isAscentLimitedByObstacle,MC.isLandingConfirmationNeeded,MC.atLowAltitudeLimit,MC.atDistanceLimit,MC.atAirportAltitudeLimit,MC.atAirportBoundary,HOME.latitude,HOME.longitude,HOME.distance [ft],HOME.height [ft],HOME.heightLimit [ft],HOME.isHomeRecord,HOME.goHomeMode,HOME.aircraftHeadDirection,HOME.isDynamicHomePointEnabled,HOME.isReachedLimitDistance,HOME.isReachedLimitHeight,HOME.isCompassCalibrating,HOME.compassCalibrationState,HOME.isMultipleFlightModeEnabled,HOME.isBeginnerMode,HOME.isIOCEnabled,HOME.iocMode,HOME.goHomeHeight [ft],HOME.courseLockAngle,HOME.forceLandingHeight [ft],HOME.wind,HOME.dataRecorderFileIndex,RECOVER.appType,RECOVER.appVersion,RECOVER.aircraftName,RECOVER.aircraftSerial,RECOVER.cameraSerial,RECOVER.rcSerial,RECOVER.batterySerial,DETAILS.totalTime [s],DETAILS.totalDistance [ft],DETAILS.maxHeight [ft],DETAILS.maxHorizontalSpeed [MPH],DETAILS.maxVerticalSpeed [MPH],DETAILS.photoNum,DETAILS.videoTime [s],DETAILS.aircraftName,DETAILS.aircraftSerial,DETAILS.cameraSerial,DETAILS.rcSerial,DETAILS.batterySerial,DETAILS.appName,DETAILS.appType,DETAILS.appVersion,DETAILS.guid,SERIAL.flightController,SERIAL.camera,SERIAL.gimbal,SERIAL.rc,SERIAL.battery,APPGPS.latitude,APPGPS.longitude,APPGPS.accuracy,APP.tip,APP.warning
2/21/2024,35:10.9,6m 30.1s,390.1,6.974138992,79.91426944,0,0,0.3,52,0,0,0,0,0,0,0,0,0,3.6,-0.7,25.5,25.5,,Starting Motors,Other,Takeoff (RC Assisted),14,5,TRUE,,Mavic Mini,FALSE,FALSE,,Smart,RC,TRUE,TRUE,FALSE,,,TRUE,,FALSE,FALSE,FALSE,FALSE,FALSE,FALSE,FALSE,FALSE,FALSE,FALSE,0,Follow Yaw,0,0,37.2,37.2,FALSE,FALSE,FALSE,FALSE,FALSE,FALSE,,TRUE,Normal,,,364,364,364,1684,2,FALSE,FALSE,FALSE,FALSE,FALSE,0,FALSE,FALSE,FALSE,FALSE,49,7.386,1001,2051,7.386,TRUE,3.693,3.693,,FALSE,FALSE,NA,105.3,105.2,105.2,,,,,,,,,Idle,,,TRUE,,FALSE,10,Go Home,FALSE,FALSE,FALSE,FALSE,FALSE,FALSE,FALSE,FALSE,FALSE,FALSE,FALSE,FALSE,,,,,,FALSE,,,FALSE,FALSE,FALSE,FALSE,,FALSE,FALSE,FALSE,,,,,Calm,,,1.12.8,Mavic Mini,1SDCH7G0169R0K,1SFLH6Q0AB03DJ,1SRCH7F014TAHX,1U5X071EXP5ZJG,51.4,0.2,26.2,9.017328,3.35541,0,1102,Mavic Mini,1SDCH7G0169R0K,1SFLH6Q0AB03DJ,1SRCH7F014TAHX,1U5X071EXP5ZJG,DJI Fly,,1.12.8,1564C7E8-7146-E532-52D3-B4DE062C585D,1SDCH7G0169R0K,,,,,,,,Flight mode changed to Starting Motors.,
2/21/2024,28:41.0,6m 30.2s,390.2,6.974139022,79.91426946,0,0,0.3,52,0,0,0,0,0,0,0,0,0,3.6,-0.7,25.5,25.5,,Starting Motors,Other,Takeoff (RC Assisted),14,5,TRUE,,Mavic Mini,FALSE,FALSE,,Smart,RC,TRUE,TRUE,FALSE,,,TRUE,,FALSE,FALSE,FALSE,FALSE,FALSE,FALSE,FALSE,FALSE,FALSE,FALSE,0,Follow Yaw,0,0,37.2,37.2,FALSE,FALSE,FALSE,FALSE,FALSE,FALSE,,TRUE,Normal,,,364,364,364,1684,2,FALSE,FALSE,FALSE,FALSE,FALSE,0,FALSE,FALSE,FALSE,FALSE,49,7.386,1001,2051,7.384,TRUE,3.692,3.692,,FALSE,FALSE,NA,105.3,105.2,105.2,0,0,0,0,5,2095.2,523.8,,Idle,0,20,FALSE,5,TRUE,10,Go Home,FALSE,FALSE,FALSE,FALSE,FALSE,FALSE,FALSE,FALSE,FALSE,FALSE,FALSE,FALSE,6.974144311,79.91427369,2.4,142.1,328,TRUE,1,1,FALSE,FALSE,FALSE,FALSE,,TRUE,FALSE,FALSE,Course Lock,65.6,,16.4,Calm,29,,1.12.8,Mavic Mini,1SDCH7G0169R0K,1SFLH6Q0AB03DJ,1SRCH7F014TAHX,1U5X071EXP5ZJG,51.4,0.2,26.2,9.017328,3.35541,0,1102,Mavic Mini,1SDCH7G0169R0K,1SFLH6Q0AB03DJ,1SRCH7F014TAHX,1U5X071EXP5ZJG,DJI Fly,,1.12.8,1564C7E8-7146-E532-52D3-B4DE062C585D,1SDCH7G0169R0K,,,,,,,,Data Recorder File Index is 29.; Set Return to Home (RTH) altitude to 20 m (66 ft).; Set maximum flight altitude to 100 m (328 ft).,
2/21/2024,28:41.1,6m 30.3s,390.3,6.974138982,79.91426946,0,0,0.3,52,0,0,0,0,0,0,0,0,0,3.6,-0.6,25.5,25.5,,Starting Motors,Other,Takeoff (RC Assisted),14,5,TRUE,,Mavic Mini,TRUE,FALSE,,Smart,RC,TRUE,TRUE,FALSE,,,TRUE,,FALSE,FALSE,FALSE,FALSE,FALSE,FALSE,FALSE,FALSE,FALSE,FALSE,0,Follow Yaw,0,0,37.2,37.2,FALSE,FALSE,FALSE,FALSE,FALSE,FALSE,,TRUE,Normal,,,364,364,364,1684,2,FALSE,FALSE,FALSE,FALSE,FALSE,0,FALSE,FALSE,FALSE,FALSE,49,7.386,1001,2051,7.384,TRUE,3.692,3.692,,FALSE,FALSE,NA,105.3,105.2,105.2,0,0,0,0,5,2095.2,523.8,,Idle,0,20,FALSE,5,TRUE,10,Go Home,FALSE,FALSE,FALSE,FALSE,FALSE,FALSE,FALSE,FALSE,FALSE,FALSE,FALSE,FALSE,6.974144311,79.91427369,2.4,142.1,328,TRUE,1,1,FALSE,FALSE,FALSE,FALSE,,TRUE,FALSE,FALSE,Course Lock,65.6,,16.4,Calm,29,,1.12.8,Mavic Mini,1SDCH7G0169R0K,1SFLH6Q0AB03DJ,1SRCH7F014TAHX,1U5X071EXP5ZJG,51.4,0.2,26.2,9.017328,3.35541,0,1102,Mavic Mini,1SDCH7G0169R0K,1SFLH6Q0AB03DJ,1SRCH7F014TAHX,1U5X071EXP5ZJG,DJI Fly,,1.12.8,1564C7E8-7146-E532-52D3-B4DE062C585D,1SDCH7G0169R0K,,,,,,,,,
2/21/2024,28:41.2,6m 30.4s,390.4,6.974139016,79.91426944,0,0,0.3,52,0,0,0,0,0,0,0,0,0,3.6,-0.6,25.5,25.5,,Starting Motors,Other,Takeoff (RC Assisted),14,5,TRUE,,Mavic Mini,TRUE,FALSE,,Smart,RC,TRUE,TRUE,FALSE,,,TRUE,,FALSE,FALSE,FALSE,FALSE,FALSE,FALSE,FALSE,FALSE,FALSE,FALSE,0,Follow Yaw,0,0,37.2,37.2,FALSE,FALSE,FALSE,FALSE,FALSE,FALSE,,TRUE,Normal,,,508,571,364,1681,2,FALSE,FALSE,FALSE,FALSE,FALSE,0,FALSE,FALSE,FALSE,FALSE,49,7.382,1001,2051,7.384,FALSE,3.692,3.69,0.002,FALSE,FALSE,NA,105.3,105.2,105.2,0,0,0,0,5,2095.2,523.8,,Idle,0,20,FALSE,5,TRUE,10,Go Home,FALSE,FALSE,FALSE,FALSE,FALSE,FALSE,FALSE,FALSE,FALSE,FALSE,FALSE,FALSE,6.974144311,79.91427369,2.4,142.1,328,TRUE,1,1,FALSE,FALSE,FALSE,FALSE,,TRUE,FALSE,FALSE,Course Lock,65.6,,16.4,Calm,29,,1.12.8,Mavic Mini,1SDCH7G0169R0K,1SFLH6Q0AB03DJ,1SRCH7F014TAHX,1U5X071EXP5ZJG,51.4,0.2,26.2,9.017328,3.35541,0,1102,Mavic Mini,1SDCH7G0169R0K,1SFLH6Q0AB03DJ,1SRCH7F014TAHX,1U5X071EXP5ZJG,DJI Fly,,1.12.8,1564C7E8-7146-E532-52D3-B4DE062C585D,1SDCH7G0169R0K,,,,,,,,,
2/21/2024,28:41.3,6m 30.5s,390.5,6.974139009,79.91426944,0,0,0.3,52,0,0,0,0,0,0,0,0,0,3.6,-0.6,25.5,25.5,,Starting Motors,Other,Takeoff (RC Assisted),14,5,TRUE,,Mavic Mini,TRUE,FALSE,,Smart,RC,TRUE,TRUE,FALSE,,,TRUE,,FALSE,FALSE,FALSE,FALSE,FALSE,FALSE,FALSE,FALSE,FALSE,FALSE,0,Follow Yaw,0,0,37.2,37.2,FALSE,FALSE,FALSE,FALSE,FALSE,FALSE,,TRUE,Normal,,100,1024,1024,1024,1024,2,FALSE,FALSE,FALSE,FALSE,FALSE,0,FALSE,FALSE,FALSE,FALSE,49,7.382,1001,2051,7.384,FALSE,3.692,3.69,0.002,FALSE,FALSE,NA,105.3,105.2,105.2,0,0,0,0,5,2095.2,523.8,,Idle,0,20,FALSE,5,TRUE,10,Go Home,FALSE,FALSE,FALSE,FALSE,FALSE,FALSE,FALSE,FALSE,FALSE,FALSE,FALSE,FALSE,6.974144311,79.91427369,2.4,142.1,328,TRUE,1,1,FALSE,FALSE,FALSE,FALSE,,TRUE,FALSE,FALSE,Course Lock,65.6,,16.4,Calm,29,,1.12.8,Mavic Mini,1SDCH7G0169R0K,1SFLH6Q0AB03DJ,1SRCH7F014TAHX,1U5X071EXP5ZJG,51.4,0.2,26.2,9.017328,3.35541,0,1102,Mavic Mini,1SDCH7G0169R0K,1SFLH6Q0AB03DJ,1SRCH7F014TAHX,1U5X071EXP5ZJG,DJI Fly,,1.12.8,1564C7E8-7146-E532-52D3-B4DE062C585D,1SDCH7G0169R0K,,,,,,,,,
2/21/2024,28:41.4,6m 30.6s,390.6,6.974138992,79.91426943,0,0,0.3,52,0,0,0,0,0,0,0,0,0,3.6,-0.7,25.5,25.5,,Starting Motors,Other,Takeoff (RC Assisted),14,5,TRUE,,Mavic Mini,TRUE,FALSE,,Smart,RC,TRUE,TRUE,FALSE,,,TRUE,,FALSE,FALSE,FALSE,FALSE,FALSE,FALSE,FALSE,FALSE,FALSE,FALSE,0,Follow Yaw,0,0,37.2,37.2,FALSE,FALSE,FALSE,FALSE,FALSE,FALSE,,TRUE,Normal,,100,1024,1024,1024,1024,2,FALSE,FALSE,FALSE,FALSE,FALSE,0,FALSE,FALSE,FALSE,FALSE,49,7.382,1001,2051,7.384,FALSE,3.692,3.69,0.002,FALSE,FALSE,NA,105.3,105.2,105.2,0,0,0,0,5,2095.2,523.8,,Idle,0,20,FALSE,5,TRUE,10,Go Home,FALSE,FALSE,FALSE,FALSE,FALSE,FALSE,FALSE,FALSE,FALSE,FALSE,FALSE,FALSE,6.974144311,79.91427369,2.4,142.1,328,TRUE,1,1,FALSE,FALSE,FALSE,FALSE,,TRUE,FALSE,FALSE,Course Lock,65.6,,16.4,Calm,29,,1.12.8,Mavic Mini,1SDCH7G0169R0K,1SFLH6Q0AB03DJ,1SRCH7F014TAHX,1U5X071EXP5ZJG,51.4,0.2,26.2,9.017328,3.35541,0,1102,Mavic Mini,1SDCH7G0169R0K,1SFLH6Q0AB03DJ,1SRCH7F014TAHX,1U5X071EXP5ZJG,DJI Fly,,1.12.8,1564C7E8-7146-E532-52D3-B4DE062C585D,1SDCH7G0169R0K,,,,,,,,,
2/21/2024,28:41.5,6m 30.7s,390.7,6.974138945,79.91426943,0,0,0.3,52,0,0,0,0,0,0,0,0,0,3.6,-0.8,25.5,25.5,,Starting Motors,Other,Takeoff (RC Assisted),14,5,TRUE,,Mavic Mini,TRUE,FALSE,,Smart,RC,TRUE,TRUE,FALSE,,,TRUE,,FALSE,FALSE,FALSE,FALSE,FALSE,FALSE,FALSE,FALSE,FALSE,FALSE,0,Follow Yaw,0,0,37.2,37.2,FALSE,FALSE,FALSE,FALSE,FALSE,FALSE,,TRUE,Normal,,100,1024,1024,1024,1024,2,FALSE,FALSE,FALSE,FALSE,FALSE,0,FALSE,FALSE,FALSE,FALSE,49,7.382,1001,2051,7.384,FALSE,3.692,3.69,0.002,FALSE,FALSE,NA,105.3,105.2,105.2,0,0,0,0,5,2095.2,523.8,,Idle,0,20,FALSE,5,TRUE,10,Go Home,FALSE,FALSE,FALSE,FALSE,FALSE,FALSE,FALSE,FALSE,FALSE,FALSE,FALSE,FALSE,6.974144311,79.91427369,2.4,142.1,328,TRUE,1,1,FALSE,FALSE,FALSE,FALSE,,TRUE,FALSE,FALSE,Course Lock,65.6,,16.4,Calm,29,,1.12.8,Mavic Mini,1SDCH7G0169R0K,1SFLH6Q0AB03DJ,1SRCH7F014TAHX,1U5X071EXP5ZJG,51.4,0.2,26.2,9.017328,3.35541,0,1102,Mavic Mini,1SDCH7G0169R0K,1SFLH6Q0AB03DJ,1SRCH7F014TAHX,1U5X071EXP5ZJG,DJI Fly,,1.12.8,1564C7E8-7146-E532-52D3-B4DE062C585D,1SDCH7G0169R0K,,,,,,,,,
2/21/2024,28:41.6,6m 30.8s,390.8,6.974138893,79.91426943,0,0,0.3,52,0,0,0,0,0,0,0,0,0,3.6,-0.7,25.5,25.5,,Starting Motors,Other,Takeoff (RC Assisted),14,5,TRUE,,Mavic Mini,TRUE,FALSE,,Smart,RC,TRUE,TRUE,FALSE,,,TRUE,,FALSE,FALSE,FALSE,FALSE,FALSE,FALSE,FALSE,FALSE,FALSE,FALSE,0,Follow Yaw,0,0,37.2,37.2,FALSE,FALSE,FALSE,FALSE,FALSE,FALSE,,TRUE,Normal,,100,1024,1024,1024,1024,2,FALSE,FALSE,FALSE,FALSE,FALSE,0,FALSE,FALSE,FALSE,FALSE,49,7.382,1001,2051,7.384,FALSE,3.692,3.69,0.002,FALSE,FALSE,NA,105.3,105.2,105.2,0,0,0,0,5,2095.2,523.8,,Idle,0,20,FALSE,5,TRUE,10,Go Home,FALSE,FALSE,FALSE,FALSE,FALSE,FALSE,FALSE,FALSE,FALSE,FALSE,FALSE,FALSE,6.974144311,79.91427369,2.5,142.1,328,TRUE,1,1,FALSE,FALSE,FALSE,FALSE,,TRUE,FALSE,FALSE,Course Lock,65.6,,16.4,Calm,29,,1.12.8,Mavic Mini,1SDCH7G0169R0K,1SFLH6Q0AB03DJ,1SRCH7F014TAHX,1U5X071EXP5ZJG,51.4,0.2,26.2,9.017328,3.35541,0,1102,Mavic Mini,1SDCH7G0169R0K,1SFLH6Q0AB03DJ,1SRCH7F014TAHX,1U5X071EXP5ZJG,DJI Fly,,1.12.8,1564C7E8-7146-E532-52D3-B4DE062C585D,1SDCH7G0169R0K,,,,,,,,,
2/21/2024,28:41.6,6m 30.9s,390.9,6.974138788,79.91426941,0,0,0.3,52,0.1,0,0,0,0,0,0,0,0,3.7,-0.8,25.5,25.5,,Starting Motors,Other,Takeoff (RC Assisted),14,5,TRUE,,Mavic Mini,TRUE,FALSE,,Smart,RC,TRUE,TRUE,FALSE,,,TRUE,,FALSE,FALSE,FALSE,FALSE,FALSE,FALSE,FALSE,FALSE,FALSE,FALSE,0,Follow Yaw,0,0,37.2,37.2,FALSE,FALSE,FALSE,FALSE,FALSE,FALSE,,TRUE,Normal,,100,1024,1024,1024,1024,2,FALSE,FALSE,FALSE,FALSE,FALSE,0,FALSE,FALSE,FALSE,FALSE,49,7.382,1001,2051,7.384,FALSE,3.692,3.69,0.002,FALSE,FALSE,NA,105.3,105.2,105.2,0,0,0,0,5,2095.2,523.8,,Idle,0,20,FALSE,5,TRUE,10,Go Home,FALSE,FALSE,FALSE,FALSE,FALSE,FALSE,FALSE,FALSE,FALSE,FALSE,FALSE,FALSE,6.974144311,79.91427369,2.5,142.1,328,TRUE,1,1,FALSE,FALSE,FALSE,FALSE,,TRUE,FALSE,FALSE,Course Lock,65.6,,16.4,Calm,29,,1.12.8,Mavic Mini,1SDCH7G0169R0K,1SFLH6Q0AB03DJ,1SRCH7F014TAHX,1U5X071EXP5ZJG,51.4,0.2,26.2,9.017328,3.35541,0,1102,Mavic Mini,1SDCH7G0169R0K,1SFLH6Q0AB03DJ,1SRCH7F014TAHX,1U5X071EXP5ZJG,DJI Fly,,1.12.8,1564C7E8-7146-E532-52D3-B4DE062C585D,1SDCH7G0169R0K,,,,,,,,,
2/21/2024,28:41.8,6m 31.0s,391,6.974138724,79.9142694,0,0,0.3,52,0.1,0,0,0,0,0,0,0,0,3.7,-0.8,25.4,25.4,,Starting Motors,Other,Takeoff (RC Assisted),14,5,TRUE,,Mavic Mini,TRUE,FALSE,,Smart,RC,TRUE,TRUE,FALSE,,,TRUE,,FALSE,FALSE,FALSE,FALSE,FALSE,FALSE,FALSE,FALSE,FALSE,FALSE,0,Follow Yaw,0,0,37.2,37.2,FALSE,FALSE,FALSE,FALSE,FALSE,FALSE,,TRUE,Normal,,100,1024,1024,1024,1024,2,FALSE,FALSE,FALSE,FALSE,FALSE,0,FALSE,FALSE,FALSE,FALSE,49,7.382,1001,2051,7.384,FALSE,3.692,3.69,0.002,FALSE,FALSE,NA,105.3,105.2,105.2,0,0,0,0,5,2095.2,523.8,,Idle,0,20,FALSE,5,TRUE,10,Go Home,FALSE,FALSE,FALSE,FALSE,FALSE,FALSE,FALSE,FALSE,FALSE,FALSE,FALSE,FALSE,6.974144311,79.91427369,2.5,142.1,328,TRUE,1,1,FALSE,FALSE,FALSE,FALSE,,TRUE,FALSE,FALSE,Course Lock,65.6,,16.4,Calm,29,,1.12.8,Mavic Mini,1SDCH7G0169R0K,1SFLH6Q0AB03DJ,1SRCH7F014TAHX,1U5X071EXP5ZJG,51.4,0.2,26.2,9.017328,3.35541,0,1102,Mavic Mini,1SDCH7G0169R0K,1SFLH6Q0AB03DJ,1SRCH7F014TAHX,1U5X071EXP5ZJG,DJI Fly,,1.12.8,1564C7E8-7146-E532-52D3-B4DE062C585D,1SDCH7G0169R0K,,,,,,,,,
2/21/2024,28:41.9,6m 31.1s,391.1,6.974138657,79.9142694,0,0,0.3,52,0.1,0,0,0,0,0,0,0,0,3.6,-0.7,25.4,25.4,,Starting Motors,Other,Takeoff (RC Assisted),14,5,TRUE,,Mavic Mini,TRUE,FALSE,,Smart,RC,TRUE,TRUE,FALSE,,,TRUE,,FALSE,FALSE,FALSE,FALSE,FALSE,FALSE,FALSE,FALSE,FALSE,FALSE,0,Follow Yaw,0,0,37.2,37.2,FALSE,FALSE,FALSE,FALSE,FALSE,FALSE,,TRUE,Normal,,100,1024,1024,1024,1024,2,FALSE,FALSE,FALSE,FALSE,FALSE,0,FALSE,FALSE,FALSE,FALSE,49,7.382,1001,2051,7.384,FALSE,3.692,3.69,0.002,FALSE,FALSE,NA,105.3,105.2,105.2,0,0,0,0,5,2095.2,523.8,,Idle,0,20,FALSE,5,TRUE,10,Go Home,FALSE,FALSE,FALSE,FALSE,FALSE,FALSE,FALSE,FALSE,FALSE,FALSE,FALSE,FALSE,6.974144311,79.91427369,2.5,142.1,328,TRUE,1,1,FALSE,FALSE,FALSE,FALSE,,TRUE,FALSE,FALSE,Course Lock,65.6,,16.4,Calm,29,,1.12.8,Mavic Mini,1SDCH7G0169R0K,1SFLH6Q0AB03DJ,1SRCH7F014TAHX,1U5X071EXP5ZJG,51.4,0.2,26.2,9.017328,3.35541,0,1102,Mavic Mini,1SDCH7G0169R0K,1SFLH6Q0AB03DJ,1SRCH7F014TAHX,1U5X071EXP5ZJG,DJI Fly,,1.12.8,1564C7E8-7146-E532-52D3-B4DE062C585D,1SDCH7G0169R0K,,,,,,,,,
2/21/2024,28:41.9,6m 31.2s,391.2,6.974138605,79.9142694,0,0,0.3,52,0.1,0,0,0,0,0,0,0,0,3.6,-0.7,25.5,25.5,,Manual Takeoff,Other,Takeoff (RC Assisted),14,5,TRUE,,Mavic Mini,TRUE,FALSE,,Smart,RC,TRUE,TRUE,FALSE,,,TRUE,,FALSE,FALSE,FALSE,FALSE,FALSE,FALSE,FALSE,FALSE,FALSE,FALSE,0,Follow Yaw,0,0,37.2,37.2,FALSE,FALSE,FALSE,FALSE,FALSE,FALSE,,TRUE,Normal,,100,1024,1024,1024,1024,2,FALSE,FALSE,FALSE,FALSE,FALSE,0,FALSE,FALSE,FALSE,FALSE,49,7.382,1001,2051,7.388,FALSE,3.692,3.69,0.002,FALSE,FALSE,NA,105.3,105.2,105.2,0,0,0,0,5,1964.2,491.06,,Idle,0,20,FALSE,5,TRUE,10,Go Home,FALSE,FALSE,FALSE,FALSE,FALSE,FALSE,FALSE,FALSE,FALSE,FALSE,FALSE,FALSE,6.974144311,79.91427369,2.5,142.1,328,TRUE,1,1,FALSE,FALSE,FALSE,FALSE,,TRUE,FALSE,FALSE,Course Lock,65.6,,16.4,Calm,29,,1.12.8,Mavic Mini,1SDCH7G0169R0K,1SFLH6Q0AB03DJ,1SRCH7F014TAHX,1U5X071EXP5ZJG,51.4,0.2,26.2,9.017328,3.35541,0,1102,Mavic Mini,1SDCH7G0169R0K,1SFLH6Q0AB03DJ,1SRCH7F014TAHX,1U5X071EXP5ZJG,DJI Fly,,1.12.8,1564C7E8-7146-E532-52D3-B4DE062C585D,1SDCH7G0169R0K,,,,,,,,Flight mode changed to Manual Takeoff.,
2/21/2024,28:42.0,6m 31.3s,391.3,6.974138646,79.91426941,0,0,0.3,52,0.1,0,0,0,0,0,0,0,0,3.6,-0.7,25.5,25.5,,Manual Takeoff,Other,Takeoff (RC Assisted),14,5,TRUE,,Mavic Mini,TRUE,FALSE,,Smart,RC,TRUE,TRUE,FALSE,,,TRUE,,FALSE,FALSE,FALSE,FALSE,FALSE,FALSE,FALSE,FALSE,FALSE,FALSE,0,Follow Yaw,0,0,37.2,37.2,FALSE,FALSE,FALSE,FALSE,FALSE,FALSE,,TRUE,Normal,,100,1024,1024,1024,1024,2,FALSE,FALSE,FALSE,FALSE,FALSE,0,FALSE,FALSE,FALSE,FALSE,49,7.382,1001,2051,7.388,FALSE,3.692,3.69,0.002,FALSE,FALSE,NA,105.3,105.2,105.2,0,0,0,0,5,1964.2,491.06,,Idle,0,20,FALSE,5,TRUE,10,Go Home,FALSE,FALSE,FALSE,FALSE,FALSE,FALSE,FALSE,FALSE,FALSE,FALSE,FALSE,FALSE,6.974144311,79.91427369,2.5,142.1,328,TRUE,1,1,FALSE,FALSE,FALSE,FALSE,,TRUE,FALSE,FALSE,Course Lock,65.6,,16.4,Calm,29,,1.12.8,Mavic Mini,1SDCH7G0169R0K,1SFLH6Q0AB03DJ,1SRCH7F014TAHX,1U5X071EXP5ZJG,51.4,0.2,26.2,9.017328,3.35541,0,1102,Mavic Mini,1SDCH7G0169R0K,1SFLH6Q0AB03DJ,1SRCH7F014TAHX,1U5X071EXP5ZJG,DJI Fly,,1.12.8,1564C7E8-7146-E532-52D3-B4DE062C585D,1SDCH7G0169R0K,,,,,,,,,
2/21/2024,28:42.1,6m 31.4s,391.4,6.974138626,79.91426941,0,0,0.3,52,0.2,0,0,0,0,0,0,0,0,3.6,-0.7,25.5,25.5,,Manual Takeoff,Other,Takeoff (RC Assisted),14,5,TRUE,,Mavic Mini,TRUE,FALSE,,Smart,RC,TRUE,TRUE,FALSE,,,TRUE,,FALSE,FALSE,FALSE,FALSE,FALSE,FALSE,FALSE,FALSE,FALSE,FALSE,0,Follow Yaw,0,0,37.2,37.2,FALSE,FALSE,FALSE,FALSE,FALSE,FALSE,,TRUE,Normal,,100,1024,1024,1024,1024,2,FALSE,FALSE,FALSE,FALSE,FALSE,0,FALSE,FALSE,FALSE,FALSE,49,7.382,1001,2051,7.388,FALSE,3.692,3.69,0.002,FALSE,FALSE,NA,105.3,105.2,105.2,0,0,0,0,5,1964.2,491.06,,Idle,0,20,FALSE,5,TRUE,10,Go Home,FALSE,FALSE,FALSE,FALSE,FALSE,FALSE,FALSE,FALSE,FALSE,FALSE,FALSE,FALSE,6.974144311,79.91427369,2.5,142.1,328,TRUE,1,1,FALSE,FALSE,FALSE,FALSE,,TRUE,FALSE,FALSE,Course Lock,65.6,,16.4,Calm,29,,1.12.8,Mavic Mini,1SDCH7G0169R0K,1SFLH6Q0AB03DJ,1SRCH7F014TAHX,1U5X071EXP5ZJG,51.4,0.2,26.2,9.017328,3.35541,0,1102,Mavic Mini,1SDCH7G0169R0K,1SFLH6Q0AB03DJ,1SRCH7F014TAHX,1U5X071EXP5ZJG,DJI Fly,,1.12.8,1564C7E8-7146-E532-52D3-B4DE062C585D,1SDCH7G0169R0K,,,,,,,,,
2/21/2024,28:42.3,6m 31.5s,391.5,6.974138583,79.9142694,0,0,0.3,52,0.2,0,0,0,0,0,0,0,0,3.7,-0.7,25.5,25.5,,Manual Takeoff,Other,Takeoff (RC Assisted),14,5,TRUE,,Mavic Mini,TRUE,FALSE,,Smart,RC,TRUE,TRUE,FALSE,,,TRUE,,FALSE,FALSE,FALSE,FALSE,FALSE,FALSE,FALSE,FALSE,FALSE,FALSE,0,Follow Yaw,0,0,37.2,37.2,FALSE,FALSE,FALSE,FALSE,FALSE,FALSE,,TRUE,Normal,,100,1024,1024,1024,1024,2,FALSE,FALSE,FALSE,FALSE,FALSE,0,FALSE,FALSE,FALSE,FALSE,49,7.375,1001,2051,7.388,FALSE,3.691,3.684,0.007,FALSE,FALSE,NA,105.3,105.2,105.2,0,0,0,0,5,1964.2,491.06,,Idle,0,20,FALSE,5,TRUE,10,Go Home,FALSE,FALSE,FALSE,FALSE,FALSE,FALSE,FALSE,FALSE,FALSE,FALSE,FALSE,FALSE,6.974144311,79.91427369,2.6,142.1,328,TRUE,1,1,FALSE,FALSE,FALSE,FALSE,,TRUE,FALSE,FALSE,Course Lock,65.6,,16.4,Calm,29,,1.12.8,Mavic Mini,1SDCH7G0169R0K,1SFLH6Q0AB03DJ,1SRCH7F014TAHX,1U5X071EXP5ZJG,51.4,0.2,26.2,9.017328,3.35541,0,1102,Mavic Mini,1SDCH7G0169R0K,1SFLH6Q0AB03DJ,1SRCH7F014TAHX,1U5X071EXP5ZJG,DJI Fly,,1.12.8,1564C7E8-7146-E532-52D3-B4DE062C585D,1SDCH7G0169R0K,,,,,,,,,
2/21/2024,28:42.4,6m 31.6s,391.6,6.974138549,79.9142694,0,0,0.3,52,0.2,0,0,0,0,0,0,0,0,3.7,-0.7,25.5,25.5,,Manual Takeoff,Other,Takeoff (RC Assisted),14,5,TRUE,,Mavic Mini,TRUE,FALSE,,Smart,RC,TRUE,TRUE,FALSE,,,TRUE,,FALSE,FALSE,FALSE,FALSE,FALSE,FALSE,FALSE,FALSE,FALSE,FALSE,0,Follow Yaw,0,0,37.2,37.2,FALSE,FALSE,FALSE,FALSE,FALSE,FALSE,,TRUE,Normal,,100,1024,1024,1024,1024,2,FALSE,FALSE,FALSE,FALSE,FALSE,0,FALSE,FALSE,FALSE,FALSE,49,7.375,1001,2051,7.388,FALSE,3.691,3.684,0.007,FALSE,FALSE,NA,105.3,105.2,105.2,0,0,0,0,5,1964.2,491.06,,Idle,0,20,FALSE,5,TRUE,10,Go Home,FALSE,FALSE,FALSE,FALSE,FALSE,FALSE,FALSE,FALSE,FALSE,FALSE,FALSE,FALSE,6.974144311,79.91427369,2.6,142.1,328,TRUE,1,1,FALSE,FALSE,FALSE,FALSE,,TRUE,FALSE,FALSE,Course Lock,65.6,,16.4,Calm,29,,1.12.8,Mavic Mini,1SDCH7G0169R0K,1SFLH6Q0AB03DJ,1SRCH7F014TAHX,1U5X071EXP5ZJG,51.4,0.2,26.2,9.017328,3.35541,0,1102,Mavic Mini,1SDCH7G0169R0K,1SFLH6Q0AB03DJ,1SRCH7F014TAHX,1U5X071EXP5ZJG,DJI Fly,,1.12.8,1564C7E8-7146-E532-52D3-B4DE062C585D,1SDCH7G0169R0K,,,,,,,,,
2/21/2024,28:42.5,6m 31.7s,391.7,6.974138599,79.91426941,0,0,0.3,52,0.2,0,0,0,0,0,0,0,0,3.6,-0.7,25.5,25.5,,Manual Takeoff,Other,Takeoff (RC Assisted),14,5,TRUE,,Mavic Mini,TRUE,FALSE,,Smart,RC,TRUE,TRUE,FALSE,,,TRUE,,FALSE,FALSE,FALSE,FALSE,FALSE,FALSE,FALSE,FALSE,FALSE,FALSE,0,Follow Yaw,0,0,37.2,37.2,FALSE,FALSE,FALSE,FALSE,FALSE,FALSE,,TRUE,Normal,,100,1024,1024,1024,1024,2,FALSE,FALSE,FALSE,FALSE,FALSE,0,FALSE,FALSE,FALSE,FALSE,49,7.375,1001,2051,7.388,FALSE,3.691,3.684,0.007,FALSE,FALSE,NA,105.3,105.2,105.2,0,0,0,0,5,1964.2,491.06,,Idle,0,20,FALSE,5,TRUE,10,Go Home,FALSE,FALSE,FALSE,FALSE,FALSE,FALSE,FALSE,FALSE,FALSE,FALSE,FALSE,FALSE,6.974144311,79.91427369,2.5,142.1,328,TRUE,1,1,FALSE,FALSE,FALSE,FALSE,,TRUE,FALSE,FALSE,Course Lock,65.6,,16.4,Calm,29,,1.12.8,Mavic Mini,1SDCH7G0169R0K,1SFLH6Q0AB03DJ,1SRCH7F014TAHX,1U5X071EXP5ZJG,51.4,0.2,26.2,9.017328,3.35541,0,1102,Mavic Mini,1SDCH7G0169R0K,1SFLH6Q0AB03DJ,1SRCH7F014TAHX,1U5X071EXP5ZJG,DJI Fly,,1.12.8,1564C7E8-7146-E532-52D3-B4DE062C585D,1SDCH7G0169R0K,,,,,,,,,
2/21/2024,28:42.6,6m 31.8s,391.8,6.97413858,79.91426941,0,0,0.3,52,0.2,0,0,0,0,0,0,0,0,3.6,-0.7,25.5,25.5,,Manual Takeoff,Other,Takeoff (RC Assisted),14,5,TRUE,,Mavic Mini,TRUE,FALSE,,Smart,RC,TRUE,TRUE,FALSE,,,TRUE,,FALSE,FALSE,FALSE,FALSE,FALSE,FALSE,FALSE,FALSE,FALSE,FALSE,0,Follow Yaw,0,0,37.2,37.2,FALSE,FALSE,FALSE,FALSE,FALSE,FALSE,,TRUE,Normal,,100,1024,1024,1024,1024,2,FALSE,FALSE,FALSE,FALSE,FALSE,0,FALSE,FALSE,FALSE,FALSE,49,7.375,1001,2051,7.388,FALSE,3.691,3.684,0.007,FALSE,FALSE,NA,105.3,105.2,105.2,0,0,0,0,5,1964.2,491.06,,Idle,0,20,FALSE,5,TRUE,10,Go Home,FALSE,FALSE,FALSE,FALSE,FALSE,FALSE,FALSE,FALSE,FALSE,FALSE,FALSE,FALSE,6.974144311,79.91427369,2.6,142.1,328,TRUE,1,1,FALSE,FALSE,FALSE,FALSE,,TRUE,FALSE,FALSE,Course Lock,65.6,,16.4,Calm,29,,1.12.8,Mavic Mini,1SDCH7G0169R0K,1SFLH6Q0AB03DJ,1SRCH7F014TAHX,1U5X071EXP5ZJG,51.4,0.2,26.2,9.017328,3.35541,0,1102,Mavic Mini,1SDCH7G0169R0K,1SFLH6Q0AB03DJ,1SRCH7F014TAHX,1U5X071EXP5ZJG,DJI Fly,,1.12.8,1564C7E8-7146-E532-52D3-B4DE062C585D,1SDCH7G0169R0K,,,,,,,,,
2/21/2024,28:42.7,6m 31.9s,391.9,6.97413853,79.91426941,0,0,0.3,52,0.2,0,0,0,0,0,0,0,0,3.7,-0.7,25.5,25.5,,Manual Takeoff,Other,Takeoff (RC Assisted),14,5,TRUE,,Mavic Mini,TRUE,FALSE,,Smart,RC,TRUE,TRUE,FALSE,,,TRUE,,FALSE,FALSE,FALSE,FALSE,FALSE,FALSE,FALSE,FALSE,FALSE,FALSE,0,Follow Yaw,0,0,37.2,37.2,FALSE,FALSE,FALSE,FALSE,FALSE,FALSE,,TRUE,Normal,,100,1024,1024,1024,1024,2,FALSE,FALSE,FALSE,FALSE,FALSE,0,FALSE,FALSE,FALSE,FALSE,49,7.375,1001,2051,7.388,FALSE,3.691,3.684,0.007,FALSE,FALSE,NA,105.3,105.2,105.2,0,0,0,0,5,1964.2,491.06,,Idle,0,20,FALSE,5,TRUE,10,Go Home,FALSE,FALSE,FALSE,FALSE,FALSE,FALSE,FALSE,FALSE,FALSE,FALSE,FALSE,FALSE,6.974144311,79.91427369,2.6,142.1,328,TRUE,1,1,FALSE,FALSE,FALSE,FALSE,,TRUE,FALSE,FALSE,Course Lock,65.6,,16.4,Calm,29,,1.12.8,Mavic Mini,1SDCH7G0169R0K,1SFLH6Q0AB03DJ,1SRCH7F014TAHX,1U5X071EXP5ZJG,51.4,0.2,26.2,9.017328,3.35541,0,1102,Mavic Mini,1SDCH7G0169R0K,1SFLH6Q0AB03DJ,1SRCH7F014TAHX,1U5X071EXP5ZJG,DJI Fly,,1.12.8,1564C7E8-7146-E532-52D3-B4DE062C585D,1SDCH7G0169R0K,,,,,,,,,
2/21/2024,28:42.8,6m 32.0s,392,6.974138478,79.91426942,0,0,0.3,52,0.2,0,0,0,0,0,0,0,0,3.6,-0.7,25.5,25.5,,Manual Takeoff,Other,Takeoff (RC Assisted),14,5,TRUE,,Mavic Mini,TRUE,FALSE,,Smart,RC,TRUE,TRUE,FALSE,,,TRUE,,FALSE,FALSE,FALSE,FALSE,FALSE,FALSE,FALSE,FALSE,FALSE,FALSE,0,Follow Yaw,0,0,37.2,37.2,FALSE,FALSE,FALSE,FALSE,FALSE,FALSE,,TRUE,Normal,,100,1024,1024,1024,1024,2,FALSE,FALSE,FALSE,FALSE,FALSE,0,FALSE,FALSE,FALSE,FALSE,49,7.375,1001,2051,7.388,FALSE,3.691,3.684,0.007,FALSE,FALSE,NA,105.3,105.2,105.2,0,0,0,0,5,1964.2,491.06,,Idle,0,20,FALSE,5,TRUE,10,Go Home,FALSE,FALSE,FALSE,FALSE,FALSE,FALSE,FALSE,FALSE,FALSE,FALSE,FALSE,FALSE,6.974144311,79.91427369,2.6,142.1,328,TRUE,1,1,FALSE,FALSE,FALSE,FALSE,,TRUE,FALSE,FALSE,Course Lock,65.6,,16.4,Calm,29,,1.12.8,Mavic Mini,1SDCH7G0169R0K,1SFLH6Q0AB03DJ,1SRCH7F014TAHX,1U5X071EXP5ZJG,51.4,0.2,26.2,9.017328,3.35541,0,1102,Mavic Mini,1SDCH7G0169R0K,1SFLH6Q0AB03DJ,1SRCH7F014TAHX,1U5X071EXP5ZJG,DJI Fly,,1.12.8,1564C7E8-7146-E532-52D3-B4DE062C585D,1SDCH7G0169R0K,,,,,,,,,
2/21/2024,28:42.8,6m 32.1s,392.1,6.974138374,79.91426955,0,0,0.3,52,0.3,0,0,0,0,0,0,0,0,3.6,-0.7,25.5,25.5,,Manual Takeoff,Other,Takeoff (RC Assisted),14,5,TRUE,,Mavic Mini,TRUE,FALSE,,Smart,RC,TRUE,TRUE,FALSE,,,TRUE,,FALSE,FALSE,FALSE,FALSE,FALSE,FALSE,FALSE,FALSE,FALSE,FALSE,0,Follow Yaw,0,0,37.2,37.2,FALSE,FALSE,FALSE,FALSE,FALSE,FALSE,,TRUE,Normal,,100,1024,1024,1024,1024,2,FALSE,FALSE,FALSE,FALSE,FALSE,0,FALSE,FALSE,FALSE,FALSE,49,7.375,1001,2051,7.388,FALSE,3.691,3.684,0.007,FALSE,FALSE,NA,105.3,105.2,105.2,0,0,0,0,5,1964.2,491.06,,Idle,0,20,FALSE,5,TRUE,10,Go Home,FALSE,FALSE,FALSE,FALSE,FALSE,FALSE,FALSE,FALSE,FALSE,FALSE,FALSE,FALSE,6.974144311,79.91427369,2.6,142.1,328,TRUE,1,1,FALSE,FALSE,FALSE,FALSE,,TRUE,FALSE,FALSE,Course Lock,65.6,,16.4,Calm,29,,1.12.8,Mavic Mini,1SDCH7G0169R0K,1SFLH6Q0AB03DJ,1SRCH7F014TAHX,1U5X071EXP5ZJG,51.4,0.2,26.2,9.017328,3.35541,0,1102,Mavic Mini,1SDCH7G0169R0K,1SFLH6Q0AB03DJ,1SRCH7F014TAHX,1U5X071EXP5ZJG,DJI Fly,,1.12.8,1564C7E8-7146-E532-52D3-B4DE062C585D,1SDCH7G0169R0K,,,,,6.974142208,79.914244,10,,
2/21/2024,28:43.0,6m 32.2s,392.2,6.974138323,79.91426959,0,0,0.3,52,0.3,0,0,0,0,0,0,0,0,3.6,-0.7,25.5,25.5,,Manual Takeoff,Other,Takeoff (RC Assisted),14,5,TRUE,,Mavic Mini,TRUE,FALSE,,Smart,RC,TRUE,TRUE,FALSE,,,TRUE,,FALSE,FALSE,FALSE,FALSE,FALSE,FALSE,FALSE,FALSE,FALSE,FALSE,0,Follow Yaw,0,0,37.2,37.2,FALSE,FALSE,FALSE,FALSE,FALSE,FALSE,,TRUE,Normal,,100,1024,1024,1024,1024,2,FALSE,FALSE,FALSE,FALSE,FALSE,0,FALSE,FALSE,FALSE,FALSE,49,7.375,1001,2051,7.371,FALSE,3.691,3.684,0.007,FALSE,FALSE,NA,105.3,105.2,105.2,0,0,0,0,5,1990.4,497.62,,Idle,0,20,FALSE,5,TRUE,10,Go Home,FALSE,FALSE,FALSE,FALSE,FALSE,FALSE,FALSE,FALSE,FALSE,FALSE,FALSE,FALSE,6.974144311,79.91427369,2.6,142.1,328,TRUE,1,1,FALSE,FALSE,FALSE,FALSE,,TRUE,FALSE,FALSE,Course Lock,65.6,,16.4,Calm,29,,1.12.8,Mavic Mini,1SDCH7G0169R0K,1SFLH6Q0AB03DJ,1SRCH7F014TAHX,1U5X071EXP5ZJG,51.4,0.2,26.2,9.017328,3.35541,0,1102,Mavic Mini,1SDCH7G0169R0K,1SFLH6Q0AB03DJ,1SRCH7F014TAHX,1U5X071EXP5ZJG,DJI Fly,,1.12.8,1564C7E8-7146-E532-52D3-B4DE062C585D,1SDCH7G0169R0K,,,,,6.974142208,79.914244,10,,
2/21/2024,28:43.1,6m 32.3s,392.3,6.974138305,79.91426961,0,0,0.3,52,0.3,0,0,0,0,0,0,0,0,3.7,-0.6,25.5,25.5,,Manual Takeoff,Other,Takeoff (RC Assisted),14,5,TRUE,,Mavic Mini,TRUE,FALSE,,Smart,RC,TRUE,TRUE,FALSE,,,TRUE,,FALSE,FALSE,FALSE,FALSE,FALSE,FALSE,FALSE,FALSE,FALSE,FALSE,0,Follow Yaw,0,0,37.2,37.2,FALSE,FALSE,FALSE,FALSE,FALSE,FALSE,,TRUE,Normal,,100,1024,1024,1024,1024,2,FALSE,FALSE,FALSE,FALSE,FALSE,0,FALSE,FALSE,FALSE,FALSE,49,7.375,1001,2051,7.371,FALSE,3.691,3.684,0.007,FALSE,FALSE,NA,105.3,105.2,105.2,0,0,0,0,5,1990.4,497.62,,Idle,0,20,FALSE,5,TRUE,10,Go Home,FALSE,FALSE,FALSE,FALSE,FALSE,FALSE,FALSE,FALSE,FALSE,FALSE,FALSE,FALSE,6.974144311,79.91427369,2.6,142.1,328,TRUE,1,1,FALSE,FALSE,FALSE,FALSE,,TRUE,FALSE,FALSE,Course Lock,65.6,,16.4,Calm,29,,1.12.8,Mavic Mini,1SDCH7G0169R0K,1SFLH6Q0AB03DJ,1SRCH7F014TAHX,1U5X071EXP5ZJG,51.4,0.2,26.2,9.017328,3.35541,0,1102,Mavic Mini,1SDCH7G0169R0K,1SFLH6Q0AB03DJ,1SRCH7F014TAHX,1U5X071EXP5ZJG,DJI Fly,,1.12.8,1564C7E8-7146-E532-52D3-B4DE062C585D,1SDCH7G0169R0K,,,,,6.974142208,79.914244,10,,
2/21/2024,28:43.2,6m 32.4s,392.4,6.974138283,79.91426962,0,0,0.3,52,0.3,0,0,0,0,0,0,0,0,3.7,-0.7,25.5,25.5,,Manual Takeoff,Other,Takeoff (RC Assisted),14,5,TRUE,,Mavic Mini,TRUE,FALSE,,Smart,RC,TRUE,TRUE,FALSE,,,TRUE,,FALSE,FALSE,FALSE,FALSE,FALSE,FALSE,FALSE,FALSE,FALSE,FALSE,0,Follow Yaw,0,0,37.2,37.2,FALSE,FALSE,FALSE,FALSE,FALSE,FALSE,,TRUE,Normal,,100,1024,1024,1024,1024,2,FALSE,FALSE,FALSE,FALSE,FALSE,0,FALSE,FALSE,FALSE,FALSE,49,7.375,1001,2051,7.371,FALSE,3.691,3.684,0.007,FALSE,FALSE,NA,105.3,105.2,105.2,0,0,0,0,5,1990.4,497.62,,Idle,0,20,FALSE,5,TRUE,10,Go Home,FALSE,FALSE,FALSE,FALSE,FALSE,FALSE,FALSE,FALSE,FALSE,FALSE,FALSE,FALSE,6.974144311,79.91427369,2.6,142.1,328,TRUE,1,1,FALSE,FALSE,FALSE,FALSE,,TRUE,FALSE,FALSE,Course Lock,65.6,,16.4,Calm,29,,1.12.8,Mavic Mini,1SDCH7G0169R0K,1SFLH6Q0AB03DJ,1SRCH7F014TAHX,1U5X071EXP5ZJG,51.4,0.2,26.2,9.017328,3.35541,0,1102,Mavic Mini,1SDCH7G0169R0K,1SFLH6Q0AB03DJ,1SRCH7F014TAHX,1U5X071EXP5ZJG,DJI Fly,,1.12.8,1564C7E8-7146-E532-52D3-B4DE062C585D,1SDCH7G0169R0K,,,,,6.974142208,79.914244,10,,
2/21/2024,28:43.2,6m 32.5s,392.5,6.974138234,79.91426962,0,0,0.3,52,0.4,0,0,0,0,0,0,0,0,3.7,-0.7,25.5,25.5,,Manual Takeoff,Other,Takeoff (RC Assisted),14,5,TRUE,,Mavic Mini,TRUE,FALSE,,Smart,RC,TRUE,TRUE,FALSE,,,TRUE,,FALSE,FALSE,FALSE,FALSE,FALSE,FALSE,FALSE,FALSE,FALSE,FALSE,0,Follow Yaw,0,0,37.2,37.2,FALSE,FALSE,FALSE,FALSE,FALSE,FALSE,,TRUE,Normal,,100,1024,1024,1024,1024,2,FALSE,FALSE,FALSE,FALSE,FALSE,0,FALSE,FALSE,FALSE,FALSE,49,7.375,1001,2051,7.371,FALSE,3.691,3.684,0.007,FALSE,FALSE,NA,105.3,105.2,105.2,0,0,0,0,5,1990.4,497.62,,Idle,0,20,FALSE,5,TRUE,10,Go Home,FALSE,FALSE,FALSE,FALSE,FALSE,FALSE,FALSE,FALSE,FALSE,FALSE,FALSE,FALSE,6.974144311,79.91427369,2.6,142.1,328,TRUE,1,1,FALSE,FALSE,FALSE,FALSE,,TRUE,FALSE,FALSE,Course Lock,65.6,,16.4,Calm,29,,1.12.8,Mavic Mini,1SDCH7G0169R0K,1SFLH6Q0AB03DJ,1SRCH7F014TAHX,1U5X071EXP5ZJG,51.4,0.2,26.2,9.017328,3.35541,0,1102,Mavic Mini,1SDCH7G0169R0K,1SFLH6Q0AB03DJ,1SRCH7F014TAHX,1U5X071EXP5ZJG,DJI Fly,,1.12.8,1564C7E8-7146-E532-52D3-B4DE062C585D,1SDCH7G0169R0K,,,,,6.974142208,79.914244,10,,
2/21/2024,28:43.4,6m 32.6s,392.6,6.974138237,79.91426958,0,0,0.3,52,0.4,0,0,0,0,0,0,0,0,3.6,-0.6,25.5,25.5,,Manual Takeoff,Other,Takeoff (RC Assisted),14,5,TRUE,,Mavic Mini,TRUE,FALSE,,Smart,RC,TRUE,TRUE,FALSE,,,TRUE,,FALSE,FALSE,FALSE,FALSE,FALSE,FALSE,FALSE,FALSE,FALSE,FALSE,0,Follow Yaw,0,0,37.2,37.2,FALSE,FALSE,FALSE,FALSE,FALSE,FALSE,,TRUE,Normal,,100,1024,1024,1024,1024,2,FALSE,FALSE,FALSE,FALSE,FALSE,0,FALSE,FALSE,FALSE,FALSE,49,7.379,1001,2051,7.371,FALSE,3.691,3.688,0.007,FALSE,FALSE,NA,105.3,105.2,105.2,0,0,0,0,5,1990.4,497.62,,Idle,0,20,FALSE,5,TRUE,10,Go Home,FALSE,FALSE,FALSE,FALSE,FALSE,FALSE,FALSE,FALSE,FALSE,FALSE,FALSE,FALSE,6.974144311,79.91427369,2.6,142.1,328,TRUE,1,1,FALSE,FALSE,FALSE,FALSE,,TRUE,FALSE,FALSE,Course Lock,65.6,,16.4,Calm,29,,1.12.8,Mavic Mini,1SDCH7G0169R0K,1SFLH6Q0AB03DJ,1SRCH7F014TAHX,1U5X071EXP5ZJG,51.4,0.2,26.2,9.017328,3.35541,0,1102,Mavic Mini,1SDCH7G0169R0K,1SFLH6Q0AB03DJ,1SRCH7F014TAHX,1U5X071EXP5ZJG,DJI Fly,,1.12.8,1564C7E8-7146-E532-52D3-B4DE062C585D,1SDCH7G0169R0K,,,,,6.974142208,79.914244,10,,
2/21/2024,28:43.4,6m 32.7s,392.7,6.974138172,79.91426957,0,0,0.3,52,0.4,0,0,0,0,0,0,0,0,3.6,-0.6,25.5,25.5,,Manual Takeoff,Other,Takeoff (RC Assisted),14,5,TRUE,,Mavic Mini,TRUE,FALSE,,Smart,RC,TRUE,TRUE,FALSE,,,TRUE,,FALSE,FALSE,FALSE,FALSE,FALSE,FALSE,FALSE,FALSE,FALSE,FALSE,0,Follow Yaw,0,0,37.2,37.2,FALSE,FALSE,FALSE,FALSE,FALSE,FALSE,,TRUE,Normal,,100,1024,1024,1024,1024,2,FALSE,FALSE,FALSE,FALSE,FALSE,0,FALSE,FALSE,FALSE,FALSE,49,7.379,1001,2051,7.371,FALSE,3.691,3.688,0.007,FALSE,FALSE,NA,105.3,105.2,105.2,0,0,0,0,5,1990.4,497.62,,Idle,0,20,FALSE,5,TRUE,10,Go Home,FALSE,FALSE,FALSE,FALSE,FALSE,FALSE,FALSE,FALSE,FALSE,FALSE,FALSE,FALSE,6.974144311,79.91427369,2.6,142.1,328,TRUE,1,1,FALSE,FALSE,FALSE,FALSE,,TRUE,FALSE,FALSE,Course Lock,65.6,,16.4,Calm,29,,1.12.8,Mavic Mini,1SDCH7G0169R0K,1SFLH6Q0AB03DJ,1SRCH7F014TAHX,1U5X071EXP5ZJG,51.4,0.2,26.2,9.017328,3.35541,0,1102,Mavic Mini,1SDCH7G0169R0K,1SFLH6Q0AB03DJ,1SRCH7F014TAHX,1U5X071EXP5ZJG,DJI Fly,,1.12.8,1564C7E8-7146-E532-52D3-B4DE062C585D,1SDCH7G0169R0K,,,,,6.974142208,79.914244,10,,
2/21/2024,28:43.5,6m 32.8s,392.8,6.974138122,79.91426958,0,0,0.3,52,0.4,0,0,0,0,0,0,0,0,3.6,-0.6,25.5,25.5,,Manual Takeoff,Other,Takeoff (RC Assisted),14,5,TRUE,,Mavic Mini,TRUE,FALSE,,Smart,RC,TRUE,TRUE,FALSE,,,TRUE,,FALSE,FALSE,FALSE,FALSE,FALSE,FALSE,FALSE,FALSE,FALSE,FALSE,0,Follow Yaw,0,0,37.2,37.2,FALSE,FALSE,FALSE,FALSE,FALSE,FALSE,,TRUE,Normal,,100,1024,1024,1024,1024,2,FALSE,FALSE,FALSE,FALSE,FALSE,0,FALSE,FALSE,FALSE,FALSE,49,7.379,1001,2051,7.371,FALSE,3.691,3.688,0.007,FALSE,FALSE,NA,105.3,105.2,105.2,0,0,0,0,5,1990.4,497.62,,Idle,0,20,FALSE,5,TRUE,10,Go Home,FALSE,FALSE,FALSE,FALSE,FALSE,FALSE,FALSE,FALSE,FALSE,FALSE,FALSE,FALSE,6.974144311,79.91427369,2.7,142.1,328,TRUE,1,1,FALSE,FALSE,FALSE,FALSE,,TRUE,FALSE,FALSE,Course Lock,65.6,,16.4,Calm,29,,1.12.8,Mavic Mini,1SDCH7G0169R0K,1SFLH6Q0AB03DJ,1SRCH7F014TAHX,1U5X071EXP5ZJG,51.4,0.2,26.2,9.017328,3.35541,0,1102,Mavic Mini,1SDCH7G0169R0K,1SFLH6Q0AB03DJ,1SRCH7F014TAHX,1U5X071EXP5ZJG,DJI Fly,,1.12.8,1564C7E8-7146-E532-52D3-B4DE062C585D,1SDCH7G0169R0K,,,,,6.974142208,79.914244,10,,
2/21/2024,28:43.6,6m 32.9s,392.9,6.974138106,79.91426962,0,0,0.3,52,0.4,0,0,0,0,0,0,0,0,3.7,-0.6,25.5,25.5,,Manual Takeoff,Other,Takeoff (RC Assisted),14,5,TRUE,,Mavic Mini,TRUE,FALSE,,Smart,RC,TRUE,TRUE,FALSE,,,TRUE,,FALSE,FALSE,FALSE,FALSE,FALSE,FALSE,FALSE,FALSE,FALSE,FALSE,0,Follow Yaw,0,0,37.2,37.2,FALSE,FALSE,FALSE,FALSE,FALSE,FALSE,,TRUE,Normal,,100,1024,1024,1024,1024,2,FALSE,FALSE,FALSE,FALSE,FALSE,0,FALSE,FALSE,FALSE,FALSE,49,7.379,1001,2051,7.371,FALSE,3.691,3.688,0.007,FALSE,FALSE,NA,105.3,105.2,105.2,0,0,0,0,5,1990.4,497.62,,Idle,0,20,FALSE,5,TRUE,10,Go Home,FALSE,FALSE,FALSE,FALSE,FALSE,FALSE,FALSE,FALSE,FALSE,FALSE,FALSE,FALSE,6.974144311,79.91427369,2.6,142.1,328,TRUE,1,1,FALSE,FALSE,FALSE,FALSE,,TRUE,FALSE,FALSE,Course Lock,65.6,,16.4,Calm,29,,1.12.8,Mavic Mini,1SDCH7G0169R0K,1SFLH6Q0AB03DJ,1SRCH7F014TAHX,1U5X071EXP5ZJG,51.4,0.2,26.2,9.017328,3.35541,0,1102,Mavic Mini,1SDCH7G0169R0K,1SFLH6Q0AB03DJ,1SRCH7F014TAHX,1U5X071EXP5ZJG,DJI Fly,,1.12.8,1564C7E8-7146-E532-52D3-B4DE062C585D,1SDCH7G0169R0K,,,,,6.974142208,79.914244,10,,
2/21/2024,28:43.7,6m 33.0s,393,6.974138123,79.9142697,0,0,0.3,52,0.5,0,0,0,0,0,0,0,0,3.7,-0.7,25.5,25.5,,Manual Takeoff,Other,Takeoff (RC Assisted),13,5,TRUE,,Mavic Mini,TRUE,FALSE,,Smart,RC,TRUE,TRUE,FALSE,,,TRUE,,FALSE,FALSE,FALSE,FALSE,FALSE,FALSE,FALSE,FALSE,FALSE,FALSE,0,Follow Yaw,0,0,37.2,37.2,FALSE,FALSE,FALSE,FALSE,FALSE,FALSE,,TRUE,Normal,,100,1024,1024,1024,1024,2,FALSE,FALSE,FALSE,FALSE,FALSE,0,FALSE,FALSE,FALSE,FALSE,49,7.379,1001,2051,7.371,FALSE,3.691,3.688,0.007,FALSE,FALSE,NA,105.3,105.2,105.2,0,0,0,0,5,1990.4,497.62,,Idle,0,20,FALSE,5,TRUE,10,Go Home,FALSE,FALSE,FALSE,FALSE,FALSE,FALSE,FALSE,FALSE,FALSE,FALSE,FALSE,FALSE,6.974144311,79.91427369,2.6,142.1,328,TRUE,1,1,FALSE,FALSE,FALSE,FALSE,,TRUE,FALSE,FALSE,Course Lock,65.6,,16.4,Calm,29,,1.12.8,Mavic Mini,1SDCH7G0169R0K,1SFLH6Q0AB03DJ,1SRCH7F014TAHX,1U5X071EXP5ZJG,51.4,0.2,26.2,9.017328,3.35541,0,1102,Mavic Mini,1SDCH7G0169R0K,1SFLH6Q0AB03DJ,1SRCH7F014TAHX,1U5X071EXP5ZJG,DJI Fly,,1.12.8,1564C7E8-7146-E532-52D3-B4DE062C585D,1SDCH7G0169R0K,,,,,6.974142208,79.914244,10,,
2/21/2024,28:43.8,6m 33.1s,393.1,6.974138073,79.91426971,0,0,0.3,52,0.5,0,0,0,0,0,0,0,0,3.6,-0.6,25.5,25.5,,Manual Takeoff,Other,Takeoff (RC Assisted),13,5,TRUE,,Mavic Mini,TRUE,FALSE,,Smart,RC,TRUE,TRUE,FALSE,,,TRUE,,FALSE,FALSE,FALSE,FALSE,FALSE,FALSE,FALSE,FALSE,FALSE,FALSE,0,Follow Yaw,0,0,37.2,37.2,FALSE,FALSE,FALSE,FALSE,FALSE,FALSE,,TRUE,Normal,,100,1024,1024,1024,1024,2,FALSE,FALSE,FALSE,FALSE,FALSE,0,FALSE,FALSE,FALSE,FALSE,49,7.379,1001,2051,7.371,FALSE,3.691,3.688,0.007,FALSE,FALSE,NA,105.3,105.2,105.2,0,0,0,0,5,1990.4,497.62,,Idle,0,20,FALSE,5,TRUE,10,Go Home,FALSE,FALSE,FALSE,FALSE,FALSE,FALSE,FALSE,FALSE,FALSE,FALSE,FALSE,FALSE,6.974144311,79.91427369,2.6,142.1,328,TRUE,1,1,FALSE,FALSE,FALSE,FALSE,,TRUE,FALSE,FALSE,Course Lock,65.6,,16.4,Calm,29,,1.12.8,Mavic Mini,1SDCH7G0169R0K,1SFLH6Q0AB03DJ,1SRCH7F014TAHX,1U5X071EXP5ZJG,51.4,0.2,26.2,9.017328,3.35541,0,1102,Mavic Mini,1SDCH7G0169R0K,1SFLH6Q0AB03DJ,1SRCH7F014TAHX,1U5X071EXP5ZJG,DJI Fly,,1.12.8,1564C7E8-7146-E532-52D3-B4DE062C585D,1SDCH7G0169R0K,,,,,6.974142208,79.914244,10,,
2/21/2024,28:44.0,6m 33.2s,393.2,6.974138033,79.91426972,0,0,0.3,52,0.5,0,0,0,0,0,0,0,0,3.7,-0.6,25.5,25.5,,Manual Takeoff,Other,Takeoff (RC Assisted),13,5,TRUE,,Mavic Mini,TRUE,FALSE,,Smart,RC,TRUE,TRUE,FALSE,,,TRUE,,FALSE,FALSE,FALSE,FALSE,FALSE,FALSE,FALSE,FALSE,FALSE,FALSE,0,Follow Yaw,0,0,37.2,37.2,FALSE,FALSE,FALSE,FALSE,FALSE,FALSE,,TRUE,Normal,,100,1024,1024,1024,1024,2,FALSE,FALSE,FALSE,FALSE,FALSE,0,FALSE,FALSE,FALSE,FALSE,49,7.379,1001,2051,7.379,FALSE,3.691,3.688,0.007,FALSE,FALSE,NA,105.3,105.2,105.2,0,0,0,0,5,2176,544.01,,Idle,0,20,FALSE,5,TRUE,10,Go Home,FALSE,FALSE,FALSE,FALSE,FALSE,FALSE,FALSE,FALSE,FALSE,FALSE,FALSE,FALSE,6.974144311,79.91427369,2.7,142.1,328,TRUE,1,1,FALSE,FALSE,FALSE,FALSE,,TRUE,FALSE,FALSE,Course Lock,65.6,,16.4,Calm,29,,1.12.8,Mavic Mini,1SDCH7G0169R0K,1SFLH6Q0AB03DJ,1SRCH7F014TAHX,1U5X071EXP5ZJG,51.4,0.2,26.2,9.017328,3.35541,0,1102,Mavic Mini,1SDCH7G0169R0K,1SFLH6Q0AB03DJ,1SRCH7F014TAHX,1U5X071EXP5ZJG,DJI Fly,,1.12.8,1564C7E8-7146-E532-52D3-B4DE062C585D,1SDCH7G0169R0K,,,,,6.974142208,79.914244,10,,
2/21/2024,28:44.1,6m 33.3s,393.3,6.974138019,79.91426971,0,0,0.3,52,0.5,0,0,0,0,0,0,0,0,3.6,-0.6,25.5,25.5,,Manual Takeoff,Other,Takeoff (RC Assisted),13,5,TRUE,,Mavic Mini,TRUE,FALSE,,Smart,RC,TRUE,TRUE,FALSE,,,TRUE,,FALSE,FALSE,FALSE,FALSE,FALSE,FALSE,FALSE,FALSE,FALSE,FALSE,0,Follow Yaw,0,0,37.2,37.2,FALSE,FALSE,FALSE,FALSE,FALSE,FALSE,,TRUE,Normal,,100,1024,1024,1024,1024,2,FALSE,FALSE,FALSE,FALSE,FALSE,0,FALSE,FALSE,FALSE,FALSE,49,7.379,1001,2051,7.379,FALSE,3.691,3.688,0.007,FALSE,FALSE,NA,105.3,105.2,105.2,0,0,0,0,5,2176,544.01,,Idle,0,20,FALSE,5,TRUE,10,Go Home,FALSE,FALSE,FALSE,FALSE,FALSE,FALSE,FALSE,FALSE,FALSE,FALSE,FALSE,FALSE,6.974144311,79.91427369,2.7,142.1,328,TRUE,1,1,FALSE,FALSE,FALSE,FALSE,,TRUE,FALSE,FALSE,Course Lock,65.6,,16.4,Calm,29,,1.12.8,Mavic Mini,1SDCH7G0169R0K,1SFLH6Q0AB03DJ,1SRCH7F014TAHX,1U5X071EXP5ZJG,51.4,0.2,26.2,9.017328,3.35541,0,1102,Mavic Mini,1SDCH7G0169R0K,1SFLH6Q0AB03DJ,1SRCH7F014TAHX,1U5X071EXP5ZJG,DJI Fly,,1.12.8,1564C7E8-7146-E532-52D3-B4DE062C585D,1SDCH7G0169R0K,,,,,6.974142208,79.914244,10,,
2/21/2024,28:44.2,6m 33.4s,393.4,6.974138029,79.91426973,0,0,0.3,52,0.5,0,0,0,0,0,0,0,0,3.6,-0.6,25.5,25.5,,Manual Takeoff,Other,Takeoff (RC Assisted),13,5,TRUE,,Mavic Mini,TRUE,FALSE,,Smart,RC,TRUE,TRUE,FALSE,,,TRUE,,FALSE,FALSE,FALSE,FALSE,FALSE,FALSE,FALSE,FALSE,FALSE,FALSE,0,Follow Yaw,0,0,37.2,37.2,FALSE,FALSE,FALSE,FALSE,FALSE,FALSE,,TRUE,Normal,,100,1024,1024,1024,1024,2,FALSE,FALSE,FALSE,FALSE,FALSE,0,FALSE,FALSE,FALSE,FALSE,49,7.379,1001,2051,7.379,FALSE,3.691,3.688,0.007,FALSE,FALSE,NA,105.3,105.2,105.2,0,0,0,0,5,2176,544.01,,Idle,0,20,FALSE,5,TRUE,10,Go Home,FALSE,FALSE,FALSE,FALSE,FALSE,FALSE,FALSE,FALSE,FALSE,FALSE,FALSE,FALSE,6.974144311,79.91427369,2.7,142.1,328,TRUE,1,1,FALSE,FALSE,FALSE,FALSE,,TRUE,FALSE,FALSE,Course Lock,65.6,,16.4,Calm,29,,1.12.8,Mavic Mini,1SDCH7G0169R0K,1SFLH6Q0AB03DJ,1SRCH7F014TAHX,1U5X071EXP5ZJG,51.4,0.2,26.2,9.017328,3.35541,0,1102,Mavic Mini,1SDCH7G0169R0K,1SFLH6Q0AB03DJ,1SRCH7F014TAHX,1U5X071EXP5ZJG,DJI Fly,,1.12.8,1564C7E8-7146-E532-52D3-B4DE062C585D,1SDCH7G0169R0K,,,,,6.974142208,79.914244,10,,
2/21/2024,28:44.3,6m 33.5s,393.5,6.9741381,79.91426979,0,0,0.3,52,0.5,0,0,0,0,0,0,0,0,3.7,-0.7,25.5,25.5,,Manual Takeoff,Other,Takeoff (RC Assisted),13,5,TRUE,,Mavic Mini,TRUE,FALSE,,Smart,RC,TRUE,TRUE,FALSE,,,TRUE,,FALSE,FALSE,FALSE,FALSE,FALSE,FALSE,FALSE,FALSE,FALSE,FALSE,0,Follow Yaw,0,0,37.2,37.2,FALSE,FALSE,FALSE,FALSE,FALSE,FALSE,,TRUE,Normal,,100,1024,1024,1024,1024,2,FALSE,FALSE,FALSE,FALSE,FALSE,0,FALSE,FALSE,FALSE,FALSE,49,7.379,1001,2051,7.379,FALSE,3.691,3.688,0.007,FALSE,FALSE,NA,105.3,105.2,105.2,0,0,0,0,5,2176,544.01,,Idle,0,20,FALSE,5,TRUE,10,Go Home,FALSE,FALSE,FALSE,FALSE,FALSE,FALSE,FALSE,FALSE,FALSE,FALSE,FALSE,FALSE,6.974144311,79.91427369,2.6,142.1,328,TRUE,1,1,FALSE,FALSE,FALSE,FALSE,,TRUE,FALSE,FALSE,Course Lock,65.6,,16.4,Calm,29,,1.12.8,Mavic Mini,1SDCH7G0169R0K,1SFLH6Q0AB03DJ,1SRCH7F014TAHX,1U5X071EXP5ZJG,51.4,0.2,26.2,9.017328,3.35541,0,1102,Mavic Mini,1SDCH7G0169R0K,1SFLH6Q0AB03DJ,1SRCH7F014TAHX,1U5X071EXP5ZJG,DJI Fly,,1.12.8,1564C7E8-7146-E532-52D3-B4DE062C585D,1SDCH7G0169R0K,,,,,6.974142208,79.914244,10,,
2/21/2024,28:44.4,6m 33.6s,393.6,6.974138142,79.91426984,0,0,0.3,52,0.6,0,0,0,0,0,0,0,0,3.7,-0.6,25.5,25.5,,Manual Takeoff,Other,Takeoff (RC Assisted),13,5,TRUE,,Mavic Mini,TRUE,FALSE,,Smart,RC,TRUE,TRUE,FALSE,,,TRUE,,FALSE,FALSE,FALSE,FALSE,FALSE,FALSE,FALSE,FALSE,FALSE,FALSE,0,Follow Yaw,0,0,37.2,37.2,FALSE,FALSE,FALSE,FALSE,FALSE,FALSE,,TRUE,Normal,,100,1024,1024,1024,1024,2,FALSE,FALSE,FALSE,FALSE,FALSE,0,FALSE,FALSE,FALSE,FALSE,49,7.379,1001,2051,7.379,FALSE,3.691,3.688,0.007,FALSE,FALSE,NA,105.3,105.2,105.2,0,0,0,0,5,2176,544.01,,Idle,0,20,FALSE,5,TRUE,10,Go Home,FALSE,FALSE,FALSE,FALSE,FALSE,FALSE,FALSE,FALSE,FALSE,FALSE,FALSE,FALSE,6.974144311,79.91427369,2.6,142.1,328,TRUE,1,1,FALSE,FALSE,FALSE,FALSE,,TRUE,FALSE,FALSE,Course Lock,65.6,,16.4,Calm,29,,1.12.8,Mavic Mini,1SDCH7G0169R0K,1SFLH6Q0AB03DJ,1SRCH7F014TAHX,1U5X071EXP5ZJG,51.4,0.2,26.2,9.017328,3.35541,0,1102,Mavic Mini,1SDCH7G0169R0K,1SFLH6Q0AB03DJ,1SRCH7F014TAHX,1U5X071EXP5ZJG,DJI Fly,,1.12.8,1564C7E8-7146-E532-52D3-B4DE062C585D,1SDCH7G0169R0K,,,,,6.974142208,79.914244,10,,
2/21/2024,28:44.5,6m 33.7s,393.7,6.974138093,79.91426985,0,0,0.3,52,0.6,0,0,0,0,0,0,0,0,3.6,-0.6,25.5,25.5,,Manual Takeoff,Other,Takeoff (RC Assisted),13,5,TRUE,,Mavic Mini,TRUE,FALSE,,Smart,RC,TRUE,TRUE,FALSE,,,TRUE,,FALSE,FALSE,FALSE,FALSE,FALSE,FALSE,FALSE,FALSE,FALSE,FALSE,0,Follow Yaw,0,0,37.2,37.2,FALSE,FALSE,FALSE,FALSE,FALSE,FALSE,,TRUE,Normal,,100,1024,1024,1024,1024,2,FALSE,FALSE,FALSE,FALSE,FALSE,0,FALSE,FALSE,FALSE,FALSE,49,7.383,1000,2051,7.379,FALSE,3.693,3.69,0.007,FALSE,FALSE,NA,105.3,105.2,105.2,0,0,0,0,5,2176,544.01,,Idle,0,20,FALSE,5,TRUE,10,Go Home,FALSE,FALSE,FALSE,FALSE,FALSE,FALSE,FALSE,FALSE,FALSE,FALSE,FALSE,FALSE,6.974144311,79.91427369,2.6,142.1,328,TRUE,1,1,FALSE,FALSE,FALSE,FALSE,,TRUE,FALSE,FALSE,Course Lock,65.6,,16.4,Calm,29,,1.12.8,Mavic Mini,1SDCH7G0169R0K,1SFLH6Q0AB03DJ,1SRCH7F014TAHX,1U5X071EXP5ZJG,51.4,0.2,26.2,9.017328,3.35541,0,1102,Mavic Mini,1SDCH7G0169R0K,1SFLH6Q0AB03DJ,1SRCH7F014TAHX,1U5X071EXP5ZJG,DJI Fly,,1.12.8,1564C7E8-7146-E532-52D3-B4DE062C585D,1SDCH7G0169R0K,,,,,6.974142208,79.914244,10,,
2/21/2024,28:44.6,6m 33.8s,393.8,6.974138061,79.9142698,0,0,0.3,52,0.6,0,0,0,0,0,0,0,0,3.6,-0.6,25.5,25.5,,Manual Takeoff,Other,Takeoff (RC Assisted),13,5,TRUE,,Mavic Mini,TRUE,FALSE,,Smart,RC,TRUE,TRUE,FALSE,,,TRUE,,FALSE,FALSE,FALSE,FALSE,FALSE,FALSE,FALSE,FALSE,FALSE,FALSE,0,Follow Yaw,0,0,37.2,37.2,FALSE,FALSE,FALSE,FALSE,FALSE,FALSE,,TRUE,Normal,,100,1024,1024,1024,1024,2,FALSE,FALSE,FALSE,FALSE,FALSE,0,FALSE,FALSE,FALSE,FALSE,49,7.383,1000,2051,7.379,FALSE,3.693,3.69,0.007,FALSE,FALSE,NA,105.3,105.2,105.2,0,0,0,0,5,2176,544.01,,Idle,0,20,FALSE,5,TRUE,10,Go Home,FALSE,FALSE,FALSE,FALSE,FALSE,FALSE,FALSE,FALSE,FALSE,FALSE,FALSE,FALSE,6.974144311,79.91427369,2.6,142.1,328,TRUE,1,1,FALSE,FALSE,FALSE,FALSE,,TRUE,FALSE,FALSE,Course Lock,65.6,,16.4,Calm,29,,1.12.8,Mavic Mini,1SDCH7G0169R0K,1SFLH6Q0AB03DJ,1SRCH7F014TAHX,1U5X071EXP5ZJG,51.4,0.2,26.2,9.017328,3.35541,0,1102,Mavic Mini,1SDCH7G0169R0K,1SFLH6Q0AB03DJ,1SRCH7F014TAHX,1U5X071EXP5ZJG,DJI Fly,,1.12.8,1564C7E8-7146-E532-52D3-B4DE062C585D,1SDCH7G0169R0K,,,,,6.974142208,79.914244,10,,
2/21/2024,28:44.7,6m 33.9s,393.9,6.974138043,79.9142698,0,0,0.3,52,0.6,0,0,0,0,0,0,0,0,3.7,-0.6,25.5,25.5,,Manual Takeoff,Other,Takeoff (RC Assisted),13,5,TRUE,,Mavic Mini,TRUE,FALSE,,Smart,RC,TRUE,TRUE,FALSE,,,TRUE,,FALSE,FALSE,FALSE,FALSE,FALSE,FALSE,FALSE,FALSE,FALSE,FALSE,0,Follow Yaw,0,0,37.2,37.2,FALSE,FALSE,FALSE,FALSE,FALSE,FALSE,,TRUE,Normal,,100,1024,1024,1024,1024,2,FALSE,FALSE,FALSE,FALSE,FALSE,0,FALSE,FALSE,FALSE,FALSE,49,7.383,1000,2051,7.379,FALSE,3.693,3.69,0.007,FALSE,FALSE,NA,105.3,105.2,105.2,0,0,0,0,5,2176,544.01,,Idle,0,20,FALSE,5,TRUE,10,Go Home,FALSE,FALSE,FALSE,FALSE,FALSE,FALSE,FALSE,FALSE,FALSE,FALSE,FALSE,FALSE,6.974144311,79.91427369,2.6,142.1,328,TRUE,1,1,FALSE,FALSE,FALSE,FALSE,,TRUE,FALSE,FALSE,Course Lock,65.6,,16.4,Calm,29,,1.12.8,Mavic Mini,1SDCH7G0169R0K,1SFLH6Q0AB03DJ,1SRCH7F014TAHX,1U5X071EXP5ZJG,51.4,0.2,26.2,9.017328,3.35541,0,1102,Mavic Mini,1SDCH7G0169R0K,1SFLH6Q0AB03DJ,1SRCH7F014TAHX,1U5X071EXP5ZJG,DJI Fly,,1.12.8,1564C7E8-7146-E532-52D3-B4DE062C585D,1SDCH7G0169R0K,,,,,6.974142208,79.914244,10,,
2/21/2024,28:44.8,6m 34.0s,394,6.974138018,79.91426981,0,0,0.3,52,0.6,0,0,0,0,0,0,0,0,3.6,-0.6,25.5,25.5,,Manual Takeoff,Other,Takeoff (RC Assisted),13,5,TRUE,,Mavic Mini,TRUE,FALSE,,Smart,RC,TRUE,TRUE,FALSE,,,TRUE,,FALSE,FALSE,FALSE,FALSE,FALSE,FALSE,FALSE,FALSE,FALSE,FALSE,0,Follow Yaw,0,0,37.2,37.2,FALSE,FALSE,FALSE,FALSE,FALSE,FALSE,,TRUE,Normal,,100,1024,1024,1262,1024,2,FALSE,FALSE,FALSE,FALSE,FALSE,0,FALSE,FALSE,FALSE,FALSE,49,7.383,1000,2051,7.379,FALSE,3.693,3.69,0.007,FALSE,FALSE,NA,105.3,105.2,105.2,0,0,0,0,5,2176,544.01,,Idle,0,20,FALSE,5,TRUE,10,Go Home,FALSE,FALSE,FALSE,FALSE,FALSE,FALSE,FALSE,FALSE,FALSE,FALSE,FALSE,FALSE,6.974144311,79.91427369,2.6,142.1,328,TRUE,1,1,FALSE,FALSE,FALSE,FALSE,,TRUE,FALSE,FALSE,Course Lock,65.6,,16.4,Calm,29,,1.12.8,Mavic Mini,1SDCH7G0169R0K,1SFLH6Q0AB03DJ,1SRCH7F014TAHX,1U5X071EXP5ZJG,51.4,0.2,26.2,9.017328,3.35541,0,1102,Mavic Mini,1SDCH7G0169R0K,1SFLH6Q0AB03DJ,1SRCH7F014TAHX,1U5X071EXP5ZJG,DJI Fly,,1.12.8,1564C7E8-7146-E532-52D3-B4DE062C585D,1SDCH7G0169R0K,,,,,6.974142208,79.914244,10,,
2/21/2024,28:44.9,6m 34.1s,394.1,6.974137962,79.91426985,0,0,0.3,52,0.7,0,0,0,0,0,0,0,0,3.6,-0.6,25.5,25.5,,Manual Takeoff,Other,Takeoff (RC Assisted),13,5,TRUE,,Mavic Mini,TRUE,FALSE,,Smart,RC,TRUE,TRUE,FALSE,,,TRUE,,FALSE,FALSE,FALSE,FALSE,FALSE,FALSE,FALSE,FALSE,FALSE,FALSE,0,Follow Yaw,0,0,37.2,37.2,FALSE,FALSE,FALSE,FALSE,FALSE,FALSE,,TRUE,Normal,,100,1024,1024,1474,1024,2,FALSE,FALSE,FALSE,FALSE,FALSE,0,FALSE,FALSE,FALSE,FALSE,49,7.383,1000,2051,7.379,FALSE,3.693,3.69,0.007,FALSE,FALSE,NA,105.3,105.2,105.2,0,0,0,0,5,2176,544.01,,Idle,0,20,FALSE,5,TRUE,10,Go Home,FALSE,FALSE,FALSE,FALSE,FALSE,FALSE,FALSE,FALSE,FALSE,FALSE,FALSE,FALSE,6.974144311,79.91427369,2.6,142.1,328,TRUE,1,1,FALSE,FALSE,FALSE,FALSE,,TRUE,FALSE,FALSE,Course Lock,65.6,,16.4,Calm,29,,1.12.8,Mavic Mini,1SDCH7G0169R0K,1SFLH6Q0AB03DJ,1SRCH7F014TAHX,1U5X071EXP5ZJG,51.4,0.2,26.2,9.017328,3.35541,0,1102,Mavic Mini,1SDCH7G0169R0K,1SFLH6Q0AB03DJ,1SRCH7F014TAHX,1U5X071EXP5ZJG,DJI Fly,,1.12.8,1564C7E8-7146-E532-52D3-B4DE062C585D,1SDCH7G0169R0K,,,,,6.974142208,79.914244,10,,
2/21/2024,28:44.9,6m 34.2s,394.2,6.974137904,79.91426989,0,0,0.3,52,0.7,0,0,0,0,0,0,0,0,3.6,-0.6,25.5,25.5,,Manual Takeoff,Other,Takeoff (RC Assisted),13,5,TRUE,,Mavic Mini,TRUE,FALSE,,Smart,RC,TRUE,TRUE,FALSE,,,TRUE,,FALSE,FALSE,FALSE,FALSE,FALSE,FALSE,FALSE,FALSE,FALSE,FALSE,0,Follow Yaw,0,0,37.2,37.2,FALSE,FALSE,FALSE,FALSE,FALSE,FALSE,,TRUE,Normal,,100,1024,1024,1639,1024,2,FALSE,FALSE,FALSE,FALSE,FALSE,0,FALSE,FALSE,FALSE,FALSE,49,7.383,1000,2051,7.382,FALSE,3.693,3.69,0.007,FALSE,FALSE,NA,105.3,105.2,105.2,0,0,0,0,5,2445.3,611.33,,Idle,0,20,FALSE,5,TRUE,10,Go Home,FALSE,FALSE,FALSE,FALSE,FALSE,FALSE,FALSE,FALSE,FALSE,FALSE,FALSE,FALSE,6.974144311,79.91427369,2.7,142.1,328,TRUE,1,1,FALSE,FALSE,FALSE,FALSE,,TRUE,FALSE,FALSE,Course Lock,65.6,,16.4,Calm,29,,1.12.8,Mavic Mini,1SDCH7G0169R0K,1SFLH6Q0AB03DJ,1SRCH7F014TAHX,1U5X071EXP5ZJG,51.4,0.2,26.2,9.017328,3.35541,0,1102,Mavic Mini,1SDCH7G0169R0K,1SFLH6Q0AB03DJ,1SRCH7F014TAHX,1U5X071EXP5ZJG,DJI Fly,,1.12.8,1564C7E8-7146-E532-52D3-B4DE062C585D,1SDCH7G0169R0K,,,,,6.974142208,79.914244,10,,
2/21/2024,28:45.0,6m 34.3s,394.3,6.974137762,79.91426993,0,0,0.3,52,0.7,0,0,0,0,0,0,0,0,3.6,-0.6,25.5,25.5,,Manual Takeoff,Other,Takeoff (RC Assisted),13,5,TRUE,,Mavic Mini,TRUE,FALSE,,Smart,RC,TRUE,TRUE,FALSE,,,TRUE,,FALSE,FALSE,FALSE,FALSE,FALSE,FALSE,FALSE,FALSE,FALSE,FALSE,0,Follow Yaw,0,0,37.2,37.2,FALSE,FALSE,FALSE,FALSE,FALSE,FALSE,,TRUE,Normal,,100,1024,1024,1684,1024,2,FALSE,FALSE,FALSE,FALSE,FALSE,0,FALSE,FALSE,FALSE,FALSE,49,7.383,1000,2051,7.382,FALSE,3.693,3.69,0.007,FALSE,FALSE,NA,105.3,105.2,105.2,0,0,0,0,5,2445.3,611.33,,Idle,0,20,FALSE,5,TRUE,10,Go Home,FALSE,FALSE,FALSE,FALSE,FALSE,FALSE,FALSE,FALSE,FALSE,FALSE,FALSE,FALSE,6.974144311,79.91427369,2.7,142.1,328,TRUE,1,1,FALSE,FALSE,FALSE,FALSE,,TRUE,FALSE,FALSE,Course Lock,65.6,,16.4,Calm,29,,1.12.8,Mavic Mini,1SDCH7G0169R0K,1SFLH6Q0AB03DJ,1SRCH7F014TAHX,1U5X071EXP5ZJG,51.4,0.2,26.2,9.017328,3.35541,0,1102,Mavic Mini,1SDCH7G0169R0K,1SFLH6Q0AB03DJ,1SRCH7F014TAHX,1U5X071EXP5ZJG,DJI Fly,,1.12.8,1564C7E8-7146-E532-52D3-B4DE062C585D,1SDCH7G0169R0K,,,,,6.974142208,79.914244,10,,
2/21/2024,28:45.1,6m 34.4s,394.4,6.974137693,79.91426995,0,0,0.3,52,0.8,0,0,0,0,0,0,0,0,3.6,-0.6,25.4,25.4,,Manual Takeoff,Other,Takeoff (RC Assisted),13,5,TRUE,,Mavic Mini,TRUE,FALSE,,Smart,RC,TRUE,TRUE,FALSE,,,TRUE,,FALSE,FALSE,FALSE,FALSE,FALSE,FALSE,FALSE,FALSE,FALSE,FALSE,0,Follow Yaw,0,0,37.2,37.2,FALSE,FALSE,FALSE,FALSE,FALSE,FALSE,,TRUE,Normal,,100,1024,1024,1684,1024,2,FALSE,FALSE,FALSE,FALSE,FALSE,0,FALSE,FALSE,FALSE,FALSE,49,7.383,1000,2051,7.382,FALSE,3.693,3.69,0.007,FALSE,FALSE,NA,105.3,105.2,105.2,0,0,0,0,5,2445.3,611.33,,Idle,0,20,FALSE,5,TRUE,10,Go Home,FALSE,FALSE,FALSE,FALSE,FALSE,FALSE,FALSE,FALSE,FALSE,FALSE,FALSE,FALSE,6.974144311,79.91427369,2.7,142.1,328,TRUE,1,1,FALSE,FALSE,FALSE,FALSE,,TRUE,FALSE,FALSE,Course Lock,65.6,,16.4,Calm,29,,1.12.8,Mavic Mini,1SDCH7G0169R0K,1SFLH6Q0AB03DJ,1SRCH7F014TAHX,1U5X071EXP5ZJG,51.4,0.2,26.2,9.017328,3.35541,0,1102,Mavic Mini,1SDCH7G0169R0K,1SFLH6Q0AB03DJ,1SRCH7F014TAHX,1U5X071EXP5ZJG,DJI Fly,,1.12.8,1564C7E8-7146-E532-52D3-B4DE062C585D,1SDCH7G0169R0K,,,,,6.974142208,79.914244,10,,
2/21/2024,28:45.2,6m 34.5s,394.5,6.974137622,79.91427,0,0,0.3,52,0.8,0,0,0,0,0,0,0,0,3.6,-0.7,25.5,25.5,,Manual Takeoff,Other,Takeoff (RC Assisted),13,5,TRUE,,Mavic Mini,TRUE,FALSE,,Smart,RC,TRUE,TRUE,FALSE,,,TRUE,,FALSE,FALSE,FALSE,FALSE,FALSE,FALSE,FALSE,FALSE,FALSE,FALSE,0,Follow Yaw,0,0,37.2,37.2,FALSE,FALSE,FALSE,FALSE,FALSE,FALSE,,TRUE,Normal,,100,1024,1024,1684,1024,2,FALSE,FALSE,FALSE,FALSE,FALSE,0,FALSE,FALSE,FALSE,FALSE,49,7.383,1000,2051,7.382,FALSE,3.693,3.69,0.007,FALSE,FALSE,NA,105.3,105.2,105.2,0,0,0,0,5,2445.3,611.33,,Idle,0,20,FALSE,5,TRUE,10,Go Home,FALSE,FALSE,FALSE,FALSE,FALSE,FALSE,FALSE,FALSE,FALSE,FALSE,FALSE,FALSE,6.974144311,79.91427369,2.7,142.1,328,TRUE,1,1,FALSE,FALSE,FALSE,FALSE,,TRUE,FALSE,FALSE,Course Lock,65.6,,16.4,Calm,29,,1.12.8,Mavic Mini,1SDCH7G0169R0K,1SFLH6Q0AB03DJ,1SRCH7F014TAHX,1U5X071EXP5ZJG,51.4,0.2,26.2,9.017328,3.35541,0,1102,Mavic Mini,1SDCH7G0169R0K,1SFLH6Q0AB03DJ,1SRCH7F014TAHX,1U5X071EXP5ZJG,DJI Fly,,1.12.8,1564C7E8-7146-E532-52D3-B4DE062C585D,1SDCH7G0169R0K,,,,,6.974142208,79.914244,10,,
2/21/2024,28:45.4,6m 34.6s,394.6,6.974137567,79.91427004,0,0,0.3,52,0.8,0,0,0,0,0,0,0,0,3.7,-0.8,25.4,25.4,,Manual Takeoff,Other,Takeoff (RC Assisted),13,5,TRUE,,Mavic Mini,TRUE,FALSE,,Smart,RC,TRUE,TRUE,FALSE,,,TRUE,,FALSE,FALSE,FALSE,FALSE,FALSE,FALSE,FALSE,FALSE,FALSE,FALSE,0,Follow Yaw,0,0,37.2,37.2,FALSE,FALSE,FALSE,FALSE,FALSE,FALSE,,TRUE,Normal,,100,1024,1024,1684,1024,2,FALSE,FALSE,FALSE,FALSE,FALSE,0,FALSE,FALSE,FALSE,FALSE,49,7.383,1000,2051,7.382,FALSE,3.693,3.69,0.007,FALSE,FALSE,NA,105.3,105.2,105.2,0,0,0,0,5,2445.3,611.33,,Idle,0,20,FALSE,5,TRUE,10,Go Home,FALSE,FALSE,FALSE,FALSE,FALSE,FALSE,FALSE,FALSE,FALSE,FALSE,FALSE,FALSE,6.974144311,79.91427369,2.7,142.1,328,TRUE,1,1,FALSE,FALSE,FALSE,FALSE,,TRUE,FALSE,FALSE,Course Lock,65.6,,16.4,Calm,29,,1.12.8,Mavic Mini,1SDCH7G0169R0K,1SFLH6Q0AB03DJ,1SRCH7F014TAHX,1U5X071EXP5ZJG,51.4,0.2,26.2,9.017328,3.35541,0,1102,Mavic Mini,1SDCH7G0169R0K,1SFLH6Q0AB03DJ,1SRCH7F014TAHX,1U5X071EXP5ZJG,DJI Fly,,1.12.8,1564C7E8-7146-E532-52D3-B4DE062C585D,1SDCH7G0169R0K,,,,,6.974142208,79.914244,10,,
2/21/2024,28:45.6,6m 34.7s,394.7,6.974137623,79.91427006,0,0,0.3,52,0.8,0,0,0,0,0,0,0,0,3.5,-0.9,24.7,24.7,,Manual Takeoff,Other,Takeoff (RC Assisted),13,5,TRUE,,Mavic Mini,TRUE,FALSE,,Smart,RC,TRUE,TRUE,FALSE,,,TRUE,,FALSE,FALSE,FALSE,FALSE,FALSE,FALSE,FALSE,FALSE,FALSE,FALSE,0,Follow Yaw,0,0,37.1,37.1,FALSE,FALSE,FALSE,FALSE,FALSE,FALSE,,TRUE,Normal,,100,1024,1024,1684,1024,2,FALSE,FALSE,FALSE,FALSE,FALSE,0,FALSE,FALSE,FALSE,FALSE,49,7.383,1000,2051,7.382,FALSE,3.693,3.69,0.007,FALSE,FALSE,NA,105.3,105.2,105.2,0,0,0,0,5,2445.3,611.33,,Idle,0,20,FALSE,5,TRUE,10,Go Home,FALSE,FALSE,FALSE,FALSE,FALSE,FALSE,FALSE,FALSE,FALSE,FALSE,FALSE,FALSE,6.974144311,79.91427369,2.7,142.1,328,TRUE,1,1,FALSE,FALSE,FALSE,FALSE,,TRUE,FALSE,FALSE,Course Lock,65.6,,16.4,Calm,29,,1.12.8,Mavic Mini,1SDCH7G0169R0K,1SFLH6Q0AB03DJ,1SRCH7F014TAHX,1U5X071EXP5ZJG,51.4,0.2,26.2,9.017328,3.35541,0,1102,Mavic Mini,1SDCH7G0169R0K,1SFLH6Q0AB03DJ,1SRCH7F014TAHX,1U5X071EXP5ZJG,DJI Fly,,1.12.8,1564C7E8-7146-E532-52D3-B4DE062C585D,1SDCH7G0169R0K,,,,,6.974142208,79.914244,10,,
2/21/2024,28:45.6,6m 34.8s,394.8,6.974137601,79.91427007,0,0,0.3,52,0.8,0,0,0,0,0,0,0,0,3,-0.8,24.2,24.2,,Manual Takeoff,Other,Takeoff (RC Assisted),13,5,TRUE,,Mavic Mini,TRUE,FALSE,,Smart,RC,TRUE,TRUE,FALSE,,,TRUE,,FALSE,FALSE,FALSE,FALSE,FALSE,FALSE,FALSE,FALSE,FALSE,FALSE,0,Follow Yaw,0,0,37,37,FALSE,FALSE,FALSE,FALSE,FALSE,FALSE,,TRUE,Normal,,100,1024,1024,1684,1024,2,FALSE,FALSE,FALSE,FALSE,FALSE,0,FALSE,FALSE,FALSE,FALSE,49,7.383,1000,2051,7.382,FALSE,3.693,3.69,0.007,FALSE,FALSE,NA,105.3,105.2,105.2,0,0,0,0,5,2445.3,611.33,,Idle,0,20,FALSE,5,TRUE,10,Go Home,FALSE,FALSE,FALSE,FALSE,FALSE,FALSE,FALSE,FALSE,FALSE,FALSE,FALSE,FALSE,6.974144311,79.91427369,2.7,142.1,328,TRUE,1,1,FALSE,FALSE,FALSE,FALSE,,TRUE,FALSE,FALSE,Course Lock,65.6,,16.4,Calm,29,,1.12.8,Mavic Mini,1SDCH7G0169R0K,1SFLH6Q0AB03DJ,1SRCH7F014TAHX,1U5X071EXP5ZJG,51.4,0.2,26.2,9.017328,3.35541,0,1102,Mavic Mini,1SDCH7G0169R0K,1SFLH6Q0AB03DJ,1SRCH7F014TAHX,1U5X071EXP5ZJG,DJI Fly,,1.12.8,1564C7E8-7146-E532-52D3-B4DE062C585D,1SDCH7G0169R0K,,,,,6.974142208,79.914244,10,,
2/21/2024,28:45.7,6m 34.9s,394.9,6.974137556,79.91427007,0,0,0.3,52,0.9,0,0,0,0,0,0,0,0,1.8,-0.6,23.3,23.3,,Manual Takeoff,Other,Takeoff (RC Assisted),13,5,TRUE,,Mavic Mini,TRUE,FALSE,,Smart,RC,TRUE,TRUE,FALSE,,,TRUE,,FALSE,FALSE,FALSE,FALSE,FALSE,FALSE,FALSE,FALSE,FALSE,FALSE,0,Follow Yaw,0,0,36.7,36.7,FALSE,FALSE,FALSE,FALSE,FALSE,FALSE,,TRUE,Normal,,100,1024,1024,1684,1024,2,FALSE,FALSE,FALSE,FALSE,FALSE,0,FALSE,FALSE,FALSE,FALSE,49,7.337,1000,2051,7.382,FALSE,3.671,3.666,0.007,FALSE,FALSE,NA,105.4,105.2,105.4,0,0,0,0,5,2445.3,611.33,,Idle,0,20,FALSE,5,TRUE,10,Go Home,FALSE,FALSE,FALSE,FALSE,FALSE,FALSE,FALSE,FALSE,FALSE,FALSE,FALSE,FALSE,6.974144311,79.91427369,2.7,142.1,328,TRUE,1,1,FALSE,FALSE,FALSE,FALSE,,TRUE,FALSE,FALSE,Course Lock,65.6,,16.4,Calm,29,,1.12.8,Mavic Mini,1SDCH7G0169R0K,1SFLH6Q0AB03DJ,1SRCH7F014TAHX,1U5X071EXP5ZJG,51.4,0.2,26.2,9.017328,3.35541,0,1102,Mavic Mini,1SDCH7G0169R0K,1SFLH6Q0AB03DJ,1SRCH7F014TAHX,1U5X071EXP5ZJG,DJI Fly,,1.12.8,1564C7E8-7146-E532-52D3-B4DE062C585D,1SDCH7G0169R0K,,,,,6.974142208,79.914244,10,,
2/21/2024,28:45.8,6m 35.0s,395,6.974137529,79.91427007,0,0,0.3,52,0.9,0,0,0,0,0,0,0,0,0.5,-2.1,22.4,22.4,,Manual Takeoff,Other,Takeoff (RC Assisted),13,5,TRUE,,Mavic Mini,TRUE,FALSE,,Smart,RC,TRUE,TRUE,FALSE,,,TRUE,,FALSE,FALSE,FALSE,FALSE,FALSE,FALSE,FALSE,FALSE,FALSE,FALSE,0,Follow Yaw,0,0,36.2,36.2,FALSE,FALSE,FALSE,FALSE,FALSE,FALSE,,TRUE,Normal,,100,1024,1024,1684,1024,2,FALSE,FALSE,FALSE,FALSE,FALSE,0,FALSE,FALSE,FALSE,FALSE,49,7.337,1000,2051,7.382,FALSE,3.671,3.666,0.007,FALSE,FALSE,NA,105.4,105.2,105.4,0,0,0,0,5,2445.3,611.33,,Idle,0,20,FALSE,5,TRUE,10,Go Home,FALSE,FALSE,FALSE,FALSE,FALSE,FALSE,FALSE,FALSE,FALSE,FALSE,FALSE,FALSE,6.974144311,79.91427369,2.7,142.1,328,TRUE,1,1,FALSE,FALSE,FALSE,FALSE,,TRUE,FALSE,FALSE,Course Lock,65.6,,16.4,Calm,29,,1.12.8,Mavic Mini,1SDCH7G0169R0K,1SFLH6Q0AB03DJ,1SRCH7F014TAHX,1U5X071EXP5ZJG,51.4,0.2,26.2,9.017328,3.35541,0,1102,Mavic Mini,1SDCH7G0169R0K,1SFLH6Q0AB03DJ,1SRCH7F014TAHX,1U5X071EXP5ZJG,DJI Fly,,1.12.8,1564C7E8-7146-E532-52D3-B4DE062C585D,1SDCH7G0169R0K,,,,,6.974142208,79.914244,10,,
2/21/2024,28:45.9,6m 35.1s,395.1,6.97413762,79.91427008,0,0,0.3,52,0.9,0,0,0,0,0,0,-0.447388,0,-0.7,-1.7,21.5,21.5,,Tripod,Other,,13,5,TRUE,,Mavic Mini,TRUE,FALSE,,Smart,RC,FALSE,TRUE,FALSE,,,TRUE,,FALSE,FALSE,FALSE,FALSE,FALSE,FALSE,FALSE,FALSE,FALSE,FALSE,0,Follow Yaw,0,0,35.7,35.7,FALSE,FALSE,FALSE,FALSE,FALSE,FALSE,,TRUE,Normal,,100,1024,1024,1684,1024,2,FALSE,FALSE,FALSE,FALSE,FALSE,0,FALSE,FALSE,FALSE,FALSE,49,7.337,1000,2051,7.382,FALSE,3.671,3.666,0.007,FALSE,FALSE,NA,105.4,105.2,105.4,0,0,0,0,5,2445.3,611.33,,Idle,0,20,FALSE,5,TRUE,10,Go Home,FALSE,FALSE,FALSE,FALSE,FALSE,FALSE,FALSE,FALSE,FALSE,FALSE,FALSE,FALSE,6.974144311,79.91427369,2.7,142.1,328,TRUE,1,1,FALSE,FALSE,FALSE,FALSE,,TRUE,FALSE,FALSE,Course Lock,65.6,,16.4,Calm,29,,1.12.8,Mavic Mini,1SDCH7G0169R0K,1SFLH6Q0AB03DJ,1SRCH7F014TAHX,1U5X071EXP5ZJG,51.4,0.2,26.2,9.017328,3.35541,0,1102,Mavic Mini,1SDCH7G0169R0K,1SFLH6Q0AB03DJ,1SRCH7F014TAHX,1U5X071EXP5ZJG,DJI Fly,,1.12.8,1564C7E8-7146-E532-52D3-B4DE062C585D,1SDCH7G0169R0K,,,,,6.974142208,79.914244,10,Flight mode changed to Tripod.,
2/21/2024,28:46.0,6m 35.2s,395.2,6.974137677,79.91427007,0,0,0.3,52,0.9,0,0,0,0,0,0,-0.671082,0,1.5,-0.2,21.5,21.5,,Tripod,Other,,13,5,TRUE,,Mavic Mini,TRUE,FALSE,,Smart,RC,FALSE,TRUE,FALSE,,,TRUE,,FALSE,FALSE,FALSE,FALSE,FALSE,FALSE,FALSE,FALSE,FALSE,FALSE,0,Follow Yaw,0,0,35.3,35.3,FALSE,FALSE,FALSE,FALSE,FALSE,FALSE,,TRUE,Normal,,100,1024,1024,1684,1024,2,FALSE,FALSE,FALSE,FALSE,FALSE,0,FALSE,FALSE,FALSE,FALSE,49,7.337,1000,2051,7.303,FALSE,3.671,3.666,0.007,FALSE,FALSE,NA,105.4,105.2,105.4,0,0,3,0,5,2781.8,695.46,,Idle,0,20,FALSE,5,TRUE,10,Go Home,FALSE,FALSE,FALSE,FALSE,FALSE,FALSE,FALSE,FALSE,FALSE,FALSE,FALSE,FALSE,6.974137613,79.91427008,0,142.1,328,TRUE,1,1,FALSE,FALSE,FALSE,FALSE,,TRUE,FALSE,FALSE,Course Lock,65.6,,16.4,Calm,29,,1.12.8,Mavic Mini,1SDCH7G0169R0K,1SFLH6Q0AB03DJ,1SRCH7F014TAHX,1U5X071EXP5ZJG,51.4,0.2,26.2,9.017328,3.35541,0,1102,Mavic Mini,1SDCH7G0169R0K,1SFLH6Q0AB03DJ,1SRCH7F014TAHX,1U5X071EXP5ZJG,DJI Fly,,1.12.8,1564C7E8-7146-E532-52D3-B4DE062C585D,1SDCH7G0169R0K,,,,,6.974142208,79.914244,10,Home Point Updated.,
2/21/2024,28:46.1,6m 35.3s,395.3,6.974137738,79.91427004,0,0,0.6,52,1,0.223694,0.223694,0.223694,0.223694,0,0,-1.11847,0,1.3,0.3,21.7,21.7,335.9,Tripod,Other,,13,5,TRUE,,Mavic Mini,TRUE,FALSE,,Smart,RC,FALSE,TRUE,FALSE,,,TRUE,,FALSE,FALSE,FALSE,FALSE,FALSE,FALSE,FALSE,FALSE,FALSE,FALSE,0,Follow Yaw,0,0,35.1,35.1,FALSE,FALSE,FALSE,FALSE,FALSE,FALSE,,TRUE,Normal,,100,1024,1024,1684,1024,2,FALSE,FALSE,FALSE,FALSE,FALSE,0,FALSE,FALSE,FALSE,FALSE,49,7.337,1000,2051,7.303,FALSE,3.671,3.666,0.007,FALSE,FALSE,NA,105.4,105.2,105.4,0,0,3,0,5,2781.8,695.46,,Idle,0,20,FALSE,5,TRUE,10,Go Home,FALSE,FALSE,FALSE,FALSE,FALSE,FALSE,FALSE,FALSE,FALSE,FALSE,FALSE,FALSE,6.974137613,79.91427008,0,142.1,328,TRUE,1,1,FALSE,FALSE,FALSE,FALSE,,TRUE,FALSE,FALSE,Course Lock,65.6,,16.4,Calm,29,,1.12.8,Mavic Mini,1SDCH7G0169R0K,1SFLH6Q0AB03DJ,1SRCH7F014TAHX,1U5X071EXP5ZJG,51.4,0.2,26.2,9.017328,3.35541,0,1102,Mavic Mini,1SDCH7G0169R0K,1SFLH6Q0AB03DJ,1SRCH7F014TAHX,1U5X071EXP5ZJG,DJI Fly,,1.12.8,1564C7E8-7146-E532-52D3-B4DE062C585D,1SDCH7G0169R0K,,,,,6.974142208,79.914244,10,,
