CUSTOM.date [local],CUSTOM.updateTime [local],OSD.flyTime,OSD.flyTime [s],OSD.latitude,OSD.longitude,OSD.height [ft],OSD.heightMax [ft],OSD.vpsHeight [ft],OSD.altitude [ft],OSD.mileage [ft],OSD.hSpeed [MPH],OSD.hSpeedMax [MPH],OSD.xSpeed [MPH],OSD.xSpeedMax [MPH],OSD.ySpeed [MPH],OSD.ySpeedMax [MPH],OSD.zSpeed [MPH],OSD.zSpeedMax [MPH],OSD.pitch,OSD.roll,OSD.yaw,OSD.yaw [360],OSD.directionOfTravel,OSD.flycState,OSD.flycCommand,OSD.flightAction,OSD.gpsNum,OSD.gpsLevel,OSD.isGPSUsed,OSD.nonGPSCause,OSD.droneType,OSD.isSwaveWork,OSD.waveError,OSD.goHomeStatus,OSD.batteryType,OSD.ctrlDevice,OSD.isOnGround,OSD.isMotorOn,OSD.isMotorBlocked,OSD.motorStartFailedCause,OSD.motorFailReason,OSD.isImuPreheated,OSD.imuInitFailReason,OSD.isAcceletorOverRange,OSD.isBarometerDeadInAir,OSD.isCompassError,OSD.isGoHomeHeightModified,OSD.canIOCWork,OSD.isNotEnoughForce,OSD.isOutOfLimit,OSD.isPropellerCatapult,OSD.isVibrating,OSD.isVisionUsed,OSD.voltageWarning,GIMBAL.mode,GIMBAL.pitch,GIMBAL.roll,GIMBAL.yaw,GIMBAL.yaw [360],GIMBAL.isPitchAtLimit,GIMBAL.isRollAtLimit,GIMBAL.isYawAtLimit,GIMBAL.isStuck,CAMERA.isPhoto,CAMERA.isVideo,CAMERA.filename,CAMERA.sdCardIsInserted,CAMERA.sdCardState,RC.downlinkSignal,RC.uplinkSignal,RC.aileron,RC.elevator,RC.throttle,RC.rudder,RC.mode,RC.goHomeDepressed,RC.recordDepressed,RC.shutterDepressed,RC.playbackDepressed,RC.wheelDepressed,RC.wheelOffset,RC.custom1Depressed,RC.custom2Depressed,RC.custom3Depressed,RC.custom4Depressed,BATTERY.chargeLevel,BATTERY.currentPV [V],BATTERY.currentCapacity [mAh],BATTERY.fullCapacity [mAh],BATTERY.voltage [V],BATTERY.isCellVoltageEstimated,BATTERY.cellVoltage1 [V],BATTERY.cellVoltage2 [V],BATTERY.maxCellVoltageDeviation,BATTERY.isCellVoltageDeviationHigh,BATTERY.isVoltageLow,BATTERY.current [A],BATTERY.temperature [F],BATTERY.minTemperature [F],BATTERY.maxTemperature [F],BATTERY.usefulTime [s],BATTERY.goHomeTime [s],BATTERY.landTime [s],BATTERY.goHomeBattery,BATTERY.landBattery,BATTERY.safeFlyRadius,BATTERY.volumeConsume,BATTERY.status,BATTERY.goHomeStatus,BATTERY.goHomeCountdown,BATTERY.lowWarning,BATTERY.lowWarningGoHome,BATTERY.seriousLowWarning,BATTERY.seriousLowWarningLanding,BATTERY.timesCharged,MC.failSafeAction,MC.isObstacleAvoidanceEnabled,MC.isCollisionAvoidanceEnabled,MC.isRthObstacleAvoidanceEnabled,MC.isBraking,MC.isAvoidingObstacle,MC.isAvoidingActiveObstacle,MC.isAscentLimitedByObstacle,MC.isLandingConfirmationNeeded,MC.atLowAltitudeLimit,MC.atDistanceLimit,MC.atAirportAltitudeLimit,MC.atAirportBoundary,HOME.latitude,HOME.longitude,HOME.distance [ft],HOME.height [ft],HOME.heightLimit [ft],HOME.isHomeRecord,HOME.goHomeMode,HOME.aircraftHeadDirection,HOME.isDynamicHomePointEnabled,HOME.isReachedLimitDistance,HOME.isReachedLimitHeight,HOME.isCompassCalibrating,HOME.compassCalibrationState,HOME.isMultipleFlightModeEnabled,HOME.isBeginnerMode,HOME.isIOCEnabled,HOME.iocMode,HOME.goHomeHeight [ft],HOME.courseLockAngle,HOME.forceLandingHeight [ft],HOME.wind,HOME.dataRecorderFileIndex,RECOVER.appType,RECOVER.appVersion,RECOVER.aircraftName,RECOVER.aircraftSerial,RECOVER.cameraSerial,RECOVER.rcSerial,RECOVER.batterySerial,DETAILS.totalTime [s],DETAILS.totalDistance [ft],DETAILS.maxHeight [ft],DETAILS.maxHorizontalSpeed [MPH],DETAILS.maxVerticalSpeed [MPH],DETAILS.photoNum,DETAILS.videoTime [s],DETAILS.aircraftName,DETAILS.aircraftSerial,DETAILS.cameraSerial,DETAILS.rcSerial,DETAILS.batterySerial,DETAILS.appName,DETAILS.appType,DETAILS.appVersion,DETAILS.guid,SERIAL.flightController,SERIAL.camera,SERIAL.gimbal,SERIAL.rc,SERIAL.battery,APPGPS.latitude,APPGPS.longitude,APPGPS.accuracy,APP.tip,APP.warning
2/15/2024,32:32.0,3m 33.2s,213.2,6.974495582,79.91427637,0,0,0.9,49,0,0,0,0,0,0,0,0,0,4.4,0.3,-161.4,198.6,,Starting Motors,Auto Fly,Takeoff (App Auto),16,5,TRUE,,Mavic Mini,FALSE,FALSE,,Smart,RC,TRUE,TRUE,FALSE,,,TRUE,,FALSE,FALSE,FALSE,FALSE,FALSE,FALSE,FALSE,FALSE,FALSE,FALSE,0,Follow Yaw,0,0,-134.7,225.3,FALSE,FALSE,FALSE,FALSE,FALSE,FALSE,,TRUE,Normal,,,1024,1024,1024,1024,2,FALSE,FALSE,FALSE,FALSE,FALSE,0,FALSE,FALSE,FALSE,FALSE,84,7.921,1772,2113,7.921,TRUE,3.961,3.961,,FALSE,FALSE,NA,97.7,97.7,97.7,,,,,,,,,Idle,,,TRUE,,FALSE,9,Go Home,FALSE,FALSE,FALSE,FALSE,FALSE,FALSE,FALSE,FALSE,FALSE,FALSE,FALSE,FALSE,,,,,,FALSE,,,FALSE,FALSE,FALSE,FALSE,,FALSE,FALSE,FALSE,,,,,Calm,,,1.12.8,Mavic Mini,1SDCH7G0169R0K,1SFLH6Q0AB03DJ,1SRCH7F014TAHX,1U5X071EXP5ZJG,73.4,0.2,6.5,4.032755,2.23694,0,0,Mavic Mini,1SDCH7G0169R0K,1SFLH6Q0AB03DJ,1SRCH7F014TAHX,1U5X071EXP5ZJG,DJI Fly,,1.12.8,E89B6B78-B571-F0A0-A006-A3C37912BE74,1SDCH7G0169R0K,,,,,,,,Flight mode changed to Starting Motors.,
2/15/2024,28:59.0,3m 33.3s,213.3,6.974495576,79.91427637,0,0,0.9,49,0,0,0,0,0,0,0,0,0,4.5,0.3,-161.3,198.7,,Starting Motors,Auto Fly,Takeoff (App Auto),16,5,TRUE,,Mavic Mini,FALSE,FALSE,,Smart,RC,TRUE,TRUE,FALSE,,,TRUE,,FALSE,FALSE,FALSE,FALSE,FALSE,FALSE,FALSE,FALSE,FALSE,FALSE,0,Follow Yaw,0,0,-134.7,225.3,FALSE,FALSE,FALSE,FALSE,FALSE,FALSE,,TRUE,Normal,,,1024,1024,1024,1024,2,FALSE,FALSE,FALSE,FALSE,FALSE,0,FALSE,FALSE,FALSE,FALSE,84,7.921,1772,2113,7.921,TRUE,3.961,3.961,,FALSE,FALSE,NA,97.7,97.7,97.7,,,,,,,,,Idle,,,TRUE,,FALSE,9,Go Home,FALSE,FALSE,FALSE,FALSE,FALSE,FALSE,FALSE,FALSE,FALSE,FALSE,FALSE,FALSE,,,,,,FALSE,,,FALSE,FALSE,FALSE,FALSE,,FALSE,FALSE,FALSE,,,,,Calm,,,1.12.8,Mavic Mini,1SDCH7G0169R0K,1SFLH6Q0AB03DJ,1SRCH7F014TAHX,1U5X071EXP5ZJG,73.4,0.2,6.5,4.032755,2.23694,0,0,Mavic Mini,1SDCH7G0169R0K,1SFLH6Q0AB03DJ,1SRCH7F014TAHX,1U5X071EXP5ZJG,DJI Fly,,1.12.8,E89B6B78-B571-F0A0-A006-A3C37912BE74,1SDCH7G0169R0K,,,,,,,,,
2/15/2024,28:59.1,3m 33.4s,213.4,6.974495569,79.91427637,0,0,0.3,49,0,0,0,0,0,0,0,0,0,4.5,0.3,-161.3,198.7,,Starting Motors,Auto Fly,Takeoff (App Auto),16,5,TRUE,,Mavic Mini,TRUE,FALSE,,Smart,RC,TRUE,TRUE,FALSE,,,TRUE,,FALSE,FALSE,FALSE,FALSE,FALSE,FALSE,FALSE,FALSE,FALSE,FALSE,0,Follow Yaw,0,0,-134.7,225.3,FALSE,FALSE,FALSE,FALSE,FALSE,FALSE,,TRUE,Normal,,,1024,1024,1024,1024,2,FALSE,FALSE,FALSE,FALSE,FALSE,0,FALSE,FALSE,FALSE,FALSE,84,7.921,1772,2113,7.921,TRUE,3.961,3.961,,FALSE,FALSE,NA,97.7,97.7,97.7,,,,,,,,,Idle,,,TRUE,,FALSE,9,Go Home,FALSE,FALSE,FALSE,FALSE,FALSE,FALSE,FALSE,FALSE,FALSE,FALSE,FALSE,FALSE,,,,,,FALSE,,,FALSE,FALSE,FALSE,FALSE,,FALSE,FALSE,FALSE,,,,,Calm,,,1.12.8,Mavic Mini,1SDCH7G0169R0K,1SFLH6Q0AB03DJ,1SRCH7F014TAHX,1U5X071EXP5ZJG,73.4,0.2,6.5,4.032755,2.23694,0,0,Mavic Mini,1SDCH7G0169R0K,1SFLH6Q0AB03DJ,1SRCH7F014TAHX,1U5X071EXP5ZJG,DJI Fly,,1.12.8,E89B6B78-B571-F0A0-A006-A3C37912BE74,1SDCH7G0169R0K,,,,,,,,,
2/15/2024,28:59.2,3m 33.5s,213.5,6.974495516,79.91427638,0,0,0.3,49,0,0,0,0,0,0,0,0,0,4.5,0.4,-161.3,198.7,,Starting Motors,Auto Fly,Takeoff (App Auto),16,5,TRUE,,Mavic Mini,TRUE,FALSE,,Smart,RC,TRUE,TRUE,FALSE,,,TRUE,,FALSE,FALSE,FALSE,FALSE,FALSE,FALSE,FALSE,FALSE,FALSE,FALSE,0,Follow Yaw,0,0,-134.7,225.3,FALSE,FALSE,FALSE,FALSE,FALSE,FALSE,,TRUE,Normal,,100,1024,1024,1024,1024,2,FALSE,FALSE,FALSE,FALSE,FALSE,0,FALSE,FALSE,FALSE,FALSE,84,7.921,1772,2113,7.921,TRUE,3.961,3.961,,FALSE,FALSE,NA,97.7,97.7,97.7,,,,,,,,,Idle,,,TRUE,,FALSE,9,Go Home,FALSE,FALSE,FALSE,FALSE,FALSE,FALSE,FALSE,FALSE,FALSE,FALSE,FALSE,FALSE,,,,,,FALSE,,,FALSE,FALSE,FALSE,FALSE,,FALSE,FALSE,FALSE,,,,,Calm,,,1.12.8,Mavic Mini,1SDCH7G0169R0K,1SFLH6Q0AB03DJ,1SRCH7F014TAHX,1U5X071EXP5ZJG,73.4,0.2,6.5,4.032755,2.23694,0,0,Mavic Mini,1SDCH7G0169R0K,1SFLH6Q0AB03DJ,1SRCH7F014TAHX,1U5X071EXP5ZJG,DJI Fly,,1.12.8,E89B6B78-B571-F0A0-A006-A3C37912BE74,1SDCH7G0169R0K,,,,,,,,,
2/15/2024,28:59.3,3m 33.6s,213.6,6.974495512,79.91427638,0,0,0.3,49,0,0,0,0,0,0,0,0,0,4.5,0.4,-161.3,198.7,,Starting Motors,Auto Fly,Takeoff (App Auto),16,5,TRUE,,Mavic Mini,TRUE,FALSE,,Smart,RC,TRUE,TRUE,FALSE,,,TRUE,,FALSE,FALSE,FALSE,FALSE,FALSE,FALSE,FALSE,FALSE,FALSE,FALSE,0,Follow Yaw,0,0,-134.7,225.3,FALSE,FALSE,FALSE,FALSE,FALSE,FALSE,,TRUE,Normal,,100,1024,1024,1024,1024,2,FALSE,FALSE,FALSE,FALSE,FALSE,0,FALSE,FALSE,FALSE,FALSE,84,7.921,1772,2113,7.921,TRUE,3.961,3.961,,FALSE,FALSE,NA,97.7,97.7,97.7,,,,,,,,,Idle,,,TRUE,,FALSE,9,Go Home,FALSE,FALSE,FALSE,FALSE,FALSE,FALSE,FALSE,FALSE,FALSE,FALSE,FALSE,FALSE,,,,,,FALSE,,,FALSE,FALSE,FALSE,FALSE,,FALSE,FALSE,FALSE,,,,,Calm,,,1.12.8,Mavic Mini,1SDCH7G0169R0K,1SFLH6Q0AB03DJ,1SRCH7F014TAHX,1U5X071EXP5ZJG,73.4,0.2,6.5,4.032755,2.23694,0,0,Mavic Mini,1SDCH7G0169R0K,1SFLH6Q0AB03DJ,1SRCH7F014TAHX,1U5X071EXP5ZJG,DJI Fly,,1.12.8,E89B6B78-B571-F0A0-A006-A3C37912BE74,1SDCH7G0169R0K,,,,,,,,,
2/15/2024,28:59.4,3m 33.7s,213.7,6.974495545,79.91427638,0,0,0.3,49,0,0,0,0,0,0,0,0,0,4.5,0.3,-161.3,198.7,,Starting Motors,Auto Fly,Takeoff (App Auto),16,5,TRUE,,Mavic Mini,TRUE,FALSE,,Smart,RC,TRUE,TRUE,FALSE,,,TRUE,,FALSE,FALSE,FALSE,FALSE,FALSE,FALSE,FALSE,FALSE,FALSE,FALSE,0,Follow Yaw,0,0,-134.7,225.3,FALSE,FALSE,FALSE,FALSE,FALSE,FALSE,,TRUE,Normal,,100,1024,1024,1024,1024,2,FALSE,FALSE,FALSE,FALSE,FALSE,0,FALSE,FALSE,FALSE,FALSE,84,7.921,1772,2113,7.921,TRUE,3.961,3.961,,FALSE,FALSE,NA,97.7,97.7,97.7,,,,,,,,,Idle,,,TRUE,,FALSE,9,Go Home,FALSE,FALSE,FALSE,FALSE,FALSE,FALSE,FALSE,FALSE,FALSE,FALSE,FALSE,FALSE,,,,,,FALSE,,,FALSE,FALSE,FALSE,FALSE,,FALSE,FALSE,FALSE,,,,,Calm,,,1.12.8,Mavic Mini,1SDCH7G0169R0K,1SFLH6Q0AB03DJ,1SRCH7F014TAHX,1U5X071EXP5ZJG,73.4,0.2,6.5,4.032755,2.23694,0,0,Mavic Mini,1SDCH7G0169R0K,1SFLH6Q0AB03DJ,1SRCH7F014TAHX,1U5X071EXP5ZJG,DJI Fly,,1.12.8,E89B6B78-B571-F0A0-A006-A3C37912BE74,1SDCH7G0169R0K,,,,,,,,,
2/15/2024,28:59.5,3m 33.8s,213.8,6.974495596,79.91427638,0,0,0.3,49,0,0,0,0,0,0,0,0,0,4.4,0.3,-161.3,198.7,,Starting Motors,Auto Fly,Takeoff (App Auto),16,5,TRUE,,Mavic Mini,TRUE,FALSE,,Smart,RC,TRUE,TRUE,FALSE,,,TRUE,,FALSE,FALSE,FALSE,FALSE,FALSE,FALSE,FALSE,FALSE,FALSE,FALSE,0,Follow Yaw,0,0,-134.7,225.3,FALSE,FALSE,FALSE,FALSE,FALSE,FALSE,,TRUE,Normal,,100,1024,1024,1024,1024,2,FALSE,FALSE,FALSE,FALSE,FALSE,0,FALSE,FALSE,FALSE,FALSE,84,7.921,1772,2113,7.914,TRUE,3.957,3.957,,FALSE,FALSE,NA,97.7,97.7,97.7,0,1,0,0,5,2648.8,662.21,,Idle,0,20,FALSE,5,TRUE,9,Go Home,FALSE,FALSE,FALSE,FALSE,FALSE,FALSE,FALSE,FALSE,FALSE,FALSE,FALSE,FALSE,6.974499346,79.91427083,2.4,125.8,328,TRUE,1,1,FALSE,FALSE,FALSE,FALSE,,TRUE,FALSE,FALSE,Course Lock,65.6,41.9,16.4,Calm,27,,1.12.8,Mavic Mini,1SDCH7G0169R0K,1SFLH6Q0AB03DJ,1SRCH7F014TAHX,1U5X071EXP5ZJG,73.4,0.2,6.5,4.032755,2.23694,0,0,Mavic Mini,1SDCH7G0169R0K,1SFLH6Q0AB03DJ,1SRCH7F014TAHX,1U5X071EXP5ZJG,DJI Fly,,1.12.8,E89B6B78-B571-F0A0-A006-A3C37912BE74,1SDCH7G0169R0K,,,,,,,,Data Recorder File Index is 27.; Set Return to Home (RTH) altitude to 20 m (66 ft).; Set maximum flight altitude to 100 m (328 ft).,
2/15/2024,28:59.6,3m 33.9s,213.9,6.974495682,79.91427638,0,0,0.3,49,0,0,0,0,0,0,0,0,0,4.4,0.3,-161.3,198.7,,Starting Motors,Auto Fly,Takeoff (App Auto),16,5,TRUE,,Mavic Mini,TRUE,FALSE,,Smart,RC,TRUE,TRUE,FALSE,,,TRUE,,FALSE,FALSE,FALSE,FALSE,FALSE,FALSE,FALSE,FALSE,FALSE,FALSE,0,Follow Yaw,0,0,-134.7,225.3,FALSE,FALSE,FALSE,FALSE,FALSE,FALSE,,TRUE,Normal,,100,1024,1024,1024,1024,2,FALSE,FALSE,FALSE,FALSE,FALSE,0,FALSE,FALSE,FALSE,FALSE,84,7.921,1772,2113,7.914,TRUE,3.957,3.957,,FALSE,FALSE,NA,97.7,97.7,97.7,0,1,0,0,5,2648.8,662.21,,Idle,0,20,FALSE,5,TRUE,9,Go Home,FALSE,FALSE,FALSE,FALSE,FALSE,FALSE,FALSE,FALSE,FALSE,FALSE,FALSE,FALSE,6.974499346,79.91427083,2.4,125.8,328,TRUE,1,1,FALSE,FALSE,FALSE,FALSE,,TRUE,FALSE,FALSE,Course Lock,65.6,41.9,16.4,Calm,27,,1.12.8,Mavic Mini,1SDCH7G0169R0K,1SFLH6Q0AB03DJ,1SRCH7F014TAHX,1U5X071EXP5ZJG,73.4,0.2,6.5,4.032755,2.23694,0,0,Mavic Mini,1SDCH7G0169R0K,1SFLH6Q0AB03DJ,1SRCH7F014TAHX,1U5X071EXP5ZJG,DJI Fly,,1.12.8,E89B6B78-B571-F0A0-A006-A3C37912BE74,1SDCH7G0169R0K,,,,,,,,,
2/15/2024,28:59.7,3m 34.0s,214,6.974495699,79.91427638,0,0,0.3,49,0,0,0,0,0,0,0,0,0,4.4,0.3,-161.3,198.7,,Starting Motors,Auto Fly,Takeoff (App Auto),16,5,TRUE,,Mavic Mini,TRUE,FALSE,,Smart,RC,TRUE,TRUE,FALSE,,,TRUE,,FALSE,FALSE,FALSE,FALSE,FALSE,FALSE,FALSE,FALSE,FALSE,FALSE,0,Follow Yaw,0,0,-134.7,225.3,FALSE,FALSE,FALSE,FALSE,FALSE,FALSE,,TRUE,Normal,,100,1024,1024,1024,1024,2,FALSE,FALSE,FALSE,FALSE,FALSE,0,FALSE,FALSE,FALSE,FALSE,84,7.893,1772,2113,7.914,FALSE,3.947,3.946,0.001,FALSE,FALSE,NA,97.7,97.7,97.7,0,1,0,0,5,2648.8,662.21,,Idle,0,20,FALSE,5,TRUE,9,Go Home,FALSE,FALSE,FALSE,FALSE,FALSE,FALSE,FALSE,FALSE,FALSE,FALSE,FALSE,FALSE,6.974499346,79.91427083,2.4,125.8,328,TRUE,1,1,FALSE,FALSE,FALSE,FALSE,,TRUE,FALSE,FALSE,Course Lock,65.6,41.9,16.4,Calm,27,,1.12.8,Mavic Mini,1SDCH7G0169R0K,1SFLH6Q0AB03DJ,1SRCH7F014TAHX,1U5X071EXP5ZJG,73.4,0.2,6.5,4.032755,2.23694,0,0,Mavic Mini,1SDCH7G0169R0K,1SFLH6Q0AB03DJ,1SRCH7F014TAHX,1U5X071EXP5ZJG,DJI Fly,,1.12.8,E89B6B78-B571-F0A0-A006-A3C37912BE74,1SDCH7G0169R0K,,,,,,,,,
2/15/2024,28:59.8,3m 34.1s,214.1,6.97449574,79.91427642,0,0,0.3,49,0.1,0,0,0,0,0,0,0,0,4.4,0.4,-161.3,198.7,,Starting Motors,Auto Fly,Takeoff (App Auto),16,5,TRUE,,Mavic Mini,TRUE,FALSE,,Smart,RC,TRUE,TRUE,FALSE,,,TRUE,,FALSE,FALSE,FALSE,FALSE,FALSE,FALSE,FALSE,FALSE,FALSE,FALSE,0,Follow Yaw,0,0,-134.7,225.3,FALSE,FALSE,FALSE,FALSE,FALSE,FALSE,,TRUE,Normal,,100,1024,1024,1024,1024,2,FALSE,FALSE,FALSE,FALSE,FALSE,0,FALSE,FALSE,FALSE,FALSE,84,7.893,1772,2113,7.914,FALSE,3.947,3.946,0.001,FALSE,FALSE,NA,97.7,97.7,97.7,0,1,0,0,5,2648.8,662.21,,Idle,0,20,FALSE,5,TRUE,9,Go Home,FALSE,FALSE,FALSE,FALSE,FALSE,FALSE,FALSE,FALSE,FALSE,FALSE,FALSE,FALSE,6.974499346,79.91427083,2.4,125.8,328,TRUE,1,1,FALSE,FALSE,FALSE,FALSE,,TRUE,FALSE,FALSE,Course Lock,65.6,41.9,16.4,Calm,27,,1.12.8,Mavic Mini,1SDCH7G0169R0K,1SFLH6Q0AB03DJ,1SRCH7F014TAHX,1U5X071EXP5ZJG,73.4,0.2,6.5,4.032755,2.23694,0,0,Mavic Mini,1SDCH7G0169R0K,1SFLH6Q0AB03DJ,1SRCH7F014TAHX,1U5X071EXP5ZJG,DJI Fly,,1.12.8,E89B6B78-B571-F0A0-A006-A3C37912BE74,1SDCH7G0169R0K,,,,,,,,,
2/15/2024,28:59.9,3m 34.2s,214.2,6.974495793,79.91427647,0,0,0.3,49,0.1,0,0,0,0,0,0,0,0,4.4,0.4,-161.3,198.7,,Starting Motors,Auto Fly,Takeoff (App Auto),16,5,TRUE,,Mavic Mini,TRUE,FALSE,,Smart,RC,TRUE,TRUE,FALSE,,,TRUE,,FALSE,FALSE,FALSE,FALSE,FALSE,FALSE,FALSE,FALSE,FALSE,FALSE,0,Follow Yaw,0,0,-134.7,225.3,FALSE,FALSE,FALSE,FALSE,FALSE,FALSE,,TRUE,Normal,,100,1024,1024,1024,1024,2,FALSE,FALSE,FALSE,FALSE,FALSE,0,FALSE,FALSE,FALSE,FALSE,84,7.893,1772,2113,7.914,FALSE,3.947,3.946,0.001,FALSE,FALSE,NA,97.7,97.7,97.7,0,1,0,0,5,2648.8,662.21,,Idle,0,20,FALSE,5,TRUE,9,Go Home,FALSE,FALSE,FALSE,FALSE,FALSE,FALSE,FALSE,FALSE,FALSE,FALSE,FALSE,FALSE,6.974499346,79.91427083,2.4,125.8,328,TRUE,1,1,FALSE,FALSE,FALSE,FALSE,,TRUE,FALSE,FALSE,Course Lock,65.6,41.9,16.4,Calm,27,,1.12.8,Mavic Mini,1SDCH7G0169R0K,1SFLH6Q0AB03DJ,1SRCH7F014TAHX,1U5X071EXP5ZJG,73.4,0.2,6.5,4.032755,2.23694,0,0,Mavic Mini,1SDCH7G0169R0K,1SFLH6Q0AB03DJ,1SRCH7F014TAHX,1U5X071EXP5ZJG,DJI Fly,,1.12.8,E89B6B78-B571-F0A0-A006-A3C37912BE74,1SDCH7G0169R0K,,,,,,,,,
2/15/2024,28:59.9,3m 34.3s,214.3,6.974495815,79.91427646,0,0,0.3,49,0.1,0,0,0,0,0,0,0,0,4.4,0.3,-161.3,198.7,,Auto Takeoff,Auto Fly,Takeoff (App Auto),16,5,TRUE,,Mavic Mini,TRUE,FALSE,,Smart,RC,TRUE,TRUE,FALSE,,,TRUE,,FALSE,FALSE,FALSE,FALSE,FALSE,FALSE,FALSE,FALSE,FALSE,FALSE,0,Follow Yaw,0,0,-134.7,225.3,FALSE,FALSE,FALSE,FALSE,FALSE,FALSE,,TRUE,Normal,,100,1024,1024,1024,1024,2,FALSE,FALSE,FALSE,FALSE,FALSE,0,FALSE,FALSE,FALSE,FALSE,84,7.893,1772,2113,7.914,FALSE,3.947,3.946,0.001,FALSE,FALSE,NA,97.7,97.7,97.7,0,1,0,0,5,2648.8,662.21,,Idle,0,20,FALSE,5,TRUE,9,Go Home,FALSE,FALSE,FALSE,FALSE,FALSE,FALSE,FALSE,FALSE,FALSE,FALSE,FALSE,FALSE,6.974499346,79.91427083,2.4,125.8,328,TRUE,1,1,FALSE,FALSE,FALSE,FALSE,,TRUE,FALSE,FALSE,Course Lock,65.6,41.9,16.4,Calm,27,,1.12.8,Mavic Mini,1SDCH7G0169R0K,1SFLH6Q0AB03DJ,1SRCH7F014TAHX,1U5X071EXP5ZJG,73.4,0.2,6.5,4.032755,2.23694,0,0,Mavic Mini,1SDCH7G0169R0K,1SFLH6Q0AB03DJ,1SRCH7F014TAHX,1U5X071EXP5ZJG,DJI Fly,,1.12.8,E89B6B78-B571-F0A0-A006-A3C37912BE74,1SDCH7G0169R0K,,,,,,,,Flight mode changed to Auto Takeoff.,
2/15/2024,29:00.0,3m 34.4s,214.4,6.974495842,79.91427642,0,0,0.3,49,0.1,0,0,0,0,0,0,0,0,4.4,0.3,-161.3,198.7,,Auto Takeoff,Auto Fly,Takeoff (App Auto),16,5,TRUE,,Mavic Mini,TRUE,FALSE,,Smart,RC,TRUE,TRUE,FALSE,,,TRUE,,FALSE,FALSE,FALSE,FALSE,FALSE,FALSE,FALSE,FALSE,FALSE,FALSE,0,Follow Yaw,0,0,-134.7,225.3,FALSE,FALSE,FALSE,FALSE,FALSE,FALSE,,TRUE,Normal,,100,1024,1024,1024,1024,2,FALSE,FALSE,FALSE,FALSE,FALSE,0,FALSE,FALSE,FALSE,FALSE,84,7.893,1772,2113,7.914,FALSE,3.947,3.946,0.001,FALSE,FALSE,NA,97.7,97.7,97.7,0,1,0,0,5,2648.8,662.21,,Idle,0,20,FALSE,5,TRUE,9,Go Home,FALSE,FALSE,FALSE,FALSE,FALSE,FALSE,FALSE,FALSE,FALSE,FALSE,FALSE,FALSE,6.974499346,79.91427083,2.3,125.8,328,TRUE,1,1,FALSE,FALSE,FALSE,FALSE,,TRUE,FALSE,FALSE,Course Lock,65.6,41.9,16.4,Calm,27,,1.12.8,Mavic Mini,1SDCH7G0169R0K,1SFLH6Q0AB03DJ,1SRCH7F014TAHX,1U5X071EXP5ZJG,73.4,0.2,6.5,4.032755,2.23694,0,0,Mavic Mini,1SDCH7G0169R0K,1SFLH6Q0AB03DJ,1SRCH7F014TAHX,1U5X071EXP5ZJG,DJI Fly,,1.12.8,E89B6B78-B571-F0A0-A006-A3C37912BE74,1SDCH7G0169R0K,,,,,,,,,
2/15/2024,29:00.1,3m 34.5s,214.5,6.974495839,79.91427643,0,0,0.3,49,0.1,0,0,0,0,0,0,0,0,4.4,0.4,-161.3,198.7,,Auto Takeoff,Auto Fly,Takeoff (App Auto),16,5,TRUE,,Mavic Mini,TRUE,FALSE,,Smart,RC,TRUE,TRUE,FALSE,,,TRUE,,FALSE,FALSE,FALSE,FALSE,FALSE,FALSE,FALSE,FALSE,FALSE,FALSE,0,Follow Yaw,0,0,-134.7,225.3,FALSE,FALSE,FALSE,FALSE,FALSE,FALSE,,TRUE,Normal,,100,1024,1024,1024,1024,2,FALSE,FALSE,FALSE,FALSE,FALSE,0,FALSE,FALSE,FALSE,FALSE,84,7.893,1772,2113,7.914,FALSE,3.947,3.946,0.001,FALSE,FALSE,NA,97.7,97.7,97.7,0,1,0,0,5,2648.8,662.21,,Idle,0,20,FALSE,5,TRUE,9,Go Home,FALSE,FALSE,FALSE,FALSE,FALSE,FALSE,FALSE,FALSE,FALSE,FALSE,FALSE,FALSE,6.974499346,79.91427083,2.3,125.8,328,TRUE,1,1,FALSE,FALSE,FALSE,FALSE,,TRUE,FALSE,FALSE,Course Lock,65.6,41.9,16.4,Calm,27,,1.12.8,Mavic Mini,1SDCH7G0169R0K,1SFLH6Q0AB03DJ,1SRCH7F014TAHX,1U5X071EXP5ZJG,73.4,0.2,6.5,4.032755,2.23694,0,0,Mavic Mini,1SDCH7G0169R0K,1SFLH6Q0AB03DJ,1SRCH7F014TAHX,1U5X071EXP5ZJG,DJI Fly,,1.12.8,E89B6B78-B571-F0A0-A006-A3C37912BE74,1SDCH7G0169R0K,,,,,,,,,
2/15/2024,29:00.3,3m 34.6s,214.6,6.974495831,79.91427647,0,0,0.3,49,0.1,0,0,0,0,0,0,0,0,4.3,0.4,-161.3,198.7,,Auto Takeoff,Auto Fly,Takeoff (App Auto),16,5,TRUE,,Mavic Mini,TRUE,FALSE,,Smart,RC,TRUE,TRUE,FALSE,,,TRUE,,FALSE,FALSE,FALSE,FALSE,FALSE,FALSE,FALSE,FALSE,FALSE,FALSE,0,Follow Yaw,0,0,-134.7,225.3,FALSE,FALSE,FALSE,FALSE,FALSE,FALSE,,TRUE,Normal,,100,1024,1024,1024,1024,2,FALSE,FALSE,FALSE,FALSE,FALSE,0,FALSE,FALSE,FALSE,FALSE,84,7.893,1772,2113,7.914,FALSE,3.947,3.946,0.001,FALSE,FALSE,NA,97.7,97.7,97.7,0,1,0,0,5,2648.8,662.21,,Idle,0,20,FALSE,5,TRUE,9,Go Home,FALSE,FALSE,FALSE,FALSE,FALSE,FALSE,FALSE,FALSE,FALSE,FALSE,FALSE,FALSE,6.974499346,79.91427083,2.4,125.8,328,TRUE,1,1,FALSE,FALSE,FALSE,FALSE,,TRUE,FALSE,FALSE,Course Lock,65.6,41.9,16.4,Calm,27,,1.12.8,Mavic Mini,1SDCH7G0169R0K,1SFLH6Q0AB03DJ,1SRCH7F014TAHX,1U5X071EXP5ZJG,73.4,0.2,6.5,4.032755,2.23694,0,0,Mavic Mini,1SDCH7G0169R0K,1SFLH6Q0AB03DJ,1SRCH7F014TAHX,1U5X071EXP5ZJG,DJI Fly,,1.12.8,E89B6B78-B571-F0A0-A006-A3C37912BE74,1SDCH7G0169R0K,,,,,,,,,
2/15/2024,29:00.3,3m 34.7s,214.7,6.974495859,79.91427645,0,0,0.3,49,0.1,0,0,0,0,0,0,0,0,4.2,0.2,-161.5,198.5,,Auto Takeoff,Auto Fly,Takeoff (App Auto),16,5,TRUE,,Mavic Mini,TRUE,FALSE,,Smart,RC,TRUE,TRUE,FALSE,,,TRUE,,FALSE,FALSE,FALSE,FALSE,FALSE,FALSE,FALSE,FALSE,FALSE,FALSE,0,Follow Yaw,0,0,-134.7,225.3,FALSE,FALSE,FALSE,FALSE,FALSE,FALSE,,TRUE,Normal,,100,1024,1024,1024,1024,2,FALSE,FALSE,FALSE,FALSE,FALSE,0,FALSE,FALSE,FALSE,FALSE,84,7.893,1772,2113,7.914,FALSE,3.947,3.946,0.001,FALSE,FALSE,NA,97.7,97.7,97.7,0,1,0,0,5,2648.8,662.21,,Idle,0,20,FALSE,5,TRUE,9,Go Home,FALSE,FALSE,FALSE,FALSE,FALSE,FALSE,FALSE,FALSE,FALSE,FALSE,FALSE,FALSE,6.974499346,79.91427083,2.3,125.8,328,TRUE,1,1,FALSE,FALSE,FALSE,FALSE,,TRUE,FALSE,FALSE,Course Lock,65.6,41.9,16.4,Calm,27,,1.12.8,Mavic Mini,1SDCH7G0169R0K,1SFLH6Q0AB03DJ,1SRCH7F014TAHX,1U5X071EXP5ZJG,73.4,0.2,6.5,4.032755,2.23694,0,0,Mavic Mini,1SDCH7G0169R0K,1SFLH6Q0AB03DJ,1SRCH7F014TAHX,1U5X071EXP5ZJG,DJI Fly,,1.12.8,E89B6B78-B571-F0A0-A006-A3C37912BE74,1SDCH7G0169R0K,,,,,,,,,
2/15/2024,29:00.4,3m 34.8s,214.8,6.974495898,79.91427637,0,0,0.3,49,0.2,0,0,0,0,0,0,0,0,3.7,0.4,-162.6,197.4,,Auto Takeoff,Auto Fly,Takeoff (App Auto),16,5,TRUE,,Mavic Mini,TRUE,FALSE,,Smart,RC,TRUE,TRUE,FALSE,,,TRUE,,FALSE,FALSE,FALSE,FALSE,FALSE,FALSE,FALSE,FALSE,FALSE,FALSE,0,Follow Yaw,0,0,-134.8,225.2,FALSE,FALSE,FALSE,FALSE,FALSE,FALSE,,TRUE,Normal,,100,1024,1024,1024,1024,2,FALSE,FALSE,FALSE,FALSE,FALSE,0,FALSE,FALSE,FALSE,FALSE,84,7.893,1772,2113,7.872,FALSE,3.947,3.946,0.001,FALSE,FALSE,NA,97.7,97.7,97.7,0,1,0,0,5,2656.4,664.11,,Idle,0,20,FALSE,5,TRUE,9,Go Home,FALSE,FALSE,FALSE,FALSE,FALSE,FALSE,FALSE,FALSE,FALSE,FALSE,FALSE,FALSE,6.974499346,79.91427083,2.3,125.8,328,TRUE,1,1,FALSE,FALSE,FALSE,FALSE,,TRUE,FALSE,FALSE,Course Lock,65.6,41.9,16.4,Calm,27,,1.12.8,Mavic Mini,1SDCH7G0169R0K,1SFLH6Q0AB03DJ,1SRCH7F014TAHX,1U5X071EXP5ZJG,73.4,0.2,6.5,4.032755,2.23694,0,0,Mavic Mini,1SDCH7G0169R0K,1SFLH6Q0AB03DJ,1SRCH7F014TAHX,1U5X071EXP5ZJG,DJI Fly,,1.12.8,E89B6B78-B571-F0A0-A006-A3C37912BE74,1SDCH7G0169R0K,,,,,,,,,
2/15/2024,29:00.6,3m 34.9s,214.9,6.974495914,79.91427634,0,0,0.3,49,0.2,0,0,0,0,0,0,0,0,2.9,0.3,-164,196,,Auto Takeoff,Auto Fly,Takeoff (App Auto),16,5,TRUE,,Mavic Mini,TRUE,FALSE,,Smart,RC,TRUE,TRUE,FALSE,,,TRUE,,FALSE,FALSE,FALSE,FALSE,FALSE,FALSE,FALSE,FALSE,FALSE,FALSE,0,Follow Yaw,0,0,-134.9,225.1,FALSE,FALSE,FALSE,FALSE,FALSE,FALSE,,TRUE,Normal,,100,1024,1024,1024,1024,2,FALSE,FALSE,FALSE,FALSE,FALSE,0,FALSE,FALSE,FALSE,FALSE,84,7.893,1772,2113,7.872,FALSE,3.947,3.946,0.001,FALSE,FALSE,NA,97.7,97.7,97.7,0,1,0,0,5,2656.4,664.11,,Idle,0,20,FALSE,5,TRUE,9,Go Home,FALSE,FALSE,FALSE,FALSE,FALSE,FALSE,FALSE,FALSE,FALSE,FALSE,FALSE,FALSE,6.974499346,79.91427083,2.3,125.8,328,TRUE,1,1,FALSE,FALSE,FALSE,FALSE,,TRUE,FALSE,FALSE,Course Lock,65.6,41.9,16.4,Calm,27,,1.12.8,Mavic Mini,1SDCH7G0169R0K,1SFLH6Q0AB03DJ,1SRCH7F014TAHX,1U5X071EXP5ZJG,73.4,0.2,6.5,4.032755,2.23694,0,0,Mavic Mini,1SDCH7G0169R0K,1SFLH6Q0AB03DJ,1SRCH7F014TAHX,1U5X071EXP5ZJG,DJI Fly,,1.12.8,E89B6B78-B571-F0A0-A006-A3C37912BE74,1SDCH7G0169R0K,,,,,,,,,
2/15/2024,29:00.7,3m 35.0s,215,6.974495915,79.91427631,0,0,0.3,49,0.2,0,0,0,0,0,0,0,0,0.5,-0.4,-165.1,194.9,,Auto Takeoff,Auto Fly,Takeoff (App Auto),16,5,TRUE,,Mavic Mini,TRUE,FALSE,,Smart,RC,TRUE,TRUE,FALSE,,,TRUE,,FALSE,FALSE,FALSE,FALSE,FALSE,FALSE,FALSE,FALSE,FALSE,FALSE,0,Follow Yaw,0,0,-135.1,224.9,FALSE,FALSE,FALSE,FALSE,FALSE,FALSE,,TRUE,Normal,,100,1024,1024,1024,1024,2,FALSE,FALSE,FALSE,FALSE,FALSE,0,FALSE,FALSE,FALSE,FALSE,84,7.893,1772,2113,7.872,FALSE,3.947,3.946,0.001,FALSE,FALSE,NA,97.7,97.7,97.7,0,1,0,0,5,2656.4,664.11,,Idle,0,20,FALSE,5,TRUE,9,Go Home,FALSE,FALSE,FALSE,FALSE,FALSE,FALSE,FALSE,FALSE,FALSE,FALSE,FALSE,FALSE,6.974499346,79.91427083,2.3,125.8,328,TRUE,1,1,FALSE,FALSE,FALSE,FALSE,,TRUE,FALSE,FALSE,Course Lock,65.6,41.9,16.4,Calm,27,,1.12.8,Mavic Mini,1SDCH7G0169R0K,1SFLH6Q0AB03DJ,1SRCH7F014TAHX,1U5X071EXP5ZJG,73.4,0.2,6.5,4.032755,2.23694,0,0,Mavic Mini,1SDCH7G0169R0K,1SFLH6Q0AB03DJ,1SRCH7F014TAHX,1U5X071EXP5ZJG,DJI Fly,,1.12.8,E89B6B78-B571-F0A0-A006-A3C37912BE74,1SDCH7G0169R0K,,,,,,,,,
2/15/2024,29:00.8,3m 35.1s,215.1,6.974495889,79.91427629,0,0,0.3,49,0.2,0,0,0,0,0,0,0,0,-0.6,-2.1,-166.2,193.8,,Auto Takeoff,Auto Fly,Takeoff (App Auto),16,5,TRUE,,Mavic Mini,TRUE,FALSE,,Smart,RC,TRUE,TRUE,FALSE,,,TRUE,,FALSE,FALSE,FALSE,FALSE,FALSE,FALSE,FALSE,FALSE,FALSE,FALSE,0,Follow Yaw,0,0,-135.5,224.5,FALSE,FALSE,FALSE,FALSE,FALSE,FALSE,,TRUE,Normal,,100,1024,1024,1024,1024,2,FALSE,FALSE,FALSE,FALSE,FALSE,0,FALSE,FALSE,FALSE,FALSE,84,7.893,1772,2113,7.872,FALSE,3.947,3.946,0.001,FALSE,FALSE,NA,97.7,97.7,97.7,0,1,0,0,5,2656.4,664.11,,Idle,0,20,FALSE,5,TRUE,9,Go Home,FALSE,FALSE,FALSE,FALSE,FALSE,FALSE,FALSE,FALSE,FALSE,FALSE,FALSE,FALSE,6.974499346,79.91427083,2.3,125.8,328,TRUE,1,1,FALSE,FALSE,FALSE,FALSE,,TRUE,FALSE,FALSE,Course Lock,65.6,41.9,16.4,Calm,27,,1.12.8,Mavic Mini,1SDCH7G0169R0K,1SFLH6Q0AB03DJ,1SRCH7F014TAHX,1U5X071EXP5ZJG,73.4,0.2,6.5,4.032755,2.23694,0,0,Mavic Mini,1SDCH7G0169R0K,1SFLH6Q0AB03DJ,1SRCH7F014TAHX,1U5X071EXP5ZJG,DJI Fly,,1.12.8,E89B6B78-B571-F0A0-A006-A3C37912BE74,1SDCH7G0169R0K,,,,,,,,,
2/15/2024,29:00.9,3m 35.2s,215.2,6.974495775,79.9142763,0,0,0.3,49,0.3,0,0,0,0,0,0,-0.223694,0,-1.4,-2.3,-167,193,,Auto Takeoff,Auto Fly,Takeoff (App Auto),16,5,TRUE,,Mavic Mini,TRUE,FALSE,,Smart,RC,FALSE,TRUE,FALSE,,,TRUE,,FALSE,FALSE,FALSE,FALSE,FALSE,FALSE,FALSE,FALSE,FALSE,FALSE,0,Follow Yaw,0,0,-136,224,FALSE,FALSE,FALSE,FALSE,FALSE,FALSE,,TRUE,Normal,,100,1024,1024,1024,1024,2,FALSE,FALSE,FALSE,FALSE,FALSE,0,FALSE,FALSE,FALSE,FALSE,84,7.787,1771,2113,7.872,FALSE,3.895,3.892,0.003,FALSE,FALSE,NA,97.9,97.7,97.8,0,1,0,0,5,2656.4,664.11,,Idle,0,20,FALSE,5,TRUE,9,Go Home,FALSE,FALSE,FALSE,FALSE,FALSE,FALSE,FALSE,FALSE,FALSE,FALSE,FALSE,FALSE,6.974499346,79.91427083,2.3,125.8,328,TRUE,1,1,FALSE,FALSE,FALSE,FALSE,,TRUE,FALSE,FALSE,Course Lock,65.6,41.9,16.4,Calm,27,,1.12.8,Mavic Mini,1SDCH7G0169R0K,1SFLH6Q0AB03DJ,1SRCH7F014TAHX,1U5X071EXP5ZJG,73.4,0.2,6.5,4.032755,2.23694,0,0,Mavic Mini,1SDCH7G0169R0K,1SFLH6Q0AB03DJ,1SRCH7F014TAHX,1U5X071EXP5ZJG,DJI Fly,,1.12.8,E89B6B78-B571-F0A0-A006-A3C37912BE74,1SDCH7G0169R0K,,,,,6.974503049,79.91424811,5,,
2/15/2024,29:01.0,3m 35.3s,215.3,6.974495685,79.91427634,0,0,0.3,49,0.3,0.223694,0.223694,-0.223694,0,0,0,-0.671082,0,0.5,-0.2,-167,193,159,Auto Takeoff,Auto Fly,Takeoff (App Auto),16,5,TRUE,,Mavic Mini,TRUE,FALSE,,Smart,RC,FALSE,TRUE,FALSE,,,TRUE,,FALSE,FALSE,FALSE,FALSE,FALSE,FALSE,FALSE,FALSE,FALSE,FALSE,0,Follow Yaw,0,0,-136.5,223.5,FALSE,FALSE,FALSE,FALSE,FALSE,FALSE,,TRUE,Normal,,100,1024,1024,1024,1024,2,FALSE,FALSE,FALSE,FALSE,FALSE,0,FALSE,FALSE,FALSE,FALSE,84,7.787,1771,2113,7.872,FALSE,3.895,3.892,0.003,FALSE,FALSE,NA,97.9,97.7,97.8,0,1,0,0,5,2656.4,664.11,,Idle,0,20,FALSE,5,TRUE,9,Go Home,FALSE,FALSE,FALSE,FALSE,FALSE,FALSE,FALSE,FALSE,FALSE,FALSE,FALSE,FALSE,6.974499346,79.91427083,2.4,125.8,328,TRUE,1,1,FALSE,FALSE,FALSE,FALSE,,TRUE,FALSE,FALSE,Course Lock,65.6,41.9,16.4,Calm,27,,1.12.8,Mavic Mini,1SDCH7G0169R0K,1SFLH6Q0AB03DJ,1SRCH7F014TAHX,1U5X071EXP5ZJG,73.4,0.2,6.5,4.032755,2.23694,0,0,Mavic Mini,1SDCH7G0169R0K,1SFLH6Q0AB03DJ,1SRCH7F014TAHX,1U5X071EXP5ZJG,DJI Fly,,1.12.8,E89B6B78-B571-F0A0-A006-A3C37912BE74,1SDCH7G0169R0K,,,,,6.974503049,79.91424811,5,,
2/15/2024,29:01.1,3m 35.4s,215.4,6.974495559,79.9142764,0,0,0.6,49,0.3,0.223694,0.223694,-0.223694,0,0,0,-1.11847,0,2.5,1,-166.8,193.2,161.9,Auto Takeoff,Auto Fly,Takeoff (App Auto),16,5,TRUE,,Mavic Mini,TRUE,FALSE,,Smart,RC,FALSE,TRUE,FALSE,,,TRUE,,FALSE,FALSE,FALSE,FALSE,FALSE,FALSE,FALSE,FALSE,FALSE,FALSE,0,Follow Yaw,0,0,-136.9,223.1,FALSE,FALSE,FALSE,FALSE,FALSE,FALSE,,TRUE,Normal,,100,1024,1024,1024,1024,2,FALSE,FALSE,FALSE,FALSE,FALSE,0,FALSE,FALSE,FALSE,FALSE,84,7.787,1771,2113,7.872,FALSE,3.895,3.892,0.003,FALSE,FALSE,NA,97.9,97.7,97.8,0,1,0,0,5,2656.4,664.11,,Idle,0,20,FALSE,5,TRUE,9,Go Home,FALSE,FALSE,FALSE,FALSE,FALSE,FALSE,FALSE,FALSE,FALSE,FALSE,FALSE,FALSE,6.974499346,79.91427083,2.4,125.8,328,TRUE,1,1,FALSE,FALSE,FALSE,FALSE,,TRUE,FALSE,FALSE,Course Lock,65.6,41.9,16.4,Calm,27,,1.12.8,Mavic Mini,1SDCH7G0169R0K,1SFLH6Q0AB03DJ,1SRCH7F014TAHX,1U5X071EXP5ZJG,73.4,0.2,6.5,4.032755,2.23694,0,0,Mavic Mini,1SDCH7G0169R0K,1SFLH6Q0AB03DJ,1SRCH7F014TAHX,1U5X071EXP5ZJG,DJI Fly,,1.12.8,E89B6B78-B571-F0A0-A006-A3C37912BE74,1SDCH7G0169R0K,,,,,6.974503049,79.91424811,5,,
2/15/2024,29:01.2,3m 35.5s,215.5,6.974495421,79.91427642,0.3,0.3,0.6,49,0.4,0.223694,0.223694,-0.223694,0,0,0,-1.565858,0,3,0.4,-166.8,193.2,171,Auto Takeoff,Auto Fly,Takeoff (App Auto),16,5,TRUE,,Mavic Mini,TRUE,FALSE,,Smart,RC,FALSE,TRUE,FALSE,,,TRUE,,FALSE,FALSE,FALSE,FALSE,FALSE,FALSE,FALSE,FALSE,FALSE,FALSE,0,Follow Yaw,0,0,-137.2,222.8,FALSE,FALSE,FALSE,FALSE,FALSE,FALSE,,TRUE,Normal,,100,1024,1024,1024,1024,2,FALSE,FALSE,FALSE,FALSE,FALSE,0,FALSE,FALSE,FALSE,FALSE,84,7.787,1771,2113,7.872,FALSE,3.895,3.892,0.003,FALSE,FALSE,NA,97.9,97.7,97.8,0,1,0,0,5,2656.4,664.11,,Idle,0,20,FALSE,5,TRUE,9,Go Home,FALSE,FALSE,FALSE,FALSE,FALSE,FALSE,FALSE,FALSE,FALSE,FALSE,FALSE,FALSE,6.974499346,79.91427083,2.4,125.8,328,TRUE,1,1,FALSE,FALSE,FALSE,FALSE,,TRUE,FALSE,FALSE,Course Lock,65.6,41.9,16.4,Calm,27,,1.12.8,Mavic Mini,1SDCH7G0169R0K,1SFLH6Q0AB03DJ,1SRCH7F014TAHX,1U5X071EXP5ZJG,73.4,0.2,6.5,4.032755,2.23694,0,0,Mavic Mini,1SDCH7G0169R0K,1SFLH6Q0AB03DJ,1SRCH7F014TAHX,1U5X071EXP5ZJG,DJI Fly,,1.12.8,E89B6B78-B571-F0A0-A006-A3C37912BE74,1SDCH7G0169R0K,,,,,6.974503049,79.91424811,5,,
2/15/2024,29:01.3,3m 35.6s,215.6,6.974495323,79.91427646,0.6,0.6,0.9,49,0.4,0.223694,0.223694,-0.223694,0,0,0,-1.789552,0,2.8,0.1,-166.9,193.1,162.2,Auto Takeoff,Auto Fly,Takeoff (App Auto),16,5,TRUE,,Mavic Mini,TRUE,FALSE,,Smart,RC,FALSE,TRUE,FALSE,,,TRUE,,FALSE,FALSE,FALSE,FALSE,FALSE,FALSE,FALSE,FALSE,FALSE,FALSE,0,Follow Yaw,0,0,-137.5,222.5,FALSE,FALSE,FALSE,FALSE,FALSE,FALSE,,TRUE,Normal,,100,1024,1024,1024,1024,2,FALSE,FALSE,FALSE,FALSE,FALSE,0,FALSE,FALSE,FALSE,FALSE,84,7.787,1771,2113,7.872,FALSE,3.895,3.892,0.003,FALSE,FALSE,NA,97.9,97.7,97.8,0,1,0,0,5,2656.4,664.11,,Idle,0,20,FALSE,5,TRUE,9,Go Home,FALSE,FALSE,FALSE,FALSE,FALSE,FALSE,FALSE,FALSE,FALSE,FALSE,FALSE,FALSE,6.974499346,79.91427083,2.5,125.8,328,TRUE,1,1,FALSE,FALSE,FALSE,FALSE,,TRUE,FALSE,FALSE,Course Lock,65.6,41.9,16.4,Calm,27,,1.12.8,Mavic Mini,1SDCH7G0169R0K,1SFLH6Q0AB03DJ,1SRCH7F014TAHX,1U5X071EXP5ZJG,73.4,0.2,6.5,4.032755,2.23694,0,0,Mavic Mini,1SDCH7G0169R0K,1SFLH6Q0AB03DJ,1SRCH7F014TAHX,1U5X071EXP5ZJG,DJI Fly,,1.12.8,E89B6B78-B571-F0A0-A006-A3C37912BE74,1SDCH7G0169R0K,,,,,6.974503049,79.91424811,5,,
2/15/2024,29:01.4,3m 35.7s,215.7,6.97449515,79.91427645,0.9,0.9,1.3,50,0.5,0.223694,0.223694,-0.223694,0,0,0,-2.013246,0,2.7,-0.3,-166.8,193.2,184.6,Auto Takeoff,Auto Fly,Takeoff (App Auto),16,5,TRUE,,Mavic Mini,TRUE,FALSE,,Smart,RC,FALSE,TRUE,FALSE,,,TRUE,,FALSE,FALSE,FALSE,FALSE,FALSE,FALSE,FALSE,FALSE,FALSE,FALSE,0,Follow Yaw,0,0,-137.7,222.3,FALSE,FALSE,FALSE,FALSE,FALSE,FALSE,,TRUE,Normal,,100,1024,1024,1024,1024,2,FALSE,FALSE,FALSE,FALSE,FALSE,0,FALSE,FALSE,FALSE,FALSE,84,7.787,1771,2113,7.872,FALSE,3.895,3.892,0.003,FALSE,FALSE,NA,97.9,97.7,97.8,0,1,0,0,5,2656.4,664.11,,Idle,0,20,FALSE,5,TRUE,9,Go Home,FALSE,FALSE,FALSE,FALSE,FALSE,FALSE,FALSE,FALSE,FALSE,FALSE,FALSE,FALSE,6.974499346,79.91427083,2.5,125.8,328,TRUE,1,1,FALSE,FALSE,FALSE,FALSE,,TRUE,FALSE,FALSE,Course Lock,65.6,41.9,16.4,Calm,27,,1.12.8,Mavic Mini,1SDCH7G0169R0K,1SFLH6Q0AB03DJ,1SRCH7F014TAHX,1U5X071EXP5ZJG,73.4,0.2,6.5,4.032755,2.23694,0,0,Mavic Mini,1SDCH7G0169R0K,1SFLH6Q0AB03DJ,1SRCH7F014TAHX,1U5X071EXP5ZJG,DJI Fly,,1.12.8,E89B6B78-B571-F0A0-A006-A3C37912BE74,1SDCH7G0169R0K,,,,,6.974503049,79.91424811,5,,
2/15/2024,29:01.5,3m 35.8s,215.8,6.97449495,79.91427642,1.3,1.3,1.6,50,0.6,0.223694,0.223694,-0.223694,0,0,0,-2.23694,0,3.4,-0.1,-166.8,193.2,185.9,Auto Takeoff,Auto Fly,Takeoff (App Auto),15,5,TRUE,,Mavic Mini,TRUE,FALSE,,Smart,RC,FALSE,TRUE,FALSE,,,TRUE,,FALSE,FALSE,FALSE,FALSE,FALSE,FALSE,FALSE,FALSE,FALSE,FALSE,0,Follow Yaw,0,0,-137.9,222.1,FALSE,FALSE,FALSE,FALSE,FALSE,FALSE,,TRUE,Normal,,100,1024,1024,1024,1024,2,FALSE,FALSE,FALSE,FALSE,FALSE,0,FALSE,FALSE,FALSE,FALSE,84,7.787,1771,2113,7.838,FALSE,3.895,3.892,0.003,FALSE,FALSE,NA,97.9,97.7,97.8,0,0,0,0,5,2828.4,707.11,,Idle,0,20,FALSE,5,TRUE,9,Go Home,FALSE,FALSE,FALSE,FALSE,FALSE,FALSE,FALSE,FALSE,FALSE,FALSE,FALSE,FALSE,6.974495792,79.91427629,0.3,125.8,328,TRUE,1,1,FALSE,FALSE,FALSE,FALSE,,TRUE,FALSE,FALSE,Course Lock,65.6,41.9,16.4,Calm,27,,1.12.8,Mavic Mini,1SDCH7G0169R0K,1SFLH6Q0AB03DJ,1SRCH7F014TAHX,1U5X071EXP5ZJG,73.4,0.2,6.5,4.032755,2.23694,0,0,Mavic Mini,1SDCH7G0169R0K,1SFLH6Q0AB03DJ,1SRCH7F014TAHX,1U5X071EXP5ZJG,DJI Fly,,1.12.8,E89B6B78-B571-F0A0-A006-A3C37912BE74,1SDCH7G0169R0K,,,,,6.974503049,79.91424811,5,Home Point Updated.,
2/15/2024,29:01.6,3m 35.9s,215.9,6.974494748,79.91427639,1.6,1.6,1.9,50,0.6,0.223694,0.223694,-0.223694,0,0,0,-2.23694,0,3.4,-0.3,-166.8,193.2,185.3,Auto Takeoff,Auto Fly,Takeoff (App Auto),15,5,TRUE,,Mavic Mini,TRUE,FALSE,,Smart,RC,FALSE,TRUE,FALSE,,,TRUE,,FALSE,FALSE,FALSE,FALSE,FALSE,FALSE,FALSE,FALSE,FALSE,FALSE,0,Follow Yaw,0,0,-138,222,FALSE,FALSE,FALSE,FALSE,FALSE,FALSE,,TRUE,Normal,,100,1024,1024,1024,1024,2,FALSE,FALSE,FALSE,FALSE,FALSE,0,FALSE,FALSE,FALSE,FALSE,84,7.787,1771,2113,7.838,FALSE,3.895,3.892,0.003,FALSE,FALSE,NA,97.9,97.7,97.8,0,0,0,0,5,2828.4,707.11,,Idle,0,20,FALSE,5,TRUE,9,Go Home,FALSE,FALSE,FALSE,FALSE,FALSE,FALSE,FALSE,FALSE,FALSE,FALSE,FALSE,FALSE,6.974495792,79.91427629,0.3,125.8,328,TRUE,1,1,FALSE,FALSE,FALSE,FALSE,,TRUE,FALSE,FALSE,Course Lock,65.6,41.9,16.4,Calm,27,,1.12.8,Mavic Mini,1SDCH7G0169R0K,1SFLH6Q0AB03DJ,1SRCH7F014TAHX,1U5X071EXP5ZJG,73.4,0.2,6.5,4.032755,2.23694,0,0,Mavic Mini,1SDCH7G0169R0K,1SFLH6Q0AB03DJ,1SRCH7F014TAHX,1U5X071EXP5ZJG,DJI Fly,,1.12.8,E89B6B78-B571-F0A0-A006-A3C37912BE74,1SDCH7G0169R0K,,,,,6.974503049,79.91424811,5,,
2/15/2024,29:01.8,3m 36.0s,216,6.974494548,79.91427637,1.9,1.9,2.2,50,0.7,0.223694,0.223694,-0.223694,0,0,0,-2.23694,0,3.6,-0.4,-166.8,193.2,186.3,Auto Takeoff,Auto Fly,Takeoff (App Auto),15,5,TRUE,,Mavic Mini,TRUE,FALSE,,Smart,RC,FALSE,TRUE,FALSE,,,TRUE,,FALSE,FALSE,FALSE,FALSE,FALSE,FALSE,FALSE,FALSE,FALSE,FALSE,0,Follow Yaw,0,0,-138.2,221.8,FALSE,FALSE,FALSE,FALSE,FALSE,FALSE,,TRUE,Normal,,100,1024,1024,1024,1024,2,FALSE,FALSE,FALSE,FALSE,FALSE,0,FALSE,FALSE,FALSE,FALSE,84,7.787,1771,2113,7.838,FALSE,3.895,3.892,0.003,FALSE,FALSE,NA,97.9,97.7,97.8,0,0,0,0,5,2828.4,707.11,,Idle,0,20,FALSE,5,TRUE,9,Go Home,FALSE,FALSE,FALSE,FALSE,FALSE,FALSE,FALSE,FALSE,FALSE,FALSE,FALSE,FALSE,6.974495792,79.91427629,0.4,125.8,328,TRUE,1,1,FALSE,FALSE,FALSE,FALSE,,TRUE,FALSE,FALSE,Course Lock,65.6,41.9,16.4,Calm,27,,1.12.8,Mavic Mini,1SDCH7G0169R0K,1SFLH6Q0AB03DJ,1SRCH7F014TAHX,1U5X071EXP5ZJG,73.4,0.2,6.5,4.032755,2.23694,0,0,Mavic Mini,1SDCH7G0169R0K,1SFLH6Q0AB03DJ,1SRCH7F014TAHX,1U5X071EXP5ZJG,DJI Fly,,1.12.8,E89B6B78-B571-F0A0-A006-A3C37912BE74,1SDCH7G0169R0K,,,,,6.974503049,79.91424811,5,Home Point updated. RTH altitude adjusted to 20 m!{X (Code: 120852).,
2/15/2024,29:01.8,3m 36.1s,216.1,6.974494228,79.91427633,2.2,2.2,2.6,51,0.8,0,0.223694,0,0,0,0,-2.23694,0,3.8,-0.4,-166.8,193.2,,Auto Takeoff,Auto Fly,,15,5,TRUE,,Mavic Mini,TRUE,FALSE,,Smart,RC,FALSE,TRUE,FALSE,,,TRUE,,FALSE,FALSE,FALSE,FALSE,FALSE,FALSE,FALSE,FALSE,FALSE,FALSE,0,Follow Yaw,0,0,-138.3,221.7,FALSE,FALSE,FALSE,FALSE,FALSE,FALSE,,TRUE,Normal,,100,1024,1024,1024,1024,2,FALSE,FALSE,FALSE,FALSE,FALSE,0,FALSE,FALSE,FALSE,FALSE,84,7.787,1771,2113,7.838,FALSE,3.895,3.892,0.003,FALSE,FALSE,NA,97.9,97.7,97.8,0,0,0,0,5,2828.4,707.11,,Idle,0,20,FALSE,5,TRUE,9,Go Home,FALSE,FALSE,FALSE,FALSE,FALSE,FALSE,FALSE,FALSE,FALSE,FALSE,FALSE,FALSE,6.974495792,79.91427629,0.5,125.8,328,TRUE,1,1,FALSE,FALSE,FALSE,FALSE,,TRUE,FALSE,FALSE,Course Lock,65.6,41.9,16.4,Calm,27,,1.12.8,Mavic Mini,1SDCH7G0169R0K,1SFLH6Q0AB03DJ,1SRCH7F014TAHX,1U5X071EXP5ZJG,73.4,0.2,6.5,4.032755,2.23694,0,0,Mavic Mini,1SDCH7G0169R0K,1SFLH6Q0AB03DJ,1SRCH7F014TAHX,1U5X071EXP5ZJG,DJI Fly,,1.12.8,E89B6B78-B571-F0A0-A006-A3C37912BE74,1SDCH7G0169R0K,,,,,6.974503049,79.91424811,5,,
2/15/2024,29:01.9,3m 36.2s,216.2,6.974494181,79.91427628,2.6,2.6,2.9,51,0.9,0,0.223694,0,0,0,0,-2.23694,0,3.5,-0.6,-166.7,193.3,,Tripod,Auto Fly,,15,5,TRUE,,Mavic Mini,TRUE,FALSE,,Smart,RC,FALSE,TRUE,FALSE,,,TRUE,,FALSE,FALSE,FALSE,FALSE,FALSE,FALSE,FALSE,FALSE,FALSE,FALSE,0,Follow Yaw,0,0,-138.4,221.6,FALSE,FALSE,FALSE,FALSE,FALSE,FALSE,,TRUE,Normal,,100,1024,1024,1024,1024,2,FALSE,FALSE,FALSE,FALSE,FALSE,0,FALSE,FALSE,FALSE,FALSE,84,7.787,1771,2113,7.838,FALSE,3.895,3.892,0.003,FALSE,FALSE,NA,97.9,97.7,97.8,0,0,0,0,5,2828.4,707.11,,Idle,0,20,FALSE,5,TRUE,9,Go Home,FALSE,FALSE,FALSE,FALSE,FALSE,FALSE,FALSE,FALSE,FALSE,FALSE,FALSE,FALSE,6.974495792,79.91427629,0.5,125.8,328,TRUE,1,1,FALSE,FALSE,FALSE,FALSE,,TRUE,FALSE,FALSE,Course Lock,65.6,41.9,16.4,Calm,27,,1.12.8,Mavic Mini,1SDCH7G0169R0K,1SFLH6Q0AB03DJ,1SRCH7F014TAHX,1U5X071EXP5ZJG,73.4,0.2,6.5,4.032755,2.23694,0,0,Mavic Mini,1SDCH7G0169R0K,1SFLH6Q0AB03DJ,1SRCH7F014TAHX,1U5X071EXP5ZJG,DJI Fly,,1.12.8,E89B6B78-B571-F0A0-A006-A3C37912BE74,1SDCH7G0169R0K,,,,,6.974503049,79.91424811,5,Flight mode changed to Tripod.,
2/15/2024,29:02.0,3m 36.3s,216.3,6.974494095,79.91427626,2.6,2.6,3.6,51,0.9,0,0.223694,0,0,0,0,-1.789552,0,3.2,-0.6,-166.8,193.2,,Tripod,Auto Fly,,15,5,TRUE,,Mavic Mini,TRUE,FALSE,,Smart,RC,FALSE,TRUE,FALSE,,,TRUE,,FALSE,FALSE,FALSE,FALSE,FALSE,FALSE,FALSE,FALSE,FALSE,FALSE,0,Follow Yaw,0,0,-138.5,221.5,FALSE,FALSE,FALSE,FALSE,FALSE,FALSE,,TRUE,Normal,,100,1024,1024,1024,1024,2,FALSE,FALSE,FALSE,FALSE,FALSE,0,FALSE,FALSE,FALSE,FALSE,84,7.763,1770,2113,7.838,FALSE,3.881,3.883,0.003,FALSE,FALSE,NA,97.9,97.7,97.8,0,0,0,0,5,2828.4,707.11,,Idle,0,20,FALSE,5,TRUE,9,Go Home,FALSE,FALSE,FALSE,FALSE,FALSE,FALSE,FALSE,FALSE,FALSE,FALSE,FALSE,FALSE,6.974495792,79.91427629,0.6,125.8,328,TRUE,1,1,FALSE,FALSE,FALSE,FALSE,,TRUE,FALSE,FALSE,Course Lock,65.6,41.9,16.4,Calm,27,,1.12.8,Mavic Mini,1SDCH7G0169R0K,1SFLH6Q0AB03DJ,1SRCH7F014TAHX,1U5X071EXP5ZJG,73.4,0.2,6.5,4.032755,2.23694,0,0,Mavic Mini,1SDCH7G0169R0K,1SFLH6Q0AB03DJ,1SRCH7F014TAHX,1U5X071EXP5ZJG,DJI Fly,,1.12.8,E89B6B78-B571-F0A0-A006-A3C37912BE74,1SDCH7G0169R0K,,,,,6.974503049,79.91424811,5,,
2/15/2024,29:02.1,3m 36.4s,216.4,6.974493983,79.91427626,2.9,2.9,3.6,51,0.9,0,0.223694,0,0,0,0,-1.342164,0,3.1,0,-166.8,193.2,,Tripod,Auto Fly,,15,5,TRUE,,Mavic Mini,TRUE,FALSE,,Smart,RC,FALSE,TRUE,FALSE,,,TRUE,,FALSE,FALSE,FALSE,FALSE,FALSE,FALSE,FALSE,FALSE,FALSE,FALSE,0,Follow Yaw,0,0,-138.6,221.4,FALSE,FALSE,FALSE,FALSE,FALSE,FALSE,,TRUE,Normal,,100,1024,1024,1024,1024,2,FALSE,FALSE,FALSE,FALSE,FALSE,0,FALSE,FALSE,FALSE,FALSE,84,7.763,1770,2113,7.838,FALSE,3.881,3.883,0.003,FALSE,FALSE,NA,97.9,97.7,97.8,0,0,0,0,5,2828.4,707.11,,Idle,0,20,FALSE,5,TRUE,9,Go Home,FALSE,FALSE,FALSE,FALSE,FALSE,FALSE,FALSE,FALSE,FALSE,FALSE,FALSE,FALSE,6.974495792,79.91427629,0.6,125.8,328,TRUE,1,1,FALSE,FALSE,FALSE,FALSE,,TRUE,FALSE,FALSE,Course Lock,65.6,41.9,16.4,Calm,27,,1.12.8,Mavic Mini,1SDCH7G0169R0K,1SFLH6Q0AB03DJ,1SRCH7F014TAHX,1U5X071EXP5ZJG,73.4,0.2,6.5,4.032755,2.23694,0,0,Mavic Mini,1SDCH7G0169R0K,1SFLH6Q0AB03DJ,1SRCH7F014TAHX,1U5X071EXP5ZJG,DJI Fly,,1.12.8,E89B6B78-B571-F0A0-A006-A3C37912BE74,1SDCH7G0169R0K,,,,,6.974503049,79.91424811,5,,
2/15/2024,29:02.2,3m 36.5s,216.5,6.974494027,79.91427622,2.9,2.9,3.9,51,1,0,0.223694,0,0,0,0,-0.894776,0,2.3,0.3,-166.9,193.1,,Tripod,Auto Fly,,15,5,TRUE,,Mavic Mini,TRUE,FALSE,,Smart,RC,FALSE,TRUE,FALSE,,,TRUE,,FALSE,FALSE,FALSE,FALSE,FALSE,FALSE,FALSE,FALSE,FALSE,FALSE,0,Follow Yaw,0,0,-138.7,221.3,FALSE,FALSE,FALSE,FALSE,FALSE,FALSE,,TRUE,Normal,,100,1024,1024,1024,1024,2,FALSE,FALSE,FALSE,FALSE,FALSE,0,FALSE,FALSE,FALSE,FALSE,84,7.763,1770,2113,7.838,FALSE,3.881,3.883,0.003,FALSE,FALSE,NA,97.9,97.7,97.8,0,0,0,0,5,2828.4,707.11,,Idle,0,20,FALSE,5,TRUE,9,Go Home,FALSE,FALSE,FALSE,FALSE,FALSE,FALSE,FALSE,FALSE,FALSE,FALSE,FALSE,FALSE,6.974495792,79.91427629,0.6,125.8,328,TRUE,1,1,FALSE,FALSE,FALSE,FALSE,,TRUE,FALSE,FALSE,Course Lock,65.6,41.9,16.4,Calm,27,,1.12.8,Mavic Mini,1SDCH7G0169R0K,1SFLH6Q0AB03DJ,1SRCH7F014TAHX,1U5X071EXP5ZJG,73.4,0.2,6.5,4.032755,2.23694,0,0,Mavic Mini,1SDCH7G0169R0K,1SFLH6Q0AB03DJ,1SRCH7F014TAHX,1U5X071EXP5ZJG,DJI Fly,,1.12.8,E89B6B78-B571-F0A0-A006-A3C37912BE74,1SDCH7G0169R0K,,,,,6.974503049,79.91424811,5,,
2/15/2024,29:02.3,3m 36.6s,216.6,6.974493966,79.91427617,3.2,3.2,3.9,52,1,0,0.223694,0,0,0,0,-0.447388,0,2.1,0.3,-166.8,193.2,,Tripod,Auto Fly,,15,5,TRUE,,Mavic Mini,TRUE,FALSE,,Smart,RC,FALSE,TRUE,FALSE,,,TRUE,,FALSE,FALSE,FALSE,FALSE,FALSE,FALSE,FALSE,FALSE,FALSE,FALSE,0,Follow Yaw,0,0,-138.7,221.3,FALSE,FALSE,FALSE,FALSE,FALSE,FALSE,,TRUE,Normal,,100,1024,1024,1024,1024,2,FALSE,FALSE,FALSE,FALSE,FALSE,0,FALSE,FALSE,FALSE,FALSE,84,7.763,1770,2113,7.838,FALSE,3.881,3.883,0.003,FALSE,FALSE,NA,97.9,97.7,97.8,0,0,0,0,5,2828.4,707.11,,Idle,0,20,FALSE,5,TRUE,9,Go Home,FALSE,FALSE,FALSE,FALSE,FALSE,FALSE,FALSE,FALSE,FALSE,FALSE,FALSE,FALSE,6.974495792,79.91427629,0.6,125.8,328,TRUE,1,1,FALSE,FALSE,FALSE,FALSE,,TRUE,FALSE,FALSE,Course Lock,65.6,41.9,16.4,Calm,27,,1.12.8,Mavic Mini,1SDCH7G0169R0K,1SFLH6Q0AB03DJ,1SRCH7F014TAHX,1U5X071EXP5ZJG,73.4,0.2,6.5,4.032755,2.23694,0,0,Mavic Mini,1SDCH7G0169R0K,1SFLH6Q0AB03DJ,1SRCH7F014TAHX,1U5X071EXP5ZJG,DJI Fly,,1.12.8,E89B6B78-B571-F0A0-A006-A3C37912BE74,1SDCH7G0169R0K,,,,,6.974503049,79.91424811,5,,
2/15/2024,29:02.4,3m 36.7s,216.7,6.974493933,79.91427613,3.2,3.2,4.2,52,1,0,0.223694,0,0,0,0,0,0,2.3,-0.1,-166.7,193.3,,Tripod,Auto Fly,,15,5,TRUE,,Mavic Mini,TRUE,FALSE,,Smart,RC,FALSE,TRUE,FALSE,,,TRUE,,FALSE,FALSE,FALSE,FALSE,FALSE,FALSE,FALSE,FALSE,FALSE,FALSE,0,Follow Yaw,0,0,-138.8,221.2,FALSE,FALSE,FALSE,FALSE,FALSE,FALSE,,TRUE,Normal,,100,1024,1024,1024,1024,2,FALSE,FALSE,FALSE,FALSE,FALSE,0,FALSE,FALSE,FALSE,FALSE,84,7.763,1770,2113,7.838,FALSE,3.881,3.883,0.003,FALSE,FALSE,NA,97.9,97.7,97.8,0,0,0,0,5,2828.4,707.11,,Idle,0,20,FALSE,5,TRUE,9,Go Home,FALSE,FALSE,FALSE,FALSE,FALSE,FALSE,FALSE,FALSE,FALSE,FALSE,FALSE,FALSE,6.974495792,79.91427629,0.6,125.8,328,TRUE,1,1,FALSE,FALSE,FALSE,FALSE,,TRUE,FALSE,FALSE,Course Lock,65.6,41.9,16.4,Calm,27,,1.12.8,Mavic Mini,1SDCH7G0169R0K,1SFLH6Q0AB03DJ,1SRCH7F014TAHX,1U5X071EXP5ZJG,73.4,0.2,6.5,4.032755,2.23694,0,0,Mavic Mini,1SDCH7G0169R0K,1SFLH6Q0AB03DJ,1SRCH7F014TAHX,1U5X071EXP5ZJG,DJI Fly,,1.12.8,E89B6B78-B571-F0A0-A006-A3C37912BE74,1SDCH7G0169R0K,,,,,6.974503049,79.91424811,5,,
2/15/2024,29:02.5,3m 36.8s,216.8,6.974493907,79.91427608,3.2,3.2,4.2,52,1,0,0.223694,0,0,0,0,0,0,2.9,-1.1,-166.8,193.2,,Tripod,Auto Fly,,15,5,TRUE,,Mavic Mini,TRUE,FALSE,,Smart,RC,FALSE,TRUE,FALSE,,,TRUE,,FALSE,FALSE,FALSE,FALSE,FALSE,FALSE,FALSE,FALSE,FALSE,FALSE,0,Follow Yaw,0,0,-138.9,221.1,FALSE,FALSE,FALSE,FALSE,FALSE,FALSE,,TRUE,Normal,,100,1024,1024,1024,1024,2,FALSE,FALSE,FALSE,FALSE,FALSE,0,FALSE,FALSE,FALSE,FALSE,84,7.763,1770,2113,7.747,FALSE,3.881,3.883,0.003,FALSE,FALSE,NA,97.9,97.7,97.8,0,0,0,0,5,3572.1,893.02,,Idle,0,20,FALSE,5,TRUE,9,Go Home,FALSE,FALSE,FALSE,FALSE,FALSE,FALSE,FALSE,FALSE,FALSE,FALSE,FALSE,FALSE,6.974495792,79.91427629,0.6,125.8,328,TRUE,1,1,FALSE,FALSE,FALSE,FALSE,,TRUE,FALSE,FALSE,Course Lock,65.6,41.9,16.4,Calm,27,,1.12.8,Mavic Mini,1SDCH7G0169R0K,1SFLH6Q0AB03DJ,1SRCH7F014TAHX,1U5X071EXP5ZJG,73.4,0.2,6.5,4.032755,2.23694,0,0,Mavic Mini,1SDCH7G0169R0K,1SFLH6Q0AB03DJ,1SRCH7F014TAHX,1U5X071EXP5ZJG,DJI Fly,,1.12.8,E89B6B78-B571-F0A0-A006-A3C37912BE74,1SDCH7G0169R0K,,,,,6.974503049,79.91424811,5,,
2/15/2024,29:02.6,3m 36.9s,216.9,6.974493785,79.91427614,3.2,3.2,4.2,52,1.1,0,0.223694,0,0,0,0,0,0,2.7,-1.1,-166.8,193.2,,Tripod,Auto Fly,,15,5,TRUE,,Mavic Mini,TRUE,FALSE,,Smart,RC,FALSE,TRUE,FALSE,,,TRUE,,FALSE,FALSE,FALSE,FALSE,FALSE,FALSE,FALSE,FALSE,FALSE,FALSE,0,Follow Yaw,0,0,-138.9,221.1,FALSE,FALSE,FALSE,FALSE,FALSE,FALSE,,TRUE,Normal,,100,1024,1024,1024,1024,2,FALSE,FALSE,FALSE,FALSE,FALSE,0,FALSE,FALSE,FALSE,FALSE,84,7.763,1770,2113,7.747,FALSE,3.881,3.883,0.003,FALSE,FALSE,NA,97.9,97.7,97.8,0,0,0,0,5,3572.1,893.02,,Idle,0,20,FALSE,5,TRUE,9,Go Home,FALSE,FALSE,FALSE,FALSE,FALSE,FALSE,FALSE,FALSE,FALSE,FALSE,FALSE,FALSE,6.974495792,79.91427629,0.7,125.8,328,TRUE,1,1,FALSE,FALSE,FALSE,FALSE,,TRUE,FALSE,FALSE,Course Lock,65.6,41.9,16.4,Calm,27,,1.12.8,Mavic Mini,1SDCH7G0169R0K,1SFLH6Q0AB03DJ,1SRCH7F014TAHX,1U5X071EXP5ZJG,73.4,0.2,6.5,4.032755,2.23694,0,0,Mavic Mini,1SDCH7G0169R0K,1SFLH6Q0AB03DJ,1SRCH7F014TAHX,1U5X071EXP5ZJG,DJI Fly,,1.12.8,E89B6B78-B571-F0A0-A006-A3C37912BE74,1SDCH7G0169R0K,,,,,6.974503049,79.91424811,5,,
2/15/2024,29:02.7,3m 37.0s,217,6.974493654,79.91427612,3.2,3.2,4.2,52,1.1,0,0.223694,0,0,0,0,0,0,2.8,-0.9,-166.8,193.2,,Tripod,Auto Fly,,15,5,TRUE,,Mavic Mini,TRUE,FALSE,,Smart,RC,FALSE,TRUE,FALSE,,,TRUE,,FALSE,FALSE,FALSE,FALSE,FALSE,FALSE,FALSE,FALSE,FALSE,FALSE,0,Follow Yaw,0,0,-139,221,FALSE,FALSE,FALSE,FALSE,FALSE,FALSE,,TRUE,Normal,,100,1024,1024,1024,1024,2,FALSE,FALSE,FALSE,FALSE,FALSE,0,FALSE,FALSE,FALSE,FALSE,84,7.763,1770,2113,7.747,FALSE,3.881,3.883,0.003,FALSE,FALSE,NA,97.9,97.7,97.8,0,0,0,0,5,3572.1,893.02,,Idle,0,20,FALSE,5,TRUE,9,Go Home,FALSE,FALSE,FALSE,FALSE,FALSE,FALSE,FALSE,FALSE,FALSE,FALSE,FALSE,FALSE,6.974495792,79.91427629,0.7,125.8,328,TRUE,1,1,FALSE,FALSE,FALSE,FALSE,,TRUE,FALSE,FALSE,Course Lock,65.6,41.9,16.4,Calm,27,,1.12.8,Mavic Mini,1SDCH7G0169R0K,1SFLH6Q0AB03DJ,1SRCH7F014TAHX,1U5X071EXP5ZJG,73.4,0.2,6.5,4.032755,2.23694,0,0,Mavic Mini,1SDCH7G0169R0K,1SFLH6Q0AB03DJ,1SRCH7F014TAHX,1U5X071EXP5ZJG,DJI Fly,,1.12.8,E89B6B78-B571-F0A0-A006-A3C37912BE74,1SDCH7G0169R0K,,,,,6.974503049,79.91424811,5,,
2/15/2024,29:02.8,3m 37.1s,217.1,6.974493569,79.91427607,3.2,3.2,4.2,52,1.2,0,0.223694,0,0,0,0,0,0,3.3,-0.4,-166.7,193.3,,Tripod,Auto Fly,,15,5,TRUE,,Mavic Mini,TRUE,FALSE,,Smart,RC,FALSE,TRUE,FALSE,,,TRUE,,FALSE,FALSE,FALSE,FALSE,FALSE,FALSE,FALSE,FALSE,FALSE,FALSE,0,Follow Yaw,0,0,-139,221,FALSE,FALSE,FALSE,FALSE,FALSE,FALSE,,TRUE,Normal,,100,1024,1024,1024,1024,2,FALSE,FALSE,FALSE,FALSE,FALSE,0,FALSE,FALSE,FALSE,FALSE,84,7.763,1770,2113,7.747,FALSE,3.881,3.883,0.003,FALSE,FALSE,NA,97.9,97.7,97.8,0,0,0,0,5,3572.1,893.02,,Idle,0,20,FALSE,5,TRUE,9,Go Home,FALSE,FALSE,FALSE,FALSE,FALSE,FALSE,FALSE,FALSE,FALSE,FALSE,FALSE,FALSE,6.974495792,79.91427629,0.8,125.8,328,TRUE,1,1,FALSE,FALSE,FALSE,FALSE,,TRUE,FALSE,FALSE,Course Lock,65.6,41.9,16.4,Calm,27,,1.12.8,Mavic Mini,1SDCH7G0169R0K,1SFLH6Q0AB03DJ,1SRCH7F014TAHX,1U5X071EXP5ZJG,73.4,0.2,6.5,4.032755,2.23694,0,0,Mavic Mini,1SDCH7G0169R0K,1SFLH6Q0AB03DJ,1SRCH7F014TAHX,1U5X071EXP5ZJG,DJI Fly,,1.12.8,E89B6B78-B571-F0A0-A006-A3C37912BE74,1SDCH7G0169R0K,,,,,6.974503049,79.91424811,5,,
2/15/2024,29:03.0,3m 37.2s,217.2,6.974493506,79.91427601,3.2,3.2,4.2,52,1.2,0,0.223694,0,0,0,0,0,0,3.6,-0.8,-166.7,193.3,,Tripod,Auto Fly,,15,5,TRUE,,Mavic Mini,TRUE,FALSE,,Smart,RC,FALSE,TRUE,FALSE,,,TRUE,,FALSE,FALSE,FALSE,FALSE,FALSE,FALSE,FALSE,FALSE,FALSE,FALSE,0,Follow Yaw,0,0,-139,221,FALSE,FALSE,FALSE,FALSE,FALSE,FALSE,,TRUE,Normal,,100,1024,1024,1024,1024,2,FALSE,FALSE,FALSE,FALSE,FALSE,0,FALSE,FALSE,FALSE,FALSE,84,7.763,1770,2113,7.747,FALSE,3.881,3.883,0.003,FALSE,FALSE,NA,97.9,97.7,97.8,0,0,0,0,5,3572.1,893.02,,Idle,0,20,FALSE,5,TRUE,9,Go Home,FALSE,FALSE,FALSE,FALSE,FALSE,FALSE,FALSE,FALSE,FALSE,FALSE,FALSE,FALSE,6.974495792,79.91427629,0.8,125.8,328,TRUE,1,1,FALSE,FALSE,FALSE,FALSE,,TRUE,FALSE,FALSE,Course Lock,65.6,41.9,16.4,Calm,27,,1.12.8,Mavic Mini,1SDCH7G0169R0K,1SFLH6Q0AB03DJ,1SRCH7F014TAHX,1U5X071EXP5ZJG,73.4,0.2,6.5,4.032755,2.23694,0,0,Mavic Mini,1SDCH7G0169R0K,1SFLH6Q0AB03DJ,1SRCH7F014TAHX,1U5X071EXP5ZJG,DJI Fly,,1.12.8,E89B6B78-B571-F0A0-A006-A3C37912BE74,1SDCH7G0169R0K,,,,,6.97450967,79.91424736,5,,
2/15/2024,29:03.1,3m 37.3s,217.3,6.974493549,79.91427591,3.2,3.2,4.2,52,1.2,0,0.223694,0,0,0,0,0,0,3.3,-1.1,-166.8,193.2,,Tripod,Auto Fly,,15,5,TRUE,,Mavic Mini,TRUE,FALSE,,Smart,RC,FALSE,TRUE,FALSE,,,TRUE,,FALSE,FALSE,FALSE,FALSE,FALSE,FALSE,FALSE,FALSE,FALSE,FALSE,0,Follow Yaw,0,0,-139.1,220.9,FALSE,FALSE,FALSE,FALSE,FALSE,FALSE,,TRUE,Normal,,100,1024,1024,1024,1024,2,FALSE,FALSE,FALSE,FALSE,FALSE,0,FALSE,FALSE,FALSE,FALSE,84,7.763,1770,2113,7.747,FALSE,3.881,3.883,0.003,FALSE,FALSE,NA,97.9,97.7,97.8,0,0,0,0,5,3572.1,893.02,,Idle,0,20,FALSE,5,TRUE,9,Go Home,FALSE,FALSE,FALSE,FALSE,FALSE,FALSE,FALSE,FALSE,FALSE,FALSE,FALSE,FALSE,6.974495792,79.91427629,0.8,125.8,328,TRUE,1,1,FALSE,FALSE,FALSE,FALSE,,TRUE,FALSE,FALSE,Course Lock,65.6,41.9,16.4,Calm,27,,1.12.8,Mavic Mini,1SDCH7G0169R0K,1SFLH6Q0AB03DJ,1SRCH7F014TAHX,1U5X071EXP5ZJG,73.4,0.2,6.5,4.032755,2.23694,0,0,Mavic Mini,1SDCH7G0169R0K,1SFLH6Q0AB03DJ,1SRCH7F014TAHX,1U5X071EXP5ZJG,DJI Fly,,1.12.8,E89B6B78-B571-F0A0-A006-A3C37912BE74,1SDCH7G0169R0K,,,,,6.97450967,79.91424736,5,,
2/15/2024,29:03.2,3m 37.4s,217.4,6.974493534,79.91427587,3.2,3.2,4.2,52,1.2,0,0.223694,0,0,0,0,0,0,3.5,-1.1,-166.8,193.2,,Tripod,Auto Fly,,15,5,TRUE,,Mavic Mini,TRUE,FALSE,,Smart,RC,FALSE,TRUE,FALSE,,,TRUE,,FALSE,FALSE,FALSE,FALSE,FALSE,FALSE,FALSE,FALSE,FALSE,FALSE,0,Follow Yaw,0,0,-139.1,220.9,FALSE,FALSE,FALSE,FALSE,FALSE,FALSE,,TRUE,Normal,,100,1024,1024,1024,1024,2,FALSE,FALSE,FALSE,FALSE,FALSE,0,FALSE,FALSE,FALSE,FALSE,84,7.763,1770,2113,7.747,FALSE,3.881,3.883,0.003,FALSE,FALSE,NA,97.9,97.7,97.8,0,0,0,0,5,3572.1,893.02,,Idle,0,20,FALSE,5,TRUE,9,Go Home,FALSE,FALSE,FALSE,FALSE,FALSE,FALSE,FALSE,FALSE,FALSE,FALSE,FALSE,FALSE,6.974495792,79.91427629,0.8,125.8,328,TRUE,1,1,FALSE,FALSE,FALSE,FALSE,,TRUE,FALSE,FALSE,Course Lock,65.6,41.9,16.4,Calm,27,,1.12.8,Mavic Mini,1SDCH7G0169R0K,1SFLH6Q0AB03DJ,1SRCH7F014TAHX,1U5X071EXP5ZJG,73.4,0.2,6.5,4.032755,2.23694,0,0,Mavic Mini,1SDCH7G0169R0K,1SFLH6Q0AB03DJ,1SRCH7F014TAHX,1U5X071EXP5ZJG,DJI Fly,,1.12.8,E89B6B78-B571-F0A0-A006-A3C37912BE74,1SDCH7G0169R0K,,,,,6.97450967,79.91424736,5,,
2/15/2024,29:03.2,3m 37.5s,217.5,6.974493498,79.91427584,3.2,3.2,4.2,52,1.3,0,0.223694,0,0,0,0,0,0,3.5,-0.8,-166.8,193.2,,Tripod,Auto Fly,,15,5,TRUE,,Mavic Mini,TRUE,FALSE,,Smart,RC,FALSE,TRUE,FALSE,,,TRUE,,FALSE,FALSE,FALSE,FALSE,FALSE,FALSE,FALSE,FALSE,FALSE,FALSE,0,Follow Yaw,0,0,-139.2,220.8,FALSE,FALSE,FALSE,FALSE,FALSE,FALSE,,TRUE,Normal,,100,1024,1024,1024,1024,2,FALSE,FALSE,FALSE,FALSE,FALSE,0,FALSE,FALSE,FALSE,FALSE,84,7.718,1769,2113,7.747,FALSE,3.858,3.86,0.003,FALSE,FALSE,NA,97.9,97.7,97.8,0,0,0,0,5,3572.1,893.02,,Idle,0,20,FALSE,5,TRUE,9,Go Home,FALSE,FALSE,FALSE,FALSE,FALSE,FALSE,FALSE,FALSE,FALSE,FALSE,FALSE,FALSE,6.974495792,79.91427629,0.8,125.8,328,TRUE,1,1,FALSE,FALSE,FALSE,FALSE,,TRUE,FALSE,FALSE,Course Lock,65.6,41.9,16.4,Calm,27,,1.12.8,Mavic Mini,1SDCH7G0169R0K,1SFLH6Q0AB03DJ,1SRCH7F014TAHX,1U5X071EXP5ZJG,73.4,0.2,6.5,4.032755,2.23694,0,0,Mavic Mini,1SDCH7G0169R0K,1SFLH6Q0AB03DJ,1SRCH7F014TAHX,1U5X071EXP5ZJG,DJI Fly,,1.12.8,E89B6B78-B571-F0A0-A006-A3C37912BE74,1SDCH7G0169R0K,,,,,6.97450967,79.91424736,5,,
2/15/2024,29:03.3,3m 37.6s,217.6,6.974493457,79.91427583,3.2,3.2,4.2,52,1.3,0,0.223694,0,0,0,0,0,0,3.5,-0.6,-166.9,193.1,,Tripod,Auto Fly,,15,5,TRUE,,Mavic Mini,TRUE,FALSE,,Smart,RC,FALSE,TRUE,FALSE,,,TRUE,,FALSE,FALSE,FALSE,FALSE,FALSE,FALSE,FALSE,FALSE,FALSE,FALSE,0,Follow Yaw,0,0,-139.2,220.8,FALSE,FALSE,FALSE,FALSE,FALSE,FALSE,,TRUE,Normal,,100,1024,1024,1024,1024,2,FALSE,FALSE,FALSE,FALSE,FALSE,0,FALSE,FALSE,FALSE,FALSE,84,7.718,1769,2113,7.747,FALSE,3.858,3.86,0.003,FALSE,FALSE,NA,97.9,97.7,97.8,0,0,0,0,5,3572.1,893.02,,Idle,0,20,FALSE,5,TRUE,9,Go Home,FALSE,FALSE,FALSE,FALSE,FALSE,FALSE,FALSE,FALSE,FALSE,FALSE,FALSE,FALSE,6.974495792,79.91427629,0.8,125.8,328,TRUE,1,1,FALSE,FALSE,FALSE,FALSE,,TRUE,FALSE,FALSE,Course Lock,65.6,41.9,16.4,Calm,27,,1.12.8,Mavic Mini,1SDCH7G0169R0K,1SFLH6Q0AB03DJ,1SRCH7F014TAHX,1U5X071EXP5ZJG,73.4,0.2,6.5,4.032755,2.23694,0,0,Mavic Mini,1SDCH7G0169R0K,1SFLH6Q0AB03DJ,1SRCH7F014TAHX,1U5X071EXP5ZJG,DJI Fly,,1.12.8,E89B6B78-B571-F0A0-A006-A3C37912BE74,1SDCH7G0169R0K,,,,,6.97450967,79.91424736,5,,
2/15/2024,29:03.4,3m 37.7s,217.7,6.974493446,79.91427581,3.2,3.2,4.2,52,1.3,0,0.223694,0,0,0,0,0,0,3.5,-0.6,-166.9,193.1,,Tripod,Auto Fly,,15,5,TRUE,,Mavic Mini,TRUE,FALSE,,Smart,RC,FALSE,TRUE,FALSE,,,TRUE,,FALSE,FALSE,FALSE,FALSE,FALSE,FALSE,FALSE,FALSE,FALSE,FALSE,0,Follow Yaw,0,0,-139.2,220.8,FALSE,FALSE,FALSE,FALSE,FALSE,FALSE,,TRUE,Normal,,100,1024,1024,1024,1024,2,FALSE,FALSE,FALSE,FALSE,FALSE,0,FALSE,FALSE,FALSE,FALSE,84,7.718,1769,2113,7.747,FALSE,3.858,3.86,0.003,FALSE,FALSE,NA,97.9,97.7,97.8,0,0,0,0,5,3572.1,893.02,,Idle,0,20,FALSE,5,TRUE,9,Go Home,FALSE,FALSE,FALSE,FALSE,FALSE,FALSE,FALSE,FALSE,FALSE,FALSE,FALSE,FALSE,6.974495792,79.91427629,0.8,125.8,328,TRUE,1,1,FALSE,FALSE,FALSE,FALSE,,TRUE,FALSE,FALSE,Course Lock,65.6,41.9,16.4,Calm,27,,1.12.8,Mavic Mini,1SDCH7G0169R0K,1SFLH6Q0AB03DJ,1SRCH7F014TAHX,1U5X071EXP5ZJG,73.4,0.2,6.5,4.032755,2.23694,0,0,Mavic Mini,1SDCH7G0169R0K,1SFLH6Q0AB03DJ,1SRCH7F014TAHX,1U5X071EXP5ZJG,DJI Fly,,1.12.8,E89B6B78-B571-F0A0-A006-A3C37912BE74,1SDCH7G0169R0K,,,,,6.97450967,79.91424736,5,,
2/15/2024,29:03.5,3m 37.8s,217.8,6.974493437,79.91427578,3.2,3.2,4.2,52,1.3,0,0.223694,0,0,0,0,0,0,3.9,-0.8,-166.8,193.2,,Tripod,Auto Fly,,15,5,TRUE,,Mavic Mini,TRUE,FALSE,,Smart,RC,FALSE,TRUE,FALSE,,,TRUE,,FALSE,FALSE,FALSE,FALSE,FALSE,FALSE,FALSE,FALSE,FALSE,FALSE,0,Follow Yaw,0,0,-139.3,220.7,FALSE,FALSE,FALSE,FALSE,FALSE,FALSE,,TRUE,Normal,,100,1024,1024,1024,1024,2,FALSE,FALSE,FALSE,FALSE,FALSE,0,FALSE,FALSE,FALSE,FALSE,84,7.718,1769,2113,7.714,FALSE,3.858,3.86,0.003,FALSE,FALSE,NA,97.9,97.7,97.8,0,0,0,0,5,5188.8,1297.22,,Idle,0,20,FALSE,5,TRUE,9,Go Home,FALSE,FALSE,FALSE,FALSE,FALSE,FALSE,FALSE,FALSE,FALSE,FALSE,FALSE,FALSE,6.974495792,79.91427629,0.8,125.8,328,TRUE,1,1,FALSE,FALSE,FALSE,FALSE,,TRUE,FALSE,FALSE,Course Lock,65.6,41.9,16.4,Calm,27,,1.12.8,Mavic Mini,1SDCH7G0169R0K,1SFLH6Q0AB03DJ,1SRCH7F014TAHX,1U5X071EXP5ZJG,73.4,0.2,6.5,4.032755,2.23694,0,0,Mavic Mini,1SDCH7G0169R0K,1SFLH6Q0AB03DJ,1SRCH7F014TAHX,1U5X071EXP5ZJG,DJI Fly,,1.12.8,E89B6B78-B571-F0A0-A006-A3C37912BE74,1SDCH7G0169R0K,,,,,6.97450967,79.91424736,5,,
2/15/2024,29:03.6,3m 37.9s,217.9,6.974493455,79.91427576,3.2,3.2,4.2,52,1.3,0,0.223694,0,0,0,0,0,0,3.5,-0.8,-166.8,193.2,,Tripod,Auto Fly,,15,5,TRUE,,Mavic Mini,TRUE,FALSE,,Smart,RC,FALSE,TRUE,FALSE,,,TRUE,,FALSE,FALSE,FALSE,FALSE,FALSE,FALSE,FALSE,FALSE,FALSE,FALSE,0,Follow Yaw,0,0,-139.3,220.7,FALSE,FALSE,FALSE,FALSE,FALSE,FALSE,,TRUE,Normal,,100,1024,1024,1024,1024,2,FALSE,FALSE,FALSE,FALSE,FALSE,0,FALSE,FALSE,FALSE,FALSE,84,7.718,1769,2113,7.714,FALSE,3.858,3.86,0.003,FALSE,FALSE,NA,97.9,97.7,97.8,0,0,0,0,5,5188.8,1297.22,,Idle,0,20,FALSE,5,TRUE,9,Go Home,FALSE,FALSE,FALSE,FALSE,FALSE,FALSE,FALSE,FALSE,FALSE,FALSE,FALSE,FALSE,6.974495792,79.91427629,0.8,125.8,328,TRUE,1,1,FALSE,FALSE,FALSE,FALSE,,TRUE,FALSE,FALSE,Course Lock,65.6,41.9,16.4,Calm,27,,1.12.8,Mavic Mini,1SDCH7G0169R0K,1SFLH6Q0AB03DJ,1SRCH7F014TAHX,1U5X071EXP5ZJG,73.4,0.2,6.5,4.032755,2.23694,0,0,Mavic Mini,1SDCH7G0169R0K,1SFLH6Q0AB03DJ,1SRCH7F014TAHX,1U5X071EXP5ZJG,DJI Fly,,1.12.8,E89B6B78-B571-F0A0-A006-A3C37912BE74,1SDCH7G0169R0K,,,,,6.97450967,79.91424736,5,,
2/15/2024,29:03.7,3m 38.0s,218,6.974493484,79.91427573,3.2,3.2,4.2,52,1.3,0,0.223694,0,0,0,0,0,0,3.2,-0.7,-166.5,193.5,,Tripod,Auto Fly,,15,5,TRUE,,Mavic Mini,TRUE,FALSE,,Smart,RC,FALSE,TRUE,FALSE,,,TRUE,,FALSE,FALSE,FALSE,FALSE,FALSE,FALSE,FALSE,FALSE,FALSE,FALSE,0,Follow Yaw,0,0,-139.3,220.7,FALSE,FALSE,FALSE,FALSE,FALSE,FALSE,,TRUE,Normal,,100,1024,1024,1024,1024,2,FALSE,FALSE,FALSE,FALSE,FALSE,0,FALSE,FALSE,FALSE,FALSE,84,7.718,1769,2113,7.714,FALSE,3.858,3.86,0.003,FALSE,FALSE,NA,97.9,97.7,97.8,0,0,0,0,5,5188.8,1297.22,,Idle,0,20,FALSE,5,TRUE,9,Go Home,FALSE,FALSE,FALSE,FALSE,FALSE,FALSE,FALSE,FALSE,FALSE,FALSE,FALSE,FALSE,6.974495792,79.91427629,0.8,125.8,328,TRUE,1,1,FALSE,FALSE,FALSE,FALSE,,TRUE,FALSE,FALSE,Course Lock,65.6,41.9,16.4,Calm,27,,1.12.8,Mavic Mini,1SDCH7G0169R0K,1SFLH6Q0AB03DJ,1SRCH7F014TAHX,1U5X071EXP5ZJG,73.4,0.2,6.5,4.032755,2.23694,0,0,Mavic Mini,1SDCH7G0169R0K,1SFLH6Q0AB03DJ,1SRCH7F014TAHX,1U5X071EXP5ZJG,DJI Fly,,1.12.8,E89B6B78-B571-F0A0-A006-A3C37912BE74,1SDCH7G0169R0K,,,,,6.97450967,79.91424736,5,,
2/15/2024,29:03.8,3m 38.1s,218.1,6.974493505,79.91427573,3.2,3.2,4.2,52,1.3,0,0.223694,0,0,0,0,0,0,2.9,-0.7,-166.1,193.9,,Tripod,Auto Fly,,15,5,TRUE,,Mavic Mini,TRUE,FALSE,,Smart,RC,FALSE,TRUE,FALSE,,,TRUE,,FALSE,FALSE,FALSE,FALSE,FALSE,FALSE,FALSE,FALSE,FALSE,FALSE,0,Follow Yaw,0,0,-139.3,220.7,FALSE,FALSE,FALSE,FALSE,FALSE,FALSE,,TRUE,Normal,,100,1024,1024,1024,1024,2,FALSE,FALSE,FALSE,FALSE,FALSE,0,FALSE,FALSE,FALSE,FALSE,84,7.718,1769,2113,7.714,FALSE,3.858,3.86,0.003,FALSE,FALSE,NA,97.9,97.7,97.8,0,0,0,0,5,5188.8,1297.22,,Idle,0,20,FALSE,5,TRUE,9,Go Home,FALSE,FALSE,FALSE,FALSE,FALSE,FALSE,FALSE,FALSE,FALSE,FALSE,FALSE,FALSE,6.974495792,79.91427629,0.8,125.8,328,TRUE,1,1,FALSE,FALSE,FALSE,FALSE,,TRUE,FALSE,FALSE,Course Lock,65.6,41.9,16.4,Calm,27,,1.12.8,Mavic Mini,1SDCH7G0169R0K,1SFLH6Q0AB03DJ,1SRCH7F014TAHX,1U5X071EXP5ZJG,73.4,0.2,6.5,4.032755,2.23694,0,0,Mavic Mini,1SDCH7G0169R0K,1SFLH6Q0AB03DJ,1SRCH7F014TAHX,1U5X071EXP5ZJG,DJI Fly,,1.12.8,E89B6B78-B571-F0A0-A006-A3C37912BE74,1SDCH7G0169R0K,,,,,6.97450967,79.91424736,5,,
2/15/2024,29:03.9,3m 38.2s,218.2,6.974493487,79.91427575,3.2,3.2,4.2,52,1.3,0,0.223694,0,0,0,0,0,0,2.9,-0.5,-165.8,194.2,,Tripod,Auto Fly,,15,5,TRUE,,Mavic Mini,TRUE,FALSE,,Smart,RC,FALSE,TRUE,FALSE,,,TRUE,,FALSE,FALSE,FALSE,FALSE,FALSE,FALSE,FALSE,FALSE,FALSE,FALSE,0,Follow Yaw,0,0,-139.3,220.7,FALSE,FALSE,FALSE,FALSE,FALSE,FALSE,,TRUE,Normal,,100,1024,1024,1024,1024,2,FALSE,FALSE,FALSE,FALSE,FALSE,0,FALSE,FALSE,FALSE,FALSE,84,7.718,1769,2113,7.714,FALSE,3.858,3.86,0.003,FALSE,FALSE,NA,97.9,97.7,97.8,0,0,0,0,5,5188.8,1297.22,,Idle,0,20,FALSE,5,TRUE,9,Go Home,FALSE,FALSE,FALSE,FALSE,FALSE,FALSE,FALSE,FALSE,FALSE,FALSE,FALSE,FALSE,6.974495792,79.91427629,0.8,125.8,328,TRUE,1,1,FALSE,FALSE,FALSE,FALSE,,TRUE,FALSE,FALSE,Course Lock,65.6,41.9,16.4,Calm,27,,1.12.8,Mavic Mini,1SDCH7G0169R0K,1SFLH6Q0AB03DJ,1SRCH7F014TAHX,1U5X071EXP5ZJG,73.4,0.2,6.5,4.032755,2.23694,0,0,Mavic Mini,1SDCH7G0169R0K,1SFLH6Q0AB03DJ,1SRCH7F014TAHX,1U5X071EXP5ZJG,DJI Fly,,1.12.8,E89B6B78-B571-F0A0-A006-A3C37912BE74,1SDCH7G0169R0K,,,,,6.97450967,79.91424736,5,,
2/15/2024,29:04.0,3m 38.3s,218.3,6.974493525,79.91427572,3.2,3.2,4.2,52,1.4,0,0.223694,0,0,0,0,0,0,3,-0.9,-165.8,194.2,,Tripod,Auto Fly,,15,5,TRUE,,Mavic Mini,TRUE,FALSE,,Smart,RC,FALSE,TRUE,FALSE,,,TRUE,,FALSE,FALSE,FALSE,FALSE,FALSE,FALSE,FALSE,FALSE,FALSE,FALSE,0,Follow Yaw,0,0,-139.3,220.7,FALSE,FALSE,FALSE,FALSE,FALSE,FALSE,,TRUE,Normal,,100,1024,1024,1024,1024,2,FALSE,FALSE,FALSE,FALSE,FALSE,0,FALSE,FALSE,FALSE,FALSE,84,7.718,1769,2113,7.714,FALSE,3.858,3.86,0.003,FALSE,FALSE,NA,97.9,97.7,97.8,0,0,0,0,5,5188.8,1297.22,,Idle,0,20,FALSE,5,TRUE,9,Go Home,FALSE,FALSE,FALSE,FALSE,FALSE,FALSE,FALSE,FALSE,FALSE,FALSE,FALSE,FALSE,6.974495792,79.91427629,0.8,125.8,328,TRUE,1,1,FALSE,FALSE,FALSE,FALSE,,TRUE,FALSE,FALSE,Course Lock,65.6,41.9,16.4,Calm,27,,1.12.8,Mavic Mini,1SDCH7G0169R0K,1SFLH6Q0AB03DJ,1SRCH7F014TAHX,1U5X071EXP5ZJG,73.4,0.2,6.5,4.032755,2.23694,0,0,Mavic Mini,1SDCH7G0169R0K,1SFLH6Q0AB03DJ,1SRCH7F014TAHX,1U5X071EXP5ZJG,DJI Fly,,1.12.8,E89B6B78-B571-F0A0-A006-A3C37912BE74,1SDCH7G0169R0K,,,,,6.97450967,79.91424736,5,,
2/15/2024,29:04.2,3m 38.4s,218.4,6.974493577,79.91427569,3.2,3.2,4.2,52,1.4,0,0.223694,0,0,0,0,0,0,2.9,-1,-165.8,194.2,,Tripod,Auto Fly,,15,5,TRUE,,Mavic Mini,TRUE,FALSE,,Smart,RC,FALSE,TRUE,FALSE,,,TRUE,,FALSE,FALSE,FALSE,FALSE,FALSE,FALSE,FALSE,FALSE,FALSE,FALSE,0,Follow Yaw,0,0,-139.3,220.7,FALSE,FALSE,FALSE,FALSE,FALSE,FALSE,,TRUE,Normal,,100,1024,1024,1024,1024,2,FALSE,FALSE,FALSE,FALSE,FALSE,0,FALSE,FALSE,FALSE,FALSE,84,7.718,1769,2113,7.714,FALSE,3.858,3.86,0.003,FALSE,FALSE,NA,97.9,97.7,97.8,0,0,0,0,5,5188.8,1297.22,,Idle,0,20,FALSE,5,TRUE,9,Go Home,FALSE,FALSE,FALSE,FALSE,FALSE,FALSE,FALSE,FALSE,FALSE,FALSE,FALSE,FALSE,6.974495792,79.91427629,0.8,125.8,328,TRUE,1,1,FALSE,FALSE,FALSE,FALSE,,TRUE,FALSE,FALSE,Course Lock,65.6,41.9,16.4,Calm,27,,1.12.8,Mavic Mini,1SDCH7G0169R0K,1SFLH6Q0AB03DJ,1SRCH7F014TAHX,1U5X071EXP5ZJG,73.4,0.2,6.5,4.032755,2.23694,0,0,Mavic Mini,1SDCH7G0169R0K,1SFLH6Q0AB03DJ,1SRCH7F014TAHX,1U5X071EXP5ZJG,DJI Fly,,1.12.8,E89B6B78-B571-F0A0-A006-A3C37912BE74,1SDCH7G0169R0K,,,,,6.97450967,79.91424736,5,,
