CUSTOM.date [local],CUSTOM.updateTime [local],OSD.flyTime,OSD.flyTime [s],OSD.latitude,OSD.longitude,OSD.height [ft],OSD.heightMax [ft],OSD.vpsHeight [ft],OSD.altitude [ft],OSD.mileage [ft],OSD.hSpeed [MPH],OSD.hSpeedMax [MPH],OSD.xSpeed [MPH],OSD.xSpeedMax [MPH],OSD.ySpeed [MPH],OSD.ySpeedMax [MPH],OSD.zSpeed [MPH],OSD.zSpeedMax [MPH],OSD.pitch,OSD.roll,OSD.yaw,OSD.yaw [360],OSD.directionOfTravel,OSD.flycState,OSD.flycCommand,OSD.flightAction,OSD.gpsNum,OSD.gpsLevel,OSD.isGPSUsed,OSD.nonGPSCause,OSD.droneType,OSD.isSwaveWork,OSD.waveError,OSD.goHomeStatus,OSD.batteryType,OSD.ctrlDevice,OSD.isOnGround,OSD.isMotorOn,OSD.isMotorBlocked,OSD.motorStartFailedCause,OSD.motorFailReason,OSD.isImuPreheated,OSD.imuInitFailReason,OSD.isAcceletorOverRange,OSD.isBarometerDeadInAir,OSD.isCompassError,OSD.isGoHomeHeightModified,OSD.canIOCWork,OSD.isNotEnoughForce,OSD.isOutOfLimit,OSD.isPropellerCatapult,OSD.isVibrating,OSD.isVisionUsed,OSD.voltageWarning,GIMBAL.mode,GIMBAL.pitch,GIMBAL.roll,GIMBAL.yaw,GIMBAL.yaw [360],GIMBAL.isPitchAtLimit,GIMBAL.isRollAtLimit,GIMBAL.isYawAtLimit,GIMBAL.isStuck,CAMERA.isPhoto,CAMERA.isVideo,CAMERA.filename,CAMERA.sdCardIsInserted,CAMERA.sdCardState,RC.downlinkSignal,RC.uplinkSignal,RC.aileron,RC.elevator,RC.throttle,RC.rudder,RC.mode,RC.goHomeDepressed,RC.recordDepressed,RC.shutterDepressed,RC.playbackDepressed,RC.wheelDepressed,RC.wheelOffset,RC.custom1Depressed,RC.custom2Depressed,RC.custom3Depressed,RC.custom4Depressed,BATTERY.chargeLevel,BATTERY.currentPV [V],BATTERY.currentCapacity [mAh],BATTERY.fullCapacity [mAh],BATTERY.voltage [V],BATTERY.isCellVoltageEstimated,BATTERY.cellVoltage1 [V],BATTERY.cellVoltage2 [V],BATTERY.maxCellVoltageDeviation,BATTERY.isCellVoltageDeviationHigh,BATTERY.isVoltageLow,BATTERY.current [A],BATTERY.temperature [F],BATTERY.minTemperature [F],BATTERY.maxTemperature [F],BATTERY.usefulTime [s],BATTERY.goHomeTime [s],BATTERY.landTime [s],BATTERY.goHomeBattery,BATTERY.landBattery,BATTERY.safeFlyRadius,BATTERY.volumeConsume,BATTERY.status,BATTERY.goHomeStatus,BATTERY.goHomeCountdown,BATTERY.lowWarning,BATTERY.lowWarningGoHome,BATTERY.seriousLowWarning,BATTERY.seriousLowWarningLanding,BATTERY.timesCharged,MC.failSafeAction,MC.isObstacleAvoidanceEnabled,MC.isCollisionAvoidanceEnabled,MC.isRthObstacleAvoidanceEnabled,MC.isBraking,MC.isAvoidingObstacle,MC.isAvoidingActiveObstacle,MC.isAscentLimitedByObstacle,MC.isLandingConfirmationNeeded,MC.atLowAltitudeLimit,MC.atDistanceLimit,MC.atAirportAltitudeLimit,MC.atAirportBoundary,HOME.latitude,HOME.longitude,HOME.distance [ft],HOME.height [ft],HOME.heightLimit [ft],HOME.isHomeRecord,HOME.goHomeMode,HOME.aircraftHeadDirection,HOME.isDynamicHomePointEnabled,HOME.isReachedLimitDistance,HOME.isReachedLimitHeight,HOME.isCompassCalibrating,HOME.compassCalibrationState,HOME.isMultipleFlightModeEnabled,HOME.isBeginnerMode,HOME.isIOCEnabled,HOME.iocMode,HOME.goHomeHeight [ft],HOME.courseLockAngle,HOME.forceLandingHeight [ft],HOME.wind,HOME.dataRecorderFileIndex,RECOVER.appType,RECOVER.appVersion,RECOVER.aircraftName,RECOVER.aircraftSerial,RECOVER.cameraSerial,RECOVER.rcSerial,RECOVER.batterySerial,DETAILS.totalTime [s],DETAILS.totalDistance [ft],DETAILS.maxHeight [ft],DETAILS.maxHorizontalSpeed [MPH],DETAILS.maxVerticalSpeed [MPH],DETAILS.photoNum,DETAILS.videoTime [s],DETAILS.aircraftName,DETAILS.aircraftSerial,DETAILS.cameraSerial,DETAILS.rcSerial,DETAILS.batterySerial,DETAILS.appName,DETAILS.appType,DETAILS.appVersion,DETAILS.guid,SERIAL.flightController,SERIAL.camera,SERIAL.gimbal,SERIAL.rc,SERIAL.battery,APPGPS.latitude,APPGPS.longitude,APPGPS.accuracy,APP.tip,APP.warning
1/26/2024,32:16.8,9m 33.3s,573.3,6.972957696,79.91594068,0,0,0.3,57,0,0,0,0,0,0,0,0,0,5.2,0,-55,305,,Starting Motors,Auto Fly,Takeoff (RC Assisted),16,5,TRUE,,Mavic Mini,FALSE,FALSE,,Smart,RC,TRUE,TRUE,FALSE,,,TRUE,,FALSE,FALSE,FALSE,FALSE,FALSE,FALSE,FALSE,FALSE,FALSE,FALSE,0,Follow Yaw,0,0,-57.4,302.6,FALSE,FALSE,FALSE,FALSE,FALSE,FALSE,,TRUE,Normal,,,1024,1024,1024,1024,,FALSE,FALSE,FALSE,FALSE,FALSE,0,FALSE,FALSE,FALSE,FALSE,59,7.629,1328,2230,7.629,TRUE,3.815,3.815,,FALSE,FALSE,NA,109.9,109.9,109.9,,,,,,,,,Idle,,,TRUE,,FALSE,7,Go Home,FALSE,FALSE,FALSE,FALSE,FALSE,FALSE,FALSE,FALSE,FALSE,FALSE,FALSE,FALSE,,,,,,FALSE,,,FALSE,FALSE,FALSE,FALSE,,FALSE,FALSE,FALSE,,,,,Calm,,,1.12.6,Mavic Mini,1SDCH7G0169R0K,1SFLH6Q0AB03DJ,1SRCH7F014TAHX,1U5X071EXP5ZJG,96.9,0,0,3.107557,1.11847,0,0,Mavic Mini,1SDCH7G0169R0K,1SFLH6Q0AB03DJ,1SRCH7F014TAHX,1U5X071EXP5ZJG,DJI Fly,,1.12.6,39FAD24D-23B5-88A1-FF70-C69188BF41A0,1SDCH7G0169R0K,,,,,6.972953319,79.91595324,5,Flight mode changed to Starting Motors.,
1/26/2024,22:43.6,9m 33.4s,573.4,6.972957691,79.91594068,0,0,0.3,57,0,0,0,0,0,0,0,0,0,5.1,0,-55,305,,Starting Motors,Auto Fly,Takeoff (RC Assisted),16,5,TRUE,,Mavic Mini,FALSE,FALSE,,Smart,RC,TRUE,TRUE,FALSE,,,TRUE,,FALSE,FALSE,FALSE,FALSE,FALSE,FALSE,FALSE,FALSE,FALSE,FALSE,0,Follow Yaw,0,0,-57.4,302.6,FALSE,FALSE,FALSE,FALSE,FALSE,FALSE,,TRUE,Normal,,100,402,364,364,1642,1,FALSE,FALSE,FALSE,FALSE,FALSE,0,FALSE,FALSE,FALSE,FALSE,59,7.629,1328,2230,7.629,FALSE,3.816,3.813,0.003,FALSE,FALSE,NA,109.9,109.9,109.9,,,,,,,,,Idle,,,TRUE,,FALSE,7,Go Home,FALSE,FALSE,FALSE,FALSE,FALSE,FALSE,FALSE,FALSE,FALSE,FALSE,FALSE,FALSE,,,,,,FALSE,,,FALSE,FALSE,FALSE,FALSE,,FALSE,FALSE,FALSE,,,,,Calm,,,1.12.6,Mavic Mini,1SDCH7G0169R0K,1SFLH6Q0AB03DJ,1SRCH7F014TAHX,1U5X071EXP5ZJG,96.9,0,0,3.107557,1.11847,0,0,Mavic Mini,1SDCH7G0169R0K,1SFLH6Q0AB03DJ,1SRCH7F014TAHX,1U5X071EXP5ZJG,DJI Fly,,1.12.6,39FAD24D-23B5-88A1-FF70-C69188BF41A0,1SDCH7G0169R0K,,,,,6.972953319,79.91595324,5,,
1/26/2024,22:43.7,9m 33.5s,573.5,6.972957776,79.91594068,0,0,0.3,57,0,0,0,0,0,0,0,0,0,5.2,0,-55,305,,Starting Motors,Auto Fly,Takeoff (RC Assisted),16,5,TRUE,,Mavic Mini,TRUE,FALSE,,Smart,RC,TRUE,TRUE,FALSE,,,TRUE,,FALSE,FALSE,FALSE,FALSE,FALSE,FALSE,FALSE,FALSE,FALSE,FALSE,0,Follow Yaw,0,0,-57.4,302.6,FALSE,FALSE,FALSE,FALSE,FALSE,FALSE,,TRUE,Normal,,100,402,364,364,1642,1,FALSE,FALSE,FALSE,FALSE,FALSE,0,FALSE,FALSE,FALSE,FALSE,59,7.629,1328,2230,7.629,FALSE,3.816,3.813,0.003,FALSE,FALSE,NA,109.9,109.9,109.9,,,,,,,,,Idle,,,TRUE,,FALSE,7,Go Home,FALSE,FALSE,FALSE,FALSE,FALSE,FALSE,FALSE,FALSE,FALSE,FALSE,FALSE,FALSE,,,,,,FALSE,,,FALSE,FALSE,FALSE,FALSE,,FALSE,FALSE,FALSE,,,,,Calm,,,1.12.6,Mavic Mini,1SDCH7G0169R0K,1SFLH6Q0AB03DJ,1SRCH7F014TAHX,1U5X071EXP5ZJG,96.9,0,0,3.107557,1.11847,0,0,Mavic Mini,1SDCH7G0169R0K,1SFLH6Q0AB03DJ,1SRCH7F014TAHX,1U5X071EXP5ZJG,DJI Fly,,1.12.6,39FAD24D-23B5-88A1-FF70-C69188BF41A0,1SDCH7G0169R0K,,,,,6.972953319,79.91595324,5,,
1/26/2024,22:43.8,9m 33.6s,573.6,6.972957765,79.91594069,0,0,0.3,57,0,0,0,0,0,0,0,0,0,5.2,0,-55,305,,Starting Motors,Auto Fly,Takeoff (RC Assisted),16,5,TRUE,,Mavic Mini,TRUE,FALSE,,Smart,RC,TRUE,TRUE,FALSE,,,TRUE,,FALSE,FALSE,FALSE,FALSE,FALSE,FALSE,FALSE,FALSE,FALSE,FALSE,0,Follow Yaw,0,0,-57.4,302.6,FALSE,FALSE,FALSE,FALSE,FALSE,FALSE,,TRUE,Normal,,100,402,364,364,1644,1,FALSE,FALSE,FALSE,FALSE,FALSE,0,FALSE,FALSE,FALSE,FALSE,59,7.629,1328,2230,7.629,FALSE,3.816,3.813,0.003,FALSE,FALSE,NA,109.9,109.9,109.9,,,,,,,,,Idle,,,TRUE,,FALSE,7,Go Home,FALSE,FALSE,FALSE,FALSE,FALSE,FALSE,FALSE,FALSE,FALSE,FALSE,FALSE,FALSE,,,,,,FALSE,,,FALSE,FALSE,FALSE,FALSE,,FALSE,FALSE,FALSE,,,,,Calm,,,1.12.6,Mavic Mini,1SDCH7G0169R0K,1SFLH6Q0AB03DJ,1SRCH7F014TAHX,1U5X071EXP5ZJG,96.9,0,0,3.107557,1.11847,0,0,Mavic Mini,1SDCH7G0169R0K,1SFLH6Q0AB03DJ,1SRCH7F014TAHX,1U5X071EXP5ZJG,DJI Fly,,1.12.6,39FAD24D-23B5-88A1-FF70-C69188BF41A0,1SDCH7G0169R0K,,,,,6.972953319,79.91595324,5,,
1/26/2024,22:43.8,9m 33.7s,573.7,6.97295772,79.91594068,0,0,0.3,57,0,0,0,0,0,0,0,0,0,5.2,0,-55.1,304.9,,Starting Motors,Auto Fly,Takeoff (RC Assisted),16,5,TRUE,,Mavic Mini,TRUE,FALSE,,Smart,RC,TRUE,TRUE,FALSE,,,TRUE,,FALSE,FALSE,FALSE,FALSE,FALSE,FALSE,FALSE,FALSE,FALSE,FALSE,0,Follow Yaw,0,0,-57.4,302.6,FALSE,FALSE,FALSE,FALSE,FALSE,FALSE,,TRUE,Normal,,100,402,364,364,1644,1,FALSE,FALSE,FALSE,FALSE,FALSE,0,FALSE,FALSE,FALSE,FALSE,59,7.629,1328,2230,7.629,FALSE,3.816,3.813,0.003,FALSE,FALSE,NA,109.9,109.9,109.9,,,,,,,,,Idle,,,TRUE,,FALSE,7,Go Home,FALSE,FALSE,FALSE,FALSE,FALSE,FALSE,FALSE,FALSE,FALSE,FALSE,FALSE,FALSE,,,,,,FALSE,,,FALSE,FALSE,FALSE,FALSE,,FALSE,FALSE,FALSE,,,,,Calm,,,1.12.6,Mavic Mini,1SDCH7G0169R0K,1SFLH6Q0AB03DJ,1SRCH7F014TAHX,1U5X071EXP5ZJG,96.9,0,0,3.107557,1.11847,0,0,Mavic Mini,1SDCH7G0169R0K,1SFLH6Q0AB03DJ,1SRCH7F014TAHX,1U5X071EXP5ZJG,DJI Fly,,1.12.6,39FAD24D-23B5-88A1-FF70-C69188BF41A0,1SDCH7G0169R0K,,,,,6.972953319,79.91595324,5,,
1/26/2024,22:43.9,9m 33.8s,573.8,6.972957688,79.91594068,0,0,0.3,57,0,0,0,0,0,0,0,0,0,5.2,0,-55,305,,Starting Motors,Auto Fly,Takeoff (RC Assisted),16,5,TRUE,,Mavic Mini,TRUE,FALSE,,Smart,RC,TRUE,TRUE,FALSE,,,TRUE,,FALSE,FALSE,FALSE,FALSE,FALSE,FALSE,FALSE,FALSE,FALSE,FALSE,0,Follow Yaw,0,0,-57.4,302.6,FALSE,FALSE,FALSE,FALSE,FALSE,FALSE,,TRUE,Normal,,100,402,364,364,1646,1,FALSE,FALSE,FALSE,FALSE,FALSE,0,FALSE,FALSE,FALSE,FALSE,59,7.629,1328,2230,7.629,FALSE,3.816,3.813,0.003,FALSE,FALSE,NA,109.9,109.9,109.9,,,,,,,,,Idle,,,TRUE,,FALSE,7,Go Home,FALSE,FALSE,FALSE,FALSE,FALSE,FALSE,FALSE,FALSE,FALSE,FALSE,FALSE,FALSE,,,,,,FALSE,,,FALSE,FALSE,FALSE,FALSE,,FALSE,FALSE,FALSE,,,,,Calm,,,1.12.6,Mavic Mini,1SDCH7G0169R0K,1SFLH6Q0AB03DJ,1SRCH7F014TAHX,1U5X071EXP5ZJG,96.9,0,0,3.107557,1.11847,0,0,Mavic Mini,1SDCH7G0169R0K,1SFLH6Q0AB03DJ,1SRCH7F014TAHX,1U5X071EXP5ZJG,DJI Fly,,1.12.6,39FAD24D-23B5-88A1-FF70-C69188BF41A0,1SDCH7G0169R0K,,,,,6.972953319,79.91595324,5,,
1/26/2024,22:44.0,9m 33.9s,573.9,6.972957674,79.91594068,0,0,0.3,57,0,0,0,0,0,0,0,0,0,5.2,0,-55.2,304.8,,Starting Motors,Auto Fly,Takeoff (RC Assisted),16,5,TRUE,,Mavic Mini,TRUE,FALSE,,Smart,RC,TRUE,TRUE,FALSE,,,TRUE,,FALSE,FALSE,FALSE,FALSE,FALSE,FALSE,FALSE,FALSE,FALSE,FALSE,0,Follow Yaw,0,0,-57.4,302.6,FALSE,FALSE,FALSE,FALSE,FALSE,FALSE,,TRUE,Normal,,100,402,364,364,1647,1,FALSE,FALSE,FALSE,FALSE,FALSE,0,FALSE,FALSE,FALSE,FALSE,59,7.629,1328,2230,7.629,FALSE,3.816,3.813,0.003,FALSE,FALSE,NA,109.9,109.9,109.9,,,,,,,,,Idle,,,TRUE,,FALSE,7,Go Home,FALSE,FALSE,FALSE,FALSE,FALSE,FALSE,FALSE,FALSE,FALSE,FALSE,FALSE,FALSE,,,,,,FALSE,,,FALSE,FALSE,FALSE,FALSE,,FALSE,FALSE,FALSE,,,,,Calm,,,1.12.6,Mavic Mini,1SDCH7G0169R0K,1SFLH6Q0AB03DJ,1SRCH7F014TAHX,1U5X071EXP5ZJG,96.9,0,0,3.107557,1.11847,0,0,Mavic Mini,1SDCH7G0169R0K,1SFLH6Q0AB03DJ,1SRCH7F014TAHX,1U5X071EXP5ZJG,DJI Fly,,1.12.6,39FAD24D-23B5-88A1-FF70-C69188BF41A0,1SDCH7G0169R0K,,,,,6.972953319,79.91595324,5,,
1/26/2024,22:44.1,9m 34.0s,574,6.97295765,79.91594067,0,0,0.3,57,0,0,0,0,0,0,0,0,0,5.2,-0.1,-55.1,304.9,,Starting Motors,Auto Fly,Takeoff (RC Assisted),16,5,TRUE,,Mavic Mini,TRUE,FALSE,,Smart,RC,TRUE,TRUE,FALSE,,,TRUE,,FALSE,FALSE,FALSE,FALSE,FALSE,FALSE,FALSE,FALSE,FALSE,FALSE,0,Follow Yaw,0,0,-57.4,302.6,FALSE,FALSE,FALSE,FALSE,FALSE,FALSE,,TRUE,Normal,,100,402,364,364,1659,1,FALSE,FALSE,FALSE,FALSE,FALSE,0,FALSE,FALSE,FALSE,FALSE,59,7.629,1328,2230,7.619,FALSE,3.816,3.813,0.003,FALSE,FALSE,NA,109.9,109.9,109.9,0,43,0,19,5,2673.8,668.47,,Idle,0,20,FALSE,5,TRUE,7,Go Home,FALSE,FALSE,FALSE,FALSE,FALSE,FALSE,FALSE,FALSE,FALSE,FALSE,FALSE,FALSE,6.973157731,79.91570292,112.8,,459.3,TRUE,1,1,FALSE,FALSE,FALSE,FALSE,,TRUE,FALSE,FALSE,Course Lock,131.2,52,16.4,Calm,85,,1.12.6,Mavic Mini,1SDCH7G0169R0K,1SFLH6Q0AB03DJ,1SRCH7F014TAHX,1U5X071EXP5ZJG,96.9,0,0,3.107557,1.11847,0,0,Mavic Mini,1SDCH7G0169R0K,1SFLH6Q0AB03DJ,1SRCH7F014TAHX,1U5X071EXP5ZJG,DJI Fly,,1.12.6,39FAD24D-23B5-88A1-FF70-C69188BF41A0,1SDCH7G0169R0K,,,,,6.972953319,79.91595324,5,Data Recorder File Index is 85.; Set Return to Home (RTH) altitude to 40 m (131 ft).; Set maximum flight altitude to 140 m (459 ft).,
1/26/2024,22:44.2,9m 34.1s,574.1,6.972957651,79.91594067,0,0,0.3,57,0,0,0,0,0,0,0,0,0,5.2,-0.1,-55.1,304.9,,Starting Motors,Auto Fly,Takeoff (RC Assisted),16,5,TRUE,,Mavic Mini,TRUE,FALSE,,Smart,RC,TRUE,TRUE,FALSE,,,TRUE,,FALSE,FALSE,FALSE,FALSE,FALSE,FALSE,FALSE,FALSE,FALSE,FALSE,0,Follow Yaw,0,0,-57.4,302.6,FALSE,FALSE,FALSE,FALSE,FALSE,FALSE,,TRUE,Normal,,100,402,364,364,1673,1,FALSE,FALSE,FALSE,FALSE,FALSE,0,FALSE,FALSE,FALSE,FALSE,59,7.609,1328,2230,7.619,FALSE,3.806,3.803,0.003,FALSE,FALSE,NA,109.9,109.9,109.9,0,43,0,19,5,2673.8,668.47,,Idle,0,20,FALSE,5,TRUE,7,Go Home,FALSE,FALSE,FALSE,FALSE,FALSE,FALSE,FALSE,FALSE,FALSE,FALSE,FALSE,FALSE,6.973157731,79.91570292,112.8,,459.3,TRUE,1,1,FALSE,FALSE,FALSE,FALSE,,TRUE,FALSE,FALSE,Course Lock,131.2,52,16.4,Calm,85,,1.12.6,Mavic Mini,1SDCH7G0169R0K,1SFLH6Q0AB03DJ,1SRCH7F014TAHX,1U5X071EXP5ZJG,96.9,0,0,3.107557,1.11847,0,0,Mavic Mini,1SDCH7G0169R0K,1SFLH6Q0AB03DJ,1SRCH7F014TAHX,1U5X071EXP5ZJG,DJI Fly,,1.12.6,39FAD24D-23B5-88A1-FF70-C69188BF41A0,1SDCH7G0169R0K,,,,,6.972953319,79.91595324,5,,
1/26/2024,22:44.3,9m 34.2s,574.2,6.972957654,79.91594067,0,0,0.3,57,0,0,0,0,0,0,0,0,0,5.2,-0.1,-55.1,304.9,,Starting Motors,Auto Fly,Takeoff (RC Assisted),16,5,TRUE,,Mavic Mini,TRUE,FALSE,,Smart,RC,TRUE,TRUE,FALSE,,,TRUE,,FALSE,FALSE,FALSE,FALSE,FALSE,FALSE,FALSE,FALSE,FALSE,FALSE,0,Follow Yaw,0,0,-57.4,302.6,FALSE,FALSE,FALSE,FALSE,FALSE,FALSE,,TRUE,Normal,,100,402,364,364,1684,1,FALSE,FALSE,FALSE,FALSE,FALSE,0,FALSE,FALSE,FALSE,FALSE,59,7.609,1328,2230,7.619,FALSE,3.806,3.803,0.003,FALSE,FALSE,NA,109.9,109.9,109.9,0,43,0,19,5,2673.8,668.47,,Idle,0,20,FALSE,5,TRUE,7,Go Home,FALSE,FALSE,FALSE,FALSE,FALSE,FALSE,FALSE,FALSE,FALSE,FALSE,FALSE,FALSE,6.973157731,79.91570292,112.8,,459.3,TRUE,1,1,FALSE,FALSE,FALSE,FALSE,,TRUE,FALSE,FALSE,Course Lock,131.2,52,16.4,Calm,85,,1.12.6,Mavic Mini,1SDCH7G0169R0K,1SFLH6Q0AB03DJ,1SRCH7F014TAHX,1U5X071EXP5ZJG,96.9,0,0,3.107557,1.11847,0,0,Mavic Mini,1SDCH7G0169R0K,1SFLH6Q0AB03DJ,1SRCH7F014TAHX,1U5X071EXP5ZJG,DJI Fly,,1.12.6,39FAD24D-23B5-88A1-FF70-C69188BF41A0,1SDCH7G0169R0K,,,,,6.972953319,79.91595324,5,,
1/26/2024,22:44.5,9m 34.3s,574.3,6.972957658,79.91594067,0,0,0.3,57,0,0,0,0,0,0,0,0,0,5.2,-0.1,-55.1,304.9,,Starting Motors,Auto Fly,Takeoff (RC Assisted),16,5,TRUE,,Mavic Mini,TRUE,FALSE,,Smart,RC,TRUE,TRUE,FALSE,,,TRUE,,FALSE,FALSE,FALSE,FALSE,FALSE,FALSE,FALSE,FALSE,FALSE,FALSE,0,Follow Yaw,0,0,-57.4,302.6,FALSE,FALSE,FALSE,FALSE,FALSE,FALSE,,TRUE,Normal,,100,402,364,364,1684,1,FALSE,FALSE,FALSE,FALSE,FALSE,0,FALSE,FALSE,FALSE,FALSE,59,7.609,1328,2230,7.619,FALSE,3.806,3.803,0.003,FALSE,FALSE,NA,109.9,109.9,109.9,0,43,0,19,5,2673.8,668.47,,Idle,0,20,FALSE,5,TRUE,7,Go Home,FALSE,FALSE,FALSE,FALSE,FALSE,FALSE,FALSE,FALSE,FALSE,FALSE,FALSE,FALSE,6.973157731,79.91570292,112.8,,459.3,TRUE,1,1,FALSE,FALSE,FALSE,FALSE,,TRUE,FALSE,FALSE,Course Lock,131.2,52,16.4,Calm,85,,1.12.6,Mavic Mini,1SDCH7G0169R0K,1SFLH6Q0AB03DJ,1SRCH7F014TAHX,1U5X071EXP5ZJG,96.9,0,0,3.107557,1.11847,0,0,Mavic Mini,1SDCH7G0169R0K,1SFLH6Q0AB03DJ,1SRCH7F014TAHX,1U5X071EXP5ZJG,DJI Fly,,1.12.6,39FAD24D-23B5-88A1-FF70-C69188BF41A0,1SDCH7G0169R0K,,,,,6.972953319,79.91595324,5,,
1/26/2024,22:44.6,9m 34.4s,574.4,6.972957725,79.91594067,0,0,0.3,57,0.1,0,0,0,0,0,0,0,0,5.2,-0.1,-55.2,304.8,,Manual Takeoff,Auto Fly,Takeoff (RC Assisted),16,5,TRUE,,Mavic Mini,TRUE,FALSE,,Smart,RC,TRUE,TRUE,FALSE,,,TRUE,,FALSE,FALSE,FALSE,FALSE,FALSE,FALSE,FALSE,FALSE,FALSE,FALSE,0,Follow Yaw,0,0,-57.4,302.6,FALSE,FALSE,FALSE,FALSE,FALSE,FALSE,,TRUE,Normal,,100,402,364,364,1684,1,FALSE,FALSE,FALSE,FALSE,FALSE,0,FALSE,FALSE,FALSE,FALSE,59,7.609,1328,2230,7.619,FALSE,3.806,3.803,0.003,FALSE,FALSE,NA,109.9,109.9,109.9,0,43,0,19,5,2673.8,668.47,,Idle,0,20,FALSE,5,TRUE,7,Go Home,FALSE,FALSE,FALSE,FALSE,FALSE,FALSE,FALSE,FALSE,FALSE,FALSE,FALSE,FALSE,6.973157731,79.91570292,112.8,,459.3,TRUE,1,1,FALSE,FALSE,FALSE,FALSE,,TRUE,FALSE,FALSE,Course Lock,131.2,52,16.4,Calm,85,,1.12.6,Mavic Mini,1SDCH7G0169R0K,1SFLH6Q0AB03DJ,1SRCH7F014TAHX,1U5X071EXP5ZJG,96.9,0,0,3.107557,1.11847,0,0,Mavic Mini,1SDCH7G0169R0K,1SFLH6Q0AB03DJ,1SRCH7F014TAHX,1U5X071EXP5ZJG,DJI Fly,,1.12.6,39FAD24D-23B5-88A1-FF70-C69188BF41A0,1SDCH7G0169R0K,,,,,6.972953319,79.91595324,5,Flight mode changed to Manual Takeoff.,
1/26/2024,22:44.7,9m 34.5s,574.5,6.972957728,79.91594067,0,0,0.3,57,0.1,0,0,0,0,0,0,0,0,5.2,-0.1,-55.2,304.8,,Manual Takeoff,Auto Fly,Takeoff (RC Assisted),16,5,TRUE,,Mavic Mini,TRUE,FALSE,,Smart,RC,TRUE,TRUE,FALSE,,,TRUE,,FALSE,FALSE,FALSE,FALSE,FALSE,FALSE,FALSE,FALSE,FALSE,FALSE,0,Follow Yaw,0,0,-57.4,302.6,FALSE,FALSE,FALSE,FALSE,FALSE,FALSE,,TRUE,Normal,,100,402,364,364,1684,1,FALSE,FALSE,FALSE,FALSE,FALSE,0,FALSE,FALSE,FALSE,FALSE,59,7.609,1328,2230,7.619,FALSE,3.806,3.803,0.003,FALSE,FALSE,NA,109.9,109.9,109.9,0,43,0,19,5,2673.8,668.47,,Idle,0,20,FALSE,5,TRUE,7,Go Home,FALSE,FALSE,FALSE,FALSE,FALSE,FALSE,FALSE,FALSE,FALSE,FALSE,FALSE,FALSE,6.973157731,79.91570292,112.8,,459.3,TRUE,1,1,FALSE,FALSE,FALSE,FALSE,,TRUE,FALSE,FALSE,Course Lock,131.2,52,16.4,Calm,85,,1.12.6,Mavic Mini,1SDCH7G0169R0K,1SFLH6Q0AB03DJ,1SRCH7F014TAHX,1U5X071EXP5ZJG,96.9,0,0,3.107557,1.11847,0,0,Mavic Mini,1SDCH7G0169R0K,1SFLH6Q0AB03DJ,1SRCH7F014TAHX,1U5X071EXP5ZJG,DJI Fly,,1.12.6,39FAD24D-23B5-88A1-FF70-C69188BF41A0,1SDCH7G0169R0K,,,,,6.972953319,79.91595324,5,,
1/26/2024,22:44.8,9m 34.6s,574.6,6.97295773,79.91594065,0,0,0.3,57,0.1,0,0,0,0,0,0,0,0,5.2,-0.1,-55.1,304.9,,Manual Takeoff,Auto Fly,Takeoff (RC Assisted),16,5,TRUE,,Mavic Mini,TRUE,FALSE,,Smart,RC,TRUE,TRUE,FALSE,,,TRUE,,FALSE,FALSE,FALSE,FALSE,FALSE,FALSE,FALSE,FALSE,FALSE,FALSE,0,Follow Yaw,0,0,-57.5,302.5,FALSE,FALSE,FALSE,FALSE,FALSE,FALSE,,TRUE,Normal,,100,402,364,364,1684,1,FALSE,FALSE,FALSE,FALSE,FALSE,0,FALSE,FALSE,FALSE,FALSE,59,7.609,1328,2230,7.619,FALSE,3.806,3.803,0.003,FALSE,FALSE,NA,109.9,109.9,109.9,0,43,0,19,5,2673.8,668.47,,Idle,0,20,FALSE,5,TRUE,7,Go Home,FALSE,FALSE,FALSE,FALSE,FALSE,FALSE,FALSE,FALSE,FALSE,FALSE,FALSE,FALSE,6.973157731,79.91570292,112.8,,459.3,TRUE,1,1,FALSE,FALSE,FALSE,FALSE,,TRUE,FALSE,FALSE,Course Lock,131.2,52,16.4,Calm,85,,1.12.6,Mavic Mini,1SDCH7G0169R0K,1SFLH6Q0AB03DJ,1SRCH7F014TAHX,1U5X071EXP5ZJG,96.9,0,0,3.107557,1.11847,0,0,Mavic Mini,1SDCH7G0169R0K,1SFLH6Q0AB03DJ,1SRCH7F014TAHX,1U5X071EXP5ZJG,DJI Fly,,1.12.6,39FAD24D-23B5-88A1-FF70-C69188BF41A0,1SDCH7G0169R0K,,,,,6.972953319,79.91595324,5,,
1/26/2024,22:44.8,9m 34.7s,574.7,6.972957731,79.9159406,0,0,0.3,57,0.1,0,0,0,0,0,0,0,0,5.2,-0.1,-55.2,304.8,,Manual Takeoff,Auto Fly,Takeoff (RC Assisted),16,5,TRUE,,Mavic Mini,TRUE,FALSE,,Smart,RC,TRUE,TRUE,FALSE,,,TRUE,,FALSE,FALSE,FALSE,FALSE,FALSE,FALSE,FALSE,FALSE,FALSE,FALSE,0,Follow Yaw,0,0,-57.5,302.5,FALSE,FALSE,FALSE,FALSE,FALSE,FALSE,,TRUE,Normal,,100,402,364,364,1684,1,FALSE,FALSE,FALSE,FALSE,FALSE,0,FALSE,FALSE,FALSE,FALSE,59,7.609,1328,2230,7.619,FALSE,3.806,3.803,0.003,FALSE,FALSE,NA,109.9,109.9,109.9,0,43,0,19,5,2673.8,668.47,,Idle,0,20,FALSE,5,TRUE,7,Go Home,FALSE,FALSE,FALSE,FALSE,FALSE,FALSE,FALSE,FALSE,FALSE,FALSE,FALSE,FALSE,6.973157731,79.91570292,112.8,,459.3,TRUE,1,1,FALSE,FALSE,FALSE,FALSE,,TRUE,FALSE,FALSE,Course Lock,131.2,52,16.4,Calm,85,,1.12.6,Mavic Mini,1SDCH7G0169R0K,1SFLH6Q0AB03DJ,1SRCH7F014TAHX,1U5X071EXP5ZJG,96.9,0,0,3.107557,1.11847,0,0,Mavic Mini,1SDCH7G0169R0K,1SFLH6Q0AB03DJ,1SRCH7F014TAHX,1U5X071EXP5ZJG,DJI Fly,,1.12.6,39FAD24D-23B5-88A1-FF70-C69188BF41A0,1SDCH7G0169R0K,,,,,6.972953319,79.91595324,5,,
1/26/2024,22:44.9,9m 34.8s,574.8,6.972957668,79.91594049,0,0,0.3,57,0.1,0,0,0,0,0,0,0,0,5.2,-0.1,-55.2,304.8,,Manual Takeoff,Auto Fly,Takeoff (RC Assisted),16,5,TRUE,,Mavic Mini,TRUE,FALSE,,Smart,RC,TRUE,TRUE,FALSE,,,TRUE,,FALSE,FALSE,FALSE,FALSE,FALSE,FALSE,FALSE,FALSE,FALSE,FALSE,0,Follow Yaw,0,0,-57.5,302.5,FALSE,FALSE,FALSE,FALSE,FALSE,FALSE,,TRUE,Normal,,100,402,364,364,1684,1,FALSE,FALSE,FALSE,FALSE,FALSE,0,FALSE,FALSE,FALSE,FALSE,59,7.609,1328,2230,7.619,FALSE,3.806,3.803,0.003,FALSE,FALSE,NA,109.9,109.9,109.9,0,43,0,19,5,2673.8,668.47,,Idle,0,20,FALSE,5,TRUE,7,Go Home,FALSE,FALSE,FALSE,FALSE,FALSE,FALSE,FALSE,FALSE,FALSE,FALSE,FALSE,FALSE,6.973157731,79.91570292,112.8,,459.3,TRUE,1,1,FALSE,FALSE,FALSE,FALSE,,TRUE,FALSE,FALSE,Course Lock,131.2,52,16.4,Calm,85,,1.12.6,Mavic Mini,1SDCH7G0169R0K,1SFLH6Q0AB03DJ,1SRCH7F014TAHX,1U5X071EXP5ZJG,96.9,0,0,3.107557,1.11847,0,0,Mavic Mini,1SDCH7G0169R0K,1SFLH6Q0AB03DJ,1SRCH7F014TAHX,1U5X071EXP5ZJG,DJI Fly,,1.12.6,39FAD24D-23B5-88A1-FF70-C69188BF41A0,1SDCH7G0169R0K,,,,,6.972953319,79.91595324,5,,
1/26/2024,22:45.0,9m 34.9s,574.9,6.972957613,79.91594048,0,0,0.3,57,0.1,0,0,0,0,0,0,0,0,5.2,-0.1,-55.1,304.9,,Manual Takeoff,Auto Fly,Takeoff (RC Assisted),16,5,TRUE,,Mavic Mini,TRUE,FALSE,,Smart,RC,TRUE,TRUE,FALSE,,,TRUE,,FALSE,FALSE,FALSE,FALSE,FALSE,FALSE,FALSE,FALSE,FALSE,FALSE,0,Follow Yaw,0,0,-57.5,302.5,FALSE,FALSE,FALSE,FALSE,FALSE,FALSE,,TRUE,Normal,,100,402,364,364,1684,1,FALSE,FALSE,FALSE,FALSE,FALSE,0,FALSE,FALSE,FALSE,FALSE,59,7.609,1328,2230,7.619,FALSE,3.806,3.803,0.003,FALSE,FALSE,NA,109.9,109.9,109.9,0,43,0,19,5,2673.8,668.47,,Idle,0,20,FALSE,5,TRUE,7,Go Home,FALSE,FALSE,FALSE,FALSE,FALSE,FALSE,FALSE,FALSE,FALSE,FALSE,FALSE,FALSE,6.973157731,79.91570292,112.8,,459.3,TRUE,1,1,FALSE,FALSE,FALSE,FALSE,,TRUE,FALSE,FALSE,Course Lock,131.2,52,16.4,Calm,85,,1.12.6,Mavic Mini,1SDCH7G0169R0K,1SFLH6Q0AB03DJ,1SRCH7F014TAHX,1U5X071EXP5ZJG,96.9,0,0,3.107557,1.11847,0,0,Mavic Mini,1SDCH7G0169R0K,1SFLH6Q0AB03DJ,1SRCH7F014TAHX,1U5X071EXP5ZJG,DJI Fly,,1.12.6,39FAD24D-23B5-88A1-FF70-C69188BF41A0,1SDCH7G0169R0K,,,,,6.972953319,79.91595324,5,,
1/26/2024,22:45.1,9m 35.0s,575,6.972957573,79.91594047,0,0,0.3,57,0.2,0,0,0,0,0,0,0,0,5.2,-0.1,-55.1,304.9,,Manual Takeoff,Auto Fly,Takeoff (RC Assisted),16,5,TRUE,,Mavic Mini,TRUE,FALSE,,Smart,RC,TRUE,TRUE,FALSE,,,TRUE,,FALSE,FALSE,FALSE,FALSE,FALSE,FALSE,FALSE,FALSE,FALSE,FALSE,0,Follow Yaw,0,0,-57.5,302.5,FALSE,FALSE,FALSE,FALSE,FALSE,FALSE,,TRUE,Normal,,100,402,364,364,1684,1,FALSE,FALSE,FALSE,FALSE,FALSE,0,FALSE,FALSE,FALSE,FALSE,59,7.609,1328,2230,7.611,FALSE,3.806,3.803,0.003,FALSE,FALSE,NA,109.9,109.9,109.9,0,43,0,19,5,2664.8,666.22,,Idle,0,20,FALSE,5,TRUE,7,Go Home,FALSE,FALSE,FALSE,FALSE,FALSE,FALSE,FALSE,FALSE,FALSE,FALSE,FALSE,FALSE,6.973157731,79.91570292,112.8,,459.3,TRUE,1,1,FALSE,FALSE,FALSE,FALSE,,TRUE,FALSE,FALSE,Course Lock,131.2,52,16.4,Calm,85,,1.12.6,Mavic Mini,1SDCH7G0169R0K,1SFLH6Q0AB03DJ,1SRCH7F014TAHX,1U5X071EXP5ZJG,96.9,0,0,3.107557,1.11847,0,0,Mavic Mini,1SDCH7G0169R0K,1SFLH6Q0AB03DJ,1SRCH7F014TAHX,1U5X071EXP5ZJG,DJI Fly,,1.12.6,39FAD24D-23B5-88A1-FF70-C69188BF41A0,1SDCH7G0169R0K,,,,,6.972953319,79.91595324,5,,
1/26/2024,22:45.2,9m 35.1s,575.1,6.972957552,79.91594048,0,0,0.3,57,0.2,0,0,0,0,0,0,0,0,5.2,-0.1,-55.2,304.8,,Manual Takeoff,Auto Fly,Takeoff (RC Assisted),16,5,TRUE,,Mavic Mini,TRUE,FALSE,,Smart,RC,TRUE,TRUE,FALSE,,,TRUE,,FALSE,FALSE,FALSE,FALSE,FALSE,FALSE,FALSE,FALSE,FALSE,FALSE,0,Follow Yaw,0,0,-57.5,302.5,FALSE,FALSE,FALSE,FALSE,FALSE,FALSE,,TRUE,Normal,,100,402,364,364,1684,1,FALSE,FALSE,FALSE,FALSE,FALSE,0,FALSE,FALSE,FALSE,FALSE,59,7.609,1328,2230,7.611,FALSE,3.806,3.803,0.003,FALSE,FALSE,NA,109.9,109.9,109.9,0,43,0,19,5,2664.8,666.22,,Idle,0,20,FALSE,5,TRUE,7,Go Home,FALSE,FALSE,FALSE,FALSE,FALSE,FALSE,FALSE,FALSE,FALSE,FALSE,FALSE,FALSE,6.973157731,79.91570292,112.8,,459.3,TRUE,1,1,FALSE,FALSE,FALSE,FALSE,,TRUE,FALSE,FALSE,Course Lock,131.2,52,16.4,Calm,85,,1.12.6,Mavic Mini,1SDCH7G0169R0K,1SFLH6Q0AB03DJ,1SRCH7F014TAHX,1U5X071EXP5ZJG,96.9,0,0,3.107557,1.11847,0,0,Mavic Mini,1SDCH7G0169R0K,1SFLH6Q0AB03DJ,1SRCH7F014TAHX,1U5X071EXP5ZJG,DJI Fly,,1.12.6,39FAD24D-23B5-88A1-FF70-C69188BF41A0,1SDCH7G0169R0K,,,,,6.972953319,79.91595324,5,,
1/26/2024,22:45.3,9m 35.2s,575.2,6.972957584,79.91594053,0,0,0.3,57,0.2,0,0,0,0,0,0,0,0,5.2,-0.1,-55.2,304.8,,Manual Takeoff,Auto Fly,Takeoff (RC Assisted),16,5,TRUE,,Mavic Mini,TRUE,FALSE,,Smart,RC,TRUE,TRUE,FALSE,,,TRUE,,FALSE,FALSE,FALSE,FALSE,FALSE,FALSE,FALSE,FALSE,FALSE,FALSE,0,Follow Yaw,0,0,-57.5,302.5,FALSE,FALSE,FALSE,FALSE,FALSE,FALSE,,TRUE,Normal,,100,402,364,364,1684,1,FALSE,FALSE,FALSE,FALSE,FALSE,0,FALSE,FALSE,FALSE,FALSE,59,7.615,1327,2230,7.611,FALSE,3.809,3.806,0.003,FALSE,FALSE,NA,109.9,109.9,109.9,0,43,0,19,5,2664.8,666.22,,Idle,0,20,FALSE,5,TRUE,7,Go Home,FALSE,FALSE,FALSE,FALSE,FALSE,FALSE,FALSE,FALSE,FALSE,FALSE,FALSE,FALSE,6.973157731,79.91570292,112.8,,459.3,TRUE,1,1,FALSE,FALSE,FALSE,FALSE,,TRUE,FALSE,FALSE,Course Lock,131.2,52,16.4,Calm,85,,1.12.6,Mavic Mini,1SDCH7G0169R0K,1SFLH6Q0AB03DJ,1SRCH7F014TAHX,1U5X071EXP5ZJG,96.9,0,0,3.107557,1.11847,0,0,Mavic Mini,1SDCH7G0169R0K,1SFLH6Q0AB03DJ,1SRCH7F014TAHX,1U5X071EXP5ZJG,DJI Fly,,1.12.6,39FAD24D-23B5-88A1-FF70-C69188BF41A0,1SDCH7G0169R0K,,,,,6.972953319,79.91595324,5,,
1/26/2024,22:45.4,9m 35.3s,575.3,6.972957581,79.91594054,0,0,0.3,57,0.2,0,0,0,0,0,0,0,0,5.2,-0.1,-55.1,304.9,,Manual Takeoff,Auto Fly,Takeoff (RC Assisted),16,5,TRUE,,Mavic Mini,TRUE,FALSE,,Smart,RC,TRUE,TRUE,FALSE,,,TRUE,,FALSE,FALSE,FALSE,FALSE,FALSE,FALSE,FALSE,FALSE,FALSE,FALSE,0,Follow Yaw,0,0,-57.5,302.5,FALSE,FALSE,FALSE,FALSE,FALSE,FALSE,,TRUE,Normal,,100,402,364,364,1684,1,FALSE,FALSE,FALSE,FALSE,FALSE,0,FALSE,FALSE,FALSE,FALSE,59,7.615,1327,2230,7.611,FALSE,3.809,3.806,0.003,FALSE,FALSE,NA,109.9,109.9,109.9,0,43,0,19,5,2664.8,666.22,,Idle,0,20,FALSE,5,TRUE,7,Go Home,FALSE,FALSE,FALSE,FALSE,FALSE,FALSE,FALSE,FALSE,FALSE,FALSE,FALSE,FALSE,6.973157731,79.91570292,112.8,,459.3,TRUE,1,1,FALSE,FALSE,FALSE,FALSE,,TRUE,FALSE,FALSE,Course Lock,131.2,52,16.4,Calm,85,,1.12.6,Mavic Mini,1SDCH7G0169R0K,1SFLH6Q0AB03DJ,1SRCH7F014TAHX,1U5X071EXP5ZJG,96.9,0,0,3.107557,1.11847,0,0,Mavic Mini,1SDCH7G0169R0K,1SFLH6Q0AB03DJ,1SRCH7F014TAHX,1U5X071EXP5ZJG,DJI Fly,,1.12.6,39FAD24D-23B5-88A1-FF70-C69188BF41A0,1SDCH7G0169R0K,,,,,6.972953319,79.91595324,5,,
1/26/2024,22:45.5,9m 35.4s,575.4,6.972957601,79.91594053,0,0,0.3,57,0.2,0,0,0,0,0,0,0,0,5.2,-0.1,-55.1,304.9,,Manual Takeoff,Auto Fly,Takeoff (RC Assisted),16,5,TRUE,,Mavic Mini,TRUE,FALSE,,Smart,RC,TRUE,TRUE,FALSE,,,TRUE,,FALSE,FALSE,FALSE,FALSE,FALSE,FALSE,FALSE,FALSE,FALSE,FALSE,0,Follow Yaw,0,0,-57.5,302.5,FALSE,FALSE,FALSE,FALSE,FALSE,FALSE,,TRUE,Normal,,100,452,364,364,1613,1,FALSE,FALSE,FALSE,FALSE,FALSE,0,FALSE,FALSE,FALSE,FALSE,59,7.615,1327,2230,7.611,FALSE,3.809,3.806,0.003,FALSE,FALSE,NA,109.9,109.9,109.9,0,43,0,19,5,2664.8,666.22,,Idle,0,20,FALSE,5,TRUE,7,Go Home,FALSE,FALSE,FALSE,FALSE,FALSE,FALSE,FALSE,FALSE,FALSE,FALSE,FALSE,FALSE,6.973157731,79.91570292,112.8,,459.3,TRUE,1,1,FALSE,FALSE,FALSE,FALSE,,TRUE,FALSE,FALSE,Course Lock,131.2,52,16.4,Calm,85,,1.12.6,Mavic Mini,1SDCH7G0169R0K,1SFLH6Q0AB03DJ,1SRCH7F014TAHX,1U5X071EXP5ZJG,96.9,0,0,3.107557,1.11847,0,0,Mavic Mini,1SDCH7G0169R0K,1SFLH6Q0AB03DJ,1SRCH7F014TAHX,1U5X071EXP5ZJG,DJI Fly,,1.12.6,39FAD24D-23B5-88A1-FF70-C69188BF41A0,1SDCH7G0169R0K,,,,,6.972953738,79.91596338,5,,
1/26/2024,22:45.6,9m 35.5s,575.5,6.972957655,79.91594049,0,0,0.3,57,0.2,0,0,0,0,0,0,0,0,5.2,-0.1,-55.1,304.9,,Manual Takeoff,Auto Fly,Takeoff (RC Assisted),16,5,TRUE,,Mavic Mini,TRUE,FALSE,,Smart,RC,TRUE,TRUE,FALSE,,,TRUE,,FALSE,FALSE,FALSE,FALSE,FALSE,FALSE,FALSE,FALSE,FALSE,FALSE,0,Follow Yaw,0,0,-57.5,302.5,FALSE,FALSE,FALSE,FALSE,FALSE,FALSE,,TRUE,Normal,,100,452,364,364,1613,1,FALSE,FALSE,FALSE,FALSE,FALSE,0,FALSE,FALSE,FALSE,FALSE,59,7.615,1327,2230,7.611,FALSE,3.809,3.806,0.003,FALSE,FALSE,NA,109.9,109.9,109.9,0,43,0,19,5,2664.8,666.22,,Idle,0,20,FALSE,5,TRUE,7,Go Home,FALSE,FALSE,FALSE,FALSE,FALSE,FALSE,FALSE,FALSE,FALSE,FALSE,FALSE,FALSE,6.973157731,79.91570292,112.8,,459.3,TRUE,1,1,FALSE,FALSE,FALSE,FALSE,,TRUE,FALSE,FALSE,Course Lock,131.2,52,16.4,Calm,85,,1.12.6,Mavic Mini,1SDCH7G0169R0K,1SFLH6Q0AB03DJ,1SRCH7F014TAHX,1U5X071EXP5ZJG,96.9,0,0,3.107557,1.11847,0,0,Mavic Mini,1SDCH7G0169R0K,1SFLH6Q0AB03DJ,1SRCH7F014TAHX,1U5X071EXP5ZJG,DJI Fly,,1.12.6,39FAD24D-23B5-88A1-FF70-C69188BF41A0,1SDCH7G0169R0K,,,,,6.972953738,79.91596338,5,,
1/26/2024,22:45.7,9m 35.6s,575.6,6.972957693,79.91594046,0,0,0.3,57,0.2,0,0,0,0,0,0,0,0,5.2,-0.1,-55.2,304.8,,Manual Takeoff,Auto Fly,Takeoff (RC Assisted),16,5,TRUE,,Mavic Mini,TRUE,FALSE,,Smart,RC,TRUE,TRUE,FALSE,,,TRUE,,FALSE,FALSE,FALSE,FALSE,FALSE,FALSE,FALSE,FALSE,FALSE,FALSE,0,Follow Yaw,0,0,-57.5,302.5,FALSE,FALSE,FALSE,FALSE,FALSE,FALSE,,TRUE,Normal,,100,1024,1024,1024,1024,1,FALSE,FALSE,FALSE,FALSE,FALSE,0,FALSE,FALSE,FALSE,FALSE,59,7.615,1327,2230,7.611,FALSE,3.809,3.806,0.003,FALSE,FALSE,NA,109.9,109.9,109.9,0,43,0,19,5,2664.8,666.22,,Idle,0,20,FALSE,5,TRUE,7,Go Home,FALSE,FALSE,FALSE,FALSE,FALSE,FALSE,FALSE,FALSE,FALSE,FALSE,FALSE,FALSE,6.973157731,79.91570292,112.8,,459.3,TRUE,1,1,FALSE,FALSE,FALSE,FALSE,,TRUE,FALSE,FALSE,Course Lock,131.2,52,16.4,Calm,85,,1.12.6,Mavic Mini,1SDCH7G0169R0K,1SFLH6Q0AB03DJ,1SRCH7F014TAHX,1U5X071EXP5ZJG,96.9,0,0,3.107557,1.11847,0,0,Mavic Mini,1SDCH7G0169R0K,1SFLH6Q0AB03DJ,1SRCH7F014TAHX,1U5X071EXP5ZJG,DJI Fly,,1.12.6,39FAD24D-23B5-88A1-FF70-C69188BF41A0,1SDCH7G0169R0K,,,,,6.972953738,79.91596338,5,,
1/26/2024,22:45.8,9m 35.7s,575.7,6.972957839,79.91594038,0,0,0.3,57,0.3,0,0,0,0,0,0,0,0,5.2,-0.1,-55.2,304.8,,Manual Takeoff,Auto Fly,Takeoff (RC Assisted),16,5,TRUE,,Mavic Mini,TRUE,FALSE,,Smart,RC,TRUE,TRUE,FALSE,,,TRUE,,FALSE,FALSE,FALSE,FALSE,FALSE,FALSE,FALSE,FALSE,FALSE,FALSE,0,Follow Yaw,0,0,-57.5,302.5,FALSE,FALSE,FALSE,FALSE,FALSE,FALSE,,TRUE,Normal,,100,1024,1024,1024,1024,1,FALSE,FALSE,FALSE,FALSE,FALSE,0,FALSE,FALSE,FALSE,FALSE,59,7.615,1327,2230,7.611,FALSE,3.809,3.806,0.003,FALSE,FALSE,NA,109.9,109.9,109.9,0,43,0,19,5,2664.8,666.22,,Idle,0,20,FALSE,5,TRUE,7,Go Home,FALSE,FALSE,FALSE,FALSE,FALSE,FALSE,FALSE,FALSE,FALSE,FALSE,FALSE,FALSE,6.973157731,79.91570292,112.7,,459.3,TRUE,1,1,FALSE,FALSE,FALSE,FALSE,,TRUE,FALSE,FALSE,Course Lock,131.2,52,16.4,Calm,85,,1.12.6,Mavic Mini,1SDCH7G0169R0K,1SFLH6Q0AB03DJ,1SRCH7F014TAHX,1U5X071EXP5ZJG,96.9,0,0,3.107557,1.11847,0,0,Mavic Mini,1SDCH7G0169R0K,1SFLH6Q0AB03DJ,1SRCH7F014TAHX,1U5X071EXP5ZJG,DJI Fly,,1.12.6,39FAD24D-23B5-88A1-FF70-C69188BF41A0,1SDCH7G0169R0K,,,,,6.972953738,79.91596338,5,,
1/26/2024,22:46.0,9m 35.8s,575.8,6.97295785,79.91594036,0,0,0.3,57,0.3,0,0,0,0,0,0,0,0,5.2,-0.1,-55.1,304.9,,Manual Takeoff,Auto Fly,Takeoff (RC Assisted),16,5,TRUE,,Mavic Mini,TRUE,FALSE,,Smart,RC,TRUE,TRUE,FALSE,,,TRUE,,FALSE,FALSE,FALSE,FALSE,FALSE,FALSE,FALSE,FALSE,FALSE,FALSE,0,Follow Yaw,0,0,-57.5,302.5,FALSE,FALSE,FALSE,FALSE,FALSE,FALSE,,TRUE,Normal,,100,1024,1024,1024,1024,1,FALSE,FALSE,FALSE,FALSE,FALSE,0,FALSE,FALSE,FALSE,FALSE,59,7.615,1327,2230,7.611,FALSE,3.809,3.806,0.003,FALSE,FALSE,NA,109.9,109.9,109.9,0,43,0,19,5,2664.8,666.22,,Idle,0,20,FALSE,5,TRUE,7,Go Home,FALSE,FALSE,FALSE,FALSE,FALSE,FALSE,FALSE,FALSE,FALSE,FALSE,FALSE,FALSE,6.973157731,79.91570292,112.7,,459.3,TRUE,1,1,FALSE,FALSE,FALSE,FALSE,,TRUE,FALSE,FALSE,Course Lock,131.2,52,16.4,Calm,85,,1.12.6,Mavic Mini,1SDCH7G0169R0K,1SFLH6Q0AB03DJ,1SRCH7F014TAHX,1U5X071EXP5ZJG,96.9,0,0,3.107557,1.11847,0,0,Mavic Mini,1SDCH7G0169R0K,1SFLH6Q0AB03DJ,1SRCH7F014TAHX,1U5X071EXP5ZJG,DJI Fly,,1.12.6,39FAD24D-23B5-88A1-FF70-C69188BF41A0,1SDCH7G0169R0K,,,,,6.972953738,79.91596338,5,,
1/26/2024,22:46.0,9m 35.9s,575.9,6.972957849,79.91594031,0,0,0.3,57,0.3,0,0,0,0,0,0,0,0,5.2,-0.1,-55.1,304.9,,Manual Takeoff,Auto Fly,Takeoff (RC Assisted),16,5,TRUE,,Mavic Mini,TRUE,FALSE,,Smart,RC,TRUE,TRUE,FALSE,,,TRUE,,FALSE,FALSE,FALSE,FALSE,FALSE,FALSE,FALSE,FALSE,FALSE,FALSE,0,Follow Yaw,0,0,-57.5,302.5,FALSE,FALSE,FALSE,FALSE,FALSE,FALSE,,TRUE,Normal,,100,1024,1024,1024,1024,1,FALSE,FALSE,FALSE,FALSE,FALSE,0,FALSE,FALSE,FALSE,FALSE,59,7.615,1327,2230,7.611,FALSE,3.809,3.806,0.003,FALSE,FALSE,NA,109.9,109.9,109.9,0,43,0,19,5,2664.8,666.22,,Idle,0,20,FALSE,5,TRUE,7,Go Home,FALSE,FALSE,FALSE,FALSE,FALSE,FALSE,FALSE,FALSE,FALSE,FALSE,FALSE,FALSE,6.973157731,79.91570292,112.7,,459.3,TRUE,1,1,FALSE,FALSE,FALSE,FALSE,,TRUE,FALSE,FALSE,Course Lock,131.2,52,16.4,Calm,85,,1.12.6,Mavic Mini,1SDCH7G0169R0K,1SFLH6Q0AB03DJ,1SRCH7F014TAHX,1U5X071EXP5ZJG,96.9,0,0,3.107557,1.11847,0,0,Mavic Mini,1SDCH7G0169R0K,1SFLH6Q0AB03DJ,1SRCH7F014TAHX,1U5X071EXP5ZJG,DJI Fly,,1.12.6,39FAD24D-23B5-88A1-FF70-C69188BF41A0,1SDCH7G0169R0K,,,,,6.972953738,79.91596338,5,,
1/26/2024,22:46.2,9m 36.0s,576,6.972957866,79.91594028,0,0,0.3,57,0.3,0,0,0,0,0,0,0,0,5.2,-0.1,-55.2,304.8,,Manual Takeoff,Auto Fly,Takeoff (RC Assisted),16,5,TRUE,,Mavic Mini,TRUE,FALSE,,Smart,RC,TRUE,TRUE,FALSE,,,TRUE,,FALSE,FALSE,FALSE,FALSE,FALSE,FALSE,FALSE,FALSE,FALSE,FALSE,0,Follow Yaw,0,0,-57.5,302.5,FALSE,FALSE,FALSE,FALSE,FALSE,FALSE,,TRUE,Normal,,100,1024,1024,1024,1024,1,FALSE,FALSE,FALSE,FALSE,FALSE,0,FALSE,FALSE,FALSE,FALSE,59,7.615,1327,2230,7.606,FALSE,3.809,3.806,0.003,FALSE,FALSE,NA,109.9,109.9,109.9,0,43,0,19,5,2731.8,682.97,,Idle,0,20,FALSE,5,TRUE,7,Go Home,FALSE,FALSE,FALSE,FALSE,FALSE,FALSE,FALSE,FALSE,FALSE,FALSE,FALSE,FALSE,6.973157731,79.91570292,112.7,,459.3,TRUE,1,1,FALSE,FALSE,FALSE,FALSE,,TRUE,FALSE,FALSE,Course Lock,131.2,52,16.4,Calm,85,,1.12.6,Mavic Mini,1SDCH7G0169R0K,1SFLH6Q0AB03DJ,1SRCH7F014TAHX,1U5X071EXP5ZJG,96.9,0,0,3.107557,1.11847,0,0,Mavic Mini,1SDCH7G0169R0K,1SFLH6Q0AB03DJ,1SRCH7F014TAHX,1U5X071EXP5ZJG,DJI Fly,,1.12.6,39FAD24D-23B5-88A1-FF70-C69188BF41A0,1SDCH7G0169R0K,,,,,6.972953738,79.91596338,5,,
1/26/2024,22:46.2,9m 36.1s,576.1,6.972957952,79.91594024,0,0,0.3,57,0.4,0,0,0,0,0,0,0,0,5.2,-0.1,-55.2,304.8,,Manual Takeoff,Auto Fly,Takeoff (RC Assisted),16,5,TRUE,,Mavic Mini,TRUE,FALSE,,Smart,RC,TRUE,TRUE,FALSE,,,TRUE,,FALSE,FALSE,FALSE,FALSE,FALSE,FALSE,FALSE,FALSE,FALSE,FALSE,0,Follow Yaw,0,0,-57.5,302.5,FALSE,FALSE,FALSE,FALSE,FALSE,FALSE,,TRUE,Normal,,100,1024,1024,1024,1024,1,FALSE,FALSE,FALSE,FALSE,FALSE,0,FALSE,FALSE,FALSE,FALSE,59,7.615,1327,2230,7.606,FALSE,3.809,3.806,0.003,FALSE,FALSE,NA,109.9,109.9,109.9,0,43,0,19,5,2731.8,682.97,,Idle,0,20,FALSE,5,TRUE,7,Go Home,FALSE,FALSE,FALSE,FALSE,FALSE,FALSE,FALSE,FALSE,FALSE,FALSE,FALSE,FALSE,6.973157731,79.91570292,112.6,,459.3,TRUE,1,1,FALSE,FALSE,FALSE,FALSE,,TRUE,FALSE,FALSE,Course Lock,131.2,52,16.4,Calm,85,,1.12.6,Mavic Mini,1SDCH7G0169R0K,1SFLH6Q0AB03DJ,1SRCH7F014TAHX,1U5X071EXP5ZJG,96.9,0,0,3.107557,1.11847,0,0,Mavic Mini,1SDCH7G0169R0K,1SFLH6Q0AB03DJ,1SRCH7F014TAHX,1U5X071EXP5ZJG,DJI Fly,,1.12.6,39FAD24D-23B5-88A1-FF70-C69188BF41A0,1SDCH7G0169R0K,,,,,6.972953738,79.91596338,5,,
1/26/2024,22:46.3,9m 36.2s,576.2,6.97295798,79.91594022,0,0,0.3,57,0.4,0,0,0,0,0,0,0,0,5.2,-0.1,-55.1,304.9,,Manual Takeoff,Auto Fly,Takeoff (RC Assisted),16,5,TRUE,,Mavic Mini,TRUE,FALSE,,Smart,RC,TRUE,TRUE,FALSE,,,TRUE,,FALSE,FALSE,FALSE,FALSE,FALSE,FALSE,FALSE,FALSE,FALSE,FALSE,0,Follow Yaw,0,0,-57.5,302.5,FALSE,FALSE,FALSE,FALSE,FALSE,FALSE,,TRUE,Normal,,100,1024,1024,1024,1024,1,FALSE,FALSE,FALSE,FALSE,FALSE,0,FALSE,FALSE,FALSE,FALSE,59,7.615,1327,2230,7.606,FALSE,3.809,3.806,0.003,FALSE,FALSE,NA,109.9,109.9,109.9,0,43,0,19,5,2731.8,682.97,,Idle,0,20,FALSE,5,TRUE,7,Go Home,FALSE,FALSE,FALSE,FALSE,FALSE,FALSE,FALSE,FALSE,FALSE,FALSE,FALSE,FALSE,6.973157731,79.91570292,112.6,,459.3,TRUE,1,1,FALSE,FALSE,FALSE,FALSE,,TRUE,FALSE,FALSE,Course Lock,131.2,52,16.4,Calm,85,,1.12.6,Mavic Mini,1SDCH7G0169R0K,1SFLH6Q0AB03DJ,1SRCH7F014TAHX,1U5X071EXP5ZJG,96.9,0,0,3.107557,1.11847,0,0,Mavic Mini,1SDCH7G0169R0K,1SFLH6Q0AB03DJ,1SRCH7F014TAHX,1U5X071EXP5ZJG,DJI Fly,,1.12.6,39FAD24D-23B5-88A1-FF70-C69188BF41A0,1SDCH7G0169R0K,,,,,6.972953738,79.91596338,5,,
1/26/2024,22:46.4,9m 36.3s,576.3,6.972957988,79.91594017,0,0,0.3,57,0.4,0,0,0,0,0,0,0,0,5.2,-0.1,-55.1,304.9,,Manual Takeoff,Auto Fly,Takeoff (RC Assisted),16,5,TRUE,,Mavic Mini,TRUE,FALSE,,Smart,RC,TRUE,TRUE,FALSE,,,TRUE,,FALSE,FALSE,FALSE,FALSE,FALSE,FALSE,FALSE,FALSE,FALSE,FALSE,0,Follow Yaw,0,0,-57.5,302.5,FALSE,FALSE,FALSE,FALSE,FALSE,FALSE,,TRUE,Normal,,100,1024,1024,1166,1024,1,FALSE,FALSE,FALSE,FALSE,FALSE,0,FALSE,FALSE,FALSE,FALSE,59,7.613,1327,2230,7.606,FALSE,3.808,3.805,0.003,FALSE,FALSE,NA,109.9,109.9,109.9,0,43,0,19,5,2731.8,682.97,,Idle,0,20,FALSE,5,TRUE,7,Go Home,FALSE,FALSE,FALSE,FALSE,FALSE,FALSE,FALSE,FALSE,FALSE,FALSE,FALSE,FALSE,6.973157731,79.91570292,112.6,,459.3,TRUE,1,1,FALSE,FALSE,FALSE,FALSE,,TRUE,FALSE,FALSE,Course Lock,131.2,52,16.4,Calm,85,,1.12.6,Mavic Mini,1SDCH7G0169R0K,1SFLH6Q0AB03DJ,1SRCH7F014TAHX,1U5X071EXP5ZJG,96.9,0,0,3.107557,1.11847,0,0,Mavic Mini,1SDCH7G0169R0K,1SFLH6Q0AB03DJ,1SRCH7F014TAHX,1U5X071EXP5ZJG,DJI Fly,,1.12.6,39FAD24D-23B5-88A1-FF70-C69188BF41A0,1SDCH7G0169R0K,,,,,6.972953738,79.91596338,5,,
1/26/2024,22:46.5,9m 36.4s,576.4,6.97295799,79.91594012,0,0,0.3,57,0.4,0,0,0,0,0,0,0,0,5.2,-0.1,-55.2,304.8,,Manual Takeoff,Auto Fly,Takeoff (RC Assisted),16,5,TRUE,,Mavic Mini,TRUE,FALSE,,Smart,RC,TRUE,TRUE,FALSE,,,TRUE,,FALSE,FALSE,FALSE,FALSE,FALSE,FALSE,FALSE,FALSE,FALSE,FALSE,0,Follow Yaw,0,0,-57.5,302.5,FALSE,FALSE,FALSE,FALSE,FALSE,FALSE,,TRUE,Normal,,100,1024,1024,1231,1024,1,FALSE,FALSE,FALSE,FALSE,FALSE,0,FALSE,FALSE,FALSE,FALSE,59,7.613,1327,2230,7.606,FALSE,3.808,3.805,0.003,FALSE,FALSE,NA,109.9,109.9,109.9,0,43,0,19,5,2731.8,682.97,,Idle,0,20,FALSE,5,TRUE,7,Go Home,FALSE,FALSE,FALSE,FALSE,FALSE,FALSE,FALSE,FALSE,FALSE,FALSE,FALSE,FALSE,6.973157731,79.91570292,112.6,,459.3,TRUE,1,1,FALSE,FALSE,FALSE,FALSE,,TRUE,FALSE,FALSE,Course Lock,131.2,52,16.4,Calm,85,,1.12.6,Mavic Mini,1SDCH7G0169R0K,1SFLH6Q0AB03DJ,1SRCH7F014TAHX,1U5X071EXP5ZJG,96.9,0,0,3.107557,1.11847,0,0,Mavic Mini,1SDCH7G0169R0K,1SFLH6Q0AB03DJ,1SRCH7F014TAHX,1U5X071EXP5ZJG,DJI Fly,,1.12.6,39FAD24D-23B5-88A1-FF70-C69188BF41A0,1SDCH7G0169R0K,,,,,6.972953738,79.91596338,5,,
1/26/2024,22:46.6,9m 36.5s,576.5,6.972957946,79.91593999,0,0,0.3,57,0.5,0,0,0,0,0,0,0,0,5.2,0,-55.2,304.8,,Manual Takeoff,Auto Fly,Takeoff (RC Assisted),16,5,TRUE,,Mavic Mini,TRUE,FALSE,,Smart,RC,TRUE,TRUE,FALSE,,,TRUE,,FALSE,FALSE,FALSE,FALSE,FALSE,FALSE,FALSE,FALSE,FALSE,FALSE,0,Follow Yaw,0,0,-57.5,302.5,FALSE,FALSE,FALSE,FALSE,FALSE,FALSE,,TRUE,Normal,,100,1024,1024,1231,1024,1,FALSE,FALSE,FALSE,FALSE,FALSE,0,FALSE,FALSE,FALSE,FALSE,59,7.613,1327,2230,7.606,FALSE,3.808,3.805,0.003,FALSE,FALSE,NA,109.9,109.9,109.9,0,43,0,19,5,2731.8,682.97,,Idle,0,20,FALSE,5,TRUE,7,Go Home,FALSE,FALSE,FALSE,FALSE,FALSE,FALSE,FALSE,FALSE,FALSE,FALSE,FALSE,FALSE,6.973157731,79.91570292,112.6,,459.3,TRUE,1,1,FALSE,FALSE,FALSE,FALSE,,TRUE,FALSE,FALSE,Course Lock,131.2,52,16.4,Calm,85,,1.12.6,Mavic Mini,1SDCH7G0169R0K,1SFLH6Q0AB03DJ,1SRCH7F014TAHX,1U5X071EXP5ZJG,96.9,0,0,3.107557,1.11847,0,0,Mavic Mini,1SDCH7G0169R0K,1SFLH6Q0AB03DJ,1SRCH7F014TAHX,1U5X071EXP5ZJG,DJI Fly,,1.12.6,39FAD24D-23B5-88A1-FF70-C69188BF41A0,1SDCH7G0169R0K,,,,,6.972953738,79.91596338,5,,
1/26/2024,22:46.7,9m 36.6s,576.6,6.972957959,79.91593995,0,0,0.3,57,0.5,0,0,0,0,0,0,0,0,5.2,-0.1,-55.1,304.9,,Manual Takeoff,Auto Fly,Takeoff (RC Assisted),16,5,TRUE,,Mavic Mini,TRUE,FALSE,,Smart,RC,TRUE,TRUE,FALSE,,,TRUE,,FALSE,FALSE,FALSE,FALSE,FALSE,FALSE,FALSE,FALSE,FALSE,FALSE,0,Follow Yaw,0,0,-57.5,302.5,FALSE,FALSE,FALSE,FALSE,FALSE,FALSE,,TRUE,Normal,,100,1024,1024,1257,1024,1,FALSE,FALSE,FALSE,FALSE,FALSE,0,FALSE,FALSE,FALSE,FALSE,59,7.613,1327,2230,7.606,FALSE,3.808,3.805,0.003,FALSE,FALSE,NA,109.9,109.9,109.9,0,43,0,19,5,2731.8,682.97,,Idle,0,20,FALSE,5,TRUE,7,Go Home,FALSE,FALSE,FALSE,FALSE,FALSE,FALSE,FALSE,FALSE,FALSE,FALSE,FALSE,FALSE,6.973157731,79.91570292,112.6,,459.3,TRUE,1,1,FALSE,FALSE,FALSE,FALSE,,TRUE,FALSE,FALSE,Course Lock,131.2,52,16.4,Calm,85,,1.12.6,Mavic Mini,1SDCH7G0169R0K,1SFLH6Q0AB03DJ,1SRCH7F014TAHX,1U5X071EXP5ZJG,96.9,0,0,3.107557,1.11847,0,0,Mavic Mini,1SDCH7G0169R0K,1SFLH6Q0AB03DJ,1SRCH7F014TAHX,1U5X071EXP5ZJG,DJI Fly,,1.12.6,39FAD24D-23B5-88A1-FF70-C69188BF41A0,1SDCH7G0169R0K,,,,,6.972953738,79.91596338,5,,
1/26/2024,22:46.8,9m 36.7s,576.7,6.972958001,79.91593995,0,0,0.3,57,0.5,0,0,0,0,0,0,0,0,5.2,-0.1,-55.2,304.8,,Manual Takeoff,Auto Fly,Takeoff (RC Assisted),16,5,TRUE,,Mavic Mini,TRUE,FALSE,,Smart,RC,TRUE,TRUE,FALSE,,,TRUE,,FALSE,FALSE,FALSE,FALSE,FALSE,FALSE,FALSE,FALSE,FALSE,FALSE,0,Follow Yaw,0,0,-57.5,302.5,FALSE,FALSE,FALSE,FALSE,FALSE,FALSE,,TRUE,Normal,,100,1024,1024,1248,1024,1,FALSE,FALSE,FALSE,FALSE,FALSE,0,FALSE,FALSE,FALSE,FALSE,59,7.613,1327,2230,7.606,FALSE,3.808,3.805,0.003,FALSE,FALSE,NA,109.9,109.9,109.9,0,43,0,19,5,2731.8,682.97,,Idle,0,20,FALSE,5,TRUE,7,Go Home,FALSE,FALSE,FALSE,FALSE,FALSE,FALSE,FALSE,FALSE,FALSE,FALSE,FALSE,FALSE,6.973157731,79.91570292,112.5,,459.3,TRUE,1,1,FALSE,FALSE,FALSE,FALSE,,TRUE,FALSE,FALSE,Course Lock,131.2,52,16.4,Calm,85,,1.12.6,Mavic Mini,1SDCH7G0169R0K,1SFLH6Q0AB03DJ,1SRCH7F014TAHX,1U5X071EXP5ZJG,96.9,0,0,3.107557,1.11847,0,0,Mavic Mini,1SDCH7G0169R0K,1SFLH6Q0AB03DJ,1SRCH7F014TAHX,1U5X071EXP5ZJG,DJI Fly,,1.12.6,39FAD24D-23B5-88A1-FF70-C69188BF41A0,1SDCH7G0169R0K,,,,,6.972953738,79.91596338,5,,
1/26/2024,22:46.9,9m 36.8s,576.8,6.972958049,79.91593993,0,0,0.3,57,0.5,0,0,0,0,0,0,0,0,5.1,-0.2,-55.2,304.8,,Manual Takeoff,Auto Fly,Takeoff (RC Assisted),16,5,TRUE,,Mavic Mini,TRUE,FALSE,,Smart,RC,TRUE,TRUE,FALSE,,,TRUE,,FALSE,FALSE,FALSE,FALSE,FALSE,FALSE,FALSE,FALSE,FALSE,FALSE,0,Follow Yaw,0,0,-57.5,302.5,FALSE,FALSE,FALSE,FALSE,FALSE,FALSE,,TRUE,Normal,,100,1024,1024,1194,1024,1,FALSE,FALSE,FALSE,FALSE,FALSE,0,FALSE,FALSE,FALSE,FALSE,59,7.613,1327,2230,7.606,FALSE,3.808,3.805,0.003,FALSE,FALSE,NA,109.9,109.9,109.9,0,43,0,19,5,2731.8,682.97,,Idle,0,20,FALSE,5,TRUE,7,Go Home,FALSE,FALSE,FALSE,FALSE,FALSE,FALSE,FALSE,FALSE,FALSE,FALSE,FALSE,FALSE,6.973157731,79.91570292,112.5,,459.3,TRUE,1,1,FALSE,FALSE,FALSE,FALSE,,TRUE,FALSE,FALSE,Course Lock,131.2,52,16.4,Calm,85,,1.12.6,Mavic Mini,1SDCH7G0169R0K,1SFLH6Q0AB03DJ,1SRCH7F014TAHX,1U5X071EXP5ZJG,96.9,0,0,3.107557,1.11847,0,0,Mavic Mini,1SDCH7G0169R0K,1SFLH6Q0AB03DJ,1SRCH7F014TAHX,1U5X071EXP5ZJG,DJI Fly,,1.12.6,39FAD24D-23B5-88A1-FF70-C69188BF41A0,1SDCH7G0169R0K,,,,,6.972953738,79.91596338,5,,
1/26/2024,22:47.0,9m 36.9s,576.9,6.972958229,79.91593991,0,0,0.3,57,0.6,0,0,0,0,0,0,0,0,4.8,-0.1,-55.4,304.6,,Manual Takeoff,Auto Fly,Takeoff (RC Assisted),16,5,TRUE,,Mavic Mini,TRUE,FALSE,,Smart,RC,TRUE,TRUE,FALSE,,,TRUE,,FALSE,FALSE,FALSE,FALSE,FALSE,FALSE,FALSE,FALSE,FALSE,FALSE,0,Follow Yaw,0,0,-57.5,302.5,FALSE,FALSE,FALSE,FALSE,FALSE,FALSE,,TRUE,Normal,,100,1024,1024,1104,1024,1,FALSE,FALSE,FALSE,FALSE,FALSE,0,FALSE,FALSE,FALSE,FALSE,59,7.613,1327,2230,7.606,FALSE,3.808,3.805,0.003,FALSE,FALSE,NA,109.9,109.9,109.9,0,43,0,19,5,2731.8,682.97,,Idle,0,20,FALSE,5,TRUE,7,Go Home,FALSE,FALSE,FALSE,FALSE,FALSE,FALSE,FALSE,FALSE,FALSE,FALSE,FALSE,FALSE,6.973157731,79.91570292,112.5,,459.3,TRUE,1,1,FALSE,FALSE,FALSE,FALSE,,TRUE,FALSE,FALSE,Course Lock,131.2,52,16.4,Calm,85,,1.12.6,Mavic Mini,1SDCH7G0169R0K,1SFLH6Q0AB03DJ,1SRCH7F014TAHX,1U5X071EXP5ZJG,96.9,0,0,3.107557,1.11847,0,0,Mavic Mini,1SDCH7G0169R0K,1SFLH6Q0AB03DJ,1SRCH7F014TAHX,1U5X071EXP5ZJG,DJI Fly,,1.12.6,39FAD24D-23B5-88A1-FF70-C69188BF41A0,1SDCH7G0169R0K,,,,,6.972953738,79.91596338,5,,
1/26/2024,22:47.1,9m 37.0s,577,6.972958269,79.91593986,0,0,0.3,57,0.6,0,0,0,0,0,0,0,0,4.5,-0.1,-55.4,304.6,,Manual Takeoff,Auto Fly,Takeoff (RC Assisted),16,5,TRUE,,Mavic Mini,TRUE,FALSE,,Smart,RC,TRUE,TRUE,FALSE,,,TRUE,,FALSE,FALSE,FALSE,FALSE,FALSE,FALSE,FALSE,FALSE,FALSE,FALSE,0,Follow Yaw,0,0,-57.6,302.4,FALSE,FALSE,FALSE,FALSE,FALSE,FALSE,,TRUE,Normal,,100,1024,1024,1024,1024,1,FALSE,FALSE,FALSE,FALSE,FALSE,0,FALSE,FALSE,FALSE,FALSE,59,7.613,1327,2230,7.591,FALSE,3.808,3.805,0.003,FALSE,FALSE,NA,109.9,109.9,109.9,0,43,0,19,5,2887.9,721.99,,Idle,0,20,FALSE,5,TRUE,7,Go Home,FALSE,FALSE,FALSE,FALSE,FALSE,FALSE,FALSE,FALSE,FALSE,FALSE,FALSE,FALSE,6.973157731,79.91570292,112.5,,459.3,TRUE,1,1,FALSE,FALSE,FALSE,FALSE,,TRUE,FALSE,FALSE,Course Lock,131.2,52,16.4,Calm,85,,1.12.6,Mavic Mini,1SDCH7G0169R0K,1SFLH6Q0AB03DJ,1SRCH7F014TAHX,1U5X071EXP5ZJG,96.9,0,0,3.107557,1.11847,0,0,Mavic Mini,1SDCH7G0169R0K,1SFLH6Q0AB03DJ,1SRCH7F014TAHX,1U5X071EXP5ZJG,DJI Fly,,1.12.6,39FAD24D-23B5-88A1-FF70-C69188BF41A0,1SDCH7G0169R0K,,,,,6.972953738,79.91596338,5,,
1/26/2024,22:47.3,9m 37.1s,577.1,6.972958279,79.91593981,0,0,0.3,57,0.6,0,0,0,0,0,0,0,0,3,-0.1,-55.4,304.6,,Manual Takeoff,Auto Fly,Takeoff (RC Assisted),16,5,TRUE,,Mavic Mini,TRUE,FALSE,,Smart,RC,TRUE,TRUE,FALSE,,,TRUE,,FALSE,FALSE,FALSE,FALSE,FALSE,FALSE,FALSE,FALSE,FALSE,FALSE,0,Follow Yaw,0,0,-57.6,302.4,FALSE,FALSE,FALSE,FALSE,FALSE,FALSE,,TRUE,Normal,,100,1024,1024,1024,1024,1,FALSE,FALSE,FALSE,FALSE,FALSE,0,FALSE,FALSE,FALSE,FALSE,59,7.613,1327,2230,7.591,FALSE,3.808,3.805,0.003,FALSE,FALSE,NA,109.9,109.9,109.9,0,43,0,19,5,2887.9,721.99,,Idle,0,20,FALSE,5,TRUE,7,Go Home,FALSE,FALSE,FALSE,FALSE,FALSE,FALSE,FALSE,FALSE,FALSE,FALSE,FALSE,FALSE,6.973157731,79.91570292,112.4,,459.3,TRUE,1,1,FALSE,FALSE,FALSE,FALSE,,TRUE,FALSE,FALSE,Course Lock,131.2,52,16.4,Calm,85,,1.12.6,Mavic Mini,1SDCH7G0169R0K,1SFLH6Q0AB03DJ,1SRCH7F014TAHX,1U5X071EXP5ZJG,96.9,0,0,3.107557,1.11847,0,0,Mavic Mini,1SDCH7G0169R0K,1SFLH6Q0AB03DJ,1SRCH7F014TAHX,1U5X071EXP5ZJG,DJI Fly,,1.12.6,39FAD24D-23B5-88A1-FF70-C69188BF41A0,1SDCH7G0169R0K,,,,,6.972953738,79.91596338,5,,
1/26/2024,22:47.4,9m 37.2s,577.2,6.972958305,79.91593974,0,0,0.3,57,0.7,0,0,0,0,0,0,0,0,0.4,-0.4,-55.8,304.2,,Manual Takeoff,Auto Fly,Takeoff (RC Assisted),16,5,TRUE,,Mavic Mini,TRUE,FALSE,,Smart,RC,TRUE,TRUE,FALSE,,,TRUE,,FALSE,FALSE,FALSE,FALSE,FALSE,FALSE,FALSE,FALSE,FALSE,FALSE,0,Follow Yaw,0,0,-57.7,302.3,FALSE,FALSE,FALSE,FALSE,FALSE,FALSE,,TRUE,Normal,,100,1024,1024,1024,1024,1,FALSE,FALSE,FALSE,FALSE,FALSE,0,FALSE,FALSE,FALSE,FALSE,59,7.613,1327,2230,7.591,FALSE,3.808,3.805,0.003,FALSE,FALSE,NA,109.9,109.9,109.9,0,43,0,19,5,2887.9,721.99,,Idle,0,20,FALSE,5,TRUE,7,Go Home,FALSE,FALSE,FALSE,FALSE,FALSE,FALSE,FALSE,FALSE,FALSE,FALSE,FALSE,FALSE,6.973157731,79.91570292,112.4,,459.3,TRUE,1,1,FALSE,FALSE,FALSE,FALSE,,TRUE,FALSE,FALSE,Course Lock,131.2,52,16.4,Calm,85,,1.12.6,Mavic Mini,1SDCH7G0169R0K,1SFLH6Q0AB03DJ,1SRCH7F014TAHX,1U5X071EXP5ZJG,96.9,0,0,3.107557,1.11847,0,0,Mavic Mini,1SDCH7G0169R0K,1SFLH6Q0AB03DJ,1SRCH7F014TAHX,1U5X071EXP5ZJG,DJI Fly,,1.12.6,39FAD24D-23B5-88A1-FF70-C69188BF41A0,1SDCH7G0169R0K,,,,,6.972953738,79.91596338,5,,
1/26/2024,22:47.4,9m 37.3s,577.3,6.972958353,79.91593966,0,0,0.3,57,0.7,0,0,0,0,0,0,0,0,3.9,-0.1,-56.4,303.6,,P-GPS,Auto Fly,,16,5,TRUE,,Mavic Mini,TRUE,FALSE,,Smart,RC,FALSE,TRUE,FALSE,,,TRUE,,FALSE,FALSE,FALSE,FALSE,FALSE,FALSE,FALSE,FALSE,FALSE,FALSE,0,Follow Yaw,0,0,-58.1,301.9,FALSE,FALSE,FALSE,FALSE,FALSE,FALSE,,TRUE,Normal,,100,1024,1024,1024,1024,1,FALSE,FALSE,FALSE,FALSE,FALSE,0,FALSE,FALSE,FALSE,FALSE,59,7.613,1327,2230,7.591,FALSE,3.808,3.805,0.003,FALSE,FALSE,NA,109.9,109.9,109.9,0,43,0,19,5,2887.9,721.99,,Idle,0,20,FALSE,5,TRUE,7,Go Home,FALSE,FALSE,FALSE,FALSE,FALSE,FALSE,FALSE,FALSE,FALSE,FALSE,FALSE,FALSE,6.973157731,79.91570292,112.4,,459.3,TRUE,1,1,FALSE,FALSE,FALSE,FALSE,,TRUE,FALSE,FALSE,Course Lock,131.2,52,16.4,Calm,85,,1.12.6,Mavic Mini,1SDCH7G0169R0K,1SFLH6Q0AB03DJ,1SRCH7F014TAHX,1U5X071EXP5ZJG,96.9,0,0,3.107557,1.11847,0,0,Mavic Mini,1SDCH7G0169R0K,1SFLH6Q0AB03DJ,1SRCH7F014TAHX,1U5X071EXP5ZJG,DJI Fly,,1.12.6,39FAD24D-23B5-88A1-FF70-C69188BF41A0,1SDCH7G0169R0K,,,,,6.972953738,79.91596338,5,Flight mode changed to P-GPS.,
1/26/2024,22:47.6,9m 37.4s,577.4,6.972958361,79.91593957,0,0,0.3,57,0.7,0,0,0,0,0,0,0,0,2.7,-0.1,-56.4,303.6,,P-GPS,Auto Fly,,16,5,TRUE,,Mavic Mini,TRUE,FALSE,,Smart,RC,FALSE,TRUE,FALSE,,,TRUE,,FALSE,FALSE,FALSE,FALSE,FALSE,FALSE,FALSE,FALSE,FALSE,FALSE,0,Follow Yaw,0,0,-58.1,301.9,FALSE,FALSE,FALSE,FALSE,FALSE,FALSE,,TRUE,Normal,,100,1024,1024,1024,1024,1,FALSE,FALSE,FALSE,FALSE,FALSE,0,FALSE,FALSE,FALSE,FALSE,59,7.55,1327,2230,7.591,FALSE,3.776,3.774,0.003,FALSE,FALSE,NA,109.9,109.9,109.9,0,43,0,19,5,2887.9,721.99,,Idle,0,20,FALSE,5,TRUE,7,Go Home,FALSE,FALSE,FALSE,FALSE,FALSE,FALSE,FALSE,FALSE,FALSE,FALSE,FALSE,FALSE,6.973157731,79.91570292,112.3,,459.3,TRUE,1,1,FALSE,FALSE,FALSE,FALSE,,TRUE,FALSE,FALSE,Course Lock,131.2,52,16.4,Calm,85,,1.12.6,Mavic Mini,1SDCH7G0169R0K,1SFLH6Q0AB03DJ,1SRCH7F014TAHX,1U5X071EXP5ZJG,96.9,0,0,3.107557,1.11847,0,0,Mavic Mini,1SDCH7G0169R0K,1SFLH6Q0AB03DJ,1SRCH7F014TAHX,1U5X071EXP5ZJG,DJI Fly,,1.12.6,39FAD24D-23B5-88A1-FF70-C69188BF41A0,1SDCH7G0169R0K,,,,,6.972953738,79.91596338,5,,
1/26/2024,22:47.7,9m 37.5s,577.5,6.97295836,79.91593956,0,0,0.3,57,0.7,0,0,0,0,0,0,0,0,1.6,-0.2,-56.4,303.6,,P-GPS,Auto Fly,,16,5,TRUE,,Mavic Mini,TRUE,FALSE,,Smart,RC,FALSE,TRUE,FALSE,,,TRUE,,FALSE,FALSE,FALSE,FALSE,FALSE,FALSE,FALSE,FALSE,FALSE,FALSE,0,Follow Yaw,0,0,-58.1,301.9,FALSE,FALSE,FALSE,FALSE,FALSE,FALSE,,TRUE,Normal,,100,1024,1024,1024,1024,1,FALSE,FALSE,FALSE,FALSE,FALSE,0,FALSE,FALSE,FALSE,FALSE,59,7.55,1327,2230,7.591,FALSE,3.776,3.774,0.003,FALSE,FALSE,NA,109.9,109.9,109.9,0,43,0,19,5,2887.9,721.99,,Idle,0,20,FALSE,5,TRUE,7,Go Home,FALSE,FALSE,FALSE,FALSE,FALSE,FALSE,FALSE,FALSE,FALSE,FALSE,FALSE,FALSE,6.973157731,79.91570292,112.3,,459.3,TRUE,1,1,FALSE,FALSE,FALSE,FALSE,,TRUE,FALSE,FALSE,Course Lock,131.2,52,16.4,Calm,85,,1.12.6,Mavic Mini,1SDCH7G0169R0K,1SFLH6Q0AB03DJ,1SRCH7F014TAHX,1U5X071EXP5ZJG,96.9,0,0,3.107557,1.11847,0,0,Mavic Mini,1SDCH7G0169R0K,1SFLH6Q0AB03DJ,1SRCH7F014TAHX,1U5X071EXP5ZJG,DJI Fly,,1.12.6,39FAD24D-23B5-88A1-FF70-C69188BF41A0,1SDCH7G0169R0K,,,,,6.972953738,79.91596338,5,,
1/26/2024,22:47.7,9m 37.6s,577.6,6.972958382,79.91593953,0,0,0.3,57,0.7,0,0,0,0,0,0,0,0,-0.4,-0.4,-56.4,303.6,,P-GPS,Auto Fly,,16,5,TRUE,,Mavic Mini,TRUE,FALSE,,Smart,RC,FALSE,TRUE,FALSE,,,TRUE,,FALSE,FALSE,FALSE,FALSE,FALSE,FALSE,FALSE,FALSE,FALSE,FALSE,0,Follow Yaw,0,0,-58.1,301.9,FALSE,FALSE,FALSE,FALSE,FALSE,FALSE,,TRUE,Normal,,100,1024,1024,1030,1024,1,FALSE,FALSE,FALSE,FALSE,FALSE,0,FALSE,FALSE,FALSE,FALSE,59,7.55,1327,2230,7.591,FALSE,3.776,3.774,0.003,FALSE,FALSE,NA,109.9,109.9,109.9,0,43,0,19,5,2887.9,721.99,,Idle,0,20,FALSE,5,TRUE,7,Go Home,FALSE,FALSE,FALSE,FALSE,FALSE,FALSE,FALSE,FALSE,FALSE,FALSE,FALSE,FALSE,6.973157731,79.91570292,112.3,,459.3,TRUE,1,1,FALSE,FALSE,FALSE,FALSE,,TRUE,FALSE,FALSE,Course Lock,131.2,52,16.4,Calm,85,,1.12.6,Mavic Mini,1SDCH7G0169R0K,1SFLH6Q0AB03DJ,1SRCH7F014TAHX,1U5X071EXP5ZJG,96.9,0,0,3.107557,1.11847,0,0,Mavic Mini,1SDCH7G0169R0K,1SFLH6Q0AB03DJ,1SRCH7F014TAHX,1U5X071EXP5ZJG,DJI Fly,,1.12.6,39FAD24D-23B5-88A1-FF70-C69188BF41A0,1SDCH7G0169R0K,,,,,6.972953738,79.91596338,5,,
1/26/2024,22:47.8,9m 37.7s,577.7,6.972958431,79.91593945,0,0,0.3,57,0.8,0,0,0,0,0,0,0,0,0,-0.1,-56.4,303.6,,P-GPS,Auto Fly,,16,5,TRUE,,Mavic Mini,TRUE,FALSE,,Smart,RC,FALSE,TRUE,FALSE,,,TRUE,,FALSE,FALSE,FALSE,FALSE,FALSE,FALSE,FALSE,FALSE,FALSE,FALSE,0,Follow Yaw,0,0,-58.1,301.9,FALSE,FALSE,FALSE,FALSE,FALSE,FALSE,,TRUE,Normal,,100,1024,1024,1093,1024,1,FALSE,FALSE,FALSE,FALSE,FALSE,0,FALSE,FALSE,FALSE,FALSE,59,7.55,1327,2230,7.591,FALSE,3.776,3.774,0.003,FALSE,FALSE,NA,109.9,109.9,109.9,0,43,0,19,5,2887.9,721.99,,Idle,0,20,FALSE,5,TRUE,7,Go Home,FALSE,FALSE,FALSE,FALSE,FALSE,FALSE,FALSE,FALSE,FALSE,FALSE,FALSE,FALSE,6.973157731,79.91570292,112.3,,459.3,TRUE,1,1,FALSE,FALSE,FALSE,FALSE,,TRUE,FALSE,FALSE,Course Lock,131.2,52,16.4,Calm,85,,1.12.6,Mavic Mini,1SDCH7G0169R0K,1SFLH6Q0AB03DJ,1SRCH7F014TAHX,1U5X071EXP5ZJG,96.9,0,0,3.107557,1.11847,0,0,Mavic Mini,1SDCH7G0169R0K,1SFLH6Q0AB03DJ,1SRCH7F014TAHX,1U5X071EXP5ZJG,DJI Fly,,1.12.6,39FAD24D-23B5-88A1-FF70-C69188BF41A0,1SDCH7G0169R0K,,,,,6.972953738,79.91596338,5,,
1/26/2024,22:47.9,9m 37.8s,577.8,6.972958475,79.9159394,0,0,0.3,57,0.8,0.223694,0.223694,0,0,-0.223694,0,-0.223694,0,0.1,0.4,-56.2,303.8,319.4,P-GPS,Auto Fly,,16,5,TRUE,,Mavic Mini,TRUE,FALSE,,Smart,RC,FALSE,TRUE,FALSE,,,TRUE,,FALSE,FALSE,FALSE,FALSE,FALSE,FALSE,FALSE,FALSE,FALSE,FALSE,0,Follow Yaw,0,0,-58.1,301.9,FALSE,FALSE,FALSE,FALSE,FALSE,FALSE,,TRUE,Normal,,100,1024,1024,1060,1024,1,FALSE,FALSE,FALSE,FALSE,FALSE,0,FALSE,FALSE,FALSE,FALSE,59,7.55,1327,2230,7.591,FALSE,3.776,3.774,0.003,FALSE,FALSE,NA,109.9,109.9,109.9,0,43,0,19,5,2887.9,721.99,,Idle,0,20,FALSE,5,TRUE,7,Go Home,FALSE,FALSE,FALSE,FALSE,FALSE,FALSE,FALSE,FALSE,FALSE,FALSE,FALSE,FALSE,6.973157731,79.91570292,112.3,,459.3,TRUE,1,1,FALSE,FALSE,FALSE,FALSE,,TRUE,FALSE,FALSE,Course Lock,131.2,52,16.4,Calm,85,,1.12.6,Mavic Mini,1SDCH7G0169R0K,1SFLH6Q0AB03DJ,1SRCH7F014TAHX,1U5X071EXP5ZJG,96.9,0,0,3.107557,1.11847,0,0,Mavic Mini,1SDCH7G0169R0K,1SFLH6Q0AB03DJ,1SRCH7F014TAHX,1U5X071EXP5ZJG,DJI Fly,,1.12.6,39FAD24D-23B5-88A1-FF70-C69188BF41A0,1SDCH7G0169R0K,,,,,6.972953738,79.91596338,5,,
1/26/2024,22:48.0,9m 37.9s,577.9,6.972958541,79.91593927,0,0,0.3,57,0.9,0.223694,0.223694,0,0,-0.223694,0,-0.447388,0,0.9,0.3,-56.1,303.9,304.8,P-GPS,Auto Fly,,16,5,TRUE,,Mavic Mini,TRUE,FALSE,,Smart,RC,FALSE,TRUE,FALSE,,,TRUE,,FALSE,FALSE,FALSE,FALSE,FALSE,FALSE,FALSE,FALSE,FALSE,FALSE,0,Follow Yaw,0,0,-58.1,301.9,FALSE,FALSE,FALSE,FALSE,FALSE,FALSE,,TRUE,Normal,,100,1024,1024,1024,1024,1,FALSE,FALSE,FALSE,FALSE,FALSE,0,FALSE,FALSE,FALSE,FALSE,59,7.55,1327,2230,7.591,FALSE,3.776,3.774,0.003,FALSE,FALSE,NA,109.9,109.9,109.9,0,43,0,19,5,2887.9,721.99,,Idle,0,20,FALSE,5,TRUE,7,Go Home,FALSE,FALSE,FALSE,FALSE,FALSE,FALSE,FALSE,FALSE,FALSE,FALSE,FALSE,FALSE,6.973157731,79.91570292,112.2,,459.3,TRUE,1,1,FALSE,FALSE,FALSE,FALSE,,TRUE,FALSE,FALSE,Course Lock,131.2,52,16.4,Calm,85,,1.12.6,Mavic Mini,1SDCH7G0169R0K,1SFLH6Q0AB03DJ,1SRCH7F014TAHX,1U5X071EXP5ZJG,96.9,0,0,3.107557,1.11847,0,0,Mavic Mini,1SDCH7G0169R0K,1SFLH6Q0AB03DJ,1SRCH7F014TAHX,1U5X071EXP5ZJG,DJI Fly,,1.12.6,39FAD24D-23B5-88A1-FF70-C69188BF41A0,1SDCH7G0169R0K,,,,,6.972953738,79.91596338,5,,
1/26/2024,22:48.1,9m 38.0s,578,6.972958596,79.91593915,0,0,0.3,57,0.9,0.223694,0.223694,0,0,-0.223694,0,-0.447388,0,2,0.2,-56.2,303.8,300.2,P-GPS,Auto Fly,,16,5,TRUE,,Mavic Mini,TRUE,FALSE,,Smart,RC,FALSE,TRUE,FALSE,,,TRUE,,FALSE,FALSE,FALSE,FALSE,FALSE,FALSE,FALSE,FALSE,FALSE,FALSE,0,Follow Yaw,0,0,-58.1,301.9,FALSE,FALSE,FALSE,FALSE,FALSE,FALSE,,TRUE,Normal,,100,1024,1024,1024,1024,1,FALSE,FALSE,FALSE,FALSE,FALSE,0,FALSE,FALSE,FALSE,FALSE,59,7.55,1327,2230,7.536,FALSE,3.776,3.774,0.003,FALSE,FALSE,NA,109.9,109.9,109.9,0,0,0,0,5,3177.1,794.28,,Idle,0,20,FALSE,5,TRUE,7,Go Home,FALSE,FALSE,FALSE,FALSE,FALSE,FALSE,FALSE,FALSE,FALSE,FALSE,FALSE,FALSE,6.972958343,79.91593968,0.2,,459.3,TRUE,1,1,FALSE,FALSE,FALSE,FALSE,,TRUE,FALSE,FALSE,Course Lock,131.2,52,16.4,Calm,85,,1.12.6,Mavic Mini,1SDCH7G0169R0K,1SFLH6Q0AB03DJ,1SRCH7F014TAHX,1U5X071EXP5ZJG,96.9,0,0,3.107557,1.11847,0,0,Mavic Mini,1SDCH7G0169R0K,1SFLH6Q0AB03DJ,1SRCH7F014TAHX,1U5X071EXP5ZJG,DJI Fly,,1.12.6,39FAD24D-23B5-88A1-FF70-C69188BF41A0,1SDCH7G0169R0K,,,,,6.972953738,79.91596338,5,Home Point Updated.,
1/26/2024,22:48.2,9m 38.1s,578.1,6.972958631,79.91593903,0.3,0.3,0.6,58,1,0,0.223694,0,0,0,0,-0.671082,0,1.7,0.4,-56.1,303.9,,P-GPS,Auto Fly,,16,5,TRUE,,Mavic Mini,TRUE,FALSE,,Smart,RC,FALSE,TRUE,FALSE,,,TRUE,,FALSE,FALSE,FALSE,FALSE,FALSE,FALSE,FALSE,FALSE,FALSE,FALSE,0,Follow Yaw,0,0,-58.1,301.9,FALSE,FALSE,FALSE,FALSE,FALSE,FALSE,,TRUE,Normal,,100,1024,1024,1024,1024,1,FALSE,FALSE,FALSE,FALSE,FALSE,0,FALSE,FALSE,FALSE,FALSE,59,7.55,1327,2230,7.536,FALSE,3.776,3.774,0.003,FALSE,FALSE,NA,109.9,109.9,109.9,0,0,0,0,5,3177.1,794.28,,Idle,0,20,FALSE,5,TRUE,7,Go Home,FALSE,FALSE,FALSE,FALSE,FALSE,FALSE,FALSE,FALSE,FALSE,FALSE,FALSE,FALSE,6.972958343,79.91593968,0.2,,459.3,TRUE,1,1,FALSE,FALSE,FALSE,FALSE,,TRUE,FALSE,FALSE,Course Lock,131.2,52,16.4,Calm,85,,1.12.6,Mavic Mini,1SDCH7G0169R0K,1SFLH6Q0AB03DJ,1SRCH7F014TAHX,1U5X071EXP5ZJG,96.9,0,0,3.107557,1.11847,0,0,Mavic Mini,1SDCH7G0169R0K,1SFLH6Q0AB03DJ,1SRCH7F014TAHX,1U5X071EXP5ZJG,DJI Fly,,1.12.6,39FAD24D-23B5-88A1-FF70-C69188BF41A0,1SDCH7G0169R0K,,,,,6.972953738,79.91596338,5,Home Point updated. RTH altitude adjusted to 40 m! (Code: 120852).,
1/26/2024,22:48.4,9m 38.2s,578.2,6.972958593,79.91593893,0.3,0.3,0.6,58,1,0,0.223694,0,0,0,0,-0.894776,0,2,0.5,-56.1,303.9,,P-GPS,Auto Fly,,16,5,TRUE,,Mavic Mini,TRUE,FALSE,,Smart,RC,FALSE,TRUE,FALSE,,,TRUE,,FALSE,FALSE,FALSE,FALSE,FALSE,FALSE,FALSE,FALSE,FALSE,FALSE,0,Follow Yaw,0,0,-58.1,301.9,FALSE,FALSE,FALSE,FALSE,FALSE,FALSE,,TRUE,Normal,,100,1024,1024,1024,1024,1,FALSE,FALSE,FALSE,FALSE,FALSE,0,FALSE,FALSE,FALSE,FALSE,59,7.55,1327,2230,7.536,FALSE,3.776,3.774,0.003,FALSE,FALSE,NA,109.9,109.9,109.9,0,0,0,0,5,3177.1,794.28,,Idle,0,20,FALSE,5,TRUE,7,Go Home,FALSE,FALSE,FALSE,FALSE,FALSE,FALSE,FALSE,FALSE,FALSE,FALSE,FALSE,FALSE,6.972958343,79.91593968,0.2,,459.3,TRUE,1,1,FALSE,FALSE,FALSE,FALSE,,TRUE,FALSE,FALSE,Course Lock,131.2,52,16.4,Calm,85,,1.12.6,Mavic Mini,1SDCH7G0169R0K,1SFLH6Q0AB03DJ,1SRCH7F014TAHX,1U5X071EXP5ZJG,96.9,0,0,3.107557,1.11847,0,0,Mavic Mini,1SDCH7G0169R0K,1SFLH6Q0AB03DJ,1SRCH7F014TAHX,1U5X071EXP5ZJG,DJI Fly,,1.12.6,39FAD24D-23B5-88A1-FF70-C69188BF41A0,1SDCH7G0169R0K,,,,,6.972953738,79.91596338,5,,
1/26/2024,22:48.5,9m 38.3s,578.3,6.972958593,79.91593885,0.6,0.6,0.6,58,1,0,0.223694,0,0,0,0,-1.11847,0,2.3,0.6,-56.1,303.9,,P-GPS,Auto Fly,,16,5,TRUE,,Mavic Mini,TRUE,FALSE,,Smart,RC,FALSE,TRUE,FALSE,,,TRUE,,FALSE,FALSE,FALSE,FALSE,FALSE,FALSE,FALSE,FALSE,FALSE,FALSE,0,Follow Yaw,0,0,-58.1,301.9,FALSE,FALSE,FALSE,FALSE,FALSE,FALSE,,TRUE,Normal,,100,1024,1024,1024,1024,1,FALSE,FALSE,FALSE,FALSE,FALSE,0,FALSE,FALSE,FALSE,FALSE,59,7.55,1327,2230,7.536,FALSE,3.776,3.774,0.003,FALSE,FALSE,NA,109.9,109.9,109.9,0,0,0,0,5,3177.1,794.28,,Idle,0,20,FALSE,5,TRUE,7,Go Home,FALSE,FALSE,FALSE,FALSE,FALSE,FALSE,FALSE,FALSE,FALSE,FALSE,FALSE,FALSE,6.972958343,79.91593968,0.3,,459.3,TRUE,1,1,FALSE,FALSE,FALSE,FALSE,,TRUE,FALSE,FALSE,Course Lock,131.2,52,16.4,Calm,85,,1.12.6,Mavic Mini,1SDCH7G0169R0K,1SFLH6Q0AB03DJ,1SRCH7F014TAHX,1U5X071EXP5ZJG,96.9,0,0,3.107557,1.11847,0,0,Mavic Mini,1SDCH7G0169R0K,1SFLH6Q0AB03DJ,1SRCH7F014TAHX,1U5X071EXP5ZJG,DJI Fly,,1.12.6,39FAD24D-23B5-88A1-FF70-C69188BF41A0,1SDCH7G0169R0K,,,,,6.972953738,79.91596338,5,,
1/26/2024,22:48.6,9m 38.4s,578.4,6.972958581,79.91593878,0.6,0.6,0.9,58,1,0,0.223694,0,0,0,0,-1.11847,0,2.6,0.7,-56.1,303.9,,P-GPS,Auto Fly,,16,5,TRUE,,Mavic Mini,TRUE,FALSE,,Smart,RC,FALSE,TRUE,FALSE,,,TRUE,,FALSE,FALSE,FALSE,FALSE,FALSE,FALSE,FALSE,FALSE,FALSE,FALSE,0,Follow Yaw,0,0,-58.1,301.9,FALSE,FALSE,FALSE,FALSE,FALSE,FALSE,,TRUE,Normal,,100,1024,1024,1024,1024,1,FALSE,FALSE,FALSE,FALSE,FALSE,0,FALSE,FALSE,FALSE,FALSE,59,7.55,1327,2230,7.536,FALSE,3.776,3.774,0.003,FALSE,FALSE,NA,109.9,109.9,109.9,0,0,0,0,5,3177.1,794.28,,Idle,0,20,FALSE,5,TRUE,7,Go Home,FALSE,FALSE,FALSE,FALSE,FALSE,FALSE,FALSE,FALSE,FALSE,FALSE,FALSE,FALSE,6.972958343,79.91593968,0.3,,459.3,TRUE,1,1,FALSE,FALSE,FALSE,FALSE,,TRUE,FALSE,FALSE,Course Lock,131.2,52,16.4,Calm,85,,1.12.6,Mavic Mini,1SDCH7G0169R0K,1SFLH6Q0AB03DJ,1SRCH7F014TAHX,1U5X071EXP5ZJG,96.9,0,0,3.107557,1.11847,0,0,Mavic Mini,1SDCH7G0169R0K,1SFLH6Q0AB03DJ,1SRCH7F014TAHX,1U5X071EXP5ZJG,DJI Fly,,1.12.6,39FAD24D-23B5-88A1-FF70-C69188BF41A0,1SDCH7G0169R0K,,,,,6.972953738,79.91596338,5,,
1/26/2024,22:48.6,9m 38.5s,578.5,6.972958554,79.91593871,0.9,0.9,0.9,58,1.1,0,0.223694,0,0,0,0,-1.11847,0,2.2,1.1,-56,304,,P-GPS,Auto Fly,,16,5,TRUE,,Mavic Mini,TRUE,FALSE,,Smart,RC,FALSE,TRUE,FALSE,,,TRUE,,FALSE,FALSE,FALSE,FALSE,FALSE,FALSE,FALSE,FALSE,FALSE,FALSE,0,Follow Yaw,0,0,-58.1,301.9,FALSE,FALSE,FALSE,FALSE,FALSE,FALSE,,TRUE,Normal,,100,1024,1024,1024,1024,1,FALSE,FALSE,FALSE,FALSE,FALSE,0,FALSE,FALSE,FALSE,FALSE,59,7.55,1327,2230,7.536,FALSE,3.776,3.774,0.003,FALSE,FALSE,NA,109.9,109.9,109.9,0,0,0,0,5,3177.1,794.28,,Idle,0,20,FALSE,5,TRUE,7,Go Home,FALSE,FALSE,FALSE,FALSE,FALSE,FALSE,FALSE,FALSE,FALSE,FALSE,FALSE,FALSE,6.972958343,79.91593968,0.3,,459.3,TRUE,1,1,FALSE,FALSE,FALSE,FALSE,,TRUE,FALSE,FALSE,Course Lock,131.2,52,16.4,Calm,85,,1.12.6,Mavic Mini,1SDCH7G0169R0K,1SFLH6Q0AB03DJ,1SRCH7F014TAHX,1U5X071EXP5ZJG,96.9,0,0,3.107557,1.11847,0,0,Mavic Mini,1SDCH7G0169R0K,1SFLH6Q0AB03DJ,1SRCH7F014TAHX,1U5X071EXP5ZJG,DJI Fly,,1.12.6,39FAD24D-23B5-88A1-FF70-C69188BF41A0,1SDCH7G0169R0K,,,,,6.972953738,79.91596338,5,,
