CUSTOM.date [local],CUSTOM.updateTime [local],OSD.flyTime,OSD.flyTime [s],OSD.latitude,OSD.longitude,OSD.height [ft],OSD.heightMax [ft],OSD.vpsHeight [ft],OSD.altitude [ft],OSD.mileage [ft],OSD.hSpeed [MPH],OSD.hSpeedMax [MPH],OSD.xSpeed [MPH],OSD.xSpeedMax [MPH],OSD.ySpeed [MPH],OSD.ySpeedMax [MPH],OSD.zSpeed [MPH],OSD.zSpeedMax [MPH],OSD.pitch,OSD.roll,OSD.yaw,OSD.yaw [360],OSD.directionOfTravel,OSD.flycState,OSD.flycCommand,OSD.flightAction,OSD.gpsNum,OSD.gpsLevel,OSD.isGPSUsed,OSD.nonGPSCause,OSD.droneType,OSD.isSwaveWork,OSD.waveError,OSD.goHomeStatus,OSD.batteryType,OSD.ctrlDevice,OSD.isOnGround,OSD.isMotorOn,OSD.isMotorBlocked,OSD.motorStartFailedCause,OSD.motorFailReason,OSD.isImuPreheated,OSD.imuInitFailReason,OSD.isAcceletorOverRange,OSD.isBarometerDeadInAir,OSD.isCompassError,OSD.isGoHomeHeightModified,OSD.canIOCWork,OSD.isNotEnoughForce,OSD.isOutOfLimit,OSD.isPropellerCatapult,OSD.isVibrating,OSD.isVisionUsed,OSD.voltageWarning,GIMBAL.mode,GIMBAL.pitch,GIMBAL.roll,GIMBAL.yaw,GIMBAL.yaw [360],GIMBAL.isPitchAtLimit,GIMBAL.isRollAtLimit,GIMBAL.isYawAtLimit,GIMBAL.isStuck,CAMERA.isPhoto,CAMERA.isVideo,CAMERA.filename,CAMERA.sdCardIsInserted,CAMERA.sdCardState,RC.downlinkSignal,RC.uplinkSignal,RC.aileron,RC.elevator,RC.throttle,RC.rudder,RC.mode,RC.goHomeDepressed,RC.recordDepressed,RC.shutterDepressed,RC.playbackDepressed,RC.wheelDepressed,RC.wheelOffset,RC.custom1Depressed,RC.custom2Depressed,RC.custom3Depressed,RC.custom4Depressed,BATTERY.chargeLevel,BATTERY.currentPV [V],BATTERY.currentCapacity [mAh],BATTERY.fullCapacity [mAh],BATTERY.voltage [V],BATTERY.isCellVoltageEstimated,BATTERY.cellVoltage1 [V],BATTERY.cellVoltage2 [V],BATTERY.maxCellVoltageDeviation,BATTERY.isCellVoltageDeviationHigh,BATTERY.isVoltageLow,BATTERY.current [A],BATTERY.temperature [F],BATTERY.minTemperature [F],BATTERY.maxTemperature [F],BATTERY.usefulTime [s],BATTERY.goHomeTime [s],BATTERY.landTime [s],BATTERY.goHomeBattery,BATTERY.landBattery,BATTERY.safeFlyRadius,BATTERY.volumeConsume,BATTERY.status,BATTERY.goHomeStatus,BATTERY.goHomeCountdown,BATTERY.lowWarning,BATTERY.lowWarningGoHome,BATTERY.seriousLowWarning,BATTERY.seriousLowWarningLanding,BATTERY.timesCharged,MC.failSafeAction,MC.isObstacleAvoidanceEnabled,MC.isCollisionAvoidanceEnabled,MC.isRthObstacleAvoidanceEnabled,MC.isBraking,MC.isAvoidingObstacle,MC.isAvoidingActiveObstacle,MC.isAscentLimitedByObstacle,MC.isLandingConfirmationNeeded,MC.atLowAltitudeLimit,MC.atDistanceLimit,MC.atAirportAltitudeLimit,MC.atAirportBoundary,HOME.latitude,HOME.longitude,HOME.distance [ft],HOME.height [ft],HOME.heightLimit [ft],HOME.isHomeRecord,HOME.goHomeMode,HOME.aircraftHeadDirection,HOME.isDynamicHomePointEnabled,HOME.isReachedLimitDistance,HOME.isReachedLimitHeight,HOME.isCompassCalibrating,HOME.compassCalibrationState,HOME.isMultipleFlightModeEnabled,HOME.isBeginnerMode,HOME.isIOCEnabled,HOME.iocMode,HOME.goHomeHeight [ft],HOME.courseLockAngle,HOME.forceLandingHeight [ft],HOME.wind,HOME.dataRecorderFileIndex,RECOVER.appType,RECOVER.appVersion,RECOVER.aircraftName,RECOVER.aircraftSerial,RECOVER.cameraSerial,RECOVER.rcSerial,RECOVER.batterySerial,DETAILS.totalTime [s],DETAILS.totalDistance [ft],DETAILS.maxHeight [ft],DETAILS.maxHorizontalSpeed [MPH],DETAILS.maxVerticalSpeed [MPH],DETAILS.photoNum,DETAILS.videoTime [s],DETAILS.aircraftName,DETAILS.aircraftSerial,DETAILS.cameraSerial,DETAILS.rcSerial,DETAILS.batterySerial,DETAILS.appName,DETAILS.appType,DETAILS.appVersion,DETAILS.guid,SERIAL.flightController,SERIAL.camera,SERIAL.gimbal,SERIAL.rc,SERIAL.battery,APPGPS.latitude,APPGPS.longitude,APPGPS.accuracy,APP.tip,APP.warning
2/14/2024,22:22.9,5m 5.0s,305,6.97426035,79.91402842,0,0,,50,0,0,0,0,0,0,0,0,0,3.9,-5.5,41.9,41.9,,Starting Motors,Other,Takeoff (RC Assisted),15,5,TRUE,,Mavic Mini,FALSE,FALSE,,Smart,RC,TRUE,TRUE,FALSE,,,TRUE,,FALSE,FALSE,FALSE,FALSE,FALSE,FALSE,FALSE,FALSE,FALSE,FALSE,0,Follow Yaw,-0.1,0,53.3,53.3,FALSE,FALSE,FALSE,FALSE,FALSE,FALSE,,TRUE,Normal,,100,1024,1024,1024,1024,2,FALSE,FALSE,FALSE,FALSE,FALSE,0,FALSE,FALSE,FALSE,FALSE,75,7.859,1607,2138,7.859,TRUE,3.93,3.93,,FALSE,FALSE,NA,109,109,109,,,,,,,,,Idle,,,TRUE,,FALSE,5,Go Home,FALSE,FALSE,FALSE,FALSE,FALSE,FALSE,FALSE,FALSE,FALSE,FALSE,FALSE,FALSE,,,,,,FALSE,,,FALSE,FALSE,FALSE,FALSE,,FALSE,FALSE,FALSE,,,,,Calm,,,1.12.8,Mavic Mini,1SDCH7G0169R0K,1SFLH6Q0AB03DJ,1SRCH7F014TAHX,1U5X071EXP6C9Y,51,0,91.8,5.59235,8.94776,0,0,Mavic Mini,1SDCH7G0169R0K,1SFLH6Q0AB03DJ,1SRCH7F014TAHX,1U5X071EXP6C9Y,DJI Fly,,1.12.8,24C228E4-67B6-263C-7EBC-467C69ADD5E1,1SDCH7G0169R0K,,,,,,,,Flight mode changed to Starting Motors.,
2/14/2024,22:23.0,5m 5.1s,305.1,6.974260365,79.91402841,0,0,,50,0,0,0,0,0,0,0,0,0,3.9,-5.5,41.9,41.9,,Starting Motors,Other,Takeoff (RC Assisted),15,5,TRUE,,Mavic Mini,FALSE,FALSE,,Smart,RC,TRUE,TRUE,FALSE,,,TRUE,,FALSE,FALSE,FALSE,FALSE,FALSE,FALSE,FALSE,FALSE,FALSE,FALSE,0,Follow Yaw,-0.1,0,53.3,53.3,FALSE,FALSE,FALSE,FALSE,FALSE,FALSE,,TRUE,Normal,,100,1024,1024,1024,1024,2,FALSE,FALSE,FALSE,FALSE,FALSE,0,FALSE,FALSE,FALSE,FALSE,75,7.861,1607,2138,7.861,FALSE,3.933,3.928,0.005,FALSE,FALSE,NA,109,109,109,,,,,,,,,Idle,,,TRUE,,FALSE,5,Go Home,FALSE,FALSE,FALSE,FALSE,FALSE,FALSE,FALSE,FALSE,FALSE,FALSE,FALSE,FALSE,,,,,,FALSE,,,FALSE,FALSE,FALSE,FALSE,,FALSE,FALSE,FALSE,,,,,Calm,,,1.12.8,Mavic Mini,1SDCH7G0169R0K,1SFLH6Q0AB03DJ,1SRCH7F014TAHX,1U5X071EXP6C9Y,51,0,91.8,5.59235,8.94776,0,0,Mavic Mini,1SDCH7G0169R0K,1SFLH6Q0AB03DJ,1SRCH7F014TAHX,1U5X071EXP6C9Y,DJI Fly,,1.12.8,24C228E4-67B6-263C-7EBC-467C69ADD5E1,1SDCH7G0169R0K,,,,,,,,,
2/14/2024,17:18.1,5m 5.2s,305.2,6.974260409,79.91402841,0,0,0.3,50,0,0,0,0,0,0,0,0,0,3.9,-5.5,41.8,41.8,,Starting Motors,Other,Takeoff (RC Assisted),15,5,TRUE,,Mavic Mini,TRUE,FALSE,,Smart,RC,TRUE,TRUE,FALSE,,,TRUE,,FALSE,FALSE,FALSE,FALSE,FALSE,FALSE,FALSE,FALSE,FALSE,FALSE,0,Follow Yaw,-0.1,0,53.3,53.3,FALSE,FALSE,FALSE,FALSE,FALSE,FALSE,,TRUE,Normal,,100,1024,1024,1024,1024,2,FALSE,FALSE,FALSE,FALSE,FALSE,0,FALSE,FALSE,FALSE,FALSE,75,7.861,1607,2138,7.856,FALSE,3.933,3.928,0.005,FALSE,FALSE,NA,109,109,109,0,4,0,0,5,2598.1,649.54,,Idle,0,20,FALSE,5,TRUE,5,Go Home,FALSE,FALSE,FALSE,FALSE,FALSE,FALSE,FALSE,FALSE,FALSE,FALSE,FALSE,FALSE,6.974255765,79.91401578,4.8,140.4,328,TRUE,1,1,FALSE,FALSE,FALSE,FALSE,,TRUE,FALSE,FALSE,Course Lock,246,,16.4,Calm,25,,1.12.8,Mavic Mini,1SDCH7G0169R0K,1SFLH6Q0AB03DJ,1SRCH7F014TAHX,1U5X071EXP6C9Y,51,0,91.8,5.59235,8.94776,0,0,Mavic Mini,1SDCH7G0169R0K,1SFLH6Q0AB03DJ,1SRCH7F014TAHX,1U5X071EXP6C9Y,DJI Fly,,1.12.8,24C228E4-67B6-263C-7EBC-467C69ADD5E1,1SDCH7G0169R0K,,,,,,,,Data Recorder File Index is 25.; Set Return to Home (RTH) altitude to 75 m (246 ft).; Set maximum flight altitude to 100 m (328 ft).,
2/14/2024,17:18.2,5m 5.3s,305.3,6.97426044,79.91402843,0,0,0.3,50,0,0,0,0,0,0,0,0,0,3.9,-5.6,41.9,41.9,,Starting Motors,Other,Takeoff (RC Assisted),15,5,TRUE,,Mavic Mini,TRUE,FALSE,,Smart,RC,TRUE,TRUE,FALSE,,,TRUE,,FALSE,FALSE,FALSE,FALSE,FALSE,FALSE,FALSE,FALSE,FALSE,FALSE,0,Follow Yaw,-0.1,0,53.3,53.3,FALSE,FALSE,FALSE,FALSE,FALSE,FALSE,,TRUE,Normal,,100,1024,1024,1024,1024,2,FALSE,FALSE,FALSE,FALSE,FALSE,0,FALSE,FALSE,FALSE,FALSE,75,7.861,1607,2138,7.856,FALSE,3.933,3.928,0.005,FALSE,FALSE,NA,109,109,109,0,4,0,0,5,2598.1,649.54,,Idle,0,20,FALSE,5,TRUE,5,Go Home,FALSE,FALSE,FALSE,FALSE,FALSE,FALSE,FALSE,FALSE,FALSE,FALSE,FALSE,FALSE,6.974255765,79.91401578,4.8,140.4,328,TRUE,1,1,FALSE,FALSE,FALSE,FALSE,,TRUE,FALSE,FALSE,Course Lock,246,,16.4,Calm,25,,1.12.8,Mavic Mini,1SDCH7G0169R0K,1SFLH6Q0AB03DJ,1SRCH7F014TAHX,1U5X071EXP6C9Y,51,0,91.8,5.59235,8.94776,0,0,Mavic Mini,1SDCH7G0169R0K,1SFLH6Q0AB03DJ,1SRCH7F014TAHX,1U5X071EXP6C9Y,DJI Fly,,1.12.8,24C228E4-67B6-263C-7EBC-467C69ADD5E1,1SDCH7G0169R0K,,,,,,,,,
2/14/2024,17:18.3,5m 5.4s,305.4,6.974260467,79.91402854,0,0,0.3,50,0,0,0,0,0,0,0,0,0,3.9,-5.5,41.9,41.9,,Starting Motors,Other,Takeoff (RC Assisted),15,5,TRUE,,Mavic Mini,TRUE,FALSE,,Smart,RC,TRUE,TRUE,FALSE,,,TRUE,,FALSE,FALSE,FALSE,FALSE,FALSE,FALSE,FALSE,FALSE,FALSE,FALSE,0,Follow Yaw,-0.1,0,53.3,53.3,FALSE,FALSE,FALSE,FALSE,FALSE,FALSE,,TRUE,Normal,,100,1024,1024,1024,1024,2,FALSE,FALSE,FALSE,FALSE,FALSE,0,FALSE,FALSE,FALSE,FALSE,75,7.861,1607,2138,7.856,FALSE,3.933,3.928,0.005,FALSE,FALSE,NA,109,109,109,0,4,0,0,5,2598.1,649.54,,Idle,0,20,FALSE,5,TRUE,5,Go Home,FALSE,FALSE,FALSE,FALSE,FALSE,FALSE,FALSE,FALSE,FALSE,FALSE,FALSE,FALSE,6.974255765,79.91401578,4.9,140.4,328,TRUE,1,1,FALSE,FALSE,FALSE,FALSE,,TRUE,FALSE,FALSE,Course Lock,246,,16.4,Calm,25,,1.12.8,Mavic Mini,1SDCH7G0169R0K,1SFLH6Q0AB03DJ,1SRCH7F014TAHX,1U5X071EXP6C9Y,51,0,91.8,5.59235,8.94776,0,0,Mavic Mini,1SDCH7G0169R0K,1SFLH6Q0AB03DJ,1SRCH7F014TAHX,1U5X071EXP6C9Y,DJI Fly,,1.12.8,24C228E4-67B6-263C-7EBC-467C69ADD5E1,1SDCH7G0169R0K,,,,,,,,,
2/14/2024,17:18.4,5m 5.5s,305.5,6.974260486,79.91402858,0,0,0.3,50,0,0,0,0,0,0,0,0,0,3.9,-5.5,42,42,,Starting Motors,Other,Takeoff (RC Assisted),15,5,TRUE,,Mavic Mini,TRUE,FALSE,,Smart,RC,TRUE,TRUE,FALSE,,,TRUE,,FALSE,FALSE,FALSE,FALSE,FALSE,FALSE,FALSE,FALSE,FALSE,FALSE,0,Follow Yaw,-0.1,0,53.3,53.3,FALSE,FALSE,FALSE,FALSE,FALSE,FALSE,,TRUE,Normal,,100,1024,1024,1024,1024,2,FALSE,FALSE,FALSE,FALSE,FALSE,0,FALSE,FALSE,FALSE,FALSE,75,7.861,1607,2138,7.856,FALSE,3.933,3.928,0.005,FALSE,FALSE,NA,109,109,109,0,4,0,0,5,2598.1,649.54,,Idle,0,20,FALSE,5,TRUE,5,Go Home,FALSE,FALSE,FALSE,FALSE,FALSE,FALSE,FALSE,FALSE,FALSE,FALSE,FALSE,FALSE,6.974255765,79.91401578,4.9,140.4,328,TRUE,1,1,FALSE,FALSE,FALSE,FALSE,,TRUE,FALSE,FALSE,Course Lock,246,,16.4,Calm,25,,1.12.8,Mavic Mini,1SDCH7G0169R0K,1SFLH6Q0AB03DJ,1SRCH7F014TAHX,1U5X071EXP6C9Y,51,0,91.8,5.59235,8.94776,0,0,Mavic Mini,1SDCH7G0169R0K,1SFLH6Q0AB03DJ,1SRCH7F014TAHX,1U5X071EXP6C9Y,DJI Fly,,1.12.8,24C228E4-67B6-263C-7EBC-467C69ADD5E1,1SDCH7G0169R0K,,,,,,,,,
2/14/2024,17:18.4,5m 5.6s,305.6,6.974260531,79.9140286,0,0,0.3,50,0.1,0,0,0,0,0,0,0,0,3.9,-5.5,42.1,42.1,,Starting Motors,Other,Takeoff (RC Assisted),15,5,TRUE,,Mavic Mini,TRUE,FALSE,,Smart,RC,TRUE,TRUE,FALSE,,,TRUE,,FALSE,FALSE,FALSE,FALSE,FALSE,FALSE,FALSE,FALSE,FALSE,FALSE,0,Follow Yaw,-0.1,0,53.3,53.3,FALSE,FALSE,FALSE,FALSE,FALSE,FALSE,,TRUE,Normal,,100,1024,1024,1024,1024,2,FALSE,FALSE,FALSE,FALSE,FALSE,0,FALSE,FALSE,FALSE,FALSE,75,7.861,1607,2138,7.856,FALSE,3.933,3.928,0.005,FALSE,FALSE,NA,109,109,109,0,4,0,0,5,2598.1,649.54,,Idle,0,20,FALSE,5,TRUE,5,Go Home,FALSE,FALSE,FALSE,FALSE,FALSE,FALSE,FALSE,FALSE,FALSE,FALSE,FALSE,FALSE,6.974255765,79.91401578,4.9,140.4,328,TRUE,1,1,FALSE,FALSE,FALSE,FALSE,,TRUE,FALSE,FALSE,Course Lock,246,,16.4,Calm,25,,1.12.8,Mavic Mini,1SDCH7G0169R0K,1SFLH6Q0AB03DJ,1SRCH7F014TAHX,1U5X071EXP6C9Y,51,0,91.8,5.59235,8.94776,0,0,Mavic Mini,1SDCH7G0169R0K,1SFLH6Q0AB03DJ,1SRCH7F014TAHX,1U5X071EXP6C9Y,DJI Fly,,1.12.8,24C228E4-67B6-263C-7EBC-467C69ADD5E1,1SDCH7G0169R0K,,,,,,,,,
2/14/2024,17:18.5,5m 5.7s,305.7,6.974260564,79.91402861,0,0,0.3,50,0.1,0,0,0,0,0,0,0,0,3.9,-5.7,42,42,,Starting Motors,Other,Takeoff (RC Assisted),15,5,TRUE,,Mavic Mini,TRUE,FALSE,,Smart,RC,TRUE,TRUE,FALSE,,,TRUE,,FALSE,FALSE,FALSE,FALSE,FALSE,FALSE,FALSE,FALSE,FALSE,FALSE,0,Follow Yaw,-0.1,0,53.4,53.4,FALSE,FALSE,FALSE,FALSE,FALSE,FALSE,,TRUE,Normal,,100,1024,1024,1024,1024,2,FALSE,FALSE,FALSE,FALSE,FALSE,0,FALSE,FALSE,FALSE,FALSE,75,7.861,1607,2138,7.856,FALSE,3.933,3.928,0.005,FALSE,FALSE,NA,109,109,109,0,4,0,0,5,2598.1,649.54,,Idle,0,20,FALSE,5,TRUE,5,Go Home,FALSE,FALSE,FALSE,FALSE,FALSE,FALSE,FALSE,FALSE,FALSE,FALSE,FALSE,FALSE,6.974255765,79.91401578,4.9,140.4,328,TRUE,1,1,FALSE,FALSE,FALSE,FALSE,,TRUE,FALSE,FALSE,Course Lock,246,,16.4,Calm,25,,1.12.8,Mavic Mini,1SDCH7G0169R0K,1SFLH6Q0AB03DJ,1SRCH7F014TAHX,1U5X071EXP6C9Y,51,0,91.8,5.59235,8.94776,0,0,Mavic Mini,1SDCH7G0169R0K,1SFLH6Q0AB03DJ,1SRCH7F014TAHX,1U5X071EXP6C9Y,DJI Fly,,1.12.8,24C228E4-67B6-263C-7EBC-467C69ADD5E1,1SDCH7G0169R0K,,,,,,,,,
2/14/2024,17:18.6,5m 5.8s,305.8,6.974260586,79.91402858,0,0,0.3,50,0.1,0,0,0,0,0,0,0,0,3.9,-5.6,42.1,42.1,,Starting Motors,Other,Takeoff (RC Assisted),15,5,TRUE,,Mavic Mini,TRUE,FALSE,,Smart,RC,TRUE,TRUE,FALSE,,,TRUE,,FALSE,FALSE,FALSE,FALSE,FALSE,FALSE,FALSE,FALSE,FALSE,FALSE,0,Follow Yaw,-0.1,0,53.4,53.4,FALSE,FALSE,FALSE,FALSE,FALSE,FALSE,,TRUE,Normal,,100,1024,1024,1024,1024,2,FALSE,FALSE,FALSE,FALSE,FALSE,0,FALSE,FALSE,FALSE,FALSE,75,7.861,1607,2138,7.856,FALSE,3.933,3.928,0.005,FALSE,FALSE,NA,109,109,109,0,4,0,0,5,2598.1,649.54,,Idle,0,20,FALSE,5,TRUE,5,Go Home,FALSE,FALSE,FALSE,FALSE,FALSE,FALSE,FALSE,FALSE,FALSE,FALSE,FALSE,FALSE,6.974255765,79.91401578,4.9,140.4,328,TRUE,1,1,FALSE,FALSE,FALSE,FALSE,,TRUE,FALSE,FALSE,Course Lock,246,,16.4,Calm,25,,1.12.8,Mavic Mini,1SDCH7G0169R0K,1SFLH6Q0AB03DJ,1SRCH7F014TAHX,1U5X071EXP6C9Y,51,0,91.8,5.59235,8.94776,0,0,Mavic Mini,1SDCH7G0169R0K,1SFLH6Q0AB03DJ,1SRCH7F014TAHX,1U5X071EXP6C9Y,DJI Fly,,1.12.8,24C228E4-67B6-263C-7EBC-467C69ADD5E1,1SDCH7G0169R0K,,,,,,,,,
2/14/2024,17:18.8,5m 5.9s,305.9,6.974260605,79.91402858,0,0,0.3,50,0.1,0,0,0,0,0,0,0,0,3.8,-5.7,42.1,42.1,,Starting Motors,Other,Takeoff (RC Assisted),15,5,TRUE,,Mavic Mini,TRUE,FALSE,,Smart,RC,TRUE,TRUE,FALSE,,,TRUE,,FALSE,FALSE,FALSE,FALSE,FALSE,FALSE,FALSE,FALSE,FALSE,FALSE,0,Follow Yaw,-0.1,0,53.4,53.4,FALSE,FALSE,FALSE,FALSE,FALSE,FALSE,,TRUE,Normal,,100,1024,1024,1024,1024,2,FALSE,FALSE,FALSE,FALSE,FALSE,0,FALSE,FALSE,FALSE,FALSE,75,7.861,1607,2138,7.856,FALSE,3.933,3.928,0.005,FALSE,FALSE,NA,109,109,109,0,4,0,0,5,2598.1,649.54,,Idle,0,20,FALSE,5,TRUE,5,Go Home,FALSE,FALSE,FALSE,FALSE,FALSE,FALSE,FALSE,FALSE,FALSE,FALSE,FALSE,FALSE,6.974255765,79.91401578,4.9,140.4,328,TRUE,1,1,FALSE,FALSE,FALSE,FALSE,,TRUE,FALSE,FALSE,Course Lock,246,,16.4,Calm,25,,1.12.8,Mavic Mini,1SDCH7G0169R0K,1SFLH6Q0AB03DJ,1SRCH7F014TAHX,1U5X071EXP6C9Y,51,0,91.8,5.59235,8.94776,0,0,Mavic Mini,1SDCH7G0169R0K,1SFLH6Q0AB03DJ,1SRCH7F014TAHX,1U5X071EXP6C9Y,DJI Fly,,1.12.8,24C228E4-67B6-263C-7EBC-467C69ADD5E1,1SDCH7G0169R0K,,,,,,,,,
2/14/2024,17:18.9,5m 6.0s,306,6.974260652,79.91402858,0,0,0.3,50,0.1,0,0,0,0,0,0,0,0,3.9,-5.5,42,42,,Starting Motors,Other,Takeoff (RC Assisted),15,5,TRUE,,Mavic Mini,TRUE,FALSE,,Smart,RC,TRUE,TRUE,FALSE,,,TRUE,,FALSE,FALSE,FALSE,FALSE,FALSE,FALSE,FALSE,FALSE,FALSE,FALSE,0,Follow Yaw,-0.1,0,53.4,53.4,FALSE,FALSE,FALSE,FALSE,FALSE,FALSE,,TRUE,Normal,,100,1024,1024,1024,1024,2,FALSE,FALSE,FALSE,FALSE,FALSE,0,FALSE,FALSE,FALSE,FALSE,75,7.861,1607,2138,7.856,FALSE,3.933,3.928,0.005,FALSE,FALSE,NA,109,109,109,0,4,0,0,5,2598.1,649.54,,Idle,0,20,FALSE,5,TRUE,5,Go Home,FALSE,FALSE,FALSE,FALSE,FALSE,FALSE,FALSE,FALSE,FALSE,FALSE,FALSE,FALSE,6.974255765,79.91401578,4.9,140.4,328,TRUE,1,1,FALSE,FALSE,FALSE,FALSE,,TRUE,FALSE,FALSE,Course Lock,246,,16.4,Calm,25,,1.12.8,Mavic Mini,1SDCH7G0169R0K,1SFLH6Q0AB03DJ,1SRCH7F014TAHX,1U5X071EXP6C9Y,51,0,91.8,5.59235,8.94776,0,0,Mavic Mini,1SDCH7G0169R0K,1SFLH6Q0AB03DJ,1SRCH7F014TAHX,1U5X071EXP6C9Y,DJI Fly,,1.12.8,24C228E4-67B6-263C-7EBC-467C69ADD5E1,1SDCH7G0169R0K,,,,,,,,,
2/14/2024,17:19.0,5m 6.1s,306.1,6.974260685,79.91402859,0,0,0.3,50,0.1,0,0,0,0,0,0,0,0,3.9,-5.5,42.1,42.1,,Manual Takeoff,Other,Takeoff (RC Assisted),15,5,TRUE,,Mavic Mini,TRUE,FALSE,,Smart,RC,TRUE,TRUE,FALSE,,,TRUE,,FALSE,FALSE,FALSE,FALSE,FALSE,FALSE,FALSE,FALSE,FALSE,FALSE,0,Follow Yaw,-0.1,0,53.5,53.5,FALSE,FALSE,FALSE,FALSE,FALSE,FALSE,,TRUE,Normal,,100,1024,1024,1024,1024,2,FALSE,FALSE,FALSE,FALSE,FALSE,0,FALSE,FALSE,FALSE,FALSE,75,7.861,1607,2138,7.856,FALSE,3.933,3.928,0.005,FALSE,FALSE,NA,109,109,109,0,4,0,0,5,2598.1,649.54,,Idle,0,20,FALSE,5,TRUE,5,Go Home,FALSE,FALSE,FALSE,FALSE,FALSE,FALSE,FALSE,FALSE,FALSE,FALSE,FALSE,FALSE,6.974255765,79.91401578,4.9,140.4,328,TRUE,1,1,FALSE,FALSE,FALSE,FALSE,,TRUE,FALSE,FALSE,Course Lock,246,,16.4,Calm,25,,1.12.8,Mavic Mini,1SDCH7G0169R0K,1SFLH6Q0AB03DJ,1SRCH7F014TAHX,1U5X071EXP6C9Y,51,0,91.8,5.59235,8.94776,0,0,Mavic Mini,1SDCH7G0169R0K,1SFLH6Q0AB03DJ,1SRCH7F014TAHX,1U5X071EXP6C9Y,DJI Fly,,1.12.8,24C228E4-67B6-263C-7EBC-467C69ADD5E1,1SDCH7G0169R0K,,,,,,,,Flight mode changed to Manual Takeoff.,
2/14/2024,17:19.1,5m 6.2s,306.2,6.974260688,79.91402867,0,0,0.3,50,0.1,0,0,0,0,0,0,0,0,3.9,-5.5,42.1,42.1,,Manual Takeoff,Other,Takeoff (RC Assisted),15,5,TRUE,,Mavic Mini,TRUE,FALSE,,Smart,RC,TRUE,TRUE,FALSE,,,TRUE,,FALSE,FALSE,FALSE,FALSE,FALSE,FALSE,FALSE,FALSE,FALSE,FALSE,0,Follow Yaw,-0.1,0,53.5,53.5,FALSE,FALSE,FALSE,FALSE,FALSE,FALSE,,TRUE,Normal,,100,1024,1024,1024,1024,2,FALSE,FALSE,FALSE,FALSE,FALSE,0,FALSE,FALSE,FALSE,FALSE,75,7.85,1607,2138,7.87,FALSE,3.929,3.921,0.008,FALSE,FALSE,NA,109,109,109,0,4,0,0,5,2598.1,649.54,,Idle,0,20,FALSE,5,TRUE,5,Go Home,FALSE,FALSE,FALSE,FALSE,FALSE,FALSE,FALSE,FALSE,FALSE,FALSE,FALSE,FALSE,6.974255765,79.91401578,4.9,140.4,328,TRUE,1,1,FALSE,FALSE,FALSE,FALSE,,TRUE,FALSE,FALSE,Course Lock,246,,16.4,Calm,25,,1.12.8,Mavic Mini,1SDCH7G0169R0K,1SFLH6Q0AB03DJ,1SRCH7F014TAHX,1U5X071EXP6C9Y,51,0,91.8,5.59235,8.94776,0,0,Mavic Mini,1SDCH7G0169R0K,1SFLH6Q0AB03DJ,1SRCH7F014TAHX,1U5X071EXP6C9Y,DJI Fly,,1.12.8,24C228E4-67B6-263C-7EBC-467C69ADD5E1,1SDCH7G0169R0K,,,,,,,,,
2/14/2024,17:19.2,5m 6.3s,306.3,6.974260688,79.91402871,0,0,0.3,50,0.2,0,0,0,0,0,0,0,0,3.9,-5.5,42.1,42.1,,Manual Takeoff,Other,Takeoff (RC Assisted),15,5,TRUE,,Mavic Mini,TRUE,FALSE,,Smart,RC,TRUE,TRUE,FALSE,,,TRUE,,FALSE,FALSE,FALSE,FALSE,FALSE,FALSE,FALSE,FALSE,FALSE,FALSE,0,Follow Yaw,-0.1,0,53.5,53.5,FALSE,FALSE,FALSE,FALSE,FALSE,FALSE,,TRUE,Normal,,100,1024,1024,1024,1024,2,FALSE,FALSE,FALSE,FALSE,FALSE,0,FALSE,FALSE,FALSE,FALSE,75,7.85,1607,2138,7.87,FALSE,3.929,3.921,0.008,FALSE,FALSE,NA,109,109,109,0,4,0,0,5,2598.1,649.54,,Idle,0,20,FALSE,5,TRUE,5,Go Home,FALSE,FALSE,FALSE,FALSE,FALSE,FALSE,FALSE,FALSE,FALSE,FALSE,FALSE,FALSE,6.974255765,79.91401578,5,140.4,328,TRUE,1,1,FALSE,FALSE,FALSE,FALSE,,TRUE,FALSE,FALSE,Course Lock,246,,16.4,Calm,25,,1.12.8,Mavic Mini,1SDCH7G0169R0K,1SFLH6Q0AB03DJ,1SRCH7F014TAHX,1U5X071EXP6C9Y,51,0,91.8,5.59235,8.94776,0,0,Mavic Mini,1SDCH7G0169R0K,1SFLH6Q0AB03DJ,1SRCH7F014TAHX,1U5X071EXP6C9Y,DJI Fly,,1.12.8,24C228E4-67B6-263C-7EBC-467C69ADD5E1,1SDCH7G0169R0K,,,,,,,,,
2/14/2024,17:19.2,5m 6.4s,306.4,6.974260678,79.91402873,0,0,0.3,50,0.2,0,0,0,0,0,0,0,0,3.9,-5.5,42.1,42.1,,Manual Takeoff,Other,Takeoff (RC Assisted),15,5,TRUE,,Mavic Mini,TRUE,FALSE,,Smart,RC,TRUE,TRUE,FALSE,,,TRUE,,FALSE,FALSE,FALSE,FALSE,FALSE,FALSE,FALSE,FALSE,FALSE,FALSE,0,Follow Yaw,-0.1,0,53.5,53.5,FALSE,FALSE,FALSE,FALSE,FALSE,FALSE,,TRUE,Normal,,100,1024,1024,1024,1024,2,FALSE,FALSE,FALSE,FALSE,FALSE,0,FALSE,FALSE,FALSE,FALSE,75,7.85,1607,2138,7.87,FALSE,3.929,3.921,0.008,FALSE,FALSE,NA,109,109,109,0,4,0,0,5,2598.1,649.54,,Idle,0,20,FALSE,5,TRUE,5,Go Home,FALSE,FALSE,FALSE,FALSE,FALSE,FALSE,FALSE,FALSE,FALSE,FALSE,FALSE,FALSE,6.974255765,79.91401578,5,140.4,328,TRUE,1,1,FALSE,FALSE,FALSE,FALSE,,TRUE,FALSE,FALSE,Course Lock,246,,16.4,Calm,25,,1.12.8,Mavic Mini,1SDCH7G0169R0K,1SFLH6Q0AB03DJ,1SRCH7F014TAHX,1U5X071EXP6C9Y,51,0,91.8,5.59235,8.94776,0,0,Mavic Mini,1SDCH7G0169R0K,1SFLH6Q0AB03DJ,1SRCH7F014TAHX,1U5X071EXP6C9Y,DJI Fly,,1.12.8,24C228E4-67B6-263C-7EBC-467C69ADD5E1,1SDCH7G0169R0K,,,,,,,,,
2/14/2024,17:19.3,5m 6.5s,306.5,6.974260682,79.91402874,0,0,0.3,50,0.2,0,0,0,0,0,0,0,0,3.9,-5.5,42.1,42.1,,Manual Takeoff,Other,Takeoff (RC Assisted),15,5,TRUE,,Mavic Mini,TRUE,FALSE,,Smart,RC,TRUE,TRUE,FALSE,,,TRUE,,FALSE,FALSE,FALSE,FALSE,FALSE,FALSE,FALSE,FALSE,FALSE,FALSE,0,Follow Yaw,-0.1,0,53.5,53.5,FALSE,FALSE,FALSE,FALSE,FALSE,FALSE,,TRUE,Normal,,100,1024,1024,1024,1024,2,FALSE,FALSE,FALSE,FALSE,FALSE,0,FALSE,FALSE,FALSE,FALSE,75,7.85,1607,2138,7.87,FALSE,3.929,3.921,0.008,FALSE,FALSE,NA,109,109,109,0,4,0,0,5,2598.1,649.54,,Idle,0,20,FALSE,5,TRUE,5,Go Home,FALSE,FALSE,FALSE,FALSE,FALSE,FALSE,FALSE,FALSE,FALSE,FALSE,FALSE,FALSE,6.974255765,79.91401578,5,140.4,328,TRUE,1,1,FALSE,FALSE,FALSE,FALSE,,TRUE,FALSE,FALSE,Course Lock,246,,16.4,Calm,25,,1.12.8,Mavic Mini,1SDCH7G0169R0K,1SFLH6Q0AB03DJ,1SRCH7F014TAHX,1U5X071EXP6C9Y,51,0,91.8,5.59235,8.94776,0,0,Mavic Mini,1SDCH7G0169R0K,1SFLH6Q0AB03DJ,1SRCH7F014TAHX,1U5X071EXP6C9Y,DJI Fly,,1.12.8,24C228E4-67B6-263C-7EBC-467C69ADD5E1,1SDCH7G0169R0K,,,,,,,,,
2/14/2024,17:19.4,5m 6.6s,306.6,6.974260722,79.91402869,0,0,0.3,50,0.2,0,0,0,0,0,0,0,0,3.9,-5.5,42.1,42.1,,Manual Takeoff,Other,Takeoff (RC Assisted),15,5,TRUE,,Mavic Mini,TRUE,FALSE,,Smart,RC,TRUE,TRUE,FALSE,,,TRUE,,FALSE,FALSE,FALSE,FALSE,FALSE,FALSE,FALSE,FALSE,FALSE,FALSE,0,Follow Yaw,-0.1,0,53.5,53.5,FALSE,FALSE,FALSE,FALSE,FALSE,FALSE,,TRUE,Normal,,100,1024,1024,1024,1024,2,FALSE,FALSE,FALSE,FALSE,FALSE,0,FALSE,FALSE,FALSE,FALSE,75,7.85,1607,2138,7.87,FALSE,3.929,3.921,0.008,FALSE,FALSE,NA,109,109,109,0,4,0,0,5,2598.1,649.54,,Idle,0,20,FALSE,5,TRUE,5,Go Home,FALSE,FALSE,FALSE,FALSE,FALSE,FALSE,FALSE,FALSE,FALSE,FALSE,FALSE,FALSE,6.974255765,79.91401578,5,140.4,328,TRUE,1,1,FALSE,FALSE,FALSE,FALSE,,TRUE,FALSE,FALSE,Course Lock,246,,16.4,Calm,25,,1.12.8,Mavic Mini,1SDCH7G0169R0K,1SFLH6Q0AB03DJ,1SRCH7F014TAHX,1U5X071EXP6C9Y,51,0,91.8,5.59235,8.94776,0,0,Mavic Mini,1SDCH7G0169R0K,1SFLH6Q0AB03DJ,1SRCH7F014TAHX,1U5X071EXP6C9Y,DJI Fly,,1.12.8,24C228E4-67B6-263C-7EBC-467C69ADD5E1,1SDCH7G0169R0K,,,,,,,,,
2/14/2024,17:19.6,5m 6.7s,306.7,6.97426075,79.91402871,0,0,0.3,50,0.2,0,0,0,0,0,0,0,0,3.9,-5.5,42.2,42.2,,Manual Takeoff,Other,Takeoff (RC Assisted),15,5,TRUE,,Mavic Mini,TRUE,FALSE,,Smart,RC,TRUE,TRUE,FALSE,,,TRUE,,FALSE,FALSE,FALSE,FALSE,FALSE,FALSE,FALSE,FALSE,FALSE,FALSE,0,Follow Yaw,-0.1,0,53.5,53.5,FALSE,FALSE,FALSE,FALSE,FALSE,FALSE,,TRUE,Normal,,100,1024,1024,1024,1024,2,FALSE,FALSE,FALSE,FALSE,FALSE,0,FALSE,FALSE,FALSE,FALSE,75,7.85,1607,2138,7.87,FALSE,3.929,3.921,0.008,FALSE,FALSE,NA,109,109,109,0,4,0,0,5,2598.1,649.54,,Idle,0,20,FALSE,5,TRUE,5,Go Home,FALSE,FALSE,FALSE,FALSE,FALSE,FALSE,FALSE,FALSE,FALSE,FALSE,FALSE,FALSE,6.974255765,79.91401578,5,140.4,328,TRUE,1,1,FALSE,FALSE,FALSE,FALSE,,TRUE,FALSE,FALSE,Course Lock,246,,16.4,Calm,25,,1.12.8,Mavic Mini,1SDCH7G0169R0K,1SFLH6Q0AB03DJ,1SRCH7F014TAHX,1U5X071EXP6C9Y,51,0,91.8,5.59235,8.94776,0,0,Mavic Mini,1SDCH7G0169R0K,1SFLH6Q0AB03DJ,1SRCH7F014TAHX,1U5X071EXP6C9Y,DJI Fly,,1.12.8,24C228E4-67B6-263C-7EBC-467C69ADD5E1,1SDCH7G0169R0K,,,,,,,,,
2/14/2024,17:19.6,5m 6.8s,306.8,6.974260756,79.91402876,0,0,0.3,50,0.2,0,0,0,0,0,0,0,0,3.9,-5.5,42.1,42.1,,Manual Takeoff,Other,Takeoff (RC Assisted),15,5,TRUE,,Mavic Mini,TRUE,FALSE,,Smart,RC,TRUE,TRUE,FALSE,,,TRUE,,FALSE,FALSE,FALSE,FALSE,FALSE,FALSE,FALSE,FALSE,FALSE,FALSE,0,Follow Yaw,-0.1,0,53.5,53.5,FALSE,FALSE,FALSE,FALSE,FALSE,FALSE,,TRUE,Normal,,100,1024,1024,1024,1024,2,FALSE,FALSE,FALSE,FALSE,FALSE,0,FALSE,FALSE,FALSE,FALSE,75,7.85,1607,2138,7.87,FALSE,3.929,3.921,0.008,FALSE,FALSE,NA,109,109,109,0,4,0,0,5,2598.1,649.54,,Idle,0,20,FALSE,5,TRUE,5,Go Home,FALSE,FALSE,FALSE,FALSE,FALSE,FALSE,FALSE,FALSE,FALSE,FALSE,FALSE,FALSE,6.974255765,79.91401578,5,140.4,328,TRUE,1,1,FALSE,FALSE,FALSE,FALSE,,TRUE,FALSE,FALSE,Course Lock,246,,16.4,Calm,25,,1.12.8,Mavic Mini,1SDCH7G0169R0K,1SFLH6Q0AB03DJ,1SRCH7F014TAHX,1U5X071EXP6C9Y,51,0,91.8,5.59235,8.94776,0,0,Mavic Mini,1SDCH7G0169R0K,1SFLH6Q0AB03DJ,1SRCH7F014TAHX,1U5X071EXP6C9Y,DJI Fly,,1.12.8,24C228E4-67B6-263C-7EBC-467C69ADD5E1,1SDCH7G0169R0K,,,,,,,,,
2/14/2024,17:19.7,5m 6.9s,306.9,6.974260774,79.9140288,0,0,0.3,50,0.2,0,0,0,0,0,0,0,0,3.9,-5.5,42.1,42.1,,Manual Takeoff,Other,Takeoff (RC Assisted),15,5,TRUE,,Mavic Mini,TRUE,FALSE,,Smart,RC,TRUE,TRUE,FALSE,,,TRUE,,FALSE,FALSE,FALSE,FALSE,FALSE,FALSE,FALSE,FALSE,FALSE,FALSE,0,Follow Yaw,-0.1,0,53.5,53.5,FALSE,FALSE,FALSE,FALSE,FALSE,FALSE,,TRUE,Normal,,100,1024,1024,1024,1024,2,FALSE,FALSE,FALSE,FALSE,FALSE,0,FALSE,FALSE,FALSE,FALSE,75,7.85,1607,2138,7.87,FALSE,3.929,3.921,0.008,FALSE,FALSE,NA,109,109,109,0,4,0,0,5,2598.1,649.54,,Idle,0,20,FALSE,5,TRUE,5,Go Home,FALSE,FALSE,FALSE,FALSE,FALSE,FALSE,FALSE,FALSE,FALSE,FALSE,FALSE,FALSE,6.974255765,79.91401578,5,140.4,328,TRUE,1,1,FALSE,FALSE,FALSE,FALSE,,TRUE,FALSE,FALSE,Course Lock,246,,16.4,Calm,25,,1.12.8,Mavic Mini,1SDCH7G0169R0K,1SFLH6Q0AB03DJ,1SRCH7F014TAHX,1U5X071EXP6C9Y,51,0,91.8,5.59235,8.94776,0,0,Mavic Mini,1SDCH7G0169R0K,1SFLH6Q0AB03DJ,1SRCH7F014TAHX,1U5X071EXP6C9Y,DJI Fly,,1.12.8,24C228E4-67B6-263C-7EBC-467C69ADD5E1,1SDCH7G0169R0K,,,,,,,,,
2/14/2024,17:19.8,5m 7.0s,307,6.974260819,79.91402882,0,0,0.3,50,0.3,0,0,0,0,0,0,0,0,3.9,-5.5,42.1,42.1,,Manual Takeoff,Other,Takeoff (RC Assisted),15,5,TRUE,,Mavic Mini,TRUE,FALSE,,Smart,RC,TRUE,TRUE,FALSE,,,TRUE,,FALSE,FALSE,FALSE,FALSE,FALSE,FALSE,FALSE,FALSE,FALSE,FALSE,0,Follow Yaw,-0.1,0,53.5,53.5,FALSE,FALSE,FALSE,FALSE,FALSE,FALSE,,TRUE,Normal,,100,1024,1024,1024,1024,2,FALSE,FALSE,FALSE,FALSE,FALSE,0,FALSE,FALSE,FALSE,FALSE,75,7.85,1607,2138,7.87,FALSE,3.929,3.921,0.008,FALSE,FALSE,NA,109,109,109,0,4,0,0,5,2598.1,649.54,,Idle,0,20,FALSE,5,TRUE,5,Go Home,FALSE,FALSE,FALSE,FALSE,FALSE,FALSE,FALSE,FALSE,FALSE,FALSE,FALSE,FALSE,6.974255765,79.91401578,5,140.4,328,TRUE,1,1,FALSE,FALSE,FALSE,FALSE,,TRUE,FALSE,FALSE,Course Lock,246,,16.4,Calm,25,,1.12.8,Mavic Mini,1SDCH7G0169R0K,1SFLH6Q0AB03DJ,1SRCH7F014TAHX,1U5X071EXP6C9Y,51,0,91.8,5.59235,8.94776,0,0,Mavic Mini,1SDCH7G0169R0K,1SFLH6Q0AB03DJ,1SRCH7F014TAHX,1U5X071EXP6C9Y,DJI Fly,,1.12.8,24C228E4-67B6-263C-7EBC-467C69ADD5E1,1SDCH7G0169R0K,,,,,,,,,
2/14/2024,17:20.0,5m 7.1s,307.1,6.97426088,79.91402883,0,0,0.3,50,0.3,0,0,0,0,0,0,0,0,3.9,-5.5,42.1,42.1,,Manual Takeoff,Other,Takeoff (RC Assisted),15,5,TRUE,,Mavic Mini,TRUE,FALSE,,Smart,RC,TRUE,TRUE,FALSE,,,TRUE,,FALSE,FALSE,FALSE,FALSE,FALSE,FALSE,FALSE,FALSE,FALSE,FALSE,0,Follow Yaw,-0.1,0,53.5,53.5,FALSE,FALSE,FALSE,FALSE,FALSE,FALSE,,TRUE,Normal,,100,1024,1024,1024,1024,2,FALSE,FALSE,FALSE,FALSE,FALSE,0,FALSE,FALSE,FALSE,FALSE,75,7.85,1607,2138,7.87,FALSE,3.929,3.921,0.008,FALSE,FALSE,NA,109,109,109,0,4,0,0,5,2598.1,649.54,,Idle,0,20,FALSE,5,TRUE,5,Go Home,FALSE,FALSE,FALSE,FALSE,FALSE,FALSE,FALSE,FALSE,FALSE,FALSE,FALSE,FALSE,6.974255765,79.91401578,5,140.4,328,TRUE,1,1,FALSE,FALSE,FALSE,FALSE,,TRUE,FALSE,FALSE,Course Lock,246,,16.4,Calm,25,,1.12.8,Mavic Mini,1SDCH7G0169R0K,1SFLH6Q0AB03DJ,1SRCH7F014TAHX,1U5X071EXP6C9Y,51,0,91.8,5.59235,8.94776,0,0,Mavic Mini,1SDCH7G0169R0K,1SFLH6Q0AB03DJ,1SRCH7F014TAHX,1U5X071EXP6C9Y,DJI Fly,,1.12.8,24C228E4-67B6-263C-7EBC-467C69ADD5E1,1SDCH7G0169R0K,,,,,6.974220579,79.91399095,5,,
2/14/2024,17:20.2,5m 7.2s,307.2,6.974260887,79.91402883,0,0,0.3,50,0.3,0,0,0,0,0,0,0,0,3.9,-5.5,42.2,42.2,,Manual Takeoff,Other,Takeoff (RC Assisted),15,5,TRUE,,Mavic Mini,TRUE,FALSE,,Smart,RC,TRUE,TRUE,FALSE,,,TRUE,,FALSE,FALSE,FALSE,FALSE,FALSE,FALSE,FALSE,FALSE,FALSE,FALSE,0,Follow Yaw,-0.1,0,53.5,53.5,FALSE,FALSE,FALSE,FALSE,FALSE,FALSE,,TRUE,Normal,,100,1024,1024,1024,1024,2,FALSE,FALSE,FALSE,FALSE,FALSE,0,FALSE,FALSE,FALSE,FALSE,75,7.85,1607,2138,7.853,FALSE,3.929,3.921,0.008,FALSE,FALSE,NA,109,109,109,0,4,0,0,5,2650.1,662.52,,Idle,0,20,FALSE,5,TRUE,5,Go Home,FALSE,FALSE,FALSE,FALSE,FALSE,FALSE,FALSE,FALSE,FALSE,FALSE,FALSE,FALSE,6.974255765,79.91401578,5,140.4,328,TRUE,1,1,FALSE,FALSE,FALSE,FALSE,,TRUE,FALSE,FALSE,Course Lock,246,,16.4,Calm,25,,1.12.8,Mavic Mini,1SDCH7G0169R0K,1SFLH6Q0AB03DJ,1SRCH7F014TAHX,1U5X071EXP6C9Y,51,0,91.8,5.59235,8.94776,0,0,Mavic Mini,1SDCH7G0169R0K,1SFLH6Q0AB03DJ,1SRCH7F014TAHX,1U5X071EXP6C9Y,DJI Fly,,1.12.8,24C228E4-67B6-263C-7EBC-467C69ADD5E1,1SDCH7G0169R0K,,,,,6.974220579,79.91399095,5,,
2/14/2024,17:20.2,5m 7.3s,307.3,6.974260903,79.91402883,0,0,0.3,50,0.3,0,0,0,0,0,0,0,0,3.9,-5.5,42.1,42.1,,Manual Takeoff,Other,Takeoff (RC Assisted),15,5,TRUE,,Mavic Mini,TRUE,FALSE,,Smart,RC,TRUE,TRUE,FALSE,,,TRUE,,FALSE,FALSE,FALSE,FALSE,FALSE,FALSE,FALSE,FALSE,FALSE,FALSE,0,Follow Yaw,-0.1,0,53.5,53.5,FALSE,FALSE,FALSE,FALSE,FALSE,FALSE,,TRUE,Normal,,100,1024,1024,1024,1024,2,FALSE,FALSE,FALSE,FALSE,FALSE,0,FALSE,FALSE,FALSE,FALSE,75,7.85,1607,2138,7.853,FALSE,3.929,3.921,0.008,FALSE,FALSE,NA,109,109,109,0,4,0,0,5,2650.1,662.52,,Idle,0,20,FALSE,5,TRUE,5,Go Home,FALSE,FALSE,FALSE,FALSE,FALSE,FALSE,FALSE,FALSE,FALSE,FALSE,FALSE,FALSE,6.974255765,79.91401578,5,140.4,328,TRUE,1,1,FALSE,FALSE,FALSE,FALSE,,TRUE,FALSE,FALSE,Course Lock,246,,16.4,Calm,25,,1.12.8,Mavic Mini,1SDCH7G0169R0K,1SFLH6Q0AB03DJ,1SRCH7F014TAHX,1U5X071EXP6C9Y,51,0,91.8,5.59235,8.94776,0,0,Mavic Mini,1SDCH7G0169R0K,1SFLH6Q0AB03DJ,1SRCH7F014TAHX,1U5X071EXP6C9Y,DJI Fly,,1.12.8,24C228E4-67B6-263C-7EBC-467C69ADD5E1,1SDCH7G0169R0K,,,,,6.974220579,79.91399095,5,,
2/14/2024,17:20.3,5m 7.4s,307.4,6.974260946,79.91402883,0,0,0.3,50,0.3,0,0,0,0,0,0,0,0,3.9,-5.5,42.2,42.2,,Manual Takeoff,Other,Takeoff (RC Assisted),15,5,TRUE,,Mavic Mini,TRUE,FALSE,,Smart,RC,TRUE,TRUE,FALSE,,,TRUE,,FALSE,FALSE,FALSE,FALSE,FALSE,FALSE,FALSE,FALSE,FALSE,FALSE,0,Follow Yaw,-0.1,0,53.5,53.5,FALSE,FALSE,FALSE,FALSE,FALSE,FALSE,,TRUE,Normal,,100,1024,1024,1024,1024,2,FALSE,FALSE,FALSE,FALSE,FALSE,0,FALSE,FALSE,FALSE,FALSE,75,7.849,1606,2138,7.853,FALSE,3.928,3.921,0.008,FALSE,FALSE,NA,109,109,109,0,4,0,0,5,2650.1,662.52,,Idle,0,20,FALSE,5,TRUE,5,Go Home,FALSE,FALSE,FALSE,FALSE,FALSE,FALSE,FALSE,FALSE,FALSE,FALSE,FALSE,FALSE,6.974255765,79.91401578,5,140.4,328,TRUE,1,1,FALSE,FALSE,FALSE,FALSE,,TRUE,FALSE,FALSE,Course Lock,246,,16.4,Calm,25,,1.12.8,Mavic Mini,1SDCH7G0169R0K,1SFLH6Q0AB03DJ,1SRCH7F014TAHX,1U5X071EXP6C9Y,51,0,91.8,5.59235,8.94776,0,0,Mavic Mini,1SDCH7G0169R0K,1SFLH6Q0AB03DJ,1SRCH7F014TAHX,1U5X071EXP6C9Y,DJI Fly,,1.12.8,24C228E4-67B6-263C-7EBC-467C69ADD5E1,1SDCH7G0169R0K,,,,,6.974220579,79.91399095,5,,
2/14/2024,17:20.4,5m 7.5s,307.5,6.974260998,79.91402874,0,0,0.3,50,0.3,0,0,0,0,0,0,0,0,3.9,-5.5,42.2,42.2,,Manual Takeoff,Other,Takeoff (RC Assisted),15,5,TRUE,,Mavic Mini,TRUE,FALSE,,Smart,RC,TRUE,TRUE,FALSE,,,TRUE,,FALSE,FALSE,FALSE,FALSE,FALSE,FALSE,FALSE,FALSE,FALSE,FALSE,0,Follow Yaw,-0.1,0,53.5,53.5,FALSE,FALSE,FALSE,FALSE,FALSE,FALSE,,TRUE,Normal,,100,1024,1024,1024,1024,2,FALSE,FALSE,FALSE,FALSE,FALSE,0,FALSE,FALSE,FALSE,FALSE,75,7.849,1606,2138,7.853,FALSE,3.928,3.921,0.008,FALSE,FALSE,NA,109,109,109,0,4,0,0,5,2650.1,662.52,,Idle,0,20,FALSE,5,TRUE,5,Go Home,FALSE,FALSE,FALSE,FALSE,FALSE,FALSE,FALSE,FALSE,FALSE,FALSE,FALSE,FALSE,6.974255765,79.91401578,5,140.4,328,TRUE,1,1,FALSE,FALSE,FALSE,FALSE,,TRUE,FALSE,FALSE,Course Lock,246,,16.4,Calm,25,,1.12.8,Mavic Mini,1SDCH7G0169R0K,1SFLH6Q0AB03DJ,1SRCH7F014TAHX,1U5X071EXP6C9Y,51,0,91.8,5.59235,8.94776,0,0,Mavic Mini,1SDCH7G0169R0K,1SFLH6Q0AB03DJ,1SRCH7F014TAHX,1U5X071EXP6C9Y,DJI Fly,,1.12.8,24C228E4-67B6-263C-7EBC-467C69ADD5E1,1SDCH7G0169R0K,,,,,6.974220579,79.91399095,5,,
2/14/2024,17:20.5,5m 7.6s,307.6,6.974261003,79.91402874,0,0,0.3,50,0.3,0,0,0,0,0,0,0,0,3.9,-5.5,42.1,42.1,,Manual Takeoff,Other,Takeoff (RC Assisted),15,5,TRUE,,Mavic Mini,TRUE,FALSE,,Smart,RC,TRUE,TRUE,FALSE,,,TRUE,,FALSE,FALSE,FALSE,FALSE,FALSE,FALSE,FALSE,FALSE,FALSE,FALSE,0,Follow Yaw,-0.1,0,53.5,53.5,FALSE,FALSE,FALSE,FALSE,FALSE,FALSE,,TRUE,Normal,,100,1024,1024,1024,1024,2,FALSE,FALSE,FALSE,FALSE,FALSE,0,FALSE,FALSE,FALSE,FALSE,75,7.849,1606,2138,7.853,FALSE,3.928,3.921,0.008,FALSE,FALSE,NA,109,109,109,0,4,0,0,5,2650.1,662.52,,Idle,0,20,FALSE,5,TRUE,5,Go Home,FALSE,FALSE,FALSE,FALSE,FALSE,FALSE,FALSE,FALSE,FALSE,FALSE,FALSE,FALSE,6.974255765,79.91401578,5,140.4,328,TRUE,1,1,FALSE,FALSE,FALSE,FALSE,,TRUE,FALSE,FALSE,Course Lock,246,,16.4,Calm,25,,1.12.8,Mavic Mini,1SDCH7G0169R0K,1SFLH6Q0AB03DJ,1SRCH7F014TAHX,1U5X071EXP6C9Y,51,0,91.8,5.59235,8.94776,0,0,Mavic Mini,1SDCH7G0169R0K,1SFLH6Q0AB03DJ,1SRCH7F014TAHX,1U5X071EXP6C9Y,DJI Fly,,1.12.8,24C228E4-67B6-263C-7EBC-467C69ADD5E1,1SDCH7G0169R0K,,,,,6.974220579,79.91399095,5,,
2/14/2024,17:20.6,5m 7.7s,307.7,6.974261019,79.91402874,0,0,0.3,50,0.4,0,0,0,0,0,0,0,0,3.9,-5.5,42.1,42.1,,Manual Takeoff,Other,Takeoff (RC Assisted),15,5,TRUE,,Mavic Mini,TRUE,FALSE,,Smart,RC,TRUE,TRUE,FALSE,,,TRUE,,FALSE,FALSE,FALSE,FALSE,FALSE,FALSE,FALSE,FALSE,FALSE,FALSE,0,Follow Yaw,-0.1,0,53.5,53.5,FALSE,FALSE,FALSE,FALSE,FALSE,FALSE,,TRUE,Normal,,100,1024,1024,1024,1024,2,FALSE,FALSE,FALSE,FALSE,FALSE,0,FALSE,FALSE,FALSE,FALSE,75,7.849,1606,2138,7.853,FALSE,3.928,3.921,0.008,FALSE,FALSE,NA,109,109,109,0,4,0,0,5,2650.1,662.52,,Idle,0,20,FALSE,5,TRUE,5,Go Home,FALSE,FALSE,FALSE,FALSE,FALSE,FALSE,FALSE,FALSE,FALSE,FALSE,FALSE,FALSE,6.974255765,79.91401578,5,140.4,328,TRUE,1,1,FALSE,FALSE,FALSE,FALSE,,TRUE,FALSE,FALSE,Course Lock,246,,16.4,Calm,25,,1.12.8,Mavic Mini,1SDCH7G0169R0K,1SFLH6Q0AB03DJ,1SRCH7F014TAHX,1U5X071EXP6C9Y,51,0,91.8,5.59235,8.94776,0,0,Mavic Mini,1SDCH7G0169R0K,1SFLH6Q0AB03DJ,1SRCH7F014TAHX,1U5X071EXP6C9Y,DJI Fly,,1.12.8,24C228E4-67B6-263C-7EBC-467C69ADD5E1,1SDCH7G0169R0K,,,,,6.974220579,79.91399095,5,,
2/14/2024,17:20.6,5m 7.8s,307.8,6.974261062,79.91402874,0,0,0.3,50,0.4,0,0,0,0,0,0,0,0,3.9,-5.5,42.2,42.2,,Manual Takeoff,Other,Takeoff (RC Assisted),15,5,TRUE,,Mavic Mini,TRUE,FALSE,,Smart,RC,TRUE,TRUE,FALSE,,,TRUE,,FALSE,FALSE,FALSE,FALSE,FALSE,FALSE,FALSE,FALSE,FALSE,FALSE,0,Follow Yaw,-0.1,0,53.5,53.5,FALSE,FALSE,FALSE,FALSE,FALSE,FALSE,,TRUE,Normal,,100,1024,1024,1024,1024,1,FALSE,FALSE,FALSE,FALSE,FALSE,0,FALSE,FALSE,FALSE,FALSE,75,7.849,1606,2138,7.853,FALSE,3.928,3.921,0.008,FALSE,FALSE,NA,109,109,109,0,4,0,0,5,2650.1,662.52,,Idle,0,20,FALSE,5,TRUE,5,Go Home,FALSE,FALSE,FALSE,FALSE,FALSE,FALSE,FALSE,FALSE,FALSE,FALSE,FALSE,FALSE,6.974255765,79.91401578,5,140.4,328,TRUE,1,1,FALSE,FALSE,FALSE,FALSE,,TRUE,FALSE,FALSE,Course Lock,246,,16.4,Calm,25,,1.12.8,Mavic Mini,1SDCH7G0169R0K,1SFLH6Q0AB03DJ,1SRCH7F014TAHX,1U5X071EXP6C9Y,51,0,91.8,5.59235,8.94776,0,0,Mavic Mini,1SDCH7G0169R0K,1SFLH6Q0AB03DJ,1SRCH7F014TAHX,1U5X071EXP6C9Y,DJI Fly,,1.12.8,24C228E4-67B6-263C-7EBC-467C69ADD5E1,1SDCH7G0169R0K,,,,,6.974220579,79.91399095,5,,
2/14/2024,17:20.7,5m 7.9s,307.9,6.974261068,79.91402869,0,0,0.3,50,0.4,0,0,0,0,0,0,0,0,3.9,-5.5,42.2,42.2,,Manual Takeoff,Other,Takeoff (RC Assisted),15,5,TRUE,,Mavic Mini,TRUE,FALSE,,Smart,RC,TRUE,TRUE,FALSE,,,TRUE,,FALSE,FALSE,FALSE,FALSE,FALSE,FALSE,FALSE,FALSE,FALSE,FALSE,0,Follow Yaw,-0.1,0,53.5,53.5,FALSE,FALSE,FALSE,FALSE,FALSE,FALSE,,TRUE,Normal,,100,1024,1024,1024,1024,1,FALSE,FALSE,FALSE,FALSE,FALSE,0,FALSE,FALSE,FALSE,FALSE,75,7.849,1606,2138,7.853,FALSE,3.928,3.921,0.008,FALSE,FALSE,NA,109,109,109,0,4,0,0,5,2650.1,662.52,,Idle,0,20,FALSE,5,TRUE,5,Go Home,FALSE,FALSE,FALSE,FALSE,FALSE,FALSE,FALSE,FALSE,FALSE,FALSE,FALSE,FALSE,6.974255765,79.91401578,5,140.4,328,TRUE,1,1,FALSE,FALSE,FALSE,FALSE,,TRUE,FALSE,FALSE,Course Lock,246,,16.4,Calm,25,,1.12.8,Mavic Mini,1SDCH7G0169R0K,1SFLH6Q0AB03DJ,1SRCH7F014TAHX,1U5X071EXP6C9Y,51,0,91.8,5.59235,8.94776,0,0,Mavic Mini,1SDCH7G0169R0K,1SFLH6Q0AB03DJ,1SRCH7F014TAHX,1U5X071EXP6C9Y,DJI Fly,,1.12.8,24C228E4-67B6-263C-7EBC-467C69ADD5E1,1SDCH7G0169R0K,,,,,6.974220579,79.91399095,5,,
2/14/2024,17:20.7,5m 8.0s,308,6.974261074,79.9140287,0,0,0.3,50,0.4,0,0,0,0,0,0,0,0,3.9,-5.5,42.2,42.2,,Manual Takeoff,Other,Takeoff (RC Assisted),15,5,TRUE,,Mavic Mini,TRUE,FALSE,,Smart,RC,TRUE,TRUE,FALSE,,,TRUE,,FALSE,FALSE,FALSE,FALSE,FALSE,FALSE,FALSE,FALSE,FALSE,FALSE,0,Follow Yaw,-0.1,0,53.5,53.5,FALSE,FALSE,FALSE,FALSE,FALSE,FALSE,,TRUE,Normal,,100,1024,1024,1024,1024,1,FALSE,FALSE,FALSE,FALSE,FALSE,0,FALSE,FALSE,FALSE,FALSE,75,7.849,1606,2138,7.853,FALSE,3.928,3.921,0.008,FALSE,FALSE,NA,109,109,109,0,4,0,0,5,2650.1,662.52,,Idle,0,20,FALSE,5,TRUE,5,Go Home,FALSE,FALSE,FALSE,FALSE,FALSE,FALSE,FALSE,FALSE,FALSE,FALSE,FALSE,FALSE,6.974255765,79.91401578,5,140.4,328,TRUE,1,1,FALSE,FALSE,FALSE,FALSE,,TRUE,FALSE,FALSE,Course Lock,246,,16.4,Calm,25,,1.12.8,Mavic Mini,1SDCH7G0169R0K,1SFLH6Q0AB03DJ,1SRCH7F014TAHX,1U5X071EXP6C9Y,51,0,91.8,5.59235,8.94776,0,0,Mavic Mini,1SDCH7G0169R0K,1SFLH6Q0AB03DJ,1SRCH7F014TAHX,1U5X071EXP6C9Y,DJI Fly,,1.12.8,24C228E4-67B6-263C-7EBC-467C69ADD5E1,1SDCH7G0169R0K,,,,,6.974220579,79.91399095,5,,
2/14/2024,17:21.0,5m 8.1s,308.1,6.97426109,79.91402871,0,0,0.3,50,0.4,0,0,0,0,0,0,0,0,3.9,-5.5,42.1,42.1,,Manual Takeoff,Other,Takeoff (RC Assisted),15,5,TRUE,,Mavic Mini,TRUE,FALSE,,Smart,RC,TRUE,TRUE,FALSE,,,TRUE,,FALSE,FALSE,FALSE,FALSE,FALSE,FALSE,FALSE,FALSE,FALSE,FALSE,0,Follow Yaw,-0.1,0,53.5,53.5,FALSE,FALSE,FALSE,FALSE,FALSE,FALSE,,TRUE,Normal,,100,1024,1024,1024,1024,1,FALSE,FALSE,FALSE,FALSE,FALSE,0,FALSE,FALSE,FALSE,FALSE,75,7.849,1606,2138,7.853,FALSE,3.928,3.921,0.008,FALSE,FALSE,NA,109,109,109,0,4,0,0,5,2650.1,662.52,,Idle,0,20,FALSE,5,TRUE,5,Go Home,FALSE,FALSE,FALSE,FALSE,FALSE,FALSE,FALSE,FALSE,FALSE,FALSE,FALSE,FALSE,6.974255765,79.91401578,5,140.4,328,TRUE,1,1,FALSE,FALSE,FALSE,FALSE,,TRUE,FALSE,FALSE,Course Lock,246,,16.4,Calm,25,,1.12.8,Mavic Mini,1SDCH7G0169R0K,1SFLH6Q0AB03DJ,1SRCH7F014TAHX,1U5X071EXP6C9Y,51,0,91.8,5.59235,8.94776,0,0,Mavic Mini,1SDCH7G0169R0K,1SFLH6Q0AB03DJ,1SRCH7F014TAHX,1U5X071EXP6C9Y,DJI Fly,,1.12.8,24C228E4-67B6-263C-7EBC-467C69ADD5E1,1SDCH7G0169R0K,,,,,6.974220579,79.91399095,5,,
2/14/2024,17:21.1,5m 8.2s,308.2,6.974261133,79.91402877,0,0,0.3,50,0.4,0,0,0,0,0,0,0,0,3.9,-5.5,42.2,42.2,,Manual Takeoff,Other,Takeoff (RC Assisted),15,5,TRUE,,Mavic Mini,TRUE,FALSE,,Smart,RC,TRUE,TRUE,FALSE,,,TRUE,,FALSE,FALSE,FALSE,FALSE,FALSE,FALSE,FALSE,FALSE,FALSE,FALSE,0,Follow Yaw,-0.1,0,53.6,53.6,FALSE,FALSE,FALSE,FALSE,FALSE,FALSE,,TRUE,Normal,,100,1024,1024,1024,1024,1,FALSE,FALSE,FALSE,FALSE,FALSE,0,FALSE,FALSE,FALSE,FALSE,75,7.849,1606,2138,7.852,FALSE,3.928,3.921,0.008,FALSE,FALSE,NA,109,109,109,0,4,0,0,5,2801.2,700.31,,Idle,0,20,FALSE,5,TRUE,5,Go Home,FALSE,FALSE,FALSE,FALSE,FALSE,FALSE,FALSE,FALSE,FALSE,FALSE,FALSE,FALSE,6.974255765,79.91401578,5,140.4,328,TRUE,1,1,FALSE,FALSE,FALSE,FALSE,,TRUE,FALSE,FALSE,Course Lock,246,,16.4,Calm,25,,1.12.8,Mavic Mini,1SDCH7G0169R0K,1SFLH6Q0AB03DJ,1SRCH7F014TAHX,1U5X071EXP6C9Y,51,0,91.8,5.59235,8.94776,0,0,Mavic Mini,1SDCH7G0169R0K,1SFLH6Q0AB03DJ,1SRCH7F014TAHX,1U5X071EXP6C9Y,DJI Fly,,1.12.8,24C228E4-67B6-263C-7EBC-467C69ADD5E1,1SDCH7G0169R0K,,,,,6.974220579,79.91399095,5,,
2/14/2024,17:21.2,5m 8.3s,308.3,6.974261171,79.91402888,0,0,0.3,50,0.5,0,0,0,0,0,0,0,0,3.9,-5.5,42.2,42.2,,Manual Takeoff,Other,Takeoff (RC Assisted),15,5,TRUE,,Mavic Mini,TRUE,FALSE,,Smart,RC,TRUE,TRUE,FALSE,,,TRUE,,FALSE,FALSE,FALSE,FALSE,FALSE,FALSE,FALSE,FALSE,FALSE,FALSE,0,Follow Yaw,-0.1,0,53.6,53.6,FALSE,FALSE,FALSE,FALSE,FALSE,FALSE,,TRUE,Normal,,100,1024,1024,1024,1024,1,FALSE,FALSE,FALSE,FALSE,FALSE,0,FALSE,FALSE,FALSE,FALSE,75,7.849,1606,2138,7.852,FALSE,3.928,3.921,0.008,FALSE,FALSE,NA,109,109,109,0,4,0,0,5,2801.2,700.31,,Idle,0,20,FALSE,5,TRUE,5,Go Home,FALSE,FALSE,FALSE,FALSE,FALSE,FALSE,FALSE,FALSE,FALSE,FALSE,FALSE,FALSE,6.974255765,79.91401578,5.1,140.4,328,TRUE,1,1,FALSE,FALSE,FALSE,FALSE,,TRUE,FALSE,FALSE,Course Lock,246,,16.4,Calm,25,,1.12.8,Mavic Mini,1SDCH7G0169R0K,1SFLH6Q0AB03DJ,1SRCH7F014TAHX,1U5X071EXP6C9Y,51,0,91.8,5.59235,8.94776,0,0,Mavic Mini,1SDCH7G0169R0K,1SFLH6Q0AB03DJ,1SRCH7F014TAHX,1U5X071EXP6C9Y,DJI Fly,,1.12.8,24C228E4-67B6-263C-7EBC-467C69ADD5E1,1SDCH7G0169R0K,,,,,6.974220579,79.91399095,5,,
2/14/2024,17:21.3,5m 8.4s,308.4,6.974261177,79.9140289,0,0,0.3,50,0.5,0,0,0,0,0,0,0,0,3.9,-5.5,42.2,42.2,,Manual Takeoff,Other,Takeoff (RC Assisted),15,5,TRUE,,Mavic Mini,TRUE,FALSE,,Smart,RC,TRUE,TRUE,FALSE,,,TRUE,,FALSE,FALSE,FALSE,FALSE,FALSE,FALSE,FALSE,FALSE,FALSE,FALSE,0,Follow Yaw,-0.1,0,53.6,53.6,FALSE,FALSE,FALSE,FALSE,FALSE,FALSE,,TRUE,Normal,,100,1024,1024,1024,1024,1,FALSE,FALSE,FALSE,FALSE,FALSE,0,FALSE,FALSE,FALSE,FALSE,75,7.849,1606,2138,7.852,FALSE,3.928,3.921,0.008,FALSE,FALSE,NA,109,109,109,0,4,0,0,5,2801.2,700.31,,Idle,0,20,FALSE,5,TRUE,5,Go Home,FALSE,FALSE,FALSE,FALSE,FALSE,FALSE,FALSE,FALSE,FALSE,FALSE,FALSE,FALSE,6.974255765,79.91401578,5.1,140.4,328,TRUE,1,1,FALSE,FALSE,FALSE,FALSE,,TRUE,FALSE,FALSE,Course Lock,246,,16.4,Calm,25,,1.12.8,Mavic Mini,1SDCH7G0169R0K,1SFLH6Q0AB03DJ,1SRCH7F014TAHX,1U5X071EXP6C9Y,51,0,91.8,5.59235,8.94776,0,0,Mavic Mini,1SDCH7G0169R0K,1SFLH6Q0AB03DJ,1SRCH7F014TAHX,1U5X071EXP6C9Y,DJI Fly,,1.12.8,24C228E4-67B6-263C-7EBC-467C69ADD5E1,1SDCH7G0169R0K,,,,,6.974220579,79.91399095,5,,
2/14/2024,17:21.4,5m 8.5s,308.5,6.974261193,79.91402892,0,0,0.3,50,0.5,0,0,0,0,0,0,0,0,3.9,-5.5,42.2,42.2,,Manual Takeoff,Other,Takeoff (RC Assisted),15,5,TRUE,,Mavic Mini,TRUE,FALSE,,Smart,RC,TRUE,TRUE,FALSE,,,TRUE,,FALSE,FALSE,FALSE,FALSE,FALSE,FALSE,FALSE,FALSE,FALSE,FALSE,0,Follow Yaw,-0.1,0,53.6,53.6,FALSE,FALSE,FALSE,FALSE,FALSE,FALSE,,TRUE,Normal,,100,1024,1024,1024,1024,1,FALSE,FALSE,FALSE,FALSE,FALSE,0,FALSE,FALSE,FALSE,FALSE,75,7.849,1606,2138,7.852,FALSE,3.928,3.921,0.008,FALSE,FALSE,NA,109,109,109,0,4,0,0,5,2801.2,700.31,,Idle,0,20,FALSE,5,TRUE,5,Go Home,FALSE,FALSE,FALSE,FALSE,FALSE,FALSE,FALSE,FALSE,FALSE,FALSE,FALSE,FALSE,6.974255765,79.91401578,5.1,140.4,328,TRUE,1,1,FALSE,FALSE,FALSE,FALSE,,TRUE,FALSE,FALSE,Course Lock,246,,16.4,Calm,25,,1.12.8,Mavic Mini,1SDCH7G0169R0K,1SFLH6Q0AB03DJ,1SRCH7F014TAHX,1U5X071EXP6C9Y,51,0,91.8,5.59235,8.94776,0,0,Mavic Mini,1SDCH7G0169R0K,1SFLH6Q0AB03DJ,1SRCH7F014TAHX,1U5X071EXP6C9Y,DJI Fly,,1.12.8,24C228E4-67B6-263C-7EBC-467C69ADD5E1,1SDCH7G0169R0K,,,,,6.974220579,79.91399095,5,,
2/14/2024,17:21.5,5m 8.6s,308.6,6.974261236,79.91402892,0,0,0.3,50,0.5,0,0,0,0,0,0,0,0,3.9,-5.5,42.2,42.2,,Manual Takeoff,Other,Takeoff (RC Assisted),15,5,TRUE,,Mavic Mini,TRUE,FALSE,,Smart,RC,TRUE,TRUE,FALSE,,,TRUE,,FALSE,FALSE,FALSE,FALSE,FALSE,FALSE,FALSE,FALSE,FALSE,FALSE,0,Follow Yaw,-0.1,0,53.6,53.6,FALSE,FALSE,FALSE,FALSE,FALSE,FALSE,,TRUE,Normal,,100,1024,1024,1024,1024,1,FALSE,FALSE,FALSE,FALSE,FALSE,0,FALSE,FALSE,FALSE,FALSE,75,7.849,1606,2138,7.852,FALSE,3.927,3.922,0.008,FALSE,FALSE,NA,109,109,109,0,4,0,0,5,2801.2,700.31,,Idle,0,20,FALSE,5,TRUE,5,Go Home,FALSE,FALSE,FALSE,FALSE,FALSE,FALSE,FALSE,FALSE,FALSE,FALSE,FALSE,FALSE,6.974255765,79.91401578,5.1,140.4,328,TRUE,1,1,FALSE,FALSE,FALSE,FALSE,,TRUE,FALSE,FALSE,Course Lock,246,,16.4,Calm,25,,1.12.8,Mavic Mini,1SDCH7G0169R0K,1SFLH6Q0AB03DJ,1SRCH7F014TAHX,1U5X071EXP6C9Y,51,0,91.8,5.59235,8.94776,0,0,Mavic Mini,1SDCH7G0169R0K,1SFLH6Q0AB03DJ,1SRCH7F014TAHX,1U5X071EXP6C9Y,DJI Fly,,1.12.8,24C228E4-67B6-263C-7EBC-467C69ADD5E1,1SDCH7G0169R0K,,,,,6.974220579,79.91399095,5,,
2/14/2024,17:21.5,5m 8.7s,308.7,6.974261266,79.91402894,0,0,0.3,50,0.5,0,0,0,0,0,0,0,0,3.9,-5.5,42.2,42.2,,Manual Takeoff,Other,Takeoff (RC Assisted),15,5,TRUE,,Mavic Mini,TRUE,FALSE,,Smart,RC,TRUE,TRUE,FALSE,,,TRUE,,FALSE,FALSE,FALSE,FALSE,FALSE,FALSE,FALSE,FALSE,FALSE,FALSE,0,Follow Yaw,-0.1,0,53.6,53.6,FALSE,FALSE,FALSE,FALSE,FALSE,FALSE,,TRUE,Normal,,100,1024,1024,1024,1024,1,FALSE,FALSE,FALSE,FALSE,FALSE,0,FALSE,FALSE,FALSE,FALSE,75,7.849,1606,2138,7.852,FALSE,3.927,3.922,0.008,FALSE,FALSE,NA,109,109,109,0,4,0,0,5,2801.2,700.31,,Idle,0,20,FALSE,5,TRUE,5,Go Home,FALSE,FALSE,FALSE,FALSE,FALSE,FALSE,FALSE,FALSE,FALSE,FALSE,FALSE,FALSE,6.974255765,79.91401578,5.1,140.4,328,TRUE,1,1,FALSE,FALSE,FALSE,FALSE,,TRUE,FALSE,FALSE,Course Lock,246,,16.4,Calm,25,,1.12.8,Mavic Mini,1SDCH7G0169R0K,1SFLH6Q0AB03DJ,1SRCH7F014TAHX,1U5X071EXP6C9Y,51,0,91.8,5.59235,8.94776,0,0,Mavic Mini,1SDCH7G0169R0K,1SFLH6Q0AB03DJ,1SRCH7F014TAHX,1U5X071EXP6C9Y,DJI Fly,,1.12.8,24C228E4-67B6-263C-7EBC-467C69ADD5E1,1SDCH7G0169R0K,,,,,6.974220579,79.91399095,5,,
2/14/2024,17:21.6,5m 8.8s,308.8,6.974261278,79.914029,0,0,0.3,50,0.5,0,0,0,0,0,0,0,0,3.9,-5.5,42.2,42.2,,Manual Takeoff,Other,Takeoff (RC Assisted),15,5,TRUE,,Mavic Mini,TRUE,FALSE,,Smart,RC,TRUE,TRUE,FALSE,,,TRUE,,FALSE,FALSE,FALSE,FALSE,FALSE,FALSE,FALSE,FALSE,FALSE,FALSE,0,Follow Yaw,-0.1,0,53.6,53.6,FALSE,FALSE,FALSE,FALSE,FALSE,FALSE,,TRUE,Normal,,100,1024,1024,1024,1024,1,FALSE,FALSE,FALSE,FALSE,FALSE,0,FALSE,FALSE,FALSE,FALSE,75,7.849,1606,2138,7.852,FALSE,3.927,3.922,0.008,FALSE,FALSE,NA,109,109,109,0,4,0,0,5,2801.2,700.31,,Idle,0,20,FALSE,5,TRUE,5,Go Home,FALSE,FALSE,FALSE,FALSE,FALSE,FALSE,FALSE,FALSE,FALSE,FALSE,FALSE,FALSE,6.974255765,79.91401578,5.1,140.4,328,TRUE,1,1,FALSE,FALSE,FALSE,FALSE,,TRUE,FALSE,FALSE,Course Lock,246,,16.4,Calm,25,,1.12.8,Mavic Mini,1SDCH7G0169R0K,1SFLH6Q0AB03DJ,1SRCH7F014TAHX,1U5X071EXP6C9Y,51,0,91.8,5.59235,8.94776,0,0,Mavic Mini,1SDCH7G0169R0K,1SFLH6Q0AB03DJ,1SRCH7F014TAHX,1U5X071EXP6C9Y,DJI Fly,,1.12.8,24C228E4-67B6-263C-7EBC-467C69ADD5E1,1SDCH7G0169R0K,,,,,6.974220579,79.91399095,5,,
2/14/2024,17:21.8,5m 8.9s,308.9,6.974261294,79.91402902,0,0,0.3,50,0.5,0,0,0,0,0,0,0,0,3.9,-5.5,42.2,42.2,,Manual Takeoff,Other,Takeoff (RC Assisted),15,5,TRUE,,Mavic Mini,TRUE,FALSE,,Smart,RC,TRUE,TRUE,FALSE,,,TRUE,,FALSE,FALSE,FALSE,FALSE,FALSE,FALSE,FALSE,FALSE,FALSE,FALSE,0,Follow Yaw,-0.1,0,53.6,53.6,FALSE,FALSE,FALSE,FALSE,FALSE,FALSE,,TRUE,Normal,,100,1024,1024,1024,1024,1,FALSE,FALSE,FALSE,FALSE,FALSE,0,FALSE,FALSE,FALSE,FALSE,75,7.849,1606,2138,7.852,FALSE,3.927,3.922,0.008,FALSE,FALSE,NA,109,109,109,0,4,0,0,5,2801.2,700.31,,Idle,0,20,FALSE,5,TRUE,5,Go Home,FALSE,FALSE,FALSE,FALSE,FALSE,FALSE,FALSE,FALSE,FALSE,FALSE,FALSE,FALSE,6.974255765,79.91401578,5.1,140.4,328,TRUE,1,1,FALSE,FALSE,FALSE,FALSE,,TRUE,FALSE,FALSE,Course Lock,246,,16.4,Calm,25,,1.12.8,Mavic Mini,1SDCH7G0169R0K,1SFLH6Q0AB03DJ,1SRCH7F014TAHX,1U5X071EXP6C9Y,51,0,91.8,5.59235,8.94776,0,0,Mavic Mini,1SDCH7G0169R0K,1SFLH6Q0AB03DJ,1SRCH7F014TAHX,1U5X071EXP6C9Y,DJI Fly,,1.12.8,24C228E4-67B6-263C-7EBC-467C69ADD5E1,1SDCH7G0169R0K,,,,,6.974220579,79.91399095,5,,
2/14/2024,17:21.8,5m 9.0s,309,6.974261337,79.91402898,0,0,0.3,50,0.6,0,0,0,0,0,0,0,0,3.9,-5.5,42.2,42.2,,Manual Takeoff,Other,Takeoff (RC Assisted),15,5,TRUE,,Mavic Mini,TRUE,FALSE,,Smart,RC,TRUE,TRUE,FALSE,,,TRUE,,FALSE,FALSE,FALSE,FALSE,FALSE,FALSE,FALSE,FALSE,FALSE,FALSE,0,Follow Yaw,-0.1,0,53.6,53.6,FALSE,FALSE,FALSE,FALSE,FALSE,FALSE,,TRUE,Normal,,100,1024,1024,1024,1024,1,FALSE,FALSE,FALSE,FALSE,FALSE,0,FALSE,FALSE,FALSE,FALSE,75,7.849,1606,2138,7.852,FALSE,3.927,3.922,0.008,FALSE,FALSE,NA,109,109,109,0,4,0,0,5,2801.2,700.31,,Idle,0,20,FALSE,5,TRUE,5,Go Home,FALSE,FALSE,FALSE,FALSE,FALSE,FALSE,FALSE,FALSE,FALSE,FALSE,FALSE,FALSE,6.974255765,79.91401578,5.1,140.4,328,TRUE,1,1,FALSE,FALSE,FALSE,FALSE,,TRUE,FALSE,FALSE,Course Lock,246,,16.4,Calm,25,,1.12.8,Mavic Mini,1SDCH7G0169R0K,1SFLH6Q0AB03DJ,1SRCH7F014TAHX,1U5X071EXP6C9Y,51,0,91.8,5.59235,8.94776,0,0,Mavic Mini,1SDCH7G0169R0K,1SFLH6Q0AB03DJ,1SRCH7F014TAHX,1U5X071EXP6C9Y,DJI Fly,,1.12.8,24C228E4-67B6-263C-7EBC-467C69ADD5E1,1SDCH7G0169R0K,,,,,6.974220579,79.91399095,5,,
2/14/2024,17:21.9,5m 9.1s,309.1,6.974261384,79.91402897,0,0,0.3,50,0.6,0,0,0,0,0,0,0,0,3.9,-5.5,42.2,42.2,,Manual Takeoff,Other,Takeoff (RC Assisted),15,5,TRUE,,Mavic Mini,TRUE,FALSE,,Smart,RC,TRUE,TRUE,FALSE,,,TRUE,,FALSE,FALSE,FALSE,FALSE,FALSE,FALSE,FALSE,FALSE,FALSE,FALSE,0,Follow Yaw,-0.1,0,53.6,53.6,FALSE,FALSE,FALSE,FALSE,FALSE,FALSE,,TRUE,Normal,,100,1024,1024,1024,1024,1,FALSE,FALSE,FALSE,FALSE,FALSE,0,FALSE,FALSE,FALSE,FALSE,75,7.849,1606,2138,7.852,FALSE,3.927,3.922,0.008,FALSE,FALSE,NA,109,109,109,0,4,0,0,5,2801.2,700.31,,Idle,0,20,FALSE,5,TRUE,5,Go Home,FALSE,FALSE,FALSE,FALSE,FALSE,FALSE,FALSE,FALSE,FALSE,FALSE,FALSE,FALSE,6.974255765,79.91401578,5.1,140.4,328,TRUE,1,1,FALSE,FALSE,FALSE,FALSE,,TRUE,FALSE,FALSE,Course Lock,246,,16.4,Calm,25,,1.12.8,Mavic Mini,1SDCH7G0169R0K,1SFLH6Q0AB03DJ,1SRCH7F014TAHX,1U5X071EXP6C9Y,51,0,91.8,5.59235,8.94776,0,0,Mavic Mini,1SDCH7G0169R0K,1SFLH6Q0AB03DJ,1SRCH7F014TAHX,1U5X071EXP6C9Y,DJI Fly,,1.12.8,24C228E4-67B6-263C-7EBC-467C69ADD5E1,1SDCH7G0169R0K,,,,,6.974220579,79.91399095,5,,
2/14/2024,17:22.2,5m 9.2s,309.2,6.974261523,79.91402894,0,0,0.3,50,0.6,0,0,0,0,0,0,0,0,3.9,-5.5,42.2,42.2,,Manual Takeoff,Other,Takeoff (RC Assisted),15,5,TRUE,,Mavic Mini,TRUE,FALSE,,Smart,RC,TRUE,TRUE,FALSE,,,TRUE,,FALSE,FALSE,FALSE,FALSE,FALSE,FALSE,FALSE,FALSE,FALSE,FALSE,0,Follow Yaw,-0.1,0,53.6,53.6,FALSE,FALSE,FALSE,FALSE,FALSE,FALSE,,TRUE,Normal,,100,1024,1024,1024,1024,1,FALSE,FALSE,FALSE,FALSE,FALSE,0,FALSE,FALSE,FALSE,FALSE,75,7.849,1606,2138,7.85,FALSE,3.927,3.922,0.008,FALSE,FALSE,NA,109,109,109,0,4,0,0,5,3000.1,750.03,,Idle,0,20,FALSE,5,TRUE,5,Go Home,FALSE,FALSE,FALSE,FALSE,FALSE,FALSE,FALSE,FALSE,FALSE,FALSE,FALSE,FALSE,6.974255765,79.91401578,5.2,140.4,328,TRUE,1,1,FALSE,FALSE,FALSE,FALSE,,TRUE,FALSE,FALSE,Course Lock,246,,16.4,Calm,25,,1.12.8,Mavic Mini,1SDCH7G0169R0K,1SFLH6Q0AB03DJ,1SRCH7F014TAHX,1U5X071EXP6C9Y,51,0,91.8,5.59235,8.94776,0,0,Mavic Mini,1SDCH7G0169R0K,1SFLH6Q0AB03DJ,1SRCH7F014TAHX,1U5X071EXP6C9Y,DJI Fly,,1.12.8,24C228E4-67B6-263C-7EBC-467C69ADD5E1,1SDCH7G0169R0K,,,,,6.974220579,79.91399095,5,,
2/14/2024,17:22.2,5m 9.3s,309.3,6.974261563,79.91402897,0,0,0.3,50,0.6,0,0,0,0,0,0,0,0,3.8,-5.5,42.2,42.2,,Manual Takeoff,Other,Takeoff (RC Assisted),15,5,TRUE,,Mavic Mini,TRUE,FALSE,,Smart,RC,TRUE,TRUE,FALSE,,,TRUE,,FALSE,FALSE,FALSE,FALSE,FALSE,FALSE,FALSE,FALSE,FALSE,FALSE,0,Follow Yaw,-0.1,0,53.6,53.6,FALSE,FALSE,FALSE,FALSE,FALSE,FALSE,,TRUE,Normal,,100,1024,1024,1024,1024,1,FALSE,FALSE,FALSE,FALSE,FALSE,0,FALSE,FALSE,FALSE,FALSE,75,7.849,1606,2138,7.85,FALSE,3.927,3.922,0.008,FALSE,FALSE,NA,109,109,109,0,4,0,0,5,3000.1,750.03,,Idle,0,20,FALSE,5,TRUE,5,Go Home,FALSE,FALSE,FALSE,FALSE,FALSE,FALSE,FALSE,FALSE,FALSE,FALSE,FALSE,FALSE,6.974255765,79.91401578,5.2,140.4,328,TRUE,1,1,FALSE,FALSE,FALSE,FALSE,,TRUE,FALSE,FALSE,Course Lock,246,,16.4,Calm,25,,1.12.8,Mavic Mini,1SDCH7G0169R0K,1SFLH6Q0AB03DJ,1SRCH7F014TAHX,1U5X071EXP6C9Y,51,0,91.8,5.59235,8.94776,0,0,Mavic Mini,1SDCH7G0169R0K,1SFLH6Q0AB03DJ,1SRCH7F014TAHX,1U5X071EXP6C9Y,DJI Fly,,1.12.8,24C228E4-67B6-263C-7EBC-467C69ADD5E1,1SDCH7G0169R0K,,,,,6.974220579,79.91399095,5,,
2/14/2024,17:22.3,5m 9.4s,309.4,6.974261571,79.91402898,0,0,0.3,50,0.7,0,0,0,0,0,0,0,0,3.9,-5.5,42.2,42.2,,Manual Takeoff,Other,Takeoff (RC Assisted),15,5,TRUE,,Mavic Mini,TRUE,FALSE,,Smart,RC,TRUE,TRUE,FALSE,,,TRUE,,FALSE,FALSE,FALSE,FALSE,FALSE,FALSE,FALSE,FALSE,FALSE,FALSE,0,Follow Yaw,-0.1,0,53.6,53.6,FALSE,FALSE,FALSE,FALSE,FALSE,FALSE,,TRUE,Normal,,100,1024,1024,1024,1024,1,FALSE,FALSE,FALSE,FALSE,FALSE,0,FALSE,FALSE,FALSE,FALSE,75,7.849,1606,2138,7.85,FALSE,3.927,3.922,0.008,FALSE,FALSE,NA,109,109,109,0,4,0,0,5,3000.1,750.03,,Idle,0,20,FALSE,5,TRUE,5,Go Home,FALSE,FALSE,FALSE,FALSE,FALSE,FALSE,FALSE,FALSE,FALSE,FALSE,FALSE,FALSE,6.974255765,79.91401578,5.2,140.4,328,TRUE,1,1,FALSE,FALSE,FALSE,FALSE,,TRUE,FALSE,FALSE,Course Lock,246,,16.4,Calm,25,,1.12.8,Mavic Mini,1SDCH7G0169R0K,1SFLH6Q0AB03DJ,1SRCH7F014TAHX,1U5X071EXP6C9Y,51,0,91.8,5.59235,8.94776,0,0,Mavic Mini,1SDCH7G0169R0K,1SFLH6Q0AB03DJ,1SRCH7F014TAHX,1U5X071EXP6C9Y,DJI Fly,,1.12.8,24C228E4-67B6-263C-7EBC-467C69ADD5E1,1SDCH7G0169R0K,,,,,6.974220579,79.91399095,5,,
2/14/2024,17:22.4,5m 9.5s,309.5,6.974261587,79.91402899,0,0,0.3,50,0.7,0,0,0,0,0,0,0,0,3.9,-5.5,42.2,42.2,,Manual Takeoff,Other,Takeoff (RC Assisted),15,5,TRUE,,Mavic Mini,TRUE,FALSE,,Smart,RC,TRUE,TRUE,FALSE,,,TRUE,,FALSE,FALSE,FALSE,FALSE,FALSE,FALSE,FALSE,FALSE,FALSE,FALSE,0,Follow Yaw,-0.1,0,53.6,53.6,FALSE,FALSE,FALSE,FALSE,FALSE,FALSE,,TRUE,Normal,,100,1024,1024,1024,1024,1,FALSE,FALSE,FALSE,FALSE,FALSE,0,FALSE,FALSE,FALSE,FALSE,75,7.849,1606,2138,7.85,FALSE,3.927,3.922,0.008,FALSE,FALSE,NA,109,109,109,0,4,0,0,5,3000.1,750.03,,Idle,0,20,FALSE,5,TRUE,5,Go Home,FALSE,FALSE,FALSE,FALSE,FALSE,FALSE,FALSE,FALSE,FALSE,FALSE,FALSE,FALSE,6.974255765,79.91401578,5.2,140.4,328,TRUE,1,1,FALSE,FALSE,FALSE,FALSE,,TRUE,FALSE,FALSE,Course Lock,246,,16.4,Calm,25,,1.12.8,Mavic Mini,1SDCH7G0169R0K,1SFLH6Q0AB03DJ,1SRCH7F014TAHX,1U5X071EXP6C9Y,51,0,91.8,5.59235,8.94776,0,0,Mavic Mini,1SDCH7G0169R0K,1SFLH6Q0AB03DJ,1SRCH7F014TAHX,1U5X071EXP6C9Y,DJI Fly,,1.12.8,24C228E4-67B6-263C-7EBC-467C69ADD5E1,1SDCH7G0169R0K,,,,,6.974220579,79.91399095,5,,
2/14/2024,17:22.5,5m 9.6s,309.6,6.974261597,79.91402896,0,0,0.3,50,0.7,0,0,0,0,0,0,0,0,3.9,-5.5,42.2,42.2,,Manual Takeoff,Other,Takeoff (RC Assisted),15,5,TRUE,,Mavic Mini,TRUE,FALSE,,Smart,RC,TRUE,TRUE,FALSE,,,TRUE,,FALSE,FALSE,FALSE,FALSE,FALSE,FALSE,FALSE,FALSE,FALSE,FALSE,0,Follow Yaw,-0.1,0,53.6,53.6,FALSE,FALSE,FALSE,FALSE,FALSE,FALSE,,TRUE,Normal,,100,1024,1024,1024,1024,1,FALSE,FALSE,FALSE,FALSE,FALSE,0,FALSE,FALSE,FALSE,FALSE,75,7.849,1606,2138,7.85,FALSE,3.927,3.922,0.008,FALSE,FALSE,NA,109,109,109,0,4,0,0,5,3000.1,750.03,,Idle,0,20,FALSE,5,TRUE,5,Go Home,FALSE,FALSE,FALSE,FALSE,FALSE,FALSE,FALSE,FALSE,FALSE,FALSE,FALSE,FALSE,6.974255765,79.91401578,5.2,140.4,328,TRUE,1,1,FALSE,FALSE,FALSE,FALSE,,TRUE,FALSE,FALSE,Course Lock,246,,16.4,Calm,25,,1.12.8,Mavic Mini,1SDCH7G0169R0K,1SFLH6Q0AB03DJ,1SRCH7F014TAHX,1U5X071EXP6C9Y,51,0,91.8,5.59235,8.94776,0,0,Mavic Mini,1SDCH7G0169R0K,1SFLH6Q0AB03DJ,1SRCH7F014TAHX,1U5X071EXP6C9Y,DJI Fly,,1.12.8,24C228E4-67B6-263C-7EBC-467C69ADD5E1,1SDCH7G0169R0K,,,,,6.974220579,79.91399095,5,,
2/14/2024,17:22.5,5m 9.7s,309.7,6.974261639,79.91402898,0,0,0.3,50,0.7,0,0,0,0,0,0,0,0,3.9,-5.5,42.2,42.2,,Manual Takeoff,Other,Takeoff (RC Assisted),15,5,TRUE,,Mavic Mini,TRUE,FALSE,,Smart,RC,TRUE,TRUE,FALSE,,,TRUE,,FALSE,FALSE,FALSE,FALSE,FALSE,FALSE,FALSE,FALSE,FALSE,FALSE,0,Follow Yaw,-0.1,0,53.6,53.6,FALSE,FALSE,FALSE,FALSE,FALSE,FALSE,,TRUE,Normal,,100,1024,1024,1024,1024,1,FALSE,FALSE,FALSE,FALSE,FALSE,0,FALSE,FALSE,FALSE,FALSE,75,7.846,1606,2138,7.85,FALSE,3.925,3.921,0.008,FALSE,FALSE,NA,109,109,109,0,4,0,0,5,3000.1,750.03,,Idle,0,20,FALSE,5,TRUE,5,Go Home,FALSE,FALSE,FALSE,FALSE,FALSE,FALSE,FALSE,FALSE,FALSE,FALSE,FALSE,FALSE,6.974255765,79.91401578,5.2,140.4,328,TRUE,1,1,FALSE,FALSE,FALSE,FALSE,,TRUE,FALSE,FALSE,Course Lock,246,,16.4,Calm,25,,1.12.8,Mavic Mini,1SDCH7G0169R0K,1SFLH6Q0AB03DJ,1SRCH7F014TAHX,1U5X071EXP6C9Y,51,0,91.8,5.59235,8.94776,0,0,Mavic Mini,1SDCH7G0169R0K,1SFLH6Q0AB03DJ,1SRCH7F014TAHX,1U5X071EXP6C9Y,DJI Fly,,1.12.8,24C228E4-67B6-263C-7EBC-467C69ADD5E1,1SDCH7G0169R0K,,,,,6.974220579,79.91399095,5,,
2/14/2024,17:22.7,5m 9.8s,309.8,6.974261691,79.91402903,0,0,0.3,50,0.7,0,0,0,0,0,0,0,0,3.9,-5.5,42.2,42.2,,Manual Takeoff,Other,Takeoff (RC Assisted),15,5,TRUE,,Mavic Mini,TRUE,FALSE,,Smart,RC,TRUE,TRUE,FALSE,,,TRUE,,FALSE,FALSE,FALSE,FALSE,FALSE,FALSE,FALSE,FALSE,FALSE,FALSE,0,Follow Yaw,-0.1,0,53.6,53.6,FALSE,FALSE,FALSE,FALSE,FALSE,FALSE,,TRUE,Normal,,100,1024,1024,1024,1024,1,FALSE,FALSE,FALSE,FALSE,FALSE,0,FALSE,FALSE,FALSE,FALSE,75,7.846,1606,2138,7.85,FALSE,3.925,3.921,0.008,FALSE,FALSE,NA,109,109,109,0,4,0,0,5,3000.1,750.03,,Idle,0,20,FALSE,5,TRUE,5,Go Home,FALSE,FALSE,FALSE,FALSE,FALSE,FALSE,FALSE,FALSE,FALSE,FALSE,FALSE,FALSE,6.974255765,79.91401578,5.2,140.4,328,TRUE,1,1,FALSE,FALSE,FALSE,FALSE,,TRUE,FALSE,FALSE,Course Lock,246,,16.4,Calm,25,,1.12.8,Mavic Mini,1SDCH7G0169R0K,1SFLH6Q0AB03DJ,1SRCH7F014TAHX,1U5X071EXP6C9Y,51,0,91.8,5.59235,8.94776,0,0,Mavic Mini,1SDCH7G0169R0K,1SFLH6Q0AB03DJ,1SRCH7F014TAHX,1U5X071EXP6C9Y,DJI Fly,,1.12.8,24C228E4-67B6-263C-7EBC-467C69ADD5E1,1SDCH7G0169R0K,,,,,6.974220579,79.91399095,5,,
2/14/2024,17:22.7,5m 9.9s,309.9,6.974261728,79.91402908,0,0,0.3,50,0.7,0,0,0,0,0,0,0,0,3.9,-5.5,42.2,42.2,,Manual Takeoff,Other,Takeoff (RC Assisted),15,5,TRUE,,Mavic Mini,TRUE,FALSE,,Smart,RC,TRUE,TRUE,FALSE,,,TRUE,,FALSE,FALSE,FALSE,FALSE,FALSE,FALSE,FALSE,FALSE,FALSE,FALSE,0,Follow Yaw,-0.1,0,53.6,53.6,FALSE,FALSE,FALSE,FALSE,FALSE,FALSE,,TRUE,Normal,,100,1024,1024,1024,1024,1,FALSE,FALSE,FALSE,FALSE,FALSE,0,FALSE,FALSE,FALSE,FALSE,75,7.846,1606,2138,7.85,FALSE,3.925,3.921,0.008,FALSE,FALSE,NA,109,109,109,0,4,0,0,5,3000.1,750.03,,Idle,0,20,FALSE,5,TRUE,5,Go Home,FALSE,FALSE,FALSE,FALSE,FALSE,FALSE,FALSE,FALSE,FALSE,FALSE,FALSE,FALSE,6.974255765,79.91401578,5.2,140.4,328,TRUE,1,1,FALSE,FALSE,FALSE,FALSE,,TRUE,FALSE,FALSE,Course Lock,246,,16.4,Calm,25,,1.12.8,Mavic Mini,1SDCH7G0169R0K,1SFLH6Q0AB03DJ,1SRCH7F014TAHX,1U5X071EXP6C9Y,51,0,91.8,5.59235,8.94776,0,0,Mavic Mini,1SDCH7G0169R0K,1SFLH6Q0AB03DJ,1SRCH7F014TAHX,1U5X071EXP6C9Y,DJI Fly,,1.12.8,24C228E4-67B6-263C-7EBC-467C69ADD5E1,1SDCH7G0169R0K,,,,,6.974220579,79.91399095,5,,
2/14/2024,17:23.0,5m 10.0s,310,6.974261723,79.91402912,0,0,0.3,50,0.8,0,0,0,0,0,0,0,0,3.9,-5.5,42.2,42.2,,Manual Takeoff,Other,Takeoff (RC Assisted),15,5,TRUE,,Mavic Mini,TRUE,FALSE,,Smart,RC,TRUE,TRUE,FALSE,,,TRUE,,FALSE,FALSE,FALSE,FALSE,FALSE,FALSE,FALSE,FALSE,FALSE,FALSE,0,Follow Yaw,-0.1,0,53.6,53.6,FALSE,FALSE,FALSE,FALSE,FALSE,FALSE,,TRUE,Normal,,100,1024,1024,1024,1024,1,FALSE,FALSE,FALSE,FALSE,FALSE,0,FALSE,FALSE,FALSE,FALSE,75,7.846,1606,2138,7.85,FALSE,3.925,3.921,0.008,FALSE,FALSE,NA,109,109,109,0,4,0,0,5,3000.1,750.03,,Idle,0,20,FALSE,5,TRUE,5,Go Home,FALSE,FALSE,FALSE,FALSE,FALSE,FALSE,FALSE,FALSE,FALSE,FALSE,FALSE,FALSE,6.974255765,79.91401578,5.2,140.4,328,TRUE,1,1,FALSE,FALSE,FALSE,FALSE,,TRUE,FALSE,FALSE,Course Lock,246,,16.4,Calm,25,,1.12.8,Mavic Mini,1SDCH7G0169R0K,1SFLH6Q0AB03DJ,1SRCH7F014TAHX,1U5X071EXP6C9Y,51,0,91.8,5.59235,8.94776,0,0,Mavic Mini,1SDCH7G0169R0K,1SFLH6Q0AB03DJ,1SRCH7F014TAHX,1U5X071EXP6C9Y,DJI Fly,,1.12.8,24C228E4-67B6-263C-7EBC-467C69ADD5E1,1SDCH7G0169R0K,,,,,6.974220579,79.91399095,5,,
2/14/2024,17:23.0,5m 10.1s,310.1,6.974261723,79.91402914,0,0,0.3,50,0.8,0,0,0,0,0,0,0,0,3.9,-5.5,42.2,42.2,,Manual Takeoff,Other,Takeoff (RC Assisted),15,5,TRUE,,Mavic Mini,TRUE,FALSE,,Smart,RC,TRUE,TRUE,FALSE,,,TRUE,,FALSE,FALSE,FALSE,FALSE,FALSE,FALSE,FALSE,FALSE,FALSE,FALSE,0,Follow Yaw,-0.1,0,53.6,53.6,FALSE,FALSE,FALSE,FALSE,FALSE,FALSE,,TRUE,Normal,,100,1024,1024,1024,1024,1,FALSE,FALSE,FALSE,FALSE,FALSE,0,FALSE,FALSE,FALSE,FALSE,75,7.846,1606,2138,7.85,FALSE,3.925,3.921,0.008,FALSE,FALSE,NA,109,109,109,0,4,0,0,5,3000.1,750.03,,Idle,0,20,FALSE,5,TRUE,5,Go Home,FALSE,FALSE,FALSE,FALSE,FALSE,FALSE,FALSE,FALSE,FALSE,FALSE,FALSE,FALSE,6.974255765,79.91401578,5.3,140.4,328,TRUE,1,1,FALSE,FALSE,FALSE,FALSE,,TRUE,FALSE,FALSE,Course Lock,246,,16.4,Calm,25,,1.12.8,Mavic Mini,1SDCH7G0169R0K,1SFLH6Q0AB03DJ,1SRCH7F014TAHX,1U5X071EXP6C9Y,51,0,91.8,5.59235,8.94776,0,0,Mavic Mini,1SDCH7G0169R0K,1SFLH6Q0AB03DJ,1SRCH7F014TAHX,1U5X071EXP6C9Y,DJI Fly,,1.12.8,24C228E4-67B6-263C-7EBC-467C69ADD5E1,1SDCH7G0169R0K,,,,,6.974220579,79.91399095,5,,
2/14/2024,17:23.0,5m 10.2s,310.2,6.974261712,79.91402914,0,0,0.3,50,0.8,0,0,0,0,0,0,0,0,3.9,-5.5,42.2,42.2,,Manual Takeoff,Other,Takeoff (RC Assisted),15,5,TRUE,,Mavic Mini,TRUE,FALSE,,Smart,RC,TRUE,TRUE,FALSE,,,TRUE,,FALSE,FALSE,FALSE,FALSE,FALSE,FALSE,FALSE,FALSE,FALSE,FALSE,0,Follow Yaw,-0.1,0,53.6,53.6,FALSE,FALSE,FALSE,FALSE,FALSE,FALSE,,TRUE,Normal,,100,1024,1024,1024,1024,1,FALSE,FALSE,FALSE,FALSE,FALSE,0,FALSE,FALSE,FALSE,FALSE,75,7.846,1606,2138,7.841,FALSE,3.925,3.921,0.008,FALSE,FALSE,NA,109,109,109,0,5,0,0,5,3185.2,796.31,,Idle,0,20,FALSE,5,TRUE,5,Go Home,FALSE,FALSE,FALSE,FALSE,FALSE,FALSE,FALSE,FALSE,FALSE,FALSE,FALSE,FALSE,6.974255765,79.91401578,5.3,140.4,328,TRUE,1,1,FALSE,FALSE,FALSE,FALSE,,TRUE,FALSE,FALSE,Course Lock,246,,16.4,Calm,25,,1.12.8,Mavic Mini,1SDCH7G0169R0K,1SFLH6Q0AB03DJ,1SRCH7F014TAHX,1U5X071EXP6C9Y,51,0,91.8,5.59235,8.94776,0,0,Mavic Mini,1SDCH7G0169R0K,1SFLH6Q0AB03DJ,1SRCH7F014TAHX,1U5X071EXP6C9Y,DJI Fly,,1.12.8,24C228E4-67B6-263C-7EBC-467C69ADD5E1,1SDCH7G0169R0K,,,,,6.974220579,79.91399095,5,,
2/14/2024,17:23.1,5m 10.3s,310.3,6.974261715,79.91402916,0,0,0.3,50,0.8,0,0,0,0,0,0,0,0,3.9,-5.5,42.2,42.2,,Manual Takeoff,Other,Takeoff (RC Assisted),15,5,TRUE,,Mavic Mini,TRUE,FALSE,,Smart,RC,TRUE,TRUE,FALSE,,,TRUE,,FALSE,FALSE,FALSE,FALSE,FALSE,FALSE,FALSE,FALSE,FALSE,FALSE,0,Follow Yaw,-0.1,0,53.6,53.6,FALSE,FALSE,FALSE,FALSE,FALSE,FALSE,,TRUE,Normal,,100,1024,1024,1024,1024,1,FALSE,FALSE,FALSE,FALSE,FALSE,0,FALSE,FALSE,FALSE,FALSE,75,7.846,1606,2138,7.841,FALSE,3.925,3.921,0.008,FALSE,FALSE,NA,109,109,109,0,5,0,0,5,3185.2,796.31,,Idle,0,20,FALSE,5,TRUE,5,Go Home,FALSE,FALSE,FALSE,FALSE,FALSE,FALSE,FALSE,FALSE,FALSE,FALSE,FALSE,FALSE,6.974255765,79.91401578,5.3,140.4,328,TRUE,1,1,FALSE,FALSE,FALSE,FALSE,,TRUE,FALSE,FALSE,Course Lock,246,,16.4,Calm,25,,1.12.8,Mavic Mini,1SDCH7G0169R0K,1SFLH6Q0AB03DJ,1SRCH7F014TAHX,1U5X071EXP6C9Y,51,0,91.8,5.59235,8.94776,0,0,Mavic Mini,1SDCH7G0169R0K,1SFLH6Q0AB03DJ,1SRCH7F014TAHX,1U5X071EXP6C9Y,DJI Fly,,1.12.8,24C228E4-67B6-263C-7EBC-467C69ADD5E1,1SDCH7G0169R0K,,,,,6.974220579,79.91399095,5,,
