CUSTOM.date [local],CUSTOM.updateTime [local],OSD.flyTime,OSD.flyTime [s],OSD.latitude,OSD.longitude,OSD.height [ft],OSD.heightMax [ft],OSD.vpsHeight [ft],OSD.altitude [ft],OSD.mileage [ft],OSD.hSpeed [MPH],OSD.hSpeedMax [MPH],OSD.xSpeed [MPH],OSD.xSpeedMax [MPH],OSD.ySpeed [MPH],OSD.ySpeedMax [MPH],OSD.zSpeed [MPH],OSD.zSpeedMax [MPH],OSD.pitch,OSD.roll,OSD.yaw,OSD.yaw [360],OSD.directionOfTravel,OSD.flycState,OSD.flycCommand,OSD.flightAction,OSD.gpsNum,OSD.gpsLevel,OSD.isGPSUsed,OSD.nonGPSCause,OSD.droneType,OSD.isSwaveWork,OSD.waveError,OSD.goHomeStatus,OSD.batteryType,OSD.ctrlDevice,OSD.isOnGround,OSD.isMotorOn,OSD.isMotorBlocked,OSD.motorStartFailedCause,OSD.motorFailReason,OSD.isImuPreheated,OSD.imuInitFailReason,OSD.isAcceletorOverRange,OSD.isBarometerDeadInAir,OSD.isCompassError,OSD.isGoHomeHeightModified,OSD.canIOCWork,OSD.isNotEnoughForce,OSD.isOutOfLimit,OSD.isPropellerCatapult,OSD.isVibrating,OSD.isVisionUsed,OSD.voltageWarning,GIMBAL.mode,GIMBAL.pitch,GIMBAL.roll,GIMBAL.yaw,GIMBAL.yaw [360],GIMBAL.isPitchAtLimit,GIMBAL.isRollAtLimit,GIMBAL.isYawAtLimit,GIMBAL.isStuck,CAMERA.isPhoto,CAMERA.isVideo,CAMERA.filename,CAMERA.sdCardIsInserted,CAMERA.sdCardState,RC.downlinkSignal,RC.uplinkSignal,RC.aileron,RC.elevator,RC.throttle,RC.rudder,RC.mode,RC.goHomeDepressed,RC.recordDepressed,RC.shutterDepressed,RC.playbackDepressed,RC.wheelDepressed,RC.wheelOffset,RC.custom1Depressed,RC.custom2Depressed,RC.custom3Depressed,RC.custom4Depressed,BATTERY.chargeLevel,BATTERY.currentPV [V],BATTERY.currentCapacity [mAh],BATTERY.fullCapacity [mAh],BATTERY.voltage [V],BATTERY.isCellVoltageEstimated,BATTERY.cellVoltage1 [V],BATTERY.cellVoltage2 [V],BATTERY.maxCellVoltageDeviation,BATTERY.isCellVoltageDeviationHigh,BATTERY.isVoltageLow,BATTERY.current [A],BATTERY.temperature [F],BATTERY.minTemperature [F],BATTERY.maxTemperature [F],BATTERY.usefulTime [s],BATTERY.goHomeTime [s],BATTERY.landTime [s],BATTERY.goHomeBattery,BATTERY.landBattery,BATTERY.safeFlyRadius,BATTERY.volumeConsume,BATTERY.status,BATTERY.goHomeStatus,BATTERY.goHomeCountdown,BATTERY.lowWarning,BATTERY.lowWarningGoHome,BATTERY.seriousLowWarning,BATTERY.seriousLowWarningLanding,BATTERY.timesCharged,MC.failSafeAction,MC.isObstacleAvoidanceEnabled,MC.isCollisionAvoidanceEnabled,MC.isRthObstacleAvoidanceEnabled,MC.isBraking,MC.isAvoidingObstacle,MC.isAvoidingActiveObstacle,MC.isAscentLimitedByObstacle,MC.isLandingConfirmationNeeded,MC.atLowAltitudeLimit,MC.atDistanceLimit,MC.atAirportAltitudeLimit,MC.atAirportBoundary,HOME.latitude,HOME.longitude,HOME.distance [ft],HOME.height [ft],HOME.heightLimit [ft],HOME.isHomeRecord,HOME.goHomeMode,HOME.aircraftHeadDirection,HOME.isDynamicHomePointEnabled,HOME.isReachedLimitDistance,HOME.isReachedLimitHeight,HOME.isCompassCalibrating,HOME.compassCalibrationState,HOME.isMultipleFlightModeEnabled,HOME.isBeginnerMode,HOME.isIOCEnabled,HOME.iocMode,HOME.goHomeHeight [ft],HOME.courseLockAngle,HOME.forceLandingHeight [ft],HOME.wind,HOME.dataRecorderFileIndex,RECOVER.appType,RECOVER.appVersion,RECOVER.aircraftName,RECOVER.aircraftSerial,RECOVER.cameraSerial,RECOVER.rcSerial,RECOVER.batterySerial,DETAILS.totalTime [s],DETAILS.totalDistance [ft],DETAILS.maxHeight [ft],DETAILS.maxHorizontalSpeed [MPH],DETAILS.maxVerticalSpeed [MPH],DETAILS.photoNum,DETAILS.videoTime [s],DETAILS.aircraftName,DETAILS.aircraftSerial,DETAILS.cameraSerial,DETAILS.rcSerial,DETAILS.batterySerial,DETAILS.appName,DETAILS.appType,DETAILS.appVersion,DETAILS.guid,SERIAL.flightController,SERIAL.camera,SERIAL.gimbal,SERIAL.rc,SERIAL.battery,APPGPS.latitude,APPGPS.longitude,APPGPS.accuracy,APP.tip,APP.warning
1/26/2024,39:49.2,12m 55.9s,775.9,6.972972882,79.91593462,0,0,0.3,58,0,0,0,0,0,0,0,0,0,4.5,1.2,179.7,179.7,,Starting Motors,Auto Fly,Takeoff (App Auto),15,5,TRUE,,Mavic Mini,FALSE,FALSE,,Smart,RC,TRUE,TRUE,FALSE,,,TRUE,,FALSE,FALSE,FALSE,FALSE,FALSE,FALSE,FALSE,FALSE,FALSE,FALSE,0,Follow Yaw,0,0,177.3,177.3,FALSE,FALSE,FALSE,FALSE,FALSE,FALSE,,TRUE,Normal,,,1024,1024,1024,1024,,FALSE,FALSE,FALSE,FALSE,FALSE,0,FALSE,FALSE,FALSE,FALSE,46,7.39,1022,2230,7.388,FALSE,3.696,3.694,0.002,FALSE,FALSE,NA,114.4,114.4,114.4,0,0,0,0,5,2223.8,555.95,,Idle,0,20,FALSE,5,TRUE,7,Go Home,FALSE,FALSE,FALSE,FALSE,FALSE,FALSE,FALSE,FALSE,FALSE,FALSE,FALSE,FALSE,6.972972796,79.91593796,1.2,,459.3,TRUE,1,1,FALSE,FALSE,FALSE,FALSE,,TRUE,FALSE,FALSE,Course Lock,131.2,52,16.4,Calm,85,,1.12.6,Mavic Mini,1SDCH7G0169R0K,1SFLH6Q0AB03DJ,1SRCH7F014TAHX,1U5X071EXP5ZJG,72.5,0.2,16.4,9.130517,2.23694,0,420,Mavic Mini,1SDCH7G0169R0K,1SFLH6Q0AB03DJ,1SRCH7F014TAHX,1U5X071EXP5ZJG,DJI Fly,,1.12.6,FD2AD0AC-25D9-8DD0-1F46-EDA643C69247,1SDCH7G0169R0K,,,,,,,,Data Recorder File Index is 85.; Set Return to Home (RTH) altitude to 40 m (131 ft).; Set maximum flight altitude to 140 m (459 ft).; Flight mode changed to Starting Motors.,
1/26/2024,26:53.5,12m 56.0s,776,6.972972856,79.91593465,0,0,0.3,58,0,0,0,0,0,0,0,0,0,4.5,1.2,179.7,179.7,,Starting Motors,Auto Fly,Takeoff (App Auto),15,5,TRUE,,Mavic Mini,FALSE,FALSE,,Smart,RC,TRUE,TRUE,FALSE,,,TRUE,,FALSE,FALSE,FALSE,FALSE,FALSE,FALSE,FALSE,FALSE,FALSE,FALSE,0,Follow Yaw,0,0,177.3,177.3,FALSE,FALSE,FALSE,FALSE,FALSE,FALSE,,TRUE,Normal,,,1024,1024,1024,1024,1,FALSE,FALSE,FALSE,FALSE,FALSE,0,FALSE,FALSE,FALSE,FALSE,46,7.39,1022,2230,7.388,FALSE,3.696,3.694,0.002,FALSE,FALSE,NA,114.4,114.4,114.4,0,0,0,0,5,2223.8,555.95,,Idle,0,20,FALSE,5,TRUE,7,Go Home,FALSE,FALSE,FALSE,FALSE,FALSE,FALSE,FALSE,FALSE,FALSE,FALSE,FALSE,FALSE,6.972972796,79.91593796,1.1,,459.3,TRUE,1,1,FALSE,FALSE,FALSE,FALSE,,TRUE,FALSE,FALSE,Course Lock,131.2,52,16.4,Calm,85,,1.12.6,Mavic Mini,1SDCH7G0169R0K,1SFLH6Q0AB03DJ,1SRCH7F014TAHX,1U5X071EXP5ZJG,72.5,0.2,16.4,9.130517,2.23694,0,420,Mavic Mini,1SDCH7G0169R0K,1SFLH6Q0AB03DJ,1SRCH7F014TAHX,1U5X071EXP5ZJG,DJI Fly,,1.12.6,FD2AD0AC-25D9-8DD0-1F46-EDA643C69247,1SDCH7G0169R0K,,,,,,,,,
1/26/2024,26:53.6,12m 56.1s,776.1,6.972972812,79.91593467,0,0,0.3,58,0,0,0,0,0,0,0,0,0,4.6,1.3,179.8,179.8,,Starting Motors,Auto Fly,Takeoff (App Auto),15,5,TRUE,,Mavic Mini,FALSE,FALSE,,Smart,RC,TRUE,TRUE,FALSE,,,TRUE,,FALSE,FALSE,FALSE,FALSE,FALSE,FALSE,FALSE,FALSE,FALSE,FALSE,0,Follow Yaw,0,0,177.3,177.3,FALSE,FALSE,FALSE,FALSE,FALSE,FALSE,,TRUE,Normal,,,1024,1024,1024,1024,1,FALSE,FALSE,FALSE,FALSE,FALSE,0,FALSE,FALSE,FALSE,FALSE,46,7.39,1022,2230,7.388,FALSE,3.696,3.694,0.002,FALSE,FALSE,NA,114.4,114.4,114.4,0,0,0,0,5,2223.8,555.95,,Idle,0,20,FALSE,5,TRUE,7,Go Home,FALSE,FALSE,FALSE,FALSE,FALSE,FALSE,FALSE,FALSE,FALSE,FALSE,FALSE,FALSE,6.972972796,79.91593796,1.1,,459.3,TRUE,1,1,FALSE,FALSE,FALSE,FALSE,,TRUE,FALSE,FALSE,Course Lock,131.2,52,16.4,Calm,85,,1.12.6,Mavic Mini,1SDCH7G0169R0K,1SFLH6Q0AB03DJ,1SRCH7F014TAHX,1U5X071EXP5ZJG,72.5,0.2,16.4,9.130517,2.23694,0,420,Mavic Mini,1SDCH7G0169R0K,1SFLH6Q0AB03DJ,1SRCH7F014TAHX,1U5X071EXP5ZJG,DJI Fly,,1.12.6,FD2AD0AC-25D9-8DD0-1F46-EDA643C69247,1SDCH7G0169R0K,,,,,,,,,
1/26/2024,26:53.6,12m 56.2s,776.2,6.97297279,79.91593468,0,0,0.3,58,0,0,0,0,0,0,0,0,0,4.7,1.4,179.8,179.8,,Starting Motors,Auto Fly,Takeoff (App Auto),15,5,TRUE,,Mavic Mini,TRUE,FALSE,,Smart,RC,TRUE,TRUE,FALSE,,,TRUE,,FALSE,FALSE,FALSE,FALSE,FALSE,FALSE,FALSE,FALSE,FALSE,FALSE,0,Follow Yaw,0,0,177.3,177.3,FALSE,FALSE,FALSE,FALSE,FALSE,FALSE,,TRUE,Normal,,100,1024,1024,1024,1024,1,FALSE,FALSE,FALSE,FALSE,FALSE,0,FALSE,FALSE,FALSE,FALSE,46,7.39,1022,2230,7.388,FALSE,3.696,3.694,0.002,FALSE,FALSE,NA,114.4,114.4,114.4,0,0,0,0,5,2223.8,555.95,,Idle,0,20,FALSE,5,TRUE,7,Go Home,FALSE,FALSE,FALSE,FALSE,FALSE,FALSE,FALSE,FALSE,FALSE,FALSE,FALSE,FALSE,6.972972796,79.91593796,1.1,,459.3,TRUE,1,1,FALSE,FALSE,FALSE,FALSE,,TRUE,FALSE,FALSE,Course Lock,131.2,52,16.4,Calm,85,,1.12.6,Mavic Mini,1SDCH7G0169R0K,1SFLH6Q0AB03DJ,1SRCH7F014TAHX,1U5X071EXP5ZJG,72.5,0.2,16.4,9.130517,2.23694,0,420,Mavic Mini,1SDCH7G0169R0K,1SFLH6Q0AB03DJ,1SRCH7F014TAHX,1U5X071EXP5ZJG,DJI Fly,,1.12.6,FD2AD0AC-25D9-8DD0-1F46-EDA643C69247,1SDCH7G0169R0K,,,,,,,,,
1/26/2024,26:53.7,12m 56.3s,776.3,6.972972721,79.91593462,0,0,0.3,58,0,0,0,0,0,0,0,0,0,4.7,1.4,179.9,179.9,,Starting Motors,Auto Fly,Takeoff (App Auto),15,5,TRUE,,Mavic Mini,TRUE,FALSE,,Smart,RC,TRUE,TRUE,FALSE,,,TRUE,,FALSE,FALSE,FALSE,FALSE,FALSE,FALSE,FALSE,FALSE,FALSE,FALSE,0,Follow Yaw,0,0,177.3,177.3,FALSE,FALSE,FALSE,FALSE,FALSE,FALSE,,TRUE,Normal,,100,1024,1024,1024,1024,1,FALSE,FALSE,FALSE,FALSE,FALSE,0,FALSE,FALSE,FALSE,FALSE,46,7.39,1022,2230,7.388,FALSE,3.696,3.694,0.002,FALSE,FALSE,NA,114.4,114.4,114.4,0,0,0,0,5,2223.8,555.95,,Idle,0,20,FALSE,5,TRUE,7,Go Home,FALSE,FALSE,FALSE,FALSE,FALSE,FALSE,FALSE,FALSE,FALSE,FALSE,FALSE,FALSE,6.972972796,79.91593796,1.2,,459.3,TRUE,1,1,FALSE,FALSE,FALSE,FALSE,,TRUE,FALSE,FALSE,Course Lock,131.2,52,16.4,Calm,85,,1.12.6,Mavic Mini,1SDCH7G0169R0K,1SFLH6Q0AB03DJ,1SRCH7F014TAHX,1U5X071EXP5ZJG,72.5,0.2,16.4,9.130517,2.23694,0,420,Mavic Mini,1SDCH7G0169R0K,1SFLH6Q0AB03DJ,1SRCH7F014TAHX,1U5X071EXP5ZJG,DJI Fly,,1.12.6,FD2AD0AC-25D9-8DD0-1F46-EDA643C69247,1SDCH7G0169R0K,,,,,,,,,
1/26/2024,26:53.8,12m 56.4s,776.4,6.972972721,79.91593465,0,0,0.3,58,0,0,0,0,0,0,0,0,0,4.8,1.6,-179.7,180.3,,Starting Motors,Auto Fly,Takeoff (App Auto),15,5,TRUE,,Mavic Mini,TRUE,FALSE,,Smart,RC,TRUE,TRUE,FALSE,,,TRUE,,FALSE,FALSE,FALSE,FALSE,FALSE,FALSE,FALSE,FALSE,FALSE,FALSE,0,Follow Yaw,0,0,177.3,177.3,FALSE,FALSE,FALSE,FALSE,FALSE,FALSE,,TRUE,Normal,,100,1024,1024,1024,1024,1,FALSE,FALSE,FALSE,FALSE,FALSE,0,FALSE,FALSE,FALSE,FALSE,46,7.39,1022,2230,7.388,FALSE,3.696,3.694,0.002,FALSE,FALSE,NA,114.4,114.4,114.4,0,0,0,0,5,2223.8,555.95,,Idle,0,20,FALSE,5,TRUE,7,Go Home,FALSE,FALSE,FALSE,FALSE,FALSE,FALSE,FALSE,FALSE,FALSE,FALSE,FALSE,FALSE,6.972972796,79.91593796,1.1,,459.3,TRUE,1,1,FALSE,FALSE,FALSE,FALSE,,TRUE,FALSE,FALSE,Course Lock,131.2,52,16.4,Calm,85,,1.12.6,Mavic Mini,1SDCH7G0169R0K,1SFLH6Q0AB03DJ,1SRCH7F014TAHX,1U5X071EXP5ZJG,72.5,0.2,16.4,9.130517,2.23694,0,420,Mavic Mini,1SDCH7G0169R0K,1SFLH6Q0AB03DJ,1SRCH7F014TAHX,1U5X071EXP5ZJG,DJI Fly,,1.12.6,FD2AD0AC-25D9-8DD0-1F46-EDA643C69247,1SDCH7G0169R0K,,,,,,,,,
1/26/2024,26:53.9,12m 56.5s,776.5,6.972972728,79.9159347,0,0,0.3,58,0,0,0,0,0,0,0,0,0,4.9,1.6,-179.6,180.4,,Starting Motors,Auto Fly,Takeoff (App Auto),15,5,TRUE,,Mavic Mini,TRUE,FALSE,,Smart,RC,TRUE,TRUE,FALSE,,,TRUE,,FALSE,FALSE,FALSE,FALSE,FALSE,FALSE,FALSE,FALSE,FALSE,FALSE,0,Follow Yaw,0,0,177.3,177.3,FALSE,FALSE,FALSE,FALSE,FALSE,FALSE,,TRUE,Normal,,100,1024,1024,1024,1024,1,FALSE,FALSE,FALSE,FALSE,FALSE,0,FALSE,FALSE,FALSE,FALSE,46,7.39,1022,2230,7.388,FALSE,3.696,3.694,0.002,FALSE,FALSE,NA,114.4,114.4,114.4,0,0,0,0,5,2223.8,555.95,,Idle,0,20,FALSE,5,TRUE,7,Go Home,FALSE,FALSE,FALSE,FALSE,FALSE,FALSE,FALSE,FALSE,FALSE,FALSE,FALSE,FALSE,6.972972796,79.91593796,1.1,,459.3,TRUE,1,1,FALSE,FALSE,FALSE,FALSE,,TRUE,FALSE,FALSE,Course Lock,131.2,52,16.4,Calm,85,,1.12.6,Mavic Mini,1SDCH7G0169R0K,1SFLH6Q0AB03DJ,1SRCH7F014TAHX,1U5X071EXP5ZJG,72.5,0.2,16.4,9.130517,2.23694,0,420,Mavic Mini,1SDCH7G0169R0K,1SFLH6Q0AB03DJ,1SRCH7F014TAHX,1U5X071EXP5ZJG,DJI Fly,,1.12.6,FD2AD0AC-25D9-8DD0-1F46-EDA643C69247,1SDCH7G0169R0K,,,,,,,,,
1/26/2024,26:54.0,12m 56.6s,776.6,6.972972736,79.91593472,0,0,0.3,58,0,0,0,0,0,0,0,0,0,4.8,1.8,-179.5,180.5,,Starting Motors,Auto Fly,Takeoff (App Auto),15,5,TRUE,,Mavic Mini,TRUE,FALSE,,Smart,RC,TRUE,TRUE,FALSE,,,TRUE,,FALSE,FALSE,FALSE,FALSE,FALSE,FALSE,FALSE,FALSE,FALSE,FALSE,0,Follow Yaw,0,0,177.3,177.3,FALSE,FALSE,FALSE,FALSE,FALSE,FALSE,,TRUE,Normal,,100,1024,1024,1024,1024,1,FALSE,FALSE,FALSE,FALSE,FALSE,0,FALSE,FALSE,FALSE,FALSE,46,7.39,1022,2230,7.388,FALSE,3.696,3.694,0.002,FALSE,FALSE,NA,114.4,114.4,114.4,0,0,0,0,5,2223.8,555.95,,Idle,0,20,FALSE,5,TRUE,7,Go Home,FALSE,FALSE,FALSE,FALSE,FALSE,FALSE,FALSE,FALSE,FALSE,FALSE,FALSE,FALSE,6.972972796,79.91593796,1.1,,459.3,TRUE,1,1,FALSE,FALSE,FALSE,FALSE,,TRUE,FALSE,FALSE,Course Lock,131.2,52,16.4,Calm,85,,1.12.6,Mavic Mini,1SDCH7G0169R0K,1SFLH6Q0AB03DJ,1SRCH7F014TAHX,1U5X071EXP5ZJG,72.5,0.2,16.4,9.130517,2.23694,0,420,Mavic Mini,1SDCH7G0169R0K,1SFLH6Q0AB03DJ,1SRCH7F014TAHX,1U5X071EXP5ZJG,DJI Fly,,1.12.6,FD2AD0AC-25D9-8DD0-1F46-EDA643C69247,1SDCH7G0169R0K,,,,,,,,,
1/26/2024,26:54.1,12m 56.7s,776.7,6.972972745,79.91593473,0,0,0.3,58,0.1,0,0,0,0,0,0,0,0,4.8,1.8,-179.6,180.4,,Starting Motors,Auto Fly,Takeoff (App Auto),15,5,TRUE,,Mavic Mini,TRUE,FALSE,,Smart,RC,TRUE,TRUE,FALSE,,,TRUE,,FALSE,FALSE,FALSE,FALSE,FALSE,FALSE,FALSE,FALSE,FALSE,FALSE,0,Follow Yaw,0,0,177.3,177.3,FALSE,FALSE,FALSE,FALSE,FALSE,FALSE,,TRUE,Normal,,100,1024,1024,1024,1024,1,FALSE,FALSE,FALSE,FALSE,FALSE,0,FALSE,FALSE,FALSE,FALSE,46,7.39,1022,2230,7.388,FALSE,3.696,3.694,0.002,FALSE,FALSE,NA,114.4,114.4,114.4,0,0,0,0,5,2223.8,555.95,,Idle,0,20,FALSE,5,TRUE,7,Go Home,FALSE,FALSE,FALSE,FALSE,FALSE,FALSE,FALSE,FALSE,FALSE,FALSE,FALSE,FALSE,6.972972796,79.91593796,1.1,,459.3,TRUE,1,1,FALSE,FALSE,FALSE,FALSE,,TRUE,FALSE,FALSE,Course Lock,131.2,52,16.4,Calm,85,,1.12.6,Mavic Mini,1SDCH7G0169R0K,1SFLH6Q0AB03DJ,1SRCH7F014TAHX,1U5X071EXP5ZJG,72.5,0.2,16.4,9.130517,2.23694,0,420,Mavic Mini,1SDCH7G0169R0K,1SFLH6Q0AB03DJ,1SRCH7F014TAHX,1U5X071EXP5ZJG,DJI Fly,,1.12.6,FD2AD0AC-25D9-8DD0-1F46-EDA643C69247,1SDCH7G0169R0K,,,,,,,,,
1/26/2024,26:54.2,12m 56.8s,776.8,6.972972799,79.91593474,0,0,0.3,58,0.1,0,0,0,0,0,0,0,0,4.8,1.8,-179.5,180.5,,Starting Motors,Auto Fly,Takeoff (App Auto),15,5,TRUE,,Mavic Mini,TRUE,FALSE,,Smart,RC,TRUE,TRUE,FALSE,,,TRUE,,FALSE,FALSE,FALSE,FALSE,FALSE,FALSE,FALSE,FALSE,FALSE,FALSE,0,Follow Yaw,0,0,177.3,177.3,FALSE,FALSE,FALSE,FALSE,FALSE,FALSE,,TRUE,Normal,,100,1024,1024,1024,1024,1,FALSE,FALSE,FALSE,FALSE,FALSE,0,FALSE,FALSE,FALSE,FALSE,46,7.39,1022,2230,7.388,FALSE,3.696,3.694,0.002,FALSE,FALSE,NA,114.4,114.4,114.4,0,0,0,0,5,2223.8,555.95,,Idle,0,20,FALSE,5,TRUE,7,Go Home,FALSE,FALSE,FALSE,FALSE,FALSE,FALSE,FALSE,FALSE,FALSE,FALSE,FALSE,FALSE,6.972972796,79.91593796,1.1,,459.3,TRUE,1,1,FALSE,FALSE,FALSE,FALSE,,TRUE,FALSE,FALSE,Course Lock,131.2,52,16.4,Calm,85,,1.12.6,Mavic Mini,1SDCH7G0169R0K,1SFLH6Q0AB03DJ,1SRCH7F014TAHX,1U5X071EXP5ZJG,72.5,0.2,16.4,9.130517,2.23694,0,420,Mavic Mini,1SDCH7G0169R0K,1SFLH6Q0AB03DJ,1SRCH7F014TAHX,1U5X071EXP5ZJG,DJI Fly,,1.12.6,FD2AD0AC-25D9-8DD0-1F46-EDA643C69247,1SDCH7G0169R0K,,,,,,,,,
1/26/2024,26:54.3,12m 56.9s,776.9,6.972972806,79.91593474,0,0,0.3,58,0.1,0,0,0,0,0,0,0,0,4.8,1.8,-179.6,180.4,,Starting Motors,Auto Fly,Takeoff (App Auto),15,5,TRUE,,Mavic Mini,TRUE,FALSE,,Smart,RC,TRUE,TRUE,FALSE,,,TRUE,,FALSE,FALSE,FALSE,FALSE,FALSE,FALSE,FALSE,FALSE,FALSE,FALSE,0,Follow Yaw,0,0,177.3,177.3,FALSE,FALSE,FALSE,FALSE,FALSE,FALSE,,TRUE,Normal,,100,1024,1024,1024,1024,1,FALSE,FALSE,FALSE,FALSE,FALSE,0,FALSE,FALSE,FALSE,FALSE,46,7.39,1022,2230,7.39,FALSE,3.696,3.694,0.002,FALSE,FALSE,NA,114.4,114.4,114.4,0,0,0,0,5,2333.5,583.38,,Idle,0,20,FALSE,5,TRUE,7,Go Home,FALSE,FALSE,FALSE,FALSE,FALSE,FALSE,FALSE,FALSE,FALSE,FALSE,FALSE,FALSE,6.972972796,79.91593796,1.1,,459.3,TRUE,1,1,FALSE,FALSE,FALSE,FALSE,,TRUE,FALSE,FALSE,Course Lock,131.2,52,16.4,Calm,85,,1.12.6,Mavic Mini,1SDCH7G0169R0K,1SFLH6Q0AB03DJ,1SRCH7F014TAHX,1U5X071EXP5ZJG,72.5,0.2,16.4,9.130517,2.23694,0,420,Mavic Mini,1SDCH7G0169R0K,1SFLH6Q0AB03DJ,1SRCH7F014TAHX,1U5X071EXP5ZJG,DJI Fly,,1.12.6,FD2AD0AC-25D9-8DD0-1F46-EDA643C69247,1SDCH7G0169R0K,,,,,,,,,
1/26/2024,26:54.4,12m 57.0s,777,6.972972812,79.91593474,0,0,0.3,58,0.1,0,0,0,0,0,0,0,0,4.8,1.8,-179.6,180.4,,Auto Takeoff,Auto Fly,Takeoff (App Auto),15,5,TRUE,,Mavic Mini,TRUE,FALSE,,Smart,RC,TRUE,TRUE,FALSE,,,TRUE,,FALSE,FALSE,FALSE,FALSE,FALSE,FALSE,FALSE,FALSE,FALSE,FALSE,0,Follow Yaw,0,0,177.3,177.3,FALSE,FALSE,FALSE,FALSE,FALSE,FALSE,,TRUE,Normal,,100,1024,1024,1024,1024,1,FALSE,FALSE,FALSE,FALSE,FALSE,0,FALSE,FALSE,FALSE,FALSE,46,7.39,1022,2230,7.39,FALSE,3.696,3.694,0.002,FALSE,FALSE,NA,114.4,114.4,114.4,0,0,0,0,5,2333.5,583.38,,Idle,0,20,FALSE,5,TRUE,7,Go Home,FALSE,FALSE,FALSE,FALSE,FALSE,FALSE,FALSE,FALSE,FALSE,FALSE,FALSE,FALSE,6.972972796,79.91593796,1.1,,459.3,TRUE,1,1,FALSE,FALSE,FALSE,FALSE,,TRUE,FALSE,FALSE,Course Lock,131.2,52,16.4,Calm,85,,1.12.6,Mavic Mini,1SDCH7G0169R0K,1SFLH6Q0AB03DJ,1SRCH7F014TAHX,1U5X071EXP5ZJG,72.5,0.2,16.4,9.130517,2.23694,0,420,Mavic Mini,1SDCH7G0169R0K,1SFLH6Q0AB03DJ,1SRCH7F014TAHX,1U5X071EXP5ZJG,DJI Fly,,1.12.6,FD2AD0AC-25D9-8DD0-1F46-EDA643C69247,1SDCH7G0169R0K,,,,,,,,Flight mode changed to Auto Takeoff.,
1/26/2024,26:54.5,12m 57.1s,777.1,6.972972815,79.91593474,0,0,0.3,58,0.1,0,0,0,0,0,0,0,0,4.3,1.5,-179.6,180.4,,Auto Takeoff,Auto Fly,Takeoff (App Auto),15,5,TRUE,,Mavic Mini,TRUE,FALSE,,Smart,RC,TRUE,TRUE,FALSE,,,TRUE,,FALSE,FALSE,FALSE,FALSE,FALSE,FALSE,FALSE,FALSE,FALSE,FALSE,0,Follow Yaw,0,0,177.3,177.3,FALSE,FALSE,FALSE,FALSE,FALSE,FALSE,,TRUE,Normal,,100,1024,1024,1024,1024,1,FALSE,FALSE,FALSE,FALSE,FALSE,0,FALSE,FALSE,FALSE,FALSE,46,7.376,1021,2230,7.39,FALSE,3.692,3.684,0.008,FALSE,FALSE,NA,114.4,114.4,114.4,0,0,0,0,5,2333.5,583.38,,Idle,0,20,FALSE,5,TRUE,7,Go Home,FALSE,FALSE,FALSE,FALSE,FALSE,FALSE,FALSE,FALSE,FALSE,FALSE,FALSE,FALSE,6.972972796,79.91593796,1.1,,459.3,TRUE,1,1,FALSE,FALSE,FALSE,FALSE,,TRUE,FALSE,FALSE,Course Lock,131.2,52,16.4,Calm,85,,1.12.6,Mavic Mini,1SDCH7G0169R0K,1SFLH6Q0AB03DJ,1SRCH7F014TAHX,1U5X071EXP5ZJG,72.5,0.2,16.4,9.130517,2.23694,0,420,Mavic Mini,1SDCH7G0169R0K,1SFLH6Q0AB03DJ,1SRCH7F014TAHX,1U5X071EXP5ZJG,DJI Fly,,1.12.6,FD2AD0AC-25D9-8DD0-1F46-EDA643C69247,1SDCH7G0169R0K,,,,,,,,,
1/26/2024,26:54.6,12m 57.2s,777.2,6.972972701,79.91593466,0,0,0.3,58,0.1,0,0,0,0,0,0,0,0,3.1,0.2,-179.8,180.2,,Auto Takeoff,Auto Fly,Takeoff (App Auto),15,5,TRUE,,Mavic Mini,TRUE,FALSE,,Smart,RC,TRUE,TRUE,FALSE,,,TRUE,,FALSE,FALSE,FALSE,FALSE,FALSE,FALSE,FALSE,FALSE,FALSE,FALSE,0,Follow Yaw,0,0,177.3,177.3,FALSE,FALSE,FALSE,FALSE,FALSE,FALSE,,TRUE,Normal,,100,1024,1024,1024,1024,1,FALSE,FALSE,FALSE,FALSE,FALSE,0,FALSE,FALSE,FALSE,FALSE,46,7.376,1021,2230,7.39,FALSE,3.692,3.684,0.008,FALSE,FALSE,NA,114.4,114.4,114.4,0,0,0,0,5,2333.5,583.38,,Idle,0,20,FALSE,5,TRUE,7,Go Home,FALSE,FALSE,FALSE,FALSE,FALSE,FALSE,FALSE,FALSE,FALSE,FALSE,FALSE,FALSE,6.972972796,79.91593796,1.1,,459.3,TRUE,1,1,FALSE,FALSE,FALSE,FALSE,,TRUE,FALSE,FALSE,Course Lock,131.2,52,16.4,Calm,85,,1.12.6,Mavic Mini,1SDCH7G0169R0K,1SFLH6Q0AB03DJ,1SRCH7F014TAHX,1U5X071EXP5ZJG,72.5,0.2,16.4,9.130517,2.23694,0,420,Mavic Mini,1SDCH7G0169R0K,1SFLH6Q0AB03DJ,1SRCH7F014TAHX,1U5X071EXP5ZJG,DJI Fly,,1.12.6,FD2AD0AC-25D9-8DD0-1F46-EDA643C69247,1SDCH7G0169R0K,,,,,,,,,
1/26/2024,26:54.7,12m 57.3s,777.3,6.972972641,79.91593467,0,0,0.3,58,0.2,0,0,0,0,0,0,0,0,2.8,-0.1,179.9,179.9,,Auto Takeoff,Auto Fly,Takeoff (App Auto),15,5,TRUE,,Mavic Mini,TRUE,FALSE,,Smart,RC,TRUE,TRUE,FALSE,,,TRUE,,FALSE,FALSE,FALSE,FALSE,FALSE,FALSE,FALSE,FALSE,FALSE,FALSE,0,Follow Yaw,0,0,177.3,177.3,FALSE,FALSE,FALSE,FALSE,FALSE,FALSE,,TRUE,Normal,,100,1024,1024,1024,1024,1,FALSE,FALSE,FALSE,FALSE,FALSE,0,FALSE,FALSE,FALSE,FALSE,46,7.376,1021,2230,7.39,FALSE,3.692,3.684,0.008,FALSE,FALSE,NA,114.4,114.4,114.4,0,0,0,0,5,2333.5,583.38,,Idle,0,20,FALSE,5,TRUE,7,Go Home,FALSE,FALSE,FALSE,FALSE,FALSE,FALSE,FALSE,FALSE,FALSE,FALSE,FALSE,FALSE,6.972972796,79.91593796,1.1,,459.3,TRUE,1,1,FALSE,FALSE,FALSE,FALSE,,TRUE,FALSE,FALSE,Course Lock,131.2,52,16.4,Calm,85,,1.12.6,Mavic Mini,1SDCH7G0169R0K,1SFLH6Q0AB03DJ,1SRCH7F014TAHX,1U5X071EXP5ZJG,72.5,0.2,16.4,9.130517,2.23694,0,420,Mavic Mini,1SDCH7G0169R0K,1SFLH6Q0AB03DJ,1SRCH7F014TAHX,1U5X071EXP5ZJG,DJI Fly,,1.12.6,FD2AD0AC-25D9-8DD0-1F46-EDA643C69247,1SDCH7G0169R0K,,,,,,,,,
1/26/2024,26:54.8,12m 57.4s,777.4,6.972972605,79.91593468,0,0,0.3,58,0.2,0,0,0,0,0,0,0,0,2.5,-0.1,179.7,179.7,,Auto Takeoff,Auto Fly,Takeoff (App Auto),15,5,TRUE,,Mavic Mini,TRUE,FALSE,,Smart,RC,TRUE,TRUE,FALSE,,,TRUE,,FALSE,FALSE,FALSE,FALSE,FALSE,FALSE,FALSE,FALSE,FALSE,FALSE,0,Follow Yaw,0,0,177.3,177.3,FALSE,FALSE,FALSE,FALSE,FALSE,FALSE,,TRUE,Normal,,100,1024,1024,1024,1024,1,FALSE,FALSE,FALSE,FALSE,FALSE,0,FALSE,FALSE,FALSE,FALSE,46,7.376,1021,2230,7.39,FALSE,3.692,3.684,0.008,FALSE,FALSE,NA,114.4,114.4,114.4,0,0,0,0,5,2333.5,583.38,,Idle,0,20,FALSE,5,TRUE,7,Go Home,FALSE,FALSE,FALSE,FALSE,FALSE,FALSE,FALSE,FALSE,FALSE,FALSE,FALSE,FALSE,6.972972796,79.91593796,1.1,,459.3,TRUE,1,1,FALSE,FALSE,FALSE,FALSE,,TRUE,FALSE,FALSE,Course Lock,131.2,52,16.4,Calm,85,,1.12.6,Mavic Mini,1SDCH7G0169R0K,1SFLH6Q0AB03DJ,1SRCH7F014TAHX,1U5X071EXP5ZJG,72.5,0.2,16.4,9.130517,2.23694,0,420,Mavic Mini,1SDCH7G0169R0K,1SFLH6Q0AB03DJ,1SRCH7F014TAHX,1U5X071EXP5ZJG,DJI Fly,,1.12.6,FD2AD0AC-25D9-8DD0-1F46-EDA643C69247,1SDCH7G0169R0K,,,,,,,,,
1/26/2024,26:55.0,12m 57.5s,777.5,6.97297258,79.91593469,0,0,0.3,58,0.2,0,0,0,0,0,0,0,0,2.3,-0.1,179.5,179.5,,Auto Takeoff,Auto Fly,Takeoff (App Auto),15,5,TRUE,,Mavic Mini,TRUE,FALSE,,Smart,RC,TRUE,TRUE,FALSE,,,TRUE,,FALSE,FALSE,FALSE,FALSE,FALSE,FALSE,FALSE,FALSE,FALSE,FALSE,0,Follow Yaw,0,0,177.3,177.3,FALSE,FALSE,FALSE,FALSE,FALSE,FALSE,,TRUE,Normal,,100,1024,1024,1024,1024,1,FALSE,FALSE,FALSE,FALSE,FALSE,0,FALSE,FALSE,FALSE,FALSE,46,7.376,1021,2230,7.39,FALSE,3.692,3.684,0.008,FALSE,FALSE,NA,114.4,114.4,114.4,0,0,0,0,5,2333.5,583.38,,Idle,0,20,FALSE,5,TRUE,7,Go Home,FALSE,FALSE,FALSE,FALSE,FALSE,FALSE,FALSE,FALSE,FALSE,FALSE,FALSE,FALSE,6.972972796,79.91593796,1.1,,459.3,TRUE,1,1,FALSE,FALSE,FALSE,FALSE,,TRUE,FALSE,FALSE,Course Lock,131.2,52,16.4,Calm,85,,1.12.6,Mavic Mini,1SDCH7G0169R0K,1SFLH6Q0AB03DJ,1SRCH7F014TAHX,1U5X071EXP5ZJG,72.5,0.2,16.4,9.130517,2.23694,0,420,Mavic Mini,1SDCH7G0169R0K,1SFLH6Q0AB03DJ,1SRCH7F014TAHX,1U5X071EXP5ZJG,DJI Fly,,1.12.6,FD2AD0AC-25D9-8DD0-1F46-EDA643C69247,1SDCH7G0169R0K,,,,,,,,,
1/26/2024,26:55.1,12m 57.6s,777.6,6.972972586,79.91593467,0,0,0.3,58,0.2,0,0,0,0,0,0,0,0,1,-0.4,179.2,179.2,,Auto Takeoff,Auto Fly,Takeoff (App Auto),15,5,TRUE,,Mavic Mini,TRUE,FALSE,,Smart,RC,TRUE,TRUE,FALSE,,,TRUE,,FALSE,FALSE,FALSE,FALSE,FALSE,FALSE,FALSE,FALSE,FALSE,FALSE,0,Follow Yaw,0,0,177.3,177.3,FALSE,FALSE,FALSE,FALSE,FALSE,FALSE,,TRUE,Normal,,100,1024,1024,1024,1024,1,FALSE,FALSE,FALSE,FALSE,FALSE,0,FALSE,FALSE,FALSE,FALSE,46,7.376,1021,2230,7.39,FALSE,3.692,3.684,0.008,FALSE,FALSE,NA,114.4,114.4,114.4,0,0,0,0,5,2333.5,583.38,,Idle,0,20,FALSE,5,TRUE,7,Go Home,FALSE,FALSE,FALSE,FALSE,FALSE,FALSE,FALSE,FALSE,FALSE,FALSE,FALSE,FALSE,6.972972796,79.91593796,1.1,,459.3,TRUE,1,1,FALSE,FALSE,FALSE,FALSE,,TRUE,FALSE,FALSE,Course Lock,131.2,52,16.4,Calm,85,,1.12.6,Mavic Mini,1SDCH7G0169R0K,1SFLH6Q0AB03DJ,1SRCH7F014TAHX,1U5X071EXP5ZJG,72.5,0.2,16.4,9.130517,2.23694,0,420,Mavic Mini,1SDCH7G0169R0K,1SFLH6Q0AB03DJ,1SRCH7F014TAHX,1U5X071EXP5ZJG,DJI Fly,,1.12.6,FD2AD0AC-25D9-8DD0-1F46-EDA643C69247,1SDCH7G0169R0K,,,,,,,,,
1/26/2024,26:55.2,12m 57.7s,777.7,6.972972569,79.91593468,0,0,0.3,58,0.2,0,0,0,0,0,0,0,0,0,-1,178.2,178.2,,Auto Takeoff,Auto Fly,Takeoff (App Auto),15,5,TRUE,,Mavic Mini,TRUE,FALSE,,Smart,RC,TRUE,TRUE,FALSE,,,TRUE,,FALSE,FALSE,FALSE,FALSE,FALSE,FALSE,FALSE,FALSE,FALSE,FALSE,0,Follow Yaw,0,0,177.3,177.3,FALSE,FALSE,FALSE,FALSE,FALSE,FALSE,,TRUE,Normal,,100,1024,1024,1024,1024,1,FALSE,FALSE,FALSE,FALSE,FALSE,0,FALSE,FALSE,FALSE,FALSE,46,7.376,1021,2230,7.39,FALSE,3.692,3.684,0.008,FALSE,FALSE,NA,114.4,114.4,114.4,0,0,0,0,5,2333.5,583.38,,Idle,0,20,FALSE,5,TRUE,7,Go Home,FALSE,FALSE,FALSE,FALSE,FALSE,FALSE,FALSE,FALSE,FALSE,FALSE,FALSE,FALSE,6.972972796,79.91593796,1.1,,459.3,TRUE,1,1,FALSE,FALSE,FALSE,FALSE,,TRUE,FALSE,FALSE,Course Lock,131.2,52,16.4,Calm,85,,1.12.6,Mavic Mini,1SDCH7G0169R0K,1SFLH6Q0AB03DJ,1SRCH7F014TAHX,1U5X071EXP5ZJG,72.5,0.2,16.4,9.130517,2.23694,0,420,Mavic Mini,1SDCH7G0169R0K,1SFLH6Q0AB03DJ,1SRCH7F014TAHX,1U5X071EXP5ZJG,DJI Fly,,1.12.6,FD2AD0AC-25D9-8DD0-1F46-EDA643C69247,1SDCH7G0169R0K,,,,,,,,,
1/26/2024,26:55.2,12m 57.8s,777.8,6.97297255,79.91593472,0,0,0.3,58,0.2,0,0,0,0,0,0,-0.223694,0,0.3,-1.2,177.5,177.5,,Auto Takeoff,Auto Fly,Takeoff (App Auto),15,5,TRUE,,Mavic Mini,TRUE,FALSE,,Smart,RC,FALSE,TRUE,FALSE,,,TRUE,,FALSE,FALSE,FALSE,FALSE,FALSE,FALSE,FALSE,FALSE,FALSE,FALSE,0,Follow Yaw,0,0,177.2,177.2,FALSE,FALSE,FALSE,FALSE,FALSE,FALSE,,TRUE,Normal,,100,1024,1024,1024,1024,1,FALSE,FALSE,FALSE,FALSE,FALSE,0,FALSE,FALSE,FALSE,FALSE,46,7.376,1021,2230,7.39,FALSE,3.692,3.684,0.008,FALSE,FALSE,NA,114.4,114.4,114.4,0,0,0,0,5,2333.5,583.38,,Idle,0,20,FALSE,5,TRUE,7,Go Home,FALSE,FALSE,FALSE,FALSE,FALSE,FALSE,FALSE,FALSE,FALSE,FALSE,FALSE,FALSE,6.972972796,79.91593796,1.1,,459.3,TRUE,1,1,FALSE,FALSE,FALSE,FALSE,,TRUE,FALSE,FALSE,Course Lock,131.2,52,16.4,Calm,85,,1.12.6,Mavic Mini,1SDCH7G0169R0K,1SFLH6Q0AB03DJ,1SRCH7F014TAHX,1U5X071EXP5ZJG,72.5,0.2,16.4,9.130517,2.23694,0,420,Mavic Mini,1SDCH7G0169R0K,1SFLH6Q0AB03DJ,1SRCH7F014TAHX,1U5X071EXP5ZJG,DJI Fly,,1.12.6,FD2AD0AC-25D9-8DD0-1F46-EDA643C69247,1SDCH7G0169R0K,,,,,,,,,
1/26/2024,26:55.3,12m 57.9s,777.9,6.972972527,79.91593477,0,0,0.3,58,0.2,0,0,0,0,0,0,-0.671082,0,0.7,-0.5,177.3,177.3,,Auto Takeoff,Auto Fly,Takeoff (App Auto),15,5,TRUE,,Mavic Mini,TRUE,FALSE,,Smart,RC,FALSE,TRUE,FALSE,,,TRUE,,FALSE,FALSE,FALSE,FALSE,FALSE,FALSE,FALSE,FALSE,FALSE,FALSE,0,Follow Yaw,0,0,177.1,177.1,FALSE,FALSE,FALSE,FALSE,FALSE,FALSE,,TRUE,Normal,,100,1024,1024,1024,1024,1,FALSE,FALSE,FALSE,FALSE,FALSE,0,FALSE,FALSE,FALSE,FALSE,46,7.376,1021,2230,7.333,FALSE,3.692,3.684,0.008,FALSE,FALSE,NA,114.4,114.4,114.4,0,0,0,0,5,2472,618.01,,Idle,0,20,FALSE,5,TRUE,7,Go Home,FALSE,FALSE,FALSE,FALSE,FALSE,FALSE,FALSE,FALSE,FALSE,FALSE,FALSE,FALSE,6.972972558,79.91593469,0,,459.3,TRUE,1,1,FALSE,FALSE,FALSE,FALSE,,TRUE,FALSE,FALSE,Course Lock,131.2,52,16.4,Calm,85,,1.12.6,Mavic Mini,1SDCH7G0169R0K,1SFLH6Q0AB03DJ,1SRCH7F014TAHX,1U5X071EXP5ZJG,72.5,0.2,16.4,9.130517,2.23694,0,420,Mavic Mini,1SDCH7G0169R0K,1SFLH6Q0AB03DJ,1SRCH7F014TAHX,1U5X071EXP5ZJG,DJI Fly,,1.12.6,FD2AD0AC-25D9-8DD0-1F46-EDA643C69247,1SDCH7G0169R0K,,,,,6.972949463,79.91597353,5,Home Point updated. RTH altitude adjusted to 40 m! (Code: 120852).,
1/26/2024,26:55.4,12m 58.0s,778,6.972972572,79.91593482,0,0,0.6,58,0.2,0,0,0,0,0,0,-0.894776,0,0.7,-0.1,177.4,177.4,,Auto Takeoff,Auto Fly,Takeoff (App Auto),15,5,TRUE,,Mavic Mini,TRUE,FALSE,,Smart,RC,FALSE,TRUE,FALSE,,,TRUE,,FALSE,FALSE,FALSE,FALSE,FALSE,FALSE,FALSE,FALSE,FALSE,FALSE,0,Follow Yaw,0,0,177,177,FALSE,FALSE,FALSE,FALSE,FALSE,FALSE,,TRUE,Normal,,100,1024,1024,1024,1024,1,FALSE,FALSE,FALSE,FALSE,FALSE,0,FALSE,FALSE,FALSE,FALSE,46,7.376,1021,2230,7.333,FALSE,3.692,3.684,0.008,FALSE,FALSE,NA,114.4,114.4,114.4,0,0,0,0,5,2472,618.01,,Idle,0,20,FALSE,5,TRUE,7,Go Home,FALSE,FALSE,FALSE,FALSE,FALSE,FALSE,FALSE,FALSE,FALSE,FALSE,FALSE,FALSE,6.972972558,79.91593469,0,,459.3,TRUE,1,1,FALSE,FALSE,FALSE,FALSE,,TRUE,FALSE,FALSE,Course Lock,131.2,52,16.4,Calm,85,,1.12.6,Mavic Mini,1SDCH7G0169R0K,1SFLH6Q0AB03DJ,1SRCH7F014TAHX,1U5X071EXP5ZJG,72.5,0.2,16.4,9.130517,2.23694,0,420,Mavic Mini,1SDCH7G0169R0K,1SFLH6Q0AB03DJ,1SRCH7F014TAHX,1U5X071EXP5ZJG,DJI Fly,,1.12.6,FD2AD0AC-25D9-8DD0-1F46-EDA643C69247,1SDCH7G0169R0K,,,,,6.972949463,79.91597353,5,,
1/26/2024,26:55.5,12m 58.1s,778.1,6.972972544,79.91593483,0.3,0.3,0.6,58,0.3,0,0,0,0,0,0,-1.11847,0,0.8,0.1,177.5,177.5,,Auto Takeoff,Auto Fly,Takeoff (App Auto),15,5,TRUE,,Mavic Mini,TRUE,FALSE,,Smart,RC,FALSE,TRUE,FALSE,,,TRUE,,FALSE,FALSE,FALSE,FALSE,FALSE,FALSE,FALSE,FALSE,FALSE,FALSE,0,Follow Yaw,0,0,176.9,176.9,FALSE,FALSE,FALSE,FALSE,FALSE,FALSE,,TRUE,Normal,,100,1024,1024,1024,1024,1,FALSE,FALSE,FALSE,FALSE,FALSE,0,FALSE,FALSE,FALSE,FALSE,46,7.376,1021,2230,7.333,FALSE,3.692,3.684,0.008,FALSE,FALSE,NA,114.4,114.4,114.4,0,0,0,0,5,2472,618.01,,Idle,0,20,FALSE,5,TRUE,7,Go Home,FALSE,FALSE,FALSE,FALSE,FALSE,FALSE,FALSE,FALSE,FALSE,FALSE,FALSE,FALSE,6.972972558,79.91593469,0,,459.3,TRUE,1,1,FALSE,FALSE,FALSE,FALSE,,TRUE,FALSE,FALSE,Course Lock,131.2,52,16.4,Calm,85,,1.12.6,Mavic Mini,1SDCH7G0169R0K,1SFLH6Q0AB03DJ,1SRCH7F014TAHX,1U5X071EXP5ZJG,72.5,0.2,16.4,9.130517,2.23694,0,420,Mavic Mini,1SDCH7G0169R0K,1SFLH6Q0AB03DJ,1SRCH7F014TAHX,1U5X071EXP5ZJG,DJI Fly,,1.12.6,FD2AD0AC-25D9-8DD0-1F46-EDA643C69247,1SDCH7G0169R0K,,,,,6.972949463,79.91597353,5,,
1/26/2024,26:55.6,12m 58.2s,778.2,6.972972514,79.91593477,0.3,0.3,0.6,58,0.3,0,0,0,0,0,0,-1.342164,0,0.8,-0.1,177.5,177.5,,Auto Takeoff,Auto Fly,Takeoff (App Auto),15,5,TRUE,,Mavic Mini,TRUE,FALSE,,Smart,RC,FALSE,TRUE,FALSE,,,TRUE,,FALSE,FALSE,FALSE,FALSE,FALSE,FALSE,FALSE,FALSE,FALSE,FALSE,0,Follow Yaw,0,0,176.8,176.8,FALSE,FALSE,FALSE,FALSE,FALSE,FALSE,,TRUE,Normal,,100,1024,1024,1024,1024,1,FALSE,FALSE,FALSE,FALSE,FALSE,0,FALSE,FALSE,FALSE,FALSE,46,7.208,1020,2230,7.333,FALSE,3.607,3.601,0.008,FALSE,FALSE,NA,114.4,114.4,114.4,0,0,0,0,5,2472,618.01,,Idle,0,20,FALSE,5,TRUE,7,Go Home,FALSE,FALSE,FALSE,FALSE,FALSE,FALSE,FALSE,FALSE,FALSE,FALSE,FALSE,FALSE,6.972972558,79.91593469,0,,459.3,TRUE,1,1,FALSE,FALSE,FALSE,FALSE,,TRUE,FALSE,FALSE,Course Lock,131.2,52,16.4,Calm,85,,1.12.6,Mavic Mini,1SDCH7G0169R0K,1SFLH6Q0AB03DJ,1SRCH7F014TAHX,1U5X071EXP5ZJG,72.5,0.2,16.4,9.130517,2.23694,0,420,Mavic Mini,1SDCH7G0169R0K,1SFLH6Q0AB03DJ,1SRCH7F014TAHX,1U5X071EXP5ZJG,DJI Fly,,1.12.6,FD2AD0AC-25D9-8DD0-1F46-EDA643C69247,1SDCH7G0169R0K,,,,,6.972949463,79.91597353,5,,
1/26/2024,26:55.7,12m 58.3s,778.3,6.972972477,79.91593467,0.6,0.6,0.9,59,0.3,0,0,0,0,0,0,-1.565858,0,0.9,-0.6,177.3,177.3,,Auto Takeoff,Auto Fly,Takeoff (App Auto),15,5,TRUE,,Mavic Mini,TRUE,FALSE,,Smart,RC,FALSE,TRUE,FALSE,,,TRUE,,FALSE,FALSE,FALSE,FALSE,FALSE,FALSE,FALSE,FALSE,FALSE,FALSE,0,Follow Yaw,0,0,176.7,176.7,FALSE,FALSE,FALSE,FALSE,FALSE,FALSE,,TRUE,Normal,,100,1024,1024,1024,1024,1,FALSE,FALSE,FALSE,FALSE,FALSE,0,FALSE,FALSE,FALSE,FALSE,46,7.208,1020,2230,7.333,FALSE,3.607,3.601,0.008,FALSE,FALSE,NA,114.4,114.4,114.4,0,0,0,0,5,2472,618.01,,Idle,0,20,FALSE,5,TRUE,7,Go Home,FALSE,FALSE,FALSE,FALSE,FALSE,FALSE,FALSE,FALSE,FALSE,FALSE,FALSE,FALSE,6.972972558,79.91593469,0,,459.3,TRUE,1,1,FALSE,FALSE,FALSE,FALSE,,TRUE,FALSE,FALSE,Course Lock,131.2,52,16.4,Calm,85,,1.12.6,Mavic Mini,1SDCH7G0169R0K,1SFLH6Q0AB03DJ,1SRCH7F014TAHX,1U5X071EXP5ZJG,72.5,0.2,16.4,9.130517,2.23694,0,420,Mavic Mini,1SDCH7G0169R0K,1SFLH6Q0AB03DJ,1SRCH7F014TAHX,1U5X071EXP5ZJG,DJI Fly,,1.12.6,FD2AD0AC-25D9-8DD0-1F46-EDA643C69247,1SDCH7G0169R0K,,,,,6.972949463,79.91597353,5,,
1/26/2024,26:55.8,12m 58.4s,778.4,6.972972425,79.91593461,0.6,0.6,1.3,59,0.4,0,0,0,0,0,0,-1.789552,0,1.3,-0.9,177.5,177.5,,Auto Takeoff,Auto Fly,Takeoff (App Auto),15,5,TRUE,,Mavic Mini,TRUE,FALSE,,Smart,RC,FALSE,TRUE,FALSE,,,TRUE,,FALSE,FALSE,FALSE,FALSE,FALSE,FALSE,FALSE,FALSE,FALSE,FALSE,0,Follow Yaw,0,0,176.7,176.7,FALSE,FALSE,FALSE,FALSE,FALSE,FALSE,,TRUE,Normal,,100,1024,1024,1024,1024,1,FALSE,FALSE,FALSE,FALSE,FALSE,0,FALSE,FALSE,FALSE,FALSE,46,7.208,1020,2230,7.333,FALSE,3.607,3.601,0.008,FALSE,FALSE,NA,114.4,114.4,114.4,0,0,0,0,5,2472,618.01,,Idle,0,20,FALSE,5,TRUE,7,Go Home,FALSE,FALSE,FALSE,FALSE,FALSE,FALSE,FALSE,FALSE,FALSE,FALSE,FALSE,FALSE,6.972972558,79.91593469,0,,459.3,TRUE,1,1,FALSE,FALSE,FALSE,FALSE,,TRUE,FALSE,FALSE,Course Lock,131.2,52,16.4,Calm,85,,1.12.6,Mavic Mini,1SDCH7G0169R0K,1SFLH6Q0AB03DJ,1SRCH7F014TAHX,1U5X071EXP5ZJG,72.5,0.2,16.4,9.130517,2.23694,0,420,Mavic Mini,1SDCH7G0169R0K,1SFLH6Q0AB03DJ,1SRCH7F014TAHX,1U5X071EXP5ZJG,DJI Fly,,1.12.6,FD2AD0AC-25D9-8DD0-1F46-EDA643C69247,1SDCH7G0169R0K,,,,,6.972949463,79.91597353,5,,
1/26/2024,26:55.9,12m 58.5s,778.5,6.972972359,79.91593448,0.9,0.9,1.3,59,0.4,0,0,0,0,0,0,-2.013246,0,0.8,-1.4,177.5,177.5,,Auto Takeoff,Auto Fly,Takeoff (App Auto),14,5,TRUE,,Mavic Mini,TRUE,FALSE,,Smart,RC,FALSE,TRUE,FALSE,,,TRUE,,FALSE,FALSE,FALSE,FALSE,FALSE,FALSE,FALSE,FALSE,FALSE,FALSE,0,Follow Yaw,0,0,176.6,176.6,FALSE,FALSE,FALSE,FALSE,FALSE,FALSE,,TRUE,Normal,,100,1024,1024,1024,1024,1,FALSE,FALSE,FALSE,FALSE,FALSE,0,FALSE,FALSE,FALSE,FALSE,46,7.208,1020,2230,7.333,FALSE,3.607,3.601,0.008,FALSE,FALSE,NA,114.4,114.4,114.4,0,0,0,0,5,2472,618.01,,Idle,0,20,FALSE,5,TRUE,7,Go Home,FALSE,FALSE,FALSE,FALSE,FALSE,FALSE,FALSE,FALSE,FALSE,FALSE,FALSE,FALSE,6.972972558,79.91593469,0.1,,459.3,TRUE,1,1,FALSE,FALSE,FALSE,FALSE,,TRUE,FALSE,FALSE,Course Lock,131.2,52,16.4,Calm,85,,1.12.6,Mavic Mini,1SDCH7G0169R0K,1SFLH6Q0AB03DJ,1SRCH7F014TAHX,1U5X071EXP5ZJG,72.5,0.2,16.4,9.130517,2.23694,0,420,Mavic Mini,1SDCH7G0169R0K,1SFLH6Q0AB03DJ,1SRCH7F014TAHX,1U5X071EXP5ZJG,DJI Fly,,1.12.6,FD2AD0AC-25D9-8DD0-1F46-EDA643C69247,1SDCH7G0169R0K,,,,,6.972949463,79.91597353,5,,
1/26/2024,26:56.0,12m 58.6s,778.6,6.972972271,79.91593439,1.3,1.3,1.6,59,0.4,0,0,0,0,0,0,-2.23694,0,1,-1.9,177.5,177.5,,Auto Takeoff,Auto Fly,Takeoff (App Auto),14,5,TRUE,,Mavic Mini,TRUE,FALSE,,Smart,RC,FALSE,TRUE,FALSE,,,TRUE,,FALSE,FALSE,FALSE,FALSE,FALSE,FALSE,FALSE,FALSE,FALSE,FALSE,0,Follow Yaw,0,0,176.6,176.6,FALSE,FALSE,FALSE,FALSE,FALSE,FALSE,,TRUE,Normal,,100,1024,1024,1024,1024,1,FALSE,FALSE,FALSE,FALSE,FALSE,0,FALSE,FALSE,FALSE,FALSE,46,7.208,1020,2230,7.333,FALSE,3.607,3.601,0.008,FALSE,FALSE,NA,114.4,114.4,114.4,0,0,0,0,5,2472,618.01,,Idle,0,20,FALSE,5,TRUE,7,Go Home,FALSE,FALSE,FALSE,FALSE,FALSE,FALSE,FALSE,FALSE,FALSE,FALSE,FALSE,FALSE,6.972972558,79.91593469,0.1,,459.3,TRUE,1,1,FALSE,FALSE,FALSE,FALSE,,TRUE,FALSE,FALSE,Course Lock,131.2,52,16.4,Calm,85,,1.12.6,Mavic Mini,1SDCH7G0169R0K,1SFLH6Q0AB03DJ,1SRCH7F014TAHX,1U5X071EXP5ZJG,72.5,0.2,16.4,9.130517,2.23694,0,420,Mavic Mini,1SDCH7G0169R0K,1SFLH6Q0AB03DJ,1SRCH7F014TAHX,1U5X071EXP5ZJG,DJI Fly,,1.12.6,FD2AD0AC-25D9-8DD0-1F46-EDA643C69247,1SDCH7G0169R0K,,,,,6.972949463,79.91597353,5,,
1/26/2024,26:56.1,12m 58.7s,778.7,6.972972166,79.91593426,1.6,1.6,1.9,60,0.5,0.223694,0.223694,0,0,-0.223694,0,-2.23694,0,0.8,-2.1,177.5,177.5,222.2,Auto Takeoff,Auto Fly,Takeoff (App Auto),14,5,TRUE,,Mavic Mini,TRUE,FALSE,,Smart,RC,FALSE,TRUE,FALSE,,,TRUE,,FALSE,FALSE,FALSE,FALSE,FALSE,FALSE,FALSE,FALSE,FALSE,FALSE,0,Follow Yaw,0,0,176.5,176.5,FALSE,FALSE,FALSE,FALSE,FALSE,FALSE,,TRUE,Normal,,100,1024,1024,1024,1024,1,FALSE,FALSE,FALSE,FALSE,FALSE,0,FALSE,FALSE,FALSE,FALSE,46,7.208,1020,2230,7.333,FALSE,3.607,3.601,0.008,FALSE,FALSE,NA,114.4,114.4,114.4,0,0,0,0,5,2472,618.01,,Idle,0,20,FALSE,5,TRUE,7,Go Home,FALSE,FALSE,FALSE,FALSE,FALSE,FALSE,FALSE,FALSE,FALSE,FALSE,FALSE,FALSE,6.972972558,79.91593469,0.2,,459.3,TRUE,1,1,FALSE,FALSE,FALSE,FALSE,,TRUE,FALSE,FALSE,Course Lock,131.2,52,16.4,Calm,85,,1.12.6,Mavic Mini,1SDCH7G0169R0K,1SFLH6Q0AB03DJ,1SRCH7F014TAHX,1U5X071EXP5ZJG,72.5,0.2,16.4,9.130517,2.23694,0,420,Mavic Mini,1SDCH7G0169R0K,1SFLH6Q0AB03DJ,1SRCH7F014TAHX,1U5X071EXP5ZJG,DJI Fly,,1.12.6,FD2AD0AC-25D9-8DD0-1F46-EDA643C69247,1SDCH7G0169R0K,,,,,6.972949463,79.91597353,5,,
1/26/2024,26:56.2,12m 58.8s,778.8,6.972972099,79.91593412,1.9,1.9,2.2,60,0.6,0.223694,0.223694,0,0,-0.223694,0,-2.23694,0,0.9,-2.2,177.4,177.4,239.4,Auto Takeoff,Auto Fly,Takeoff (App Auto),14,5,TRUE,,Mavic Mini,TRUE,FALSE,,Smart,RC,FALSE,TRUE,FALSE,,,TRUE,,FALSE,FALSE,FALSE,FALSE,FALSE,FALSE,FALSE,FALSE,FALSE,FALSE,0,Follow Yaw,0,0,176.5,176.5,FALSE,FALSE,FALSE,FALSE,FALSE,FALSE,,TRUE,Normal,,100,1024,1024,1024,1024,1,FALSE,FALSE,FALSE,FALSE,FALSE,0,FALSE,FALSE,FALSE,FALSE,46,7.208,1020,2230,7.333,FALSE,3.607,3.601,0.008,FALSE,FALSE,NA,114.4,114.4,114.4,0,0,0,0,5,2472,618.01,,Idle,0,20,FALSE,5,TRUE,7,Go Home,FALSE,FALSE,FALSE,FALSE,FALSE,FALSE,FALSE,FALSE,FALSE,FALSE,FALSE,FALSE,6.972972558,79.91593469,0.2,,459.3,TRUE,1,1,FALSE,FALSE,FALSE,FALSE,,TRUE,FALSE,FALSE,Course Lock,131.2,52,16.4,Calm,85,,1.12.6,Mavic Mini,1SDCH7G0169R0K,1SFLH6Q0AB03DJ,1SRCH7F014TAHX,1U5X071EXP5ZJG,72.5,0.2,16.4,9.130517,2.23694,0,420,Mavic Mini,1SDCH7G0169R0K,1SFLH6Q0AB03DJ,1SRCH7F014TAHX,1U5X071EXP5ZJG,DJI Fly,,1.12.6,FD2AD0AC-25D9-8DD0-1F46-EDA643C69247,1SDCH7G0169R0K,,,,,6.972949463,79.91597353,5,,
1/26/2024,26:56.3,12m 58.9s,778.9,6.972971955,79.91593378,2.2,2.2,2.6,60,0.7,0.223694,0.223694,0,0,-0.223694,0,-2.23694,0,0.6,-2.9,177.4,177.4,241.2,Auto Takeoff,Auto Fly,,14,5,TRUE,,Mavic Mini,TRUE,FALSE,,Smart,RC,FALSE,TRUE,FALSE,,,TRUE,,FALSE,FALSE,FALSE,FALSE,FALSE,FALSE,FALSE,FALSE,FALSE,FALSE,0,Follow Yaw,0,0,176.4,176.4,FALSE,FALSE,FALSE,FALSE,FALSE,FALSE,,TRUE,Normal,,100,1024,1024,1024,1024,1,FALSE,FALSE,FALSE,FALSE,FALSE,0,FALSE,FALSE,FALSE,FALSE,46,7.208,1020,2230,7.229,FALSE,3.607,3.601,0.008,FALSE,FALSE,NA,114.4,114.4,114.4,0,0,0,0,5,2968.1,742.04,,Idle,0,20,FALSE,5,TRUE,7,Go Home,FALSE,FALSE,FALSE,FALSE,FALSE,FALSE,FALSE,FALSE,FALSE,FALSE,FALSE,FALSE,6.972972558,79.91593469,0.3,,459.3,TRUE,1,1,FALSE,FALSE,FALSE,FALSE,,TRUE,FALSE,FALSE,Course Lock,131.2,52,16.4,Calm,85,,1.12.6,Mavic Mini,1SDCH7G0169R0K,1SFLH6Q0AB03DJ,1SRCH7F014TAHX,1U5X071EXP5ZJG,72.5,0.2,16.4,9.130517,2.23694,0,420,Mavic Mini,1SDCH7G0169R0K,1SFLH6Q0AB03DJ,1SRCH7F014TAHX,1U5X071EXP5ZJG,DJI Fly,,1.12.6,FD2AD0AC-25D9-8DD0-1F46-EDA643C69247,1SDCH7G0169R0K,,,,,6.972949463,79.91597353,5,,
1/26/2024,26:56.4,12m 59.0s,779,6.972971891,79.9159336,2.6,2.6,2.9,61,0.8,0.223694,0.223694,0,0,-0.223694,0,-2.23694,0,0.3,-3.4,177.5,177.5,245.4,P-GPS,Auto Fly,,14,5,TRUE,,Mavic Mini,TRUE,FALSE,,Smart,RC,FALSE,TRUE,FALSE,,,TRUE,,FALSE,FALSE,FALSE,FALSE,FALSE,FALSE,FALSE,FALSE,FALSE,FALSE,0,Follow Yaw,0,0,176.4,176.4,FALSE,FALSE,FALSE,FALSE,FALSE,FALSE,,TRUE,Normal,,100,1024,1024,1024,1024,1,FALSE,FALSE,FALSE,FALSE,FALSE,0,FALSE,FALSE,FALSE,FALSE,46,7.208,1020,2230,7.229,FALSE,3.607,3.601,0.008,FALSE,FALSE,NA,114.4,114.4,114.4,0,0,0,0,5,2968.1,742.04,,Idle,0,20,FALSE,5,TRUE,7,Go Home,FALSE,FALSE,FALSE,FALSE,FALSE,FALSE,FALSE,FALSE,FALSE,FALSE,FALSE,FALSE,6.972972558,79.91593469,0.4,,459.3,TRUE,1,1,FALSE,FALSE,FALSE,FALSE,,TRUE,FALSE,FALSE,Course Lock,131.2,52,16.4,Calm,85,,1.12.6,Mavic Mini,1SDCH7G0169R0K,1SFLH6Q0AB03DJ,1SRCH7F014TAHX,1U5X071EXP5ZJG,72.5,0.2,16.4,9.130517,2.23694,0,420,Mavic Mini,1SDCH7G0169R0K,1SFLH6Q0AB03DJ,1SRCH7F014TAHX,1U5X071EXP5ZJG,DJI Fly,,1.12.6,FD2AD0AC-25D9-8DD0-1F46-EDA643C69247,1SDCH7G0169R0K,,,,,6.972949463,79.91597353,5,Flight mode changed to P-GPS.,
1/26/2024,26:56.6,12m 59.1s,779.1,6.972971815,79.9159334,2.9,2.9,3.2,61,0.8,0.223694,0.223694,0,0,-0.223694,0,-1.789552,0,0.1,-3.7,177.6,177.6,242.9,P-GPS,Auto Fly,,15,5,TRUE,,Mavic Mini,TRUE,FALSE,,Smart,RC,FALSE,TRUE,FALSE,,,TRUE,,FALSE,FALSE,FALSE,FALSE,FALSE,FALSE,FALSE,FALSE,FALSE,FALSE,0,Follow Yaw,0,0,176.3,176.3,FALSE,FALSE,FALSE,FALSE,FALSE,FALSE,,TRUE,Normal,,100,1024,1024,1024,1024,1,FALSE,FALSE,FALSE,FALSE,FALSE,0,FALSE,FALSE,FALSE,FALSE,46,7.208,1020,2230,7.229,FALSE,3.607,3.601,0.008,FALSE,FALSE,NA,114.4,114.4,114.4,0,0,0,0,5,2968.1,742.04,,Idle,0,20,FALSE,5,TRUE,7,Go Home,FALSE,FALSE,FALSE,FALSE,FALSE,FALSE,FALSE,FALSE,FALSE,FALSE,FALSE,FALSE,6.972972558,79.91593469,0.5,,459.3,TRUE,1,1,FALSE,FALSE,FALSE,FALSE,,TRUE,FALSE,FALSE,Course Lock,131.2,52,16.4,Calm,85,,1.12.6,Mavic Mini,1SDCH7G0169R0K,1SFLH6Q0AB03DJ,1SRCH7F014TAHX,1U5X071EXP5ZJG,72.5,0.2,16.4,9.130517,2.23694,0,420,Mavic Mini,1SDCH7G0169R0K,1SFLH6Q0AB03DJ,1SRCH7F014TAHX,1U5X071EXP5ZJG,DJI Fly,,1.12.6,FD2AD0AC-25D9-8DD0-1F46-EDA643C69247,1SDCH7G0169R0K,,,,,6.972949463,79.91597353,5,,
1/26/2024,26:56.7,12m 59.2s,779.2,6.97297173,79.91593327,2.9,2.9,3.6,61,0.9,0.223694,0.223694,0,0,-0.223694,0,-1.342164,0,0.5,-4.2,177.5,177.5,230.9,P-GPS,Auto Fly,,15,5,TRUE,,Mavic Mini,TRUE,FALSE,,Smart,RC,FALSE,TRUE,FALSE,,,TRUE,,FALSE,FALSE,FALSE,FALSE,FALSE,FALSE,FALSE,FALSE,FALSE,FALSE,0,Follow Yaw,0,0,176.3,176.3,FALSE,FALSE,FALSE,FALSE,FALSE,FALSE,,TRUE,Normal,,100,1024,1024,1024,1024,1,FALSE,FALSE,FALSE,FALSE,FALSE,0,FALSE,FALSE,FALSE,FALSE,46,7.208,1020,2230,7.229,FALSE,3.607,3.601,0.008,FALSE,FALSE,NA,114.4,114.4,114.4,0,0,0,0,5,2968.1,742.04,,Idle,0,20,FALSE,5,TRUE,7,Go Home,FALSE,FALSE,FALSE,FALSE,FALSE,FALSE,FALSE,FALSE,FALSE,FALSE,FALSE,FALSE,6.972972558,79.91593469,0.5,,459.3,TRUE,1,1,FALSE,FALSE,FALSE,FALSE,,TRUE,FALSE,FALSE,Course Lock,131.2,52,16.4,Calm,85,,1.12.6,Mavic Mini,1SDCH7G0169R0K,1SFLH6Q0AB03DJ,1SRCH7F014TAHX,1U5X071EXP5ZJG,72.5,0.2,16.4,9.130517,2.23694,0,420,Mavic Mini,1SDCH7G0169R0K,1SFLH6Q0AB03DJ,1SRCH7F014TAHX,1U5X071EXP5ZJG,DJI Fly,,1.12.6,FD2AD0AC-25D9-8DD0-1F46-EDA643C69247,1SDCH7G0169R0K,,,,,6.972949463,79.91597353,5,,
1/26/2024,26:56.8,12m 59.3s,779.3,6.972971527,79.91593309,3.2,3.2,3.9,61,1,0,0.223694,0,0,0,0,-0.894776,0,0.1,-4.3,177.7,177.7,,P-GPS,Auto Fly,,15,5,TRUE,,Mavic Mini,TRUE,FALSE,,Smart,RC,FALSE,TRUE,FALSE,,,TRUE,,FALSE,FALSE,FALSE,FALSE,FALSE,FALSE,FALSE,FALSE,FALSE,FALSE,0,Follow Yaw,0,0,176.3,176.3,FALSE,FALSE,FALSE,FALSE,FALSE,FALSE,,TRUE,Normal,,100,1024,1024,1024,1024,1,FALSE,FALSE,FALSE,FALSE,FALSE,0,FALSE,FALSE,FALSE,FALSE,46,7.255,1020,2230,7.229,FALSE,3.629,3.626,0.008,FALSE,FALSE,NA,114.4,114.4,114.4,0,0,0,0,5,2968.1,742.04,,Idle,0,20,FALSE,5,TRUE,7,Go Home,FALSE,FALSE,FALSE,FALSE,FALSE,FALSE,FALSE,FALSE,FALSE,FALSE,FALSE,FALSE,6.972972558,79.91593469,0.6,,459.3,TRUE,1,1,FALSE,FALSE,FALSE,FALSE,,TRUE,FALSE,FALSE,Course Lock,131.2,52,16.4,Calm,85,,1.12.6,Mavic Mini,1SDCH7G0169R0K,1SFLH6Q0AB03DJ,1SRCH7F014TAHX,1U5X071EXP5ZJG,72.5,0.2,16.4,9.130517,2.23694,0,420,Mavic Mini,1SDCH7G0169R0K,1SFLH6Q0AB03DJ,1SRCH7F014TAHX,1U5X071EXP5ZJG,DJI Fly,,1.12.6,FD2AD0AC-25D9-8DD0-1F46-EDA643C69247,1SDCH7G0169R0K,,,,,6.972949463,79.91597353,5,,
1/26/2024,26:56.9,12m 59.4s,779.4,6.972971462,79.91593309,3.2,3.2,3.9,61,1,0,0.223694,0,0,0,0,-0.447388,0,0.2,-3.7,178.1,178.1,,P-GPS,Auto Fly,,15,5,TRUE,,Mavic Mini,TRUE,FALSE,,Smart,RC,FALSE,TRUE,FALSE,,,TRUE,,FALSE,FALSE,FALSE,FALSE,FALSE,FALSE,FALSE,FALSE,FALSE,FALSE,0,Follow Yaw,0,0,176.3,176.3,FALSE,FALSE,FALSE,FALSE,FALSE,FALSE,,TRUE,Normal,,100,1024,1024,1024,1024,1,FALSE,FALSE,FALSE,FALSE,FALSE,0,FALSE,FALSE,FALSE,FALSE,46,7.255,1018,2230,7.229,FALSE,3.629,3.626,0.008,FALSE,FALSE,NA,114.4,114.4,114.4,0,0,0,0,5,2968.1,742.04,,Idle,0,20,FALSE,5,TRUE,7,Go Home,FALSE,FALSE,FALSE,FALSE,FALSE,FALSE,FALSE,FALSE,FALSE,FALSE,FALSE,FALSE,6.972972558,79.91593469,0.7,,459.3,TRUE,1,1,FALSE,FALSE,FALSE,FALSE,,TRUE,FALSE,FALSE,Course Lock,131.2,52,16.4,Calm,85,,1.12.6,Mavic Mini,1SDCH7G0169R0K,1SFLH6Q0AB03DJ,1SRCH7F014TAHX,1U5X071EXP5ZJG,72.5,0.2,16.4,9.130517,2.23694,0,420,Mavic Mini,1SDCH7G0169R0K,1SFLH6Q0AB03DJ,1SRCH7F014TAHX,1U5X071EXP5ZJG,DJI Fly,,1.12.6,FD2AD0AC-25D9-8DD0-1F46-EDA643C69247,1SDCH7G0169R0K,,,,,6.972949463,79.91597353,5,,
1/26/2024,26:56.9,12m 59.5s,779.5,6.972971402,79.91593314,3.2,3.2,3.9,61,1.1,0,0.223694,0,0,0,0,0,0,0.1,-3.7,178.4,178.4,,P-GPS,Auto Fly,,15,5,TRUE,,Mavic Mini,TRUE,FALSE,,Smart,RC,FALSE,TRUE,FALSE,,,TRUE,,FALSE,FALSE,FALSE,FALSE,FALSE,FALSE,FALSE,FALSE,FALSE,FALSE,0,Follow Yaw,0,0,176.3,176.3,FALSE,FALSE,FALSE,FALSE,FALSE,FALSE,,TRUE,Normal,,100,1024,1024,1024,1024,1,FALSE,FALSE,FALSE,FALSE,FALSE,0,FALSE,FALSE,FALSE,FALSE,46,7.255,1018,2230,7.229,FALSE,3.629,3.626,0.008,FALSE,FALSE,NA,114.4,114.4,114.4,0,0,0,0,5,2968.1,742.04,,Idle,0,20,FALSE,5,TRUE,7,Go Home,FALSE,FALSE,FALSE,FALSE,FALSE,FALSE,FALSE,FALSE,FALSE,FALSE,FALSE,FALSE,6.972972558,79.91593469,0.7,,459.3,TRUE,1,1,FALSE,FALSE,FALSE,FALSE,,TRUE,FALSE,FALSE,Course Lock,131.2,52,16.4,Calm,85,,1.12.6,Mavic Mini,1SDCH7G0169R0K,1SFLH6Q0AB03DJ,1SRCH7F014TAHX,1U5X071EXP5ZJG,72.5,0.2,16.4,9.130517,2.23694,0,420,Mavic Mini,1SDCH7G0169R0K,1SFLH6Q0AB03DJ,1SRCH7F014TAHX,1U5X071EXP5ZJG,DJI Fly,,1.12.6,FD2AD0AC-25D9-8DD0-1F46-EDA643C69247,1SDCH7G0169R0K,,,,,6.972949463,79.91597353,5,,
1/26/2024,26:57.1,12m 59.6s,779.6,6.97297141,79.91593308,3.2,3.2,3.9,61,1.1,0,0.223694,0,0,0,0,0,0,0.4,-3.7,178.5,178.5,,P-GPS,Auto Fly,,15,5,TRUE,,Mavic Mini,TRUE,FALSE,,Smart,RC,FALSE,TRUE,FALSE,,,TRUE,,FALSE,FALSE,FALSE,FALSE,FALSE,FALSE,FALSE,FALSE,FALSE,FALSE,0,Follow Yaw,0,0,176.3,176.3,FALSE,FALSE,FALSE,FALSE,FALSE,FALSE,,TRUE,Normal,,100,1024,1024,1024,1024,1,FALSE,FALSE,FALSE,FALSE,FALSE,0,FALSE,FALSE,FALSE,FALSE,46,7.255,1018,2230,7.229,FALSE,3.629,3.626,0.008,FALSE,FALSE,NA,114.4,114.4,114.4,0,0,0,0,5,2968.1,742.04,,Idle,0,20,FALSE,5,TRUE,7,Go Home,FALSE,FALSE,FALSE,FALSE,FALSE,FALSE,FALSE,FALSE,FALSE,FALSE,FALSE,FALSE,6.972972558,79.91593469,0.7,,459.3,TRUE,1,1,FALSE,FALSE,FALSE,FALSE,,TRUE,FALSE,FALSE,Course Lock,131.2,52,16.4,Calm,85,,1.12.6,Mavic Mini,1SDCH7G0169R0K,1SFLH6Q0AB03DJ,1SRCH7F014TAHX,1U5X071EXP5ZJG,72.5,0.2,16.4,9.130517,2.23694,0,420,Mavic Mini,1SDCH7G0169R0K,1SFLH6Q0AB03DJ,1SRCH7F014TAHX,1U5X071EXP5ZJG,DJI Fly,,1.12.6,FD2AD0AC-25D9-8DD0-1F46-EDA643C69247,1SDCH7G0169R0K,,,,,6.972949463,79.91597353,5,,
1/26/2024,26:57.2,12m 59.7s,779.7,6.972971649,79.91593309,3.2,3.2,3.9,61,1.2,0,0.223694,0,0,0,0,0,0,0.8,-4,178.4,178.4,,P-GPS,Auto Fly,,15,5,TRUE,,Mavic Mini,TRUE,FALSE,,Smart,RC,FALSE,TRUE,FALSE,,,TRUE,,FALSE,FALSE,FALSE,FALSE,FALSE,FALSE,FALSE,FALSE,FALSE,FALSE,0,Follow Yaw,0,0,176.3,176.3,FALSE,FALSE,FALSE,FALSE,FALSE,FALSE,,TRUE,Normal,,100,1024,1024,1024,1024,1,FALSE,FALSE,FALSE,FALSE,FALSE,0,FALSE,FALSE,FALSE,FALSE,46,7.255,1018,2230,7.229,FALSE,3.629,3.626,0.008,FALSE,FALSE,NA,114.4,114.4,114.4,0,0,0,0,5,2968.1,742.04,,Idle,0,20,FALSE,5,TRUE,7,Go Home,FALSE,FALSE,FALSE,FALSE,FALSE,FALSE,FALSE,FALSE,FALSE,FALSE,FALSE,FALSE,6.972972558,79.91593469,0.6,,459.3,TRUE,1,1,FALSE,FALSE,FALSE,FALSE,,TRUE,FALSE,FALSE,Course Lock,131.2,52,16.4,Calm,85,,1.12.6,Mavic Mini,1SDCH7G0169R0K,1SFLH6Q0AB03DJ,1SRCH7F014TAHX,1U5X071EXP5ZJG,72.5,0.2,16.4,9.130517,2.23694,0,420,Mavic Mini,1SDCH7G0169R0K,1SFLH6Q0AB03DJ,1SRCH7F014TAHX,1U5X071EXP5ZJG,DJI Fly,,1.12.6,FD2AD0AC-25D9-8DD0-1F46-EDA643C69247,1SDCH7G0169R0K,,,,,6.972949463,79.91597353,5,,
1/26/2024,26:57.2,12m 59.8s,779.8,6.972971609,79.91593304,3.2,3.2,3.9,61,1.2,0,0.223694,0,0,0,0,0,0,1.7,-4,178.4,178.4,,P-GPS,Auto Fly,,15,5,TRUE,,Mavic Mini,TRUE,FALSE,,Smart,RC,FALSE,TRUE,FALSE,,,TRUE,,FALSE,FALSE,FALSE,FALSE,FALSE,FALSE,FALSE,FALSE,FALSE,FALSE,0,Follow Yaw,0,0,176.3,176.3,FALSE,FALSE,FALSE,FALSE,FALSE,FALSE,,TRUE,Normal,,100,1024,1024,1024,1024,1,FALSE,FALSE,FALSE,FALSE,FALSE,0,FALSE,FALSE,FALSE,FALSE,46,7.255,1018,2230,7.229,FALSE,3.629,3.626,0.008,FALSE,FALSE,NA,114.4,114.4,114.4,0,0,0,0,5,2968.1,742.04,,Idle,0,20,FALSE,5,TRUE,7,Go Home,FALSE,FALSE,FALSE,FALSE,FALSE,FALSE,FALSE,FALSE,FALSE,FALSE,FALSE,FALSE,6.972972558,79.91593469,0.6,,459.3,TRUE,1,1,FALSE,FALSE,FALSE,FALSE,,TRUE,FALSE,FALSE,Course Lock,131.2,52,16.4,Calm,85,,1.12.6,Mavic Mini,1SDCH7G0169R0K,1SFLH6Q0AB03DJ,1SRCH7F014TAHX,1U5X071EXP5ZJG,72.5,0.2,16.4,9.130517,2.23694,0,420,Mavic Mini,1SDCH7G0169R0K,1SFLH6Q0AB03DJ,1SRCH7F014TAHX,1U5X071EXP5ZJG,DJI Fly,,1.12.6,FD2AD0AC-25D9-8DD0-1F46-EDA643C69247,1SDCH7G0169R0K,,,,,6.972949463,79.91597353,5,,
1/26/2024,26:57.3,12m 59.9s,779.9,6.972971536,79.91593302,3.2,3.2,3.9,61,1.2,0,0.223694,0,0,0,0,0,0,1.4,-3.7,178.5,178.5,,P-GPS,Auto Fly,,15,5,TRUE,,Mavic Mini,TRUE,FALSE,,Smart,RC,FALSE,TRUE,FALSE,,,TRUE,,FALSE,FALSE,FALSE,FALSE,FALSE,FALSE,FALSE,FALSE,FALSE,FALSE,0,Follow Yaw,0,0,176.3,176.3,FALSE,FALSE,FALSE,FALSE,FALSE,FALSE,,TRUE,Normal,,100,1024,1024,1024,1024,1,FALSE,FALSE,FALSE,FALSE,FALSE,0,FALSE,FALSE,FALSE,FALSE,46,7.255,1018,2230,7.22,FALSE,3.629,3.626,0.008,FALSE,FALSE,NA,114.4,114.4,114.4,0,0,0,0,5,4272.6,1068.15,,Idle,0,20,FALSE,5,TRUE,7,Go Home,FALSE,FALSE,FALSE,FALSE,FALSE,FALSE,FALSE,FALSE,FALSE,FALSE,FALSE,FALSE,6.972972558,79.91593469,0.7,,459.3,TRUE,1,1,FALSE,FALSE,FALSE,FALSE,,TRUE,FALSE,FALSE,Course Lock,131.2,52,16.4,Calm,85,,1.12.6,Mavic Mini,1SDCH7G0169R0K,1SFLH6Q0AB03DJ,1SRCH7F014TAHX,1U5X071EXP5ZJG,72.5,0.2,16.4,9.130517,2.23694,0,420,Mavic Mini,1SDCH7G0169R0K,1SFLH6Q0AB03DJ,1SRCH7F014TAHX,1U5X071EXP5ZJG,DJI Fly,,1.12.6,FD2AD0AC-25D9-8DD0-1F46-EDA643C69247,1SDCH7G0169R0K,,,,,6.972949463,79.91597353,5,,
1/26/2024,26:57.4,13m 0.0s,780,6.97297151,79.915933,3.2,3.2,3.9,61,1.2,0,0.223694,0,0,0,0,0,0,1.8,-3.4,178.5,178.5,,P-GPS,Auto Fly,,15,5,TRUE,,Mavic Mini,TRUE,FALSE,,Smart,RC,FALSE,TRUE,FALSE,,,TRUE,,FALSE,FALSE,FALSE,FALSE,FALSE,FALSE,FALSE,FALSE,FALSE,FALSE,0,Follow Yaw,0,0,176.3,176.3,FALSE,FALSE,FALSE,FALSE,FALSE,FALSE,,TRUE,Normal,,100,1024,1024,1024,1024,1,FALSE,FALSE,FALSE,FALSE,FALSE,0,FALSE,FALSE,FALSE,FALSE,46,7.255,1018,2230,7.22,FALSE,3.629,3.626,0.008,FALSE,FALSE,NA,114.4,114.4,114.4,0,0,0,0,5,4272.6,1068.15,,Idle,0,20,FALSE,5,TRUE,7,Go Home,FALSE,FALSE,FALSE,FALSE,FALSE,FALSE,FALSE,FALSE,FALSE,FALSE,FALSE,FALSE,6.972972558,79.91593469,0.7,,459.3,TRUE,1,1,FALSE,FALSE,FALSE,FALSE,,TRUE,FALSE,FALSE,Course Lock,131.2,52,16.4,Calm,85,,1.12.6,Mavic Mini,1SDCH7G0169R0K,1SFLH6Q0AB03DJ,1SRCH7F014TAHX,1U5X071EXP5ZJG,72.5,0.2,16.4,9.130517,2.23694,0,420,Mavic Mini,1SDCH7G0169R0K,1SFLH6Q0AB03DJ,1SRCH7F014TAHX,1U5X071EXP5ZJG,DJI Fly,,1.12.6,FD2AD0AC-25D9-8DD0-1F46-EDA643C69247,1SDCH7G0169R0K,,,,,6.97294896,79.91595978,5,,
1/26/2024,26:57.5,13m 0.1s,780.1,6.972971519,79.91593296,3.2,3.2,3.9,61,1.2,0,0.223694,0,0,0,0,0,0,1.3,-3.2,178.7,178.7,,P-GPS,Auto Fly,,15,5,TRUE,,Mavic Mini,TRUE,FALSE,,Smart,RC,FALSE,TRUE,FALSE,,,TRUE,,FALSE,FALSE,FALSE,FALSE,FALSE,FALSE,FALSE,FALSE,FALSE,FALSE,0,Follow Yaw,0,0,176.3,176.3,FALSE,FALSE,FALSE,FALSE,FALSE,FALSE,,TRUE,Normal,,100,1024,1024,1024,1024,1,FALSE,FALSE,FALSE,FALSE,FALSE,0,FALSE,FALSE,FALSE,FALSE,46,7.255,1018,2230,7.22,FALSE,3.629,3.626,0.008,FALSE,FALSE,NA,114.4,114.4,114.4,0,0,0,0,5,4272.6,1068.15,,Idle,0,20,FALSE,5,TRUE,7,Go Home,FALSE,FALSE,FALSE,FALSE,FALSE,FALSE,FALSE,FALSE,FALSE,FALSE,FALSE,FALSE,6.972972558,79.91593469,0.7,,459.3,TRUE,1,1,FALSE,FALSE,FALSE,FALSE,,TRUE,FALSE,FALSE,Course Lock,131.2,52,16.4,Calm,85,,1.12.6,Mavic Mini,1SDCH7G0169R0K,1SFLH6Q0AB03DJ,1SRCH7F014TAHX,1U5X071EXP5ZJG,72.5,0.2,16.4,9.130517,2.23694,0,420,Mavic Mini,1SDCH7G0169R0K,1SFLH6Q0AB03DJ,1SRCH7F014TAHX,1U5X071EXP5ZJG,DJI Fly,,1.12.6,FD2AD0AC-25D9-8DD0-1F46-EDA643C69247,1SDCH7G0169R0K,,,,,6.97294896,79.91595978,5,,
1/26/2024,26:57.7,13m 0.2s,780.2,6.972971505,79.91593295,3.2,3.2,3.9,61,1.2,0,0.223694,0,0,0,0,0,0,1.5,-3.1,178.6,178.6,,P-GPS,Auto Fly,,15,5,TRUE,,Mavic Mini,TRUE,FALSE,,Smart,RC,FALSE,TRUE,FALSE,,,TRUE,,FALSE,FALSE,FALSE,FALSE,FALSE,FALSE,FALSE,FALSE,FALSE,FALSE,0,Follow Yaw,0,0,176.3,176.3,FALSE,FALSE,FALSE,FALSE,FALSE,FALSE,,TRUE,Normal,,100,1024,1024,1024,1024,1,FALSE,FALSE,FALSE,FALSE,FALSE,0,FALSE,FALSE,FALSE,FALSE,46,7.255,1018,2230,7.22,FALSE,3.629,3.626,0.008,FALSE,FALSE,NA,114.4,114.4,114.4,0,0,0,0,5,4272.6,1068.15,,Idle,0,20,FALSE,5,TRUE,7,Go Home,FALSE,FALSE,FALSE,FALSE,FALSE,FALSE,FALSE,FALSE,FALSE,FALSE,FALSE,FALSE,6.972972558,79.91593469,0.7,,459.3,TRUE,1,1,FALSE,FALSE,FALSE,FALSE,,TRUE,FALSE,FALSE,Course Lock,131.2,52,16.4,Calm,85,,1.12.6,Mavic Mini,1SDCH7G0169R0K,1SFLH6Q0AB03DJ,1SRCH7F014TAHX,1U5X071EXP5ZJG,72.5,0.2,16.4,9.130517,2.23694,0,420,Mavic Mini,1SDCH7G0169R0K,1SFLH6Q0AB03DJ,1SRCH7F014TAHX,1U5X071EXP5ZJG,DJI Fly,,1.12.6,FD2AD0AC-25D9-8DD0-1F46-EDA643C69247,1SDCH7G0169R0K,,,,,6.97294896,79.91595978,5,,
1/26/2024,26:57.7,13m 0.3s,780.3,6.972971531,79.91593295,3.2,3.2,3.9,61,1.3,0,0.223694,0,0,0,0,0,0,1,-3.1,178.5,178.5,,P-GPS,Auto Fly,,15,5,TRUE,,Mavic Mini,TRUE,FALSE,,Smart,RC,FALSE,TRUE,FALSE,,,TRUE,,FALSE,FALSE,FALSE,FALSE,FALSE,FALSE,FALSE,FALSE,FALSE,FALSE,0,Follow Yaw,0,0,176.3,176.3,FALSE,FALSE,FALSE,FALSE,FALSE,FALSE,,TRUE,Normal,,100,1024,1024,1024,1024,1,FALSE,FALSE,FALSE,FALSE,FALSE,0,FALSE,FALSE,FALSE,FALSE,46,7.255,1018,2230,7.22,FALSE,3.629,3.626,0.008,FALSE,FALSE,NA,114.4,114.4,114.4,0,0,0,0,5,4272.6,1068.15,,Idle,0,20,FALSE,5,TRUE,7,Go Home,FALSE,FALSE,FALSE,FALSE,FALSE,FALSE,FALSE,FALSE,FALSE,FALSE,FALSE,FALSE,6.972972558,79.91593469,0.7,,459.3,TRUE,1,1,FALSE,FALSE,FALSE,FALSE,,TRUE,FALSE,FALSE,Course Lock,131.2,52,16.4,Calm,85,,1.12.6,Mavic Mini,1SDCH7G0169R0K,1SFLH6Q0AB03DJ,1SRCH7F014TAHX,1U5X071EXP5ZJG,72.5,0.2,16.4,9.130517,2.23694,0,420,Mavic Mini,1SDCH7G0169R0K,1SFLH6Q0AB03DJ,1SRCH7F014TAHX,1U5X071EXP5ZJG,DJI Fly,,1.12.6,FD2AD0AC-25D9-8DD0-1F46-EDA643C69247,1SDCH7G0169R0K,,,,,6.97294896,79.91595978,5,,
1/26/2024,26:57.8,13m 0.4s,780.4,6.972971557,79.91593298,3.2,3.2,3.9,61,1.3,0,0.223694,0,0,0,0,0,0,0.9,-3,178.5,178.5,,P-GPS,Auto Fly,,15,5,TRUE,,Mavic Mini,TRUE,FALSE,,Smart,RC,FALSE,TRUE,FALSE,,,TRUE,,FALSE,FALSE,FALSE,FALSE,FALSE,FALSE,FALSE,FALSE,FALSE,FALSE,0,Follow Yaw,0,0,176.3,176.3,FALSE,FALSE,FALSE,FALSE,FALSE,FALSE,,TRUE,Normal,,100,1024,1024,1024,1024,1,FALSE,FALSE,FALSE,FALSE,FALSE,0,FALSE,FALSE,FALSE,FALSE,46,7.255,1018,2230,7.22,FALSE,3.629,3.626,0.008,FALSE,FALSE,NA,114.4,114.4,114.4,0,0,0,0,5,4272.6,1068.15,,Idle,0,20,FALSE,5,TRUE,7,Go Home,FALSE,FALSE,FALSE,FALSE,FALSE,FALSE,FALSE,FALSE,FALSE,FALSE,FALSE,FALSE,6.972972558,79.91593469,0.7,,459.3,TRUE,1,1,FALSE,FALSE,FALSE,FALSE,,TRUE,FALSE,FALSE,Course Lock,131.2,52,16.4,Calm,85,,1.12.6,Mavic Mini,1SDCH7G0169R0K,1SFLH6Q0AB03DJ,1SRCH7F014TAHX,1U5X071EXP5ZJG,72.5,0.2,16.4,9.130517,2.23694,0,420,Mavic Mini,1SDCH7G0169R0K,1SFLH6Q0AB03DJ,1SRCH7F014TAHX,1U5X071EXP5ZJG,DJI Fly,,1.12.6,FD2AD0AC-25D9-8DD0-1F46-EDA643C69247,1SDCH7G0169R0K,,,,,6.97294896,79.91595978,5,,
1/26/2024,26:57.9,13m 0.5s,780.5,6.972971584,79.91593302,3.2,3.2,3.9,61,1.3,0,0.223694,0,0,0,0,0,0,0.8,-3.1,178.5,178.5,,P-GPS,Auto Fly,,15,5,TRUE,,Mavic Mini,TRUE,FALSE,,Smart,RC,FALSE,TRUE,FALSE,,,TRUE,,FALSE,FALSE,FALSE,FALSE,FALSE,FALSE,FALSE,FALSE,FALSE,FALSE,0,Follow Yaw,0,0,176.3,176.3,FALSE,FALSE,FALSE,FALSE,FALSE,FALSE,,TRUE,Normal,,100,1024,1024,1024,1024,1,FALSE,FALSE,FALSE,FALSE,FALSE,0,FALSE,FALSE,FALSE,FALSE,46,7.213,1017,2230,7.22,FALSE,3.608,3.605,0.008,FALSE,FALSE,NA,114.4,114.4,114.4,0,0,0,0,5,4272.6,1068.15,,Idle,0,20,FALSE,5,TRUE,7,Go Home,FALSE,FALSE,FALSE,FALSE,FALSE,FALSE,FALSE,FALSE,FALSE,FALSE,FALSE,FALSE,6.972972558,79.91593469,0.7,,459.3,TRUE,1,1,FALSE,FALSE,FALSE,FALSE,,TRUE,FALSE,FALSE,Course Lock,131.2,52,16.4,Calm,85,,1.12.6,Mavic Mini,1SDCH7G0169R0K,1SFLH6Q0AB03DJ,1SRCH7F014TAHX,1U5X071EXP5ZJG,72.5,0.2,16.4,9.130517,2.23694,0,420,Mavic Mini,1SDCH7G0169R0K,1SFLH6Q0AB03DJ,1SRCH7F014TAHX,1U5X071EXP5ZJG,DJI Fly,,1.12.6,FD2AD0AC-25D9-8DD0-1F46-EDA643C69247,1SDCH7G0169R0K,,,,,6.97294896,79.91595978,5,,
1/26/2024,26:58.1,13m 0.6s,780.6,6.972971416,79.91593316,3.2,3.2,3.9,61,1.4,0,0.223694,0,0,0,0,0,0,0.7,-3.3,178.6,178.6,,P-GPS,Auto Fly,,15,5,TRUE,,Mavic Mini,TRUE,FALSE,,Smart,RC,FALSE,TRUE,FALSE,,,TRUE,,FALSE,FALSE,FALSE,FALSE,FALSE,FALSE,FALSE,FALSE,FALSE,FALSE,0,Follow Yaw,0,0,176.3,176.3,FALSE,FALSE,FALSE,FALSE,FALSE,FALSE,,TRUE,Normal,,100,1024,1024,1024,1024,1,FALSE,FALSE,FALSE,FALSE,FALSE,0,FALSE,FALSE,FALSE,FALSE,46,7.213,1017,2230,7.22,FALSE,3.608,3.605,0.008,FALSE,FALSE,NA,114.4,114.4,114.4,0,0,0,0,5,4272.6,1068.15,,Idle,0,20,FALSE,5,TRUE,7,Go Home,FALSE,FALSE,FALSE,FALSE,FALSE,FALSE,FALSE,FALSE,FALSE,FALSE,FALSE,FALSE,6.972972558,79.91593469,0.6,,459.3,TRUE,1,1,FALSE,FALSE,FALSE,FALSE,,TRUE,FALSE,FALSE,Course Lock,131.2,52,16.4,Calm,85,,1.12.6,Mavic Mini,1SDCH7G0169R0K,1SFLH6Q0AB03DJ,1SRCH7F014TAHX,1U5X071EXP5ZJG,72.5,0.2,16.4,9.130517,2.23694,0,420,Mavic Mini,1SDCH7G0169R0K,1SFLH6Q0AB03DJ,1SRCH7F014TAHX,1U5X071EXP5ZJG,DJI Fly,,1.12.6,FD2AD0AC-25D9-8DD0-1F46-EDA643C69247,1SDCH7G0169R0K,,,,,6.97294896,79.91595978,5,,
1/26/2024,26:58.2,13m 0.7s,780.7,6.972971366,79.9159332,3.2,3.2,3.9,61,1.4,0,0.223694,0,0,0,0,0,0,0.2,-3.3,178.5,178.5,,P-GPS,Auto Fly,,15,5,TRUE,,Mavic Mini,TRUE,FALSE,,Smart,RC,FALSE,TRUE,FALSE,,,TRUE,,FALSE,FALSE,FALSE,FALSE,FALSE,FALSE,FALSE,FALSE,FALSE,FALSE,0,Follow Yaw,0,0,176.3,176.3,FALSE,FALSE,FALSE,FALSE,FALSE,FALSE,,TRUE,Normal,,100,1024,1024,1024,1024,1,FALSE,FALSE,FALSE,FALSE,FALSE,0,FALSE,FALSE,FALSE,FALSE,46,7.213,1017,2230,7.22,FALSE,3.608,3.605,0.008,FALSE,FALSE,NA,114.4,114.4,114.4,0,0,0,0,5,4272.6,1068.15,,Idle,0,20,FALSE,5,TRUE,7,Go Home,FALSE,FALSE,FALSE,FALSE,FALSE,FALSE,FALSE,FALSE,FALSE,FALSE,FALSE,FALSE,6.972972558,79.91593469,0.6,,459.3,TRUE,1,1,FALSE,FALSE,FALSE,FALSE,,TRUE,FALSE,FALSE,Course Lock,131.2,52,16.4,Calm,85,,1.12.6,Mavic Mini,1SDCH7G0169R0K,1SFLH6Q0AB03DJ,1SRCH7F014TAHX,1U5X071EXP5ZJG,72.5,0.2,16.4,9.130517,2.23694,0,420,Mavic Mini,1SDCH7G0169R0K,1SFLH6Q0AB03DJ,1SRCH7F014TAHX,1U5X071EXP5ZJG,DJI Fly,,1.12.6,FD2AD0AC-25D9-8DD0-1F46-EDA643C69247,1SDCH7G0169R0K,,,,,6.97294896,79.91595978,5,,
1/26/2024,26:58.3,13m 0.8s,780.8,6.972971378,79.91593324,3.2,3.2,3.9,61,1.4,0,0.223694,0,0,0,0,0,0,0.3,-3.3,178.5,178.5,,P-GPS,Auto Fly,,15,5,TRUE,,Mavic Mini,TRUE,FALSE,,Smart,RC,FALSE,TRUE,FALSE,,,TRUE,,FALSE,FALSE,FALSE,FALSE,FALSE,FALSE,FALSE,FALSE,FALSE,FALSE,0,Follow Yaw,0,0,176.3,176.3,FALSE,FALSE,FALSE,FALSE,FALSE,FALSE,,TRUE,Normal,,100,1024,1024,1024,1024,1,FALSE,FALSE,FALSE,FALSE,FALSE,0,FALSE,FALSE,FALSE,FALSE,46,7.213,1017,2230,7.22,FALSE,3.608,3.605,0.008,FALSE,FALSE,NA,114.4,114.4,114.4,0,0,0,0,5,4272.6,1068.15,,Idle,0,20,FALSE,5,TRUE,7,Go Home,FALSE,FALSE,FALSE,FALSE,FALSE,FALSE,FALSE,FALSE,FALSE,FALSE,FALSE,FALSE,6.972972558,79.91593469,0.6,,459.3,TRUE,1,1,FALSE,FALSE,FALSE,FALSE,,TRUE,FALSE,FALSE,Course Lock,131.2,52,16.4,Calm,85,,1.12.6,Mavic Mini,1SDCH7G0169R0K,1SFLH6Q0AB03DJ,1SRCH7F014TAHX,1U5X071EXP5ZJG,72.5,0.2,16.4,9.130517,2.23694,0,420,Mavic Mini,1SDCH7G0169R0K,1SFLH6Q0AB03DJ,1SRCH7F014TAHX,1U5X071EXP5ZJG,DJI Fly,,1.12.6,FD2AD0AC-25D9-8DD0-1F46-EDA643C69247,1SDCH7G0169R0K,,,,,6.97294896,79.91595978,5,,
1/26/2024,26:58.3,13m 0.9s,780.9,6.972971419,79.91593327,3.2,3.2,3.9,61,1.4,0,0.223694,0,0,0,0,0,0,0.5,-3.3,178.5,178.5,,P-GPS,Auto Fly,,15,5,TRUE,,Mavic Mini,TRUE,FALSE,,Smart,RC,FALSE,TRUE,FALSE,,,TRUE,,FALSE,FALSE,FALSE,FALSE,FALSE,FALSE,FALSE,FALSE,FALSE,FALSE,0,Follow Yaw,0,0,176.3,176.3,FALSE,FALSE,FALSE,FALSE,FALSE,FALSE,,TRUE,Normal,,100,1024,1024,1024,1024,1,FALSE,FALSE,FALSE,FALSE,FALSE,0,FALSE,FALSE,FALSE,FALSE,46,7.213,1017,2230,7.221,FALSE,3.608,3.605,0.008,FALSE,FALSE,NA,114.4,114.4,114.4,0,0,0,0,5,6336.5,1584.14,,Idle,0,20,FALSE,5,TRUE,7,Go Home,FALSE,FALSE,FALSE,FALSE,FALSE,FALSE,FALSE,FALSE,FALSE,FALSE,FALSE,FALSE,6.972972558,79.91593469,0.6,,459.3,TRUE,1,1,FALSE,FALSE,FALSE,FALSE,,TRUE,FALSE,FALSE,Course Lock,131.2,52,16.4,Calm,85,,1.12.6,Mavic Mini,1SDCH7G0169R0K,1SFLH6Q0AB03DJ,1SRCH7F014TAHX,1U5X071EXP5ZJG,72.5,0.2,16.4,9.130517,2.23694,0,420,Mavic Mini,1SDCH7G0169R0K,1SFLH6Q0AB03DJ,1SRCH7F014TAHX,1U5X071EXP5ZJG,DJI Fly,,1.12.6,FD2AD0AC-25D9-8DD0-1F46-EDA643C69247,1SDCH7G0169R0K,,,,,6.97294896,79.91595978,5,,
1/26/2024,26:58.4,13m 1.0s,781,6.97297136,79.91593324,3.2,3.2,3.9,61,1.4,0,0.223694,0,0,0,0,0,0,0.8,-3.3,178.4,178.4,,P-GPS,Auto Fly,,15,5,TRUE,,Mavic Mini,TRUE,FALSE,,Smart,RC,FALSE,TRUE,FALSE,,,TRUE,,FALSE,FALSE,FALSE,FALSE,FALSE,FALSE,FALSE,FALSE,FALSE,FALSE,0,Follow Yaw,0,0,176.3,176.3,FALSE,FALSE,FALSE,FALSE,FALSE,FALSE,,TRUE,Normal,,100,1024,1024,1024,1024,1,FALSE,FALSE,FALSE,FALSE,FALSE,0,FALSE,FALSE,FALSE,FALSE,46,7.213,1017,2230,7.221,FALSE,3.608,3.605,0.008,FALSE,FALSE,NA,114.4,114.4,114.4,0,0,0,0,5,6336.5,1584.14,,Idle,0,20,FALSE,5,TRUE,7,Go Home,FALSE,FALSE,FALSE,FALSE,FALSE,FALSE,FALSE,FALSE,FALSE,FALSE,FALSE,FALSE,6.972972558,79.91593469,0.6,,459.3,TRUE,1,1,FALSE,FALSE,FALSE,FALSE,,TRUE,FALSE,FALSE,Course Lock,131.2,52,16.4,Calm,85,,1.12.6,Mavic Mini,1SDCH7G0169R0K,1SFLH6Q0AB03DJ,1SRCH7F014TAHX,1U5X071EXP5ZJG,72.5,0.2,16.4,9.130517,2.23694,0,420,Mavic Mini,1SDCH7G0169R0K,1SFLH6Q0AB03DJ,1SRCH7F014TAHX,1U5X071EXP5ZJG,DJI Fly,,1.12.6,FD2AD0AC-25D9-8DD0-1F46-EDA643C69247,1SDCH7G0169R0K,,,,,6.97294896,79.91595978,5,,
1/26/2024,26:58.5,13m 1.1s,781.1,6.972971316,79.91593327,3.2,3.2,3.9,61,1.5,0,0.223694,0,0,0,0,0,0,0.9,-3.4,178.4,178.4,,P-GPS,Auto Fly,,15,5,TRUE,,Mavic Mini,TRUE,FALSE,,Smart,RC,FALSE,TRUE,FALSE,,,TRUE,,FALSE,FALSE,FALSE,FALSE,FALSE,FALSE,FALSE,FALSE,FALSE,FALSE,0,Follow Yaw,0,0,176.3,176.3,FALSE,FALSE,FALSE,FALSE,FALSE,FALSE,,TRUE,Normal,,100,1024,1024,1024,1024,1,FALSE,FALSE,FALSE,FALSE,FALSE,0,FALSE,FALSE,FALSE,FALSE,46,7.213,1017,2230,7.221,FALSE,3.608,3.605,0.008,FALSE,FALSE,NA,114.4,114.4,114.4,0,0,0,0,5,6336.5,1584.14,,Idle,0,20,FALSE,5,TRUE,7,Go Home,FALSE,FALSE,FALSE,FALSE,FALSE,FALSE,FALSE,FALSE,FALSE,FALSE,FALSE,FALSE,6.972972558,79.91593469,0.6,,459.3,TRUE,1,1,FALSE,FALSE,FALSE,FALSE,,TRUE,FALSE,FALSE,Course Lock,131.2,52,16.4,Calm,85,,1.12.6,Mavic Mini,1SDCH7G0169R0K,1SFLH6Q0AB03DJ,1SRCH7F014TAHX,1U5X071EXP5ZJG,72.5,0.2,16.4,9.130517,2.23694,0,420,Mavic Mini,1SDCH7G0169R0K,1SFLH6Q0AB03DJ,1SRCH7F014TAHX,1U5X071EXP5ZJG,DJI Fly,,1.12.6,FD2AD0AC-25D9-8DD0-1F46-EDA643C69247,1SDCH7G0169R0K,,,,,6.97294896,79.91595978,5,,
