CUSTOM.date [local],CUSTOM.updateTime [local],OSD.flyTime,OSD.flyTime [s],OSD.latitude,OSD.longitude,OSD.height [ft],OSD.heightMax [ft],OSD.vpsHeight [ft],OSD.altitude [ft],OSD.mileage [ft],OSD.hSpeed [MPH],OSD.hSpeedMax [MPH],OSD.xSpeed [MPH],OSD.xSpeedMax [MPH],OSD.ySpeed [MPH],OSD.ySpeedMax [MPH],OSD.zSpeed [MPH],OSD.zSpeedMax [MPH],OSD.pitch,OSD.roll,OSD.yaw,OSD.yaw [360],OSD.directionOfTravel,OSD.flycState,OSD.flycCommand,OSD.flightAction,OSD.gpsNum,OSD.gpsLevel,OSD.isGPSUsed,OSD.nonGPSCause,OSD.droneType,OSD.isSwaveWork,OSD.waveError,OSD.goHomeStatus,OSD.batteryType,OSD.ctrlDevice,OSD.isOnGround,OSD.isMotorOn,OSD.isMotorBlocked,OSD.motorStartFailedCause,OSD.motorFailReason,OSD.isImuPreheated,OSD.imuInitFailReason,OSD.isAcceletorOverRange,OSD.isBarometerDeadInAir,OSD.isCompassError,OSD.isGoHomeHeightModified,OSD.canIOCWork,OSD.isNotEnoughForce,OSD.isOutOfLimit,OSD.isPropellerCatapult,OSD.isVibrating,OSD.isVisionUsed,OSD.voltageWarning,GIMBAL.mode,GIMBAL.pitch,GIMBAL.roll,GIMBAL.yaw,GIMBAL.yaw [360],GIMBAL.isPitchAtLimit,GIMBAL.isRollAtLimit,GIMBAL.isYawAtLimit,GIMBAL.isStuck,CAMERA.isPhoto,CAMERA.isVideo,CAMERA.filename,CAMERA.sdCardIsInserted,CAMERA.sdCardState,RC.downlinkSignal,RC.uplinkSignal,RC.aileron,RC.elevator,RC.throttle,RC.rudder,RC.mode,RC.goHomeDepressed,RC.recordDepressed,RC.shutterDepressed,RC.playbackDepressed,RC.wheelDepressed,RC.wheelOffset,RC.custom1Depressed,RC.custom2Depressed,RC.custom3Depressed,RC.custom4Depressed,BATTERY.chargeLevel,BATTERY.currentPV [V],BATTERY.currentCapacity [mAh],BATTERY.fullCapacity [mAh],BATTERY.voltage [V],BATTERY.isCellVoltageEstimated,BATTERY.cellVoltage1 [V],BATTERY.cellVoltage2 [V],BATTERY.maxCellVoltageDeviation,BATTERY.isCellVoltageDeviationHigh,BATTERY.isVoltageLow,BATTERY.current [A],BATTERY.temperature [F],BATTERY.minTemperature [F],BATTERY.maxTemperature [F],BATTERY.usefulTime [s],BATTERY.goHomeTime [s],BATTERY.landTime [s],BATTERY.goHomeBattery,BATTERY.landBattery,BATTERY.safeFlyRadius,BATTERY.volumeConsume,BATTERY.status,BATTERY.goHomeStatus,BATTERY.goHomeCountdown,BATTERY.lowWarning,BATTERY.lowWarningGoHome,BATTERY.seriousLowWarning,BATTERY.seriousLowWarningLanding,BATTERY.timesCharged,MC.failSafeAction,MC.isObstacleAvoidanceEnabled,MC.isCollisionAvoidanceEnabled,MC.isRthObstacleAvoidanceEnabled,MC.isBraking,MC.isAvoidingObstacle,MC.isAvoidingActiveObstacle,MC.isAscentLimitedByObstacle,MC.isLandingConfirmationNeeded,MC.atLowAltitudeLimit,MC.atDistanceLimit,MC.atAirportAltitudeLimit,MC.atAirportBoundary,HOME.latitude,HOME.longitude,HOME.distance [ft],HOME.height [ft],HOME.heightLimit [ft],HOME.isHomeRecord,HOME.goHomeMode,HOME.aircraftHeadDirection,HOME.isDynamicHomePointEnabled,HOME.isReachedLimitDistance,HOME.isReachedLimitHeight,HOME.isCompassCalibrating,HOME.compassCalibrationState,HOME.isMultipleFlightModeEnabled,HOME.isBeginnerMode,HOME.isIOCEnabled,HOME.iocMode,HOME.goHomeHeight [ft],HOME.courseLockAngle,HOME.forceLandingHeight [ft],HOME.wind,HOME.dataRecorderFileIndex,RECOVER.appType,RECOVER.appVersion,RECOVER.aircraftName,RECOVER.aircraftSerial,RECOVER.cameraSerial,RECOVER.rcSerial,RECOVER.batterySerial,DETAILS.totalTime [s],DETAILS.totalDistance [ft],DETAILS.maxHeight [ft],DETAILS.maxHorizontalSpeed [MPH],DETAILS.maxVerticalSpeed [MPH],DETAILS.photoNum,DETAILS.videoTime [s],DETAILS.aircraftName,DETAILS.aircraftSerial,DETAILS.cameraSerial,DETAILS.rcSerial,DETAILS.batterySerial,DETAILS.appName,DETAILS.appType,DETAILS.appVersion,DETAILS.guid,SERIAL.flightController,SERIAL.camera,SERIAL.gimbal,SERIAL.rc,SERIAL.battery,APPGPS.latitude,APPGPS.longitude,APPGPS.accuracy,APP.tip,APP.warning
2/21/2024,19:56.8,0m 0.0s,0,6.974146242,79.91427471,0,0,0.3,52,0,0,0,0,0,0,0,0,0,2.1,-0.3,-41.3,318.7,,Starting Motors,Other,Takeoff (RC Assisted),10,4,TRUE,,Mavic Mini,FALSE,FALSE,,Smart,RC,TRUE,TRUE,FALSE,,,TRUE,,FALSE,FALSE,FALSE,FALSE,FALSE,FALSE,FALSE,FALSE,FALSE,FALSE,0,Follow Yaw,-0.5,0,-39.1,320.9,FALSE,FALSE,FALSE,FALSE,FALSE,FALSE,,TRUE,Normal,,,364,364,364,1684,2,FALSE,FALSE,FALSE,FALSE,FALSE,0,FALSE,FALSE,FALSE,FALSE,75,7.873,1540,2051,7.873,TRUE,3.937,3.937,,FALSE,FALSE,NA,81.5,81.5,81.5,,,,,,,,,Idle,,,TRUE,,FALSE,10,Go Home,FALSE,FALSE,FALSE,FALSE,FALSE,FALSE,FALSE,FALSE,FALSE,FALSE,FALSE,FALSE,,,,,,FALSE,,,FALSE,FALSE,FALSE,FALSE,,FALSE,FALSE,FALSE,,,,,Calm,,,1.12.8,Mavic Mini,1SDCH7G0169R0K,1SFLH6Q0AB03DJ,1SRCH7F014TAHX,1U5X071EXP5ZJG,90.6,0.3,9.8,6.335014,3.131716,0,0,Mavic Mini,1SDCH7G0169R0K,1SFLH6Q0AB03DJ,1SRCH7F014TAHX,1U5X071EXP5ZJG,DJI Fly,,1.12.8,169EE7D0-C827-21FC-F217-45DB8365E56A,1SDCH7G0169R0K,,,,,,,,Flight mode changed to Starting Motors.,
2/21/2024,19:56.9,0m 0.1s,0.1,6.974146339,79.9142747,0,0,0.3,52,0,0,0,0,0,0,0,0,0,2.1,-0.3,-41.3,318.7,,Starting Motors,Other,Takeoff (RC Assisted),10,4,TRUE,,Mavic Mini,FALSE,FALSE,,Smart,RC,TRUE,TRUE,FALSE,,,TRUE,,FALSE,FALSE,FALSE,FALSE,FALSE,FALSE,FALSE,FALSE,FALSE,FALSE,0,Follow Yaw,-0.5,0,-39.1,320.9,FALSE,FALSE,FALSE,FALSE,FALSE,FALSE,,TRUE,Normal,,,364,364,364,1684,2,FALSE,FALSE,FALSE,FALSE,FALSE,0,FALSE,FALSE,FALSE,FALSE,75,7.873,1540,2051,7.873,TRUE,3.937,3.937,,FALSE,FALSE,NA,81.5,81.5,81.5,,,,,,,,,Idle,,,TRUE,,FALSE,10,Go Home,FALSE,FALSE,FALSE,FALSE,FALSE,FALSE,FALSE,FALSE,FALSE,FALSE,FALSE,FALSE,,,,,,FALSE,,,FALSE,FALSE,FALSE,FALSE,,FALSE,FALSE,FALSE,,,,,Calm,,,1.12.8,Mavic Mini,1SDCH7G0169R0K,1SFLH6Q0AB03DJ,1SRCH7F014TAHX,1U5X071EXP5ZJG,90.6,0.3,9.8,6.335014,3.131716,0,0,Mavic Mini,1SDCH7G0169R0K,1SFLH6Q0AB03DJ,1SRCH7F014TAHX,1U5X071EXP5ZJG,DJI Fly,,1.12.8,169EE7D0-C827-21FC-F217-45DB8365E56A,1SDCH7G0169R0K,,,,,,,,,
2/21/2024,19:57.1,0m 0.2s,0.2,6.974146441,79.9142747,0,0,0.3,52,0,0,0,0,0,0,0,0,0,2.1,-0.3,-41.3,318.7,,Starting Motors,Other,Takeoff (RC Assisted),10,4,TRUE,,Mavic Mini,TRUE,FALSE,,Smart,RC,TRUE,TRUE,FALSE,,,TRUE,,FALSE,FALSE,FALSE,FALSE,FALSE,FALSE,FALSE,FALSE,FALSE,FALSE,0,Follow Yaw,-0.5,0,-39.1,320.9,FALSE,FALSE,FALSE,FALSE,FALSE,FALSE,,TRUE,Normal,,,364,364,364,1684,2,FALSE,FALSE,FALSE,FALSE,FALSE,0,FALSE,FALSE,FALSE,FALSE,75,7.873,1540,2051,7.873,TRUE,3.937,3.937,,FALSE,FALSE,NA,81.5,81.5,81.5,,,,,,,,,Idle,,,TRUE,,FALSE,10,Go Home,FALSE,FALSE,FALSE,FALSE,FALSE,FALSE,FALSE,FALSE,FALSE,FALSE,FALSE,FALSE,,,,,,FALSE,,,FALSE,FALSE,FALSE,FALSE,,FALSE,FALSE,FALSE,,,,,Calm,,,1.12.8,Mavic Mini,1SDCH7G0169R0K,1SFLH6Q0AB03DJ,1SRCH7F014TAHX,1U5X071EXP5ZJG,90.6,0.3,9.8,6.335014,3.131716,0,0,Mavic Mini,1SDCH7G0169R0K,1SFLH6Q0AB03DJ,1SRCH7F014TAHX,1U5X071EXP5ZJG,DJI Fly,,1.12.8,169EE7D0-C827-21FC-F217-45DB8365E56A,1SDCH7G0169R0K,,,,,,,,,
2/21/2024,19:57.2,0m 0.3s,0.3,6.974146507,79.91427474,0,0,0.3,52,0,0,0,0,0,0,0,0,0,2.1,-0.3,-41.3,318.7,,Starting Motors,Other,Takeoff (RC Assisted),10,4,TRUE,,Mavic Mini,TRUE,FALSE,,Smart,RC,TRUE,TRUE,FALSE,,,TRUE,,FALSE,FALSE,FALSE,FALSE,FALSE,FALSE,FALSE,FALSE,FALSE,FALSE,0,Follow Yaw,-0.5,0,-39.1,320.9,FALSE,FALSE,FALSE,FALSE,FALSE,FALSE,,TRUE,Normal,,100,364,364,451,1684,2,FALSE,FALSE,FALSE,FALSE,FALSE,0,FALSE,FALSE,FALSE,FALSE,75,7.87,1540,2051,7.87,FALSE,3.936,3.934,0.002,FALSE,FALSE,NA,81.7,81.5,81.6,,,,,,,,,Idle,,,TRUE,,FALSE,10,Go Home,FALSE,FALSE,FALSE,FALSE,FALSE,FALSE,FALSE,FALSE,FALSE,FALSE,FALSE,FALSE,,,,,,FALSE,,,FALSE,FALSE,FALSE,FALSE,,FALSE,FALSE,FALSE,,,,,Calm,,,1.12.8,Mavic Mini,1SDCH7G0169R0K,1SFLH6Q0AB03DJ,1SRCH7F014TAHX,1U5X071EXP5ZJG,90.6,0.3,9.8,6.335014,3.131716,0,0,Mavic Mini,1SDCH7G0169R0K,1SFLH6Q0AB03DJ,1SRCH7F014TAHX,1U5X071EXP5ZJG,DJI Fly,,1.12.8,169EE7D0-C827-21FC-F217-45DB8365E56A,1SDCH7G0169R0K,,,,,,,,,
2/21/2024,19:57.3,0m 0.4s,0.4,6.974146654,79.91427488,0,0,0.3,52,0.1,0,0,0,0,0,0,0,0,2.1,-0.3,-41.4,318.6,,Starting Motors,Other,Takeoff (RC Assisted),10,4,TRUE,,Mavic Mini,TRUE,FALSE,,Smart,RC,TRUE,TRUE,FALSE,,,TRUE,,FALSE,FALSE,FALSE,FALSE,FALSE,FALSE,FALSE,FALSE,FALSE,FALSE,0,Follow Yaw,-0.5,0,-39.1,320.9,FALSE,FALSE,FALSE,FALSE,FALSE,FALSE,,TRUE,Normal,,100,1024,1024,1024,1024,2,FALSE,FALSE,FALSE,FALSE,FALSE,0,FALSE,FALSE,FALSE,FALSE,75,7.87,1540,2051,7.87,FALSE,3.936,3.934,0.002,FALSE,FALSE,NA,81.7,81.5,81.6,,,,,,,,,Idle,,,TRUE,,FALSE,10,Go Home,FALSE,FALSE,FALSE,FALSE,FALSE,FALSE,FALSE,FALSE,FALSE,FALSE,FALSE,FALSE,,,,,,FALSE,,,FALSE,FALSE,FALSE,FALSE,,FALSE,FALSE,FALSE,,,,,Calm,,,1.12.8,Mavic Mini,1SDCH7G0169R0K,1SFLH6Q0AB03DJ,1SRCH7F014TAHX,1U5X071EXP5ZJG,90.6,0.3,9.8,6.335014,3.131716,0,0,Mavic Mini,1SDCH7G0169R0K,1SFLH6Q0AB03DJ,1SRCH7F014TAHX,1U5X071EXP5ZJG,DJI Fly,,1.12.8,169EE7D0-C827-21FC-F217-45DB8365E56A,1SDCH7G0169R0K,,,,,,,,,
2/21/2024,19:57.4,0m 0.5s,0.5,6.97414675,79.91427489,0,0,0.3,52,0.1,0,0,0,0,0,0,0,0,2.1,-0.3,-41.3,318.7,,Starting Motors,Other,Takeoff (RC Assisted),10,4,TRUE,,Mavic Mini,TRUE,FALSE,,Smart,RC,TRUE,TRUE,FALSE,,,TRUE,,FALSE,FALSE,FALSE,FALSE,FALSE,FALSE,FALSE,FALSE,FALSE,FALSE,0,Follow Yaw,-0.5,0,-39.1,320.9,FALSE,FALSE,FALSE,FALSE,FALSE,FALSE,,TRUE,Normal,,100,1024,1024,1024,1024,2,FALSE,FALSE,FALSE,FALSE,FALSE,0,FALSE,FALSE,FALSE,FALSE,75,7.87,1540,2051,7.87,FALSE,3.936,3.934,0.002,FALSE,FALSE,NA,81.7,81.5,81.6,,,,,,,,,Idle,,,TRUE,,FALSE,10,Go Home,FALSE,FALSE,FALSE,FALSE,FALSE,FALSE,FALSE,FALSE,FALSE,FALSE,FALSE,FALSE,,,,,,FALSE,,,FALSE,FALSE,FALSE,FALSE,,FALSE,FALSE,FALSE,,,,,Calm,,,1.12.8,Mavic Mini,1SDCH7G0169R0K,1SFLH6Q0AB03DJ,1SRCH7F014TAHX,1U5X071EXP5ZJG,90.6,0.3,9.8,6.335014,3.131716,0,0,Mavic Mini,1SDCH7G0169R0K,1SFLH6Q0AB03DJ,1SRCH7F014TAHX,1U5X071EXP5ZJG,DJI Fly,,1.12.8,169EE7D0-C827-21FC-F217-45DB8365E56A,1SDCH7G0169R0K,,,,,,,,,
2/21/2024,19:57.5,0m 0.6s,0.6,6.974146852,79.9142749,0,0,0.3,52,0.2,0,0,0,0,0,0,0,0,2.1,-0.3,-41.3,318.7,,Starting Motors,Other,Takeoff (RC Assisted),10,4,TRUE,,Mavic Mini,TRUE,FALSE,,Smart,RC,TRUE,TRUE,FALSE,,,TRUE,,FALSE,FALSE,FALSE,FALSE,FALSE,FALSE,FALSE,FALSE,FALSE,FALSE,0,Follow Yaw,-0.5,0,-39.1,320.9,FALSE,FALSE,FALSE,FALSE,FALSE,FALSE,,TRUE,Normal,,100,1024,1024,1024,1024,2,FALSE,FALSE,FALSE,FALSE,FALSE,0,FALSE,FALSE,FALSE,FALSE,75,7.87,1540,2051,7.87,FALSE,3.936,3.934,0.002,FALSE,FALSE,NA,81.7,81.5,81.6,,,,,,,,,Idle,,,TRUE,,FALSE,10,Go Home,FALSE,FALSE,FALSE,FALSE,FALSE,FALSE,FALSE,FALSE,FALSE,FALSE,FALSE,FALSE,,,,,,FALSE,,,FALSE,FALSE,FALSE,FALSE,,FALSE,FALSE,FALSE,,,,,Calm,,,1.12.8,Mavic Mini,1SDCH7G0169R0K,1SFLH6Q0AB03DJ,1SRCH7F014TAHX,1U5X071EXP5ZJG,90.6,0.3,9.8,6.335014,3.131716,0,0,Mavic Mini,1SDCH7G0169R0K,1SFLH6Q0AB03DJ,1SRCH7F014TAHX,1U5X071EXP5ZJG,DJI Fly,,1.12.8,169EE7D0-C827-21FC-F217-45DB8365E56A,1SDCH7G0169R0K,,,,,,,,,
2/21/2024,19:57.6,0m 0.7s,0.7,6.97414691,79.9142749,0,0,0.3,52,0.2,0,0,0,0,0,0,0,0,2.1,-0.3,-41.3,318.7,,Starting Motors,Other,Takeoff (RC Assisted),10,4,TRUE,,Mavic Mini,TRUE,FALSE,,Smart,RC,TRUE,TRUE,FALSE,,,TRUE,,FALSE,FALSE,FALSE,FALSE,FALSE,FALSE,FALSE,FALSE,FALSE,FALSE,0,Follow Yaw,-0.5,0,-39.1,320.9,FALSE,FALSE,FALSE,FALSE,FALSE,FALSE,,TRUE,Normal,,100,1024,1024,1024,1024,2,FALSE,FALSE,FALSE,FALSE,FALSE,0,FALSE,FALSE,FALSE,FALSE,75,7.87,1540,2051,7.86,FALSE,3.936,3.934,0.002,FALSE,FALSE,NA,81.7,81.5,81.6,0,1,0,0,5,2462.4,615.6,,Idle,0,20,FALSE,5,TRUE,10,Go Home,FALSE,FALSE,FALSE,FALSE,FALSE,FALSE,FALSE,FALSE,FALSE,FALSE,FALSE,FALSE,6.974147796,79.91426532,3.4,145,328,TRUE,1,1,FALSE,FALSE,FALSE,FALSE,,TRUE,FALSE,FALSE,Course Lock,65.6,,16.4,Calm,29,,1.12.8,Mavic Mini,1SDCH7G0169R0K,1SFLH6Q0AB03DJ,1SRCH7F014TAHX,1U5X071EXP5ZJG,90.6,0.3,9.8,6.335014,3.131716,0,0,Mavic Mini,1SDCH7G0169R0K,1SFLH6Q0AB03DJ,1SRCH7F014TAHX,1U5X071EXP5ZJG,DJI Fly,,1.12.8,169EE7D0-C827-21FC-F217-45DB8365E56A,1SDCH7G0169R0K,,,,,,,,Data Recorder File Index is 29.; Set Return to Home (RTH) altitude to 20 m (66 ft).; Set maximum flight altitude to 100 m (328 ft).,
2/21/2024,19:57.7,0m 0.8s,0.8,6.974146996,79.91427488,0,0,0.3,52,0.2,0,0,0,0,0,0,0,0,2.2,-0.3,-41.3,318.7,,Starting Motors,Other,Takeoff (RC Assisted),10,4,TRUE,,Mavic Mini,TRUE,FALSE,,Smart,RC,TRUE,TRUE,FALSE,,,TRUE,,FALSE,FALSE,FALSE,FALSE,FALSE,FALSE,FALSE,FALSE,FALSE,FALSE,0,Follow Yaw,-0.5,0,-39.1,320.9,FALSE,FALSE,FALSE,FALSE,FALSE,FALSE,,TRUE,Normal,,100,1024,1024,1024,1024,2,FALSE,FALSE,FALSE,FALSE,FALSE,0,FALSE,FALSE,FALSE,FALSE,75,7.87,1540,2051,7.86,FALSE,3.936,3.934,0.002,FALSE,FALSE,NA,81.7,81.5,81.6,0,1,0,0,5,2462.4,615.6,,Idle,0,20,FALSE,5,TRUE,10,Go Home,FALSE,FALSE,FALSE,FALSE,FALSE,FALSE,FALSE,FALSE,FALSE,FALSE,FALSE,FALSE,6.974147796,79.91426532,3.4,145,328,TRUE,1,1,FALSE,FALSE,FALSE,FALSE,,TRUE,FALSE,FALSE,Course Lock,65.6,,16.4,Calm,29,,1.12.8,Mavic Mini,1SDCH7G0169R0K,1SFLH6Q0AB03DJ,1SRCH7F014TAHX,1U5X071EXP5ZJG,90.6,0.3,9.8,6.335014,3.131716,0,0,Mavic Mini,1SDCH7G0169R0K,1SFLH6Q0AB03DJ,1SRCH7F014TAHX,1U5X071EXP5ZJG,DJI Fly,,1.12.8,169EE7D0-C827-21FC-F217-45DB8365E56A,1SDCH7G0169R0K,,,,,,,,,
2/21/2024,19:57.7,0m 0.9s,0.9,6.974147036,79.91427487,0,0,0.3,52,0.2,0,0,0,0,0,0,0,0,2.1,-0.3,-41.3,318.7,,Starting Motors,Other,Takeoff (RC Assisted),10,4,TRUE,,Mavic Mini,TRUE,FALSE,,Smart,RC,TRUE,TRUE,FALSE,,,TRUE,,FALSE,FALSE,FALSE,FALSE,FALSE,FALSE,FALSE,FALSE,FALSE,FALSE,0,Follow Yaw,-0.5,0,-39.1,320.9,FALSE,FALSE,FALSE,FALSE,FALSE,FALSE,,TRUE,Normal,,100,1024,1024,1024,1024,2,FALSE,FALSE,FALSE,FALSE,FALSE,0,FALSE,FALSE,FALSE,FALSE,75,7.87,1540,2051,7.86,FALSE,3.936,3.934,0.002,FALSE,FALSE,NA,81.7,81.5,81.6,0,1,0,0,5,2462.4,615.6,,Idle,0,20,FALSE,5,TRUE,10,Go Home,FALSE,FALSE,FALSE,FALSE,FALSE,FALSE,FALSE,FALSE,FALSE,FALSE,FALSE,FALSE,6.974147796,79.91426532,3.4,145,328,TRUE,1,1,FALSE,FALSE,FALSE,FALSE,,TRUE,FALSE,FALSE,Course Lock,65.6,,16.4,Calm,29,,1.12.8,Mavic Mini,1SDCH7G0169R0K,1SFLH6Q0AB03DJ,1SRCH7F014TAHX,1U5X071EXP5ZJG,90.6,0.3,9.8,6.335014,3.131716,0,0,Mavic Mini,1SDCH7G0169R0K,1SFLH6Q0AB03DJ,1SRCH7F014TAHX,1U5X071EXP5ZJG,DJI Fly,,1.12.8,169EE7D0-C827-21FC-F217-45DB8365E56A,1SDCH7G0169R0K,,,,,,,,,
2/21/2024,19:57.9,0m 1.0s,1,6.974147076,79.91427486,0,0,0.3,52,0.2,0,0,0,0,0,0,0,0,2.1,-0.3,-41.3,318.7,,Starting Motors,Other,Takeoff (RC Assisted),10,4,TRUE,,Mavic Mini,TRUE,FALSE,,Smart,RC,TRUE,TRUE,FALSE,,,TRUE,,FALSE,FALSE,FALSE,FALSE,FALSE,FALSE,FALSE,FALSE,FALSE,FALSE,0,Follow Yaw,-0.5,0,-39.1,320.9,FALSE,FALSE,FALSE,FALSE,FALSE,FALSE,,TRUE,Normal,,100,1024,1024,1024,1024,2,FALSE,FALSE,FALSE,FALSE,FALSE,0,FALSE,FALSE,FALSE,FALSE,75,7.87,1540,2051,7.86,FALSE,3.936,3.934,0.002,FALSE,FALSE,NA,81.7,81.5,81.6,0,1,0,0,5,2462.4,615.6,,Idle,0,20,FALSE,5,TRUE,10,Go Home,FALSE,FALSE,FALSE,FALSE,FALSE,FALSE,FALSE,FALSE,FALSE,FALSE,FALSE,FALSE,6.974147796,79.91426532,3.4,145,328,TRUE,1,1,FALSE,FALSE,FALSE,FALSE,,TRUE,FALSE,FALSE,Course Lock,65.6,,16.4,Calm,29,,1.12.8,Mavic Mini,1SDCH7G0169R0K,1SFLH6Q0AB03DJ,1SRCH7F014TAHX,1U5X071EXP5ZJG,90.6,0.3,9.8,6.335014,3.131716,0,0,Mavic Mini,1SDCH7G0169R0K,1SFLH6Q0AB03DJ,1SRCH7F014TAHX,1U5X071EXP5ZJG,DJI Fly,,1.12.8,169EE7D0-C827-21FC-F217-45DB8365E56A,1SDCH7G0169R0K,,,,,,,,,
2/21/2024,19:57.9,0m 1.1s,1.1,6.974147162,79.9142749,0,0,0.3,52,0.3,0,0,0,0,0,0,0,0,2.1,-0.4,-41.3,318.7,,Manual Takeoff,Other,Takeoff (RC Assisted),10,4,TRUE,,Mavic Mini,TRUE,FALSE,,Smart,RC,TRUE,TRUE,FALSE,,,TRUE,,FALSE,FALSE,FALSE,FALSE,FALSE,FALSE,FALSE,FALSE,FALSE,FALSE,0,Follow Yaw,-0.5,0,-39.1,320.9,FALSE,FALSE,FALSE,FALSE,FALSE,FALSE,,TRUE,Normal,,100,1024,1024,1024,1024,2,FALSE,FALSE,FALSE,FALSE,FALSE,0,FALSE,FALSE,FALSE,FALSE,75,7.87,1540,2051,7.86,FALSE,3.936,3.934,0.002,FALSE,FALSE,NA,81.7,81.5,81.6,0,1,0,0,5,2462.4,615.6,,Idle,0,20,FALSE,5,TRUE,10,Go Home,FALSE,FALSE,FALSE,FALSE,FALSE,FALSE,FALSE,FALSE,FALSE,FALSE,FALSE,FALSE,6.974147796,79.91426532,3.4,145,328,TRUE,1,1,FALSE,FALSE,FALSE,FALSE,,TRUE,FALSE,FALSE,Course Lock,65.6,,16.4,Calm,29,,1.12.8,Mavic Mini,1SDCH7G0169R0K,1SFLH6Q0AB03DJ,1SRCH7F014TAHX,1U5X071EXP5ZJG,90.6,0.3,9.8,6.335014,3.131716,0,0,Mavic Mini,1SDCH7G0169R0K,1SFLH6Q0AB03DJ,1SRCH7F014TAHX,1U5X071EXP5ZJG,DJI Fly,,1.12.8,169EE7D0-C827-21FC-F217-45DB8365E56A,1SDCH7G0169R0K,,,,,,,,Flight mode changed to Manual Takeoff.,
2/21/2024,19:58.0,0m 1.2s,1.2,6.974147258,79.914275,0,0,0.3,52,0.3,0,0,0,0,0,0,0,0,2.1,-0.3,-41.3,318.7,,Manual Takeoff,Other,Takeoff (RC Assisted),10,4,TRUE,,Mavic Mini,TRUE,FALSE,,Smart,RC,TRUE,TRUE,FALSE,,,TRUE,,FALSE,FALSE,FALSE,FALSE,FALSE,FALSE,FALSE,FALSE,FALSE,FALSE,0,Follow Yaw,-0.5,0,-39.1,320.9,FALSE,FALSE,FALSE,FALSE,FALSE,FALSE,,TRUE,Normal,,100,1024,1024,1024,1024,2,FALSE,FALSE,FALSE,FALSE,FALSE,0,FALSE,FALSE,FALSE,FALSE,75,7.87,1540,2051,7.86,FALSE,3.936,3.934,0.002,FALSE,FALSE,NA,81.7,81.5,81.6,0,1,0,0,5,2462.4,615.6,,Idle,0,20,FALSE,5,TRUE,10,Go Home,FALSE,FALSE,FALSE,FALSE,FALSE,FALSE,FALSE,FALSE,FALSE,FALSE,FALSE,FALSE,6.974147796,79.91426532,3.5,145,328,TRUE,1,1,FALSE,FALSE,FALSE,FALSE,,TRUE,FALSE,FALSE,Course Lock,65.6,,16.4,Calm,29,,1.12.8,Mavic Mini,1SDCH7G0169R0K,1SFLH6Q0AB03DJ,1SRCH7F014TAHX,1U5X071EXP5ZJG,90.6,0.3,9.8,6.335014,3.131716,0,0,Mavic Mini,1SDCH7G0169R0K,1SFLH6Q0AB03DJ,1SRCH7F014TAHX,1U5X071EXP5ZJG,DJI Fly,,1.12.8,169EE7D0-C827-21FC-F217-45DB8365E56A,1SDCH7G0169R0K,,,,,,,,,
2/21/2024,19:58.1,0m 1.3s,1.3,6.974147314,79.91427501,0,0,0.3,52,0.4,0,0,0,0,0,0,0,0,2.1,-0.3,-41.3,318.7,,Manual Takeoff,Other,Takeoff (RC Assisted),10,4,TRUE,,Mavic Mini,TRUE,FALSE,,Smart,RC,TRUE,TRUE,FALSE,,,TRUE,,FALSE,FALSE,FALSE,FALSE,FALSE,FALSE,FALSE,FALSE,FALSE,FALSE,0,Follow Yaw,-0.5,0,-39.1,320.9,FALSE,FALSE,FALSE,FALSE,FALSE,FALSE,,TRUE,Normal,,100,1024,1024,1024,1024,2,FALSE,FALSE,FALSE,FALSE,FALSE,0,FALSE,FALSE,FALSE,FALSE,75,7.87,1540,2051,7.86,FALSE,3.936,3.934,0.002,FALSE,FALSE,NA,81.7,81.5,81.6,0,1,0,0,5,2462.4,615.6,,Idle,0,20,FALSE,5,TRUE,10,Go Home,FALSE,FALSE,FALSE,FALSE,FALSE,FALSE,FALSE,FALSE,FALSE,FALSE,FALSE,FALSE,6.974147796,79.91426532,3.5,145,328,TRUE,1,1,FALSE,FALSE,FALSE,FALSE,,TRUE,FALSE,FALSE,Course Lock,65.6,,16.4,Calm,29,,1.12.8,Mavic Mini,1SDCH7G0169R0K,1SFLH6Q0AB03DJ,1SRCH7F014TAHX,1U5X071EXP5ZJG,90.6,0.3,9.8,6.335014,3.131716,0,0,Mavic Mini,1SDCH7G0169R0K,1SFLH6Q0AB03DJ,1SRCH7F014TAHX,1U5X071EXP5ZJG,DJI Fly,,1.12.8,169EE7D0-C827-21FC-F217-45DB8365E56A,1SDCH7G0169R0K,,,,,,,,,
2/21/2024,19:58.3,0m 1.4s,1.4,6.974147371,79.91427502,0,0,0.3,52,0.4,0,0,0,0,0,0,0,0,2.1,-0.3,-41.3,318.7,,Manual Takeoff,Other,Takeoff (RC Assisted),10,4,TRUE,,Mavic Mini,TRUE,FALSE,,Smart,RC,TRUE,TRUE,FALSE,,,TRUE,,FALSE,FALSE,FALSE,FALSE,FALSE,FALSE,FALSE,FALSE,FALSE,FALSE,0,Follow Yaw,-0.5,0,-39.1,320.9,FALSE,FALSE,FALSE,FALSE,FALSE,FALSE,,TRUE,Normal,,100,1024,1024,1024,1024,2,FALSE,FALSE,FALSE,FALSE,FALSE,0,FALSE,FALSE,FALSE,FALSE,75,7.856,1540,2051,7.86,FALSE,3.928,3.929,0.002,FALSE,FALSE,NA,81.7,81.5,81.6,0,1,0,0,5,2462.4,615.6,,Idle,0,20,FALSE,5,TRUE,10,Go Home,FALSE,FALSE,FALSE,FALSE,FALSE,FALSE,FALSE,FALSE,FALSE,FALSE,FALSE,FALSE,6.974147796,79.91426532,3.5,145,328,TRUE,1,1,FALSE,FALSE,FALSE,FALSE,,TRUE,FALSE,FALSE,Course Lock,65.6,,16.4,Calm,29,,1.12.8,Mavic Mini,1SDCH7G0169R0K,1SFLH6Q0AB03DJ,1SRCH7F014TAHX,1U5X071EXP5ZJG,90.6,0.3,9.8,6.335014,3.131716,0,0,Mavic Mini,1SDCH7G0169R0K,1SFLH6Q0AB03DJ,1SRCH7F014TAHX,1U5X071EXP5ZJG,DJI Fly,,1.12.8,169EE7D0-C827-21FC-F217-45DB8365E56A,1SDCH7G0169R0K,,,,,,,,,
2/21/2024,19:58.4,0m 1.5s,1.5,6.974147413,79.91427501,0,0,0.3,52,0.4,0,0,0,0,0,0,0,0,2.1,-0.3,-41.3,318.7,,Manual Takeoff,Other,Takeoff (RC Assisted),10,4,TRUE,,Mavic Mini,TRUE,FALSE,,Smart,RC,TRUE,TRUE,FALSE,,,TRUE,,FALSE,FALSE,FALSE,FALSE,FALSE,FALSE,FALSE,FALSE,FALSE,FALSE,0,Follow Yaw,-0.5,0,-39.1,320.9,FALSE,FALSE,FALSE,FALSE,FALSE,FALSE,,TRUE,Normal,,100,1024,1024,1024,1024,2,FALSE,FALSE,FALSE,FALSE,FALSE,0,FALSE,FALSE,FALSE,FALSE,75,7.856,1540,2051,7.86,FALSE,3.928,3.929,0.002,FALSE,FALSE,NA,81.7,81.5,81.6,0,1,0,0,5,2462.4,615.6,,Idle,0,20,FALSE,5,TRUE,10,Go Home,FALSE,FALSE,FALSE,FALSE,FALSE,FALSE,FALSE,FALSE,FALSE,FALSE,FALSE,FALSE,6.974147796,79.91426532,3.5,145,328,TRUE,1,1,FALSE,FALSE,FALSE,FALSE,,TRUE,FALSE,FALSE,Course Lock,65.6,,16.4,Calm,29,,1.12.8,Mavic Mini,1SDCH7G0169R0K,1SFLH6Q0AB03DJ,1SRCH7F014TAHX,1U5X071EXP5ZJG,90.6,0.3,9.8,6.335014,3.131716,0,0,Mavic Mini,1SDCH7G0169R0K,1SFLH6Q0AB03DJ,1SRCH7F014TAHX,1U5X071EXP5ZJG,DJI Fly,,1.12.8,169EE7D0-C827-21FC-F217-45DB8365E56A,1SDCH7G0169R0K,,,,,,,,,
2/21/2024,19:58.5,0m 1.6s,1.6,6.974147416,79.91427498,0,0,0.3,52,0.4,0,0,0,0,0,0,0,0,2.1,-0.3,-41.3,318.7,,Manual Takeoff,Other,Takeoff (RC Assisted),10,4,TRUE,,Mavic Mini,TRUE,FALSE,,Smart,RC,TRUE,TRUE,FALSE,,,TRUE,,FALSE,FALSE,FALSE,FALSE,FALSE,FALSE,FALSE,FALSE,FALSE,FALSE,0,Follow Yaw,-0.5,0,-39.1,320.9,FALSE,FALSE,FALSE,FALSE,FALSE,FALSE,,TRUE,Normal,,100,1024,1024,1024,1024,2,FALSE,FALSE,FALSE,FALSE,FALSE,0,FALSE,FALSE,FALSE,FALSE,75,7.856,1540,2051,7.86,FALSE,3.928,3.929,0.002,FALSE,FALSE,NA,81.7,81.5,81.6,0,1,0,0,5,2462.4,615.6,,Idle,0,20,FALSE,5,TRUE,10,Go Home,FALSE,FALSE,FALSE,FALSE,FALSE,FALSE,FALSE,FALSE,FALSE,FALSE,FALSE,FALSE,6.974147796,79.91426532,3.5,145,328,TRUE,1,1,FALSE,FALSE,FALSE,FALSE,,TRUE,FALSE,FALSE,Course Lock,65.6,,16.4,Calm,29,,1.12.8,Mavic Mini,1SDCH7G0169R0K,1SFLH6Q0AB03DJ,1SRCH7F014TAHX,1U5X071EXP5ZJG,90.6,0.3,9.8,6.335014,3.131716,0,0,Mavic Mini,1SDCH7G0169R0K,1SFLH6Q0AB03DJ,1SRCH7F014TAHX,1U5X071EXP5ZJG,DJI Fly,,1.12.8,169EE7D0-C827-21FC-F217-45DB8365E56A,1SDCH7G0169R0K,,,,,,,,,
2/21/2024,19:58.6,0m 1.7s,1.7,6.974147457,79.91427502,0,0,0.3,52,0.4,0,0,0,0,0,0,0,0,2.1,-0.3,-41.3,318.7,,Manual Takeoff,Other,Takeoff (RC Assisted),10,4,TRUE,,Mavic Mini,TRUE,FALSE,,Smart,RC,TRUE,TRUE,FALSE,,,TRUE,,FALSE,FALSE,FALSE,FALSE,FALSE,FALSE,FALSE,FALSE,FALSE,FALSE,0,Follow Yaw,-0.5,0,-39.1,320.9,FALSE,FALSE,FALSE,FALSE,FALSE,FALSE,,TRUE,Normal,,100,1024,1024,1024,1024,2,FALSE,FALSE,FALSE,FALSE,FALSE,0,FALSE,FALSE,FALSE,FALSE,75,7.856,1540,2051,7.87,FALSE,3.928,3.929,0.002,FALSE,FALSE,NA,81.7,81.5,81.6,0,1,0,0,5,2518.5,629.63,,Idle,0,20,FALSE,5,TRUE,10,Go Home,FALSE,FALSE,FALSE,FALSE,FALSE,FALSE,FALSE,FALSE,FALSE,FALSE,FALSE,FALSE,6.974147796,79.91426532,3.5,145,328,TRUE,1,1,FALSE,FALSE,FALSE,FALSE,,TRUE,FALSE,FALSE,Course Lock,65.6,,16.4,Calm,29,,1.12.8,Mavic Mini,1SDCH7G0169R0K,1SFLH6Q0AB03DJ,1SRCH7F014TAHX,1U5X071EXP5ZJG,90.6,0.3,9.8,6.335014,3.131716,0,0,Mavic Mini,1SDCH7G0169R0K,1SFLH6Q0AB03DJ,1SRCH7F014TAHX,1U5X071EXP5ZJG,DJI Fly,,1.12.8,169EE7D0-C827-21FC-F217-45DB8365E56A,1SDCH7G0169R0K,,,,,,,,,
2/21/2024,19:58.7,0m 1.8s,1.8,6.974147501,79.91427506,0,0,0.3,52,0.4,0,0,0,0,0,0,0,0,2.1,-0.3,-41.3,318.7,,Manual Takeoff,Other,Takeoff (RC Assisted),10,4,TRUE,,Mavic Mini,TRUE,FALSE,,Smart,RC,TRUE,TRUE,FALSE,,,TRUE,,FALSE,FALSE,FALSE,FALSE,FALSE,FALSE,FALSE,FALSE,FALSE,FALSE,0,Follow Yaw,-0.5,0,-39.1,320.9,FALSE,FALSE,FALSE,FALSE,FALSE,FALSE,,TRUE,Normal,,100,1024,1024,1024,1024,2,FALSE,FALSE,FALSE,FALSE,FALSE,0,FALSE,FALSE,FALSE,FALSE,75,7.856,1540,2051,7.87,FALSE,3.928,3.929,0.002,FALSE,FALSE,NA,81.7,81.5,81.6,0,1,0,0,5,2518.5,629.63,,Idle,0,20,FALSE,5,TRUE,10,Go Home,FALSE,FALSE,FALSE,FALSE,FALSE,FALSE,FALSE,FALSE,FALSE,FALSE,FALSE,FALSE,6.974147796,79.91426532,3.5,145,328,TRUE,1,1,FALSE,FALSE,FALSE,FALSE,,TRUE,FALSE,FALSE,Course Lock,65.6,,16.4,Calm,29,,1.12.8,Mavic Mini,1SDCH7G0169R0K,1SFLH6Q0AB03DJ,1SRCH7F014TAHX,1U5X071EXP5ZJG,90.6,0.3,9.8,6.335014,3.131716,0,0,Mavic Mini,1SDCH7G0169R0K,1SFLH6Q0AB03DJ,1SRCH7F014TAHX,1U5X071EXP5ZJG,DJI Fly,,1.12.8,169EE7D0-C827-21FC-F217-45DB8365E56A,1SDCH7G0169R0K,,,,,,,,,
2/21/2024,19:58.8,0m 1.9s,1.9,6.974147496,79.91427506,0,0,0.3,52,0.4,0,0,0,0,0,0,0,0,2.1,-0.3,-41.3,318.7,,Manual Takeoff,Other,Takeoff (RC Assisted),10,4,TRUE,,Mavic Mini,TRUE,FALSE,,Smart,RC,TRUE,TRUE,FALSE,,,TRUE,,FALSE,FALSE,FALSE,FALSE,FALSE,FALSE,FALSE,FALSE,FALSE,FALSE,0,Follow Yaw,-0.5,0,-39.2,320.8,FALSE,FALSE,FALSE,FALSE,FALSE,FALSE,,TRUE,Normal,,100,1024,1024,1024,1024,2,FALSE,FALSE,FALSE,FALSE,FALSE,0,FALSE,FALSE,FALSE,FALSE,75,7.856,1540,2051,7.87,FALSE,3.928,3.929,0.002,FALSE,FALSE,NA,81.7,81.5,81.6,0,1,0,0,5,2518.5,629.63,,Idle,0,20,FALSE,5,TRUE,10,Go Home,FALSE,FALSE,FALSE,FALSE,FALSE,FALSE,FALSE,FALSE,FALSE,FALSE,FALSE,FALSE,6.974147796,79.91426532,3.5,145,328,TRUE,1,1,FALSE,FALSE,FALSE,FALSE,,TRUE,FALSE,FALSE,Course Lock,65.6,,16.4,Calm,29,,1.12.8,Mavic Mini,1SDCH7G0169R0K,1SFLH6Q0AB03DJ,1SRCH7F014TAHX,1U5X071EXP5ZJG,90.6,0.3,9.8,6.335014,3.131716,0,0,Mavic Mini,1SDCH7G0169R0K,1SFLH6Q0AB03DJ,1SRCH7F014TAHX,1U5X071EXP5ZJG,DJI Fly,,1.12.8,169EE7D0-C827-21FC-F217-45DB8365E56A,1SDCH7G0169R0K,,,,,,,,,
2/21/2024,19:58.9,0m 2.0s,2,6.974147491,79.91427507,0,0,0.3,52,0.4,0,0,0,0,0,0,0,0,2.1,-0.3,-41.3,318.7,,Manual Takeoff,Other,Takeoff (RC Assisted),10,4,TRUE,,Mavic Mini,TRUE,FALSE,,Smart,RC,TRUE,TRUE,FALSE,,,TRUE,,FALSE,FALSE,FALSE,FALSE,FALSE,FALSE,FALSE,FALSE,FALSE,FALSE,0,Follow Yaw,-0.5,0,-39.1,320.9,FALSE,FALSE,FALSE,FALSE,FALSE,FALSE,,TRUE,Normal,,100,1024,1024,1024,1024,2,FALSE,FALSE,FALSE,FALSE,FALSE,0,FALSE,FALSE,FALSE,FALSE,75,7.856,1540,2051,7.87,FALSE,3.928,3.929,0.002,FALSE,FALSE,NA,81.7,81.5,81.6,0,1,0,0,5,2518.5,629.63,,Idle,0,20,FALSE,5,TRUE,10,Go Home,FALSE,FALSE,FALSE,FALSE,FALSE,FALSE,FALSE,FALSE,FALSE,FALSE,FALSE,FALSE,6.974147796,79.91426532,3.5,145,328,TRUE,1,1,FALSE,FALSE,FALSE,FALSE,,TRUE,FALSE,FALSE,Course Lock,65.6,,16.4,Calm,29,,1.12.8,Mavic Mini,1SDCH7G0169R0K,1SFLH6Q0AB03DJ,1SRCH7F014TAHX,1U5X071EXP5ZJG,90.6,0.3,9.8,6.335014,3.131716,0,0,Mavic Mini,1SDCH7G0169R0K,1SFLH6Q0AB03DJ,1SRCH7F014TAHX,1U5X071EXP5ZJG,DJI Fly,,1.12.8,169EE7D0-C827-21FC-F217-45DB8365E56A,1SDCH7G0169R0K,,,,,6.97416882,79.9142575,5,,
2/21/2024,19:59.0,0m 2.1s,2.1,6.974147553,79.91427507,0,0,0.3,52,0.5,0,0,0,0,0,0,0,0,2.1,-0.3,-41.3,318.7,,Manual Takeoff,Other,Takeoff (RC Assisted),10,4,TRUE,,Mavic Mini,TRUE,FALSE,,Smart,RC,TRUE,TRUE,FALSE,,,TRUE,,FALSE,FALSE,FALSE,FALSE,FALSE,FALSE,FALSE,FALSE,FALSE,FALSE,0,Follow Yaw,-0.5,0,-39.1,320.9,FALSE,FALSE,FALSE,FALSE,FALSE,FALSE,,TRUE,Normal,,100,1024,1024,1024,1024,2,FALSE,FALSE,FALSE,FALSE,FALSE,0,FALSE,FALSE,FALSE,FALSE,75,7.856,1540,2051,7.87,FALSE,3.928,3.929,0.002,FALSE,FALSE,NA,81.7,81.5,81.6,0,1,0,0,5,2518.5,629.63,,Idle,0,20,FALSE,5,TRUE,10,Go Home,FALSE,FALSE,FALSE,FALSE,FALSE,FALSE,FALSE,FALSE,FALSE,FALSE,FALSE,FALSE,6.974147796,79.91426532,3.5,145,328,TRUE,1,1,FALSE,FALSE,FALSE,FALSE,,TRUE,FALSE,FALSE,Course Lock,65.6,,16.4,Calm,29,,1.12.8,Mavic Mini,1SDCH7G0169R0K,1SFLH6Q0AB03DJ,1SRCH7F014TAHX,1U5X071EXP5ZJG,90.6,0.3,9.8,6.335014,3.131716,0,0,Mavic Mini,1SDCH7G0169R0K,1SFLH6Q0AB03DJ,1SRCH7F014TAHX,1U5X071EXP5ZJG,DJI Fly,,1.12.8,169EE7D0-C827-21FC-F217-45DB8365E56A,1SDCH7G0169R0K,,,,,6.97416882,79.9142575,5,,
2/21/2024,19:59.1,0m 2.2s,2.2,6.974147621,79.91427507,0,0,0.3,52,0.5,0,0,0,0,0,0,0,0,2.1,-0.3,-41.3,318.7,,Manual Takeoff,Other,Takeoff (RC Assisted),10,4,TRUE,,Mavic Mini,TRUE,FALSE,,Smart,RC,TRUE,TRUE,FALSE,,,TRUE,,FALSE,FALSE,FALSE,FALSE,FALSE,FALSE,FALSE,FALSE,FALSE,FALSE,0,Follow Yaw,-0.5,0,-39.1,320.9,FALSE,FALSE,FALSE,FALSE,FALSE,FALSE,,TRUE,Normal,,100,1024,1024,1024,1024,2,FALSE,FALSE,FALSE,FALSE,FALSE,0,FALSE,FALSE,FALSE,FALSE,75,7.856,1540,2051,7.87,FALSE,3.928,3.929,0.002,FALSE,FALSE,NA,81.7,81.5,81.6,0,1,0,0,5,2518.5,629.63,,Idle,0,20,FALSE,5,TRUE,10,Go Home,FALSE,FALSE,FALSE,FALSE,FALSE,FALSE,FALSE,FALSE,FALSE,FALSE,FALSE,FALSE,6.974147796,79.91426532,3.5,145,328,TRUE,1,1,FALSE,FALSE,FALSE,FALSE,,TRUE,FALSE,FALSE,Course Lock,65.6,,16.4,Calm,29,,1.12.8,Mavic Mini,1SDCH7G0169R0K,1SFLH6Q0AB03DJ,1SRCH7F014TAHX,1U5X071EXP5ZJG,90.6,0.3,9.8,6.335014,3.131716,0,0,Mavic Mini,1SDCH7G0169R0K,1SFLH6Q0AB03DJ,1SRCH7F014TAHX,1U5X071EXP5ZJG,DJI Fly,,1.12.8,169EE7D0-C827-21FC-F217-45DB8365E56A,1SDCH7G0169R0K,,,,,6.97416882,79.9142575,5,,
2/21/2024,19:59.2,0m 2.3s,2.3,6.974147637,79.91427511,0,0,0.3,52,0.5,0,0,0,0,0,0,0,0,2.1,-0.3,-41.3,318.7,,Manual Takeoff,Other,Takeoff (RC Assisted),10,4,TRUE,,Mavic Mini,TRUE,FALSE,,Smart,RC,TRUE,TRUE,FALSE,,,TRUE,,FALSE,FALSE,FALSE,FALSE,FALSE,FALSE,FALSE,FALSE,FALSE,FALSE,0,Follow Yaw,-0.5,0,-39.1,320.9,FALSE,FALSE,FALSE,FALSE,FALSE,FALSE,,TRUE,Normal,,100,1024,1024,1024,1024,2,FALSE,FALSE,FALSE,FALSE,FALSE,0,FALSE,FALSE,FALSE,FALSE,75,7.856,1540,2051,7.87,FALSE,3.928,3.929,0.002,FALSE,FALSE,NA,81.7,81.5,81.6,0,1,0,0,5,2518.5,629.63,,Idle,0,20,FALSE,5,TRUE,10,Go Home,FALSE,FALSE,FALSE,FALSE,FALSE,FALSE,FALSE,FALSE,FALSE,FALSE,FALSE,FALSE,6.974147796,79.91426532,3.5,145,328,TRUE,1,1,FALSE,FALSE,FALSE,FALSE,,TRUE,FALSE,FALSE,Course Lock,65.6,,16.4,Calm,29,,1.12.8,Mavic Mini,1SDCH7G0169R0K,1SFLH6Q0AB03DJ,1SRCH7F014TAHX,1U5X071EXP5ZJG,90.6,0.3,9.8,6.335014,3.131716,0,0,Mavic Mini,1SDCH7G0169R0K,1SFLH6Q0AB03DJ,1SRCH7F014TAHX,1U5X071EXP5ZJG,DJI Fly,,1.12.8,169EE7D0-C827-21FC-F217-45DB8365E56A,1SDCH7G0169R0K,,,,,6.97416882,79.9142575,5,,
2/21/2024,19:59.3,0m 2.4s,2.4,6.974147653,79.91427515,0,0,0.3,52,0.5,0,0,0,0,0,0,0,0,2.1,-0.3,-41.3,318.7,,Manual Takeoff,Other,Takeoff (RC Assisted),10,4,TRUE,,Mavic Mini,TRUE,FALSE,,Smart,RC,TRUE,TRUE,FALSE,,,TRUE,,FALSE,FALSE,FALSE,FALSE,FALSE,FALSE,FALSE,FALSE,FALSE,FALSE,0,Follow Yaw,-0.5,0,-39.1,320.9,FALSE,FALSE,FALSE,FALSE,FALSE,FALSE,,TRUE,Normal,,100,1024,1024,1024,1024,2,FALSE,FALSE,FALSE,FALSE,FALSE,0,FALSE,FALSE,FALSE,FALSE,75,7.856,1540,2051,7.87,FALSE,3.928,3.929,0.002,FALSE,FALSE,NA,81.7,81.5,81.6,0,1,0,0,5,2518.5,629.63,,Idle,0,20,FALSE,5,TRUE,10,Go Home,FALSE,FALSE,FALSE,FALSE,FALSE,FALSE,FALSE,FALSE,FALSE,FALSE,FALSE,FALSE,6.974147796,79.91426532,3.5,145,328,TRUE,1,1,FALSE,FALSE,FALSE,FALSE,,TRUE,FALSE,FALSE,Course Lock,65.6,,16.4,Calm,29,,1.12.8,Mavic Mini,1SDCH7G0169R0K,1SFLH6Q0AB03DJ,1SRCH7F014TAHX,1U5X071EXP5ZJG,90.6,0.3,9.8,6.335014,3.131716,0,0,Mavic Mini,1SDCH7G0169R0K,1SFLH6Q0AB03DJ,1SRCH7F014TAHX,1U5X071EXP5ZJG,DJI Fly,,1.12.8,169EE7D0-C827-21FC-F217-45DB8365E56A,1SDCH7G0169R0K,,,,,6.97416882,79.9142575,5,,
2/21/2024,19:59.3,0m 2.5s,2.5,6.974147769,79.91427521,0,0,0.3,52,0.6,0,0,0,0,0,0,0,0,2.1,-0.3,-41.3,318.7,,Manual Takeoff,Other,Takeoff (RC Assisted),10,4,TRUE,,Mavic Mini,TRUE,FALSE,,Smart,RC,TRUE,TRUE,FALSE,,,TRUE,,FALSE,FALSE,FALSE,FALSE,FALSE,FALSE,FALSE,FALSE,FALSE,FALSE,0,Follow Yaw,-0.5,0,-39.1,320.9,FALSE,FALSE,FALSE,FALSE,FALSE,FALSE,,TRUE,Normal,,100,1024,1024,1024,1024,2,FALSE,FALSE,FALSE,FALSE,FALSE,0,FALSE,FALSE,FALSE,FALSE,75,7.856,1540,2051,7.87,FALSE,3.928,3.929,0.002,FALSE,FALSE,NA,81.7,81.5,81.6,0,1,0,0,5,2518.5,629.63,,Idle,0,20,FALSE,5,TRUE,10,Go Home,FALSE,FALSE,FALSE,FALSE,FALSE,FALSE,FALSE,FALSE,FALSE,FALSE,FALSE,FALSE,6.974147796,79.91426532,3.5,145,328,TRUE,1,1,FALSE,FALSE,FALSE,FALSE,,TRUE,FALSE,FALSE,Course Lock,65.6,,16.4,Calm,29,,1.12.8,Mavic Mini,1SDCH7G0169R0K,1SFLH6Q0AB03DJ,1SRCH7F014TAHX,1U5X071EXP5ZJG,90.6,0.3,9.8,6.335014,3.131716,0,0,Mavic Mini,1SDCH7G0169R0K,1SFLH6Q0AB03DJ,1SRCH7F014TAHX,1U5X071EXP5ZJG,DJI Fly,,1.12.8,169EE7D0-C827-21FC-F217-45DB8365E56A,1SDCH7G0169R0K,,,,,6.97416882,79.9142575,5,,
2/21/2024,19:59.4,0m 2.6s,2.6,6.974147862,79.91427522,0,0,0.3,52,0.6,0,0,0,0,0,0,0,0,2.1,-0.3,-41.3,318.7,,Manual Takeoff,Other,Takeoff (RC Assisted),10,4,TRUE,,Mavic Mini,TRUE,FALSE,,Smart,RC,TRUE,TRUE,FALSE,,,TRUE,,FALSE,FALSE,FALSE,FALSE,FALSE,FALSE,FALSE,FALSE,FALSE,FALSE,0,Follow Yaw,-0.5,0,-39.1,320.9,FALSE,FALSE,FALSE,FALSE,FALSE,FALSE,,TRUE,Normal,,100,1024,1024,1024,1024,2,FALSE,FALSE,FALSE,FALSE,FALSE,0,FALSE,FALSE,FALSE,FALSE,75,7.855,1539,2051,7.87,FALSE,3.928,3.927,0.002,FALSE,FALSE,NA,81.7,81.5,81.6,0,1,0,0,5,2518.5,629.63,,Idle,0,20,FALSE,5,TRUE,10,Go Home,FALSE,FALSE,FALSE,FALSE,FALSE,FALSE,FALSE,FALSE,FALSE,FALSE,FALSE,FALSE,6.974147796,79.91426532,3.5,145,328,TRUE,1,1,FALSE,FALSE,FALSE,FALSE,,TRUE,FALSE,FALSE,Course Lock,65.6,,16.4,Calm,29,,1.12.8,Mavic Mini,1SDCH7G0169R0K,1SFLH6Q0AB03DJ,1SRCH7F014TAHX,1U5X071EXP5ZJG,90.6,0.3,9.8,6.335014,3.131716,0,0,Mavic Mini,1SDCH7G0169R0K,1SFLH6Q0AB03DJ,1SRCH7F014TAHX,1U5X071EXP5ZJG,DJI Fly,,1.12.8,169EE7D0-C827-21FC-F217-45DB8365E56A,1SDCH7G0169R0K,,,,,6.97416882,79.9142575,5,,
2/21/2024,19:59.5,0m 2.7s,2.7,6.97414788,79.91427526,0,0,0.3,52,0.6,0,0,0,0,0,0,0,0,2.1,-0.3,-41.4,318.6,,Manual Takeoff,Other,Takeoff (RC Assisted),10,4,TRUE,,Mavic Mini,TRUE,FALSE,,Smart,RC,TRUE,TRUE,FALSE,,,TRUE,,FALSE,FALSE,FALSE,FALSE,FALSE,FALSE,FALSE,FALSE,FALSE,FALSE,0,Follow Yaw,-0.5,0,-39.2,320.8,FALSE,FALSE,FALSE,FALSE,FALSE,FALSE,,TRUE,Normal,,100,1024,1024,1024,1024,2,FALSE,FALSE,FALSE,FALSE,FALSE,0,FALSE,FALSE,FALSE,FALSE,75,7.855,1539,2051,7.852,FALSE,3.928,3.927,0.002,FALSE,FALSE,NA,81.7,81.5,81.6,0,1,0,0,5,2661.8,665.46,,Idle,0,20,FALSE,5,TRUE,10,Go Home,FALSE,FALSE,FALSE,FALSE,FALSE,FALSE,FALSE,FALSE,FALSE,FALSE,FALSE,FALSE,6.974147796,79.91426532,3.6,145,328,TRUE,1,1,FALSE,FALSE,FALSE,FALSE,,TRUE,FALSE,FALSE,Course Lock,65.6,,16.4,Calm,29,,1.12.8,Mavic Mini,1SDCH7G0169R0K,1SFLH6Q0AB03DJ,1SRCH7F014TAHX,1U5X071EXP5ZJG,90.6,0.3,9.8,6.335014,3.131716,0,0,Mavic Mini,1SDCH7G0169R0K,1SFLH6Q0AB03DJ,1SRCH7F014TAHX,1U5X071EXP5ZJG,DJI Fly,,1.12.8,169EE7D0-C827-21FC-F217-45DB8365E56A,1SDCH7G0169R0K,,,,,6.97416882,79.9142575,5,,
2/21/2024,19:59.6,0m 2.8s,2.8,6.974147896,79.9142753,0,0,0.3,52,0.6,0,0,0,0,0,0,0,0,2.1,-0.3,-41.3,318.7,,Manual Takeoff,Other,Takeoff (RC Assisted),10,4,TRUE,,Mavic Mini,TRUE,FALSE,,Smart,RC,TRUE,TRUE,FALSE,,,TRUE,,FALSE,FALSE,FALSE,FALSE,FALSE,FALSE,FALSE,FALSE,FALSE,FALSE,0,Follow Yaw,-0.5,0,-39.2,320.8,FALSE,FALSE,FALSE,FALSE,FALSE,FALSE,,TRUE,Normal,,100,1024,1024,1024,1024,2,FALSE,FALSE,FALSE,FALSE,FALSE,0,FALSE,FALSE,FALSE,FALSE,75,7.855,1539,2051,7.852,FALSE,3.928,3.927,0.002,FALSE,FALSE,NA,81.7,81.5,81.6,0,1,0,0,5,2661.8,665.46,,Idle,0,20,FALSE,5,TRUE,10,Go Home,FALSE,FALSE,FALSE,FALSE,FALSE,FALSE,FALSE,FALSE,FALSE,FALSE,FALSE,FALSE,6.974147796,79.91426532,3.6,145,328,TRUE,1,1,FALSE,FALSE,FALSE,FALSE,,TRUE,FALSE,FALSE,Course Lock,65.6,,16.4,Calm,29,,1.12.8,Mavic Mini,1SDCH7G0169R0K,1SFLH6Q0AB03DJ,1SRCH7F014TAHX,1U5X071EXP5ZJG,90.6,0.3,9.8,6.335014,3.131716,0,0,Mavic Mini,1SDCH7G0169R0K,1SFLH6Q0AB03DJ,1SRCH7F014TAHX,1U5X071EXP5ZJG,DJI Fly,,1.12.8,169EE7D0-C827-21FC-F217-45DB8365E56A,1SDCH7G0169R0K,,,,,6.97416882,79.9142575,5,,
2/21/2024,19:59.7,0m 2.9s,2.9,6.974147855,79.91427534,0,0,0.3,52,0.7,0,0,0,0,0,0,0,0,2.1,-0.3,-41.3,318.7,,Manual Takeoff,Other,Takeoff (RC Assisted),10,4,TRUE,,Mavic Mini,TRUE,FALSE,,Smart,RC,TRUE,TRUE,FALSE,,,TRUE,,FALSE,FALSE,FALSE,FALSE,FALSE,FALSE,FALSE,FALSE,FALSE,FALSE,0,Follow Yaw,-0.5,0,-39.2,320.8,FALSE,FALSE,FALSE,FALSE,FALSE,FALSE,,TRUE,Normal,,100,1024,1024,1024,1024,2,FALSE,FALSE,FALSE,FALSE,FALSE,0,FALSE,FALSE,FALSE,FALSE,75,7.855,1539,2051,7.852,FALSE,3.928,3.927,0.002,FALSE,FALSE,NA,81.7,81.5,81.6,0,1,0,0,5,2661.8,665.46,,Idle,0,20,FALSE,5,TRUE,10,Go Home,FALSE,FALSE,FALSE,FALSE,FALSE,FALSE,FALSE,FALSE,FALSE,FALSE,FALSE,FALSE,6.974147796,79.91426532,3.6,145,328,TRUE,1,1,FALSE,FALSE,FALSE,FALSE,,TRUE,FALSE,FALSE,Course Lock,65.6,,16.4,Calm,29,,1.12.8,Mavic Mini,1SDCH7G0169R0K,1SFLH6Q0AB03DJ,1SRCH7F014TAHX,1U5X071EXP5ZJG,90.6,0.3,9.8,6.335014,3.131716,0,0,Mavic Mini,1SDCH7G0169R0K,1SFLH6Q0AB03DJ,1SRCH7F014TAHX,1U5X071EXP5ZJG,DJI Fly,,1.12.8,169EE7D0-C827-21FC-F217-45DB8365E56A,1SDCH7G0169R0K,,,,,6.97416882,79.9142575,5,,
2/21/2024,19:59.8,0m 3.0s,3,6.974147894,79.91427534,0,0,0.3,52,0.7,0,0,0,0,0,0,0,0,2.1,-0.3,-41.3,318.7,,Manual Takeoff,Other,Takeoff (RC Assisted),10,4,TRUE,,Mavic Mini,TRUE,FALSE,,Smart,RC,TRUE,TRUE,FALSE,,,TRUE,,FALSE,FALSE,FALSE,FALSE,FALSE,FALSE,FALSE,FALSE,FALSE,FALSE,0,Follow Yaw,-0.5,0,-39.2,320.8,FALSE,FALSE,FALSE,FALSE,FALSE,FALSE,,TRUE,Normal,,100,1024,1024,1024,1024,2,FALSE,FALSE,FALSE,FALSE,FALSE,0,FALSE,FALSE,FALSE,FALSE,75,7.855,1539,2051,7.852,FALSE,3.928,3.927,0.002,FALSE,FALSE,NA,81.7,81.5,81.6,0,1,0,0,5,2661.8,665.46,,Idle,0,20,FALSE,5,TRUE,10,Go Home,FALSE,FALSE,FALSE,FALSE,FALSE,FALSE,FALSE,FALSE,FALSE,FALSE,FALSE,FALSE,6.974147796,79.91426532,3.6,145,328,TRUE,1,1,FALSE,FALSE,FALSE,FALSE,,TRUE,FALSE,FALSE,Course Lock,65.6,,16.4,Calm,29,,1.12.8,Mavic Mini,1SDCH7G0169R0K,1SFLH6Q0AB03DJ,1SRCH7F014TAHX,1U5X071EXP5ZJG,90.6,0.3,9.8,6.335014,3.131716,0,0,Mavic Mini,1SDCH7G0169R0K,1SFLH6Q0AB03DJ,1SRCH7F014TAHX,1U5X071EXP5ZJG,DJI Fly,,1.12.8,169EE7D0-C827-21FC-F217-45DB8365E56A,1SDCH7G0169R0K,,,,,6.97416882,79.9142575,5,,
2/21/2024,19:59.9,0m 3.1s,3.1,6.974147943,79.91427538,0,0,0.3,52,0.7,0,0,0,0,0,0,0,0,2.1,-0.3,-41.3,318.7,,Manual Takeoff,Other,Takeoff (RC Assisted),10,4,TRUE,,Mavic Mini,TRUE,FALSE,,Smart,RC,TRUE,TRUE,FALSE,,,TRUE,,FALSE,FALSE,FALSE,FALSE,FALSE,FALSE,FALSE,FALSE,FALSE,FALSE,0,Follow Yaw,-0.5,0,-39.2,320.8,FALSE,FALSE,FALSE,FALSE,FALSE,FALSE,,TRUE,Normal,,100,1024,1024,1024,1024,2,FALSE,FALSE,FALSE,FALSE,FALSE,0,FALSE,FALSE,FALSE,FALSE,75,7.855,1539,2051,7.852,FALSE,3.928,3.927,0.002,FALSE,FALSE,NA,81.7,81.5,81.6,0,1,0,0,5,2661.8,665.46,,Idle,0,20,FALSE,5,TRUE,10,Go Home,FALSE,FALSE,FALSE,FALSE,FALSE,FALSE,FALSE,FALSE,FALSE,FALSE,FALSE,FALSE,6.974147796,79.91426532,3.6,145,328,TRUE,1,1,FALSE,FALSE,FALSE,FALSE,,TRUE,FALSE,FALSE,Course Lock,65.6,,16.4,Calm,29,,1.12.8,Mavic Mini,1SDCH7G0169R0K,1SFLH6Q0AB03DJ,1SRCH7F014TAHX,1U5X071EXP5ZJG,90.6,0.3,9.8,6.335014,3.131716,0,0,Mavic Mini,1SDCH7G0169R0K,1SFLH6Q0AB03DJ,1SRCH7F014TAHX,1U5X071EXP5ZJG,DJI Fly,,1.12.8,169EE7D0-C827-21FC-F217-45DB8365E56A,1SDCH7G0169R0K,,,,,6.97416882,79.9142575,5,,
2/21/2024,20:00.0,0m 3.2s,3.2,6.974147994,79.91427542,0,0,0.3,52,0.7,0,0,0,0,0,0,0,0,2.1,-0.3,-41.3,318.7,,Manual Takeoff,Other,Takeoff (RC Assisted),10,4,TRUE,,Mavic Mini,TRUE,FALSE,,Smart,RC,TRUE,TRUE,FALSE,,,TRUE,,FALSE,FALSE,FALSE,FALSE,FALSE,FALSE,FALSE,FALSE,FALSE,FALSE,0,Follow Yaw,-0.5,0,-39.2,320.8,FALSE,FALSE,FALSE,FALSE,FALSE,FALSE,,TRUE,Normal,,100,1024,1024,1024,1024,2,FALSE,FALSE,FALSE,FALSE,FALSE,0,FALSE,FALSE,FALSE,FALSE,75,7.855,1539,2051,7.852,FALSE,3.928,3.927,0.002,FALSE,FALSE,NA,81.7,81.5,81.6,0,1,0,0,5,2661.8,665.46,,Idle,0,20,FALSE,5,TRUE,10,Go Home,FALSE,FALSE,FALSE,FALSE,FALSE,FALSE,FALSE,FALSE,FALSE,FALSE,FALSE,FALSE,6.974147796,79.91426532,3.6,145,328,TRUE,1,1,FALSE,FALSE,FALSE,FALSE,,TRUE,FALSE,FALSE,Course Lock,65.6,,16.4,Calm,29,,1.12.8,Mavic Mini,1SDCH7G0169R0K,1SFLH6Q0AB03DJ,1SRCH7F014TAHX,1U5X071EXP5ZJG,90.6,0.3,9.8,6.335014,3.131716,0,0,Mavic Mini,1SDCH7G0169R0K,1SFLH6Q0AB03DJ,1SRCH7F014TAHX,1U5X071EXP5ZJG,DJI Fly,,1.12.8,169EE7D0-C827-21FC-F217-45DB8365E56A,1SDCH7G0169R0K,,,,,6.97416882,79.9142575,5,,
2/21/2024,20:00.1,0m 3.3s,3.3,6.974148072,79.91427556,0,0,0.3,52,0.8,0,0,0,0,0,0,0,0,2.1,-0.3,-41.3,318.7,,Manual Takeoff,Other,Takeoff (RC Assisted),10,4,TRUE,,Mavic Mini,TRUE,FALSE,,Smart,RC,TRUE,TRUE,FALSE,,,TRUE,,FALSE,FALSE,FALSE,FALSE,FALSE,FALSE,FALSE,FALSE,FALSE,FALSE,0,Follow Yaw,-0.5,0,-39.2,320.8,FALSE,FALSE,FALSE,FALSE,FALSE,FALSE,,TRUE,Normal,,100,1024,1024,1024,1024,2,FALSE,FALSE,FALSE,FALSE,FALSE,0,FALSE,FALSE,FALSE,FALSE,75,7.855,1539,2051,7.852,FALSE,3.928,3.927,0.002,FALSE,FALSE,NA,81.7,81.5,81.6,0,1,0,0,5,2661.8,665.46,,Idle,0,20,FALSE,5,TRUE,10,Go Home,FALSE,FALSE,FALSE,FALSE,FALSE,FALSE,FALSE,FALSE,FALSE,FALSE,FALSE,FALSE,6.974147796,79.91426532,3.7,145,328,TRUE,1,1,FALSE,FALSE,FALSE,FALSE,,TRUE,FALSE,FALSE,Course Lock,65.6,,16.4,Calm,29,,1.12.8,Mavic Mini,1SDCH7G0169R0K,1SFLH6Q0AB03DJ,1SRCH7F014TAHX,1U5X071EXP5ZJG,90.6,0.3,9.8,6.335014,3.131716,0,0,Mavic Mini,1SDCH7G0169R0K,1SFLH6Q0AB03DJ,1SRCH7F014TAHX,1U5X071EXP5ZJG,DJI Fly,,1.12.8,169EE7D0-C827-21FC-F217-45DB8365E56A,1SDCH7G0169R0K,,,,,6.97416882,79.9142575,5,,
2/21/2024,20:00.3,0m 3.4s,3.4,6.974148127,79.91427562,0,0,0.3,52,0.8,0,0,0,0,0,0,0,0,2.1,-0.3,-41.3,318.7,,Manual Takeoff,Other,Takeoff (RC Assisted),10,4,TRUE,,Mavic Mini,TRUE,FALSE,,Smart,RC,TRUE,TRUE,FALSE,,,TRUE,,FALSE,FALSE,FALSE,FALSE,FALSE,FALSE,FALSE,FALSE,FALSE,FALSE,0,Follow Yaw,-0.5,0,-39.2,320.8,FALSE,FALSE,FALSE,FALSE,FALSE,FALSE,,TRUE,Normal,,100,1024,1024,1024,1024,2,FALSE,FALSE,FALSE,FALSE,FALSE,0,FALSE,FALSE,FALSE,FALSE,75,7.855,1539,2051,7.852,FALSE,3.928,3.927,0.002,FALSE,FALSE,NA,81.7,81.5,81.6,0,1,0,0,5,2661.8,665.46,,Idle,0,20,FALSE,5,TRUE,10,Go Home,FALSE,FALSE,FALSE,FALSE,FALSE,FALSE,FALSE,FALSE,FALSE,FALSE,FALSE,FALSE,6.974147796,79.91426532,3.7,145,328,TRUE,1,1,FALSE,FALSE,FALSE,FALSE,,TRUE,FALSE,FALSE,Course Lock,65.6,,16.4,Calm,29,,1.12.8,Mavic Mini,1SDCH7G0169R0K,1SFLH6Q0AB03DJ,1SRCH7F014TAHX,1U5X071EXP5ZJG,90.6,0.3,9.8,6.335014,3.131716,0,0,Mavic Mini,1SDCH7G0169R0K,1SFLH6Q0AB03DJ,1SRCH7F014TAHX,1U5X071EXP5ZJG,DJI Fly,,1.12.8,169EE7D0-C827-21FC-F217-45DB8365E56A,1SDCH7G0169R0K,,,,,6.97416882,79.9142575,5,,
2/21/2024,20:00.4,0m 3.5s,3.5,6.974148179,79.91427562,0,0,0.3,52,0.8,0,0,0,0,0,0,0,0,2.1,-0.3,-41.3,318.7,,Manual Takeoff,Other,Takeoff (RC Assisted),10,4,TRUE,,Mavic Mini,TRUE,FALSE,,Smart,RC,TRUE,TRUE,FALSE,,,TRUE,,FALSE,FALSE,FALSE,FALSE,FALSE,FALSE,FALSE,FALSE,FALSE,FALSE,0,Follow Yaw,-0.5,0,-39.2,320.8,FALSE,FALSE,FALSE,FALSE,FALSE,FALSE,,TRUE,Normal,,100,1024,1024,1024,1024,2,FALSE,FALSE,FALSE,FALSE,FALSE,0,FALSE,FALSE,FALSE,FALSE,75,7.855,1539,2051,7.852,FALSE,3.928,3.927,0.002,FALSE,FALSE,NA,81.7,81.5,81.6,0,1,0,0,5,2661.8,665.46,,Idle,0,20,FALSE,5,TRUE,10,Go Home,FALSE,FALSE,FALSE,FALSE,FALSE,FALSE,FALSE,FALSE,FALSE,FALSE,FALSE,FALSE,6.974147796,79.91426532,3.7,145,328,TRUE,1,1,FALSE,FALSE,FALSE,FALSE,,TRUE,FALSE,FALSE,Course Lock,65.6,,16.4,Calm,29,,1.12.8,Mavic Mini,1SDCH7G0169R0K,1SFLH6Q0AB03DJ,1SRCH7F014TAHX,1U5X071EXP5ZJG,90.6,0.3,9.8,6.335014,3.131716,0,0,Mavic Mini,1SDCH7G0169R0K,1SFLH6Q0AB03DJ,1SRCH7F014TAHX,1U5X071EXP5ZJG,DJI Fly,,1.12.8,169EE7D0-C827-21FC-F217-45DB8365E56A,1SDCH7G0169R0K,,,,,6.97416882,79.9142575,5,,
2/21/2024,20:00.5,0m 3.6s,3.6,6.974148233,79.91427563,0,0,0.3,52,0.8,0,0,0,0,0,0,0,0,2.1,-0.3,-41.3,318.7,,Manual Takeoff,Other,Takeoff (RC Assisted),10,4,TRUE,,Mavic Mini,TRUE,FALSE,,Smart,RC,TRUE,TRUE,FALSE,,,TRUE,,FALSE,FALSE,FALSE,FALSE,FALSE,FALSE,FALSE,FALSE,FALSE,FALSE,0,Follow Yaw,-0.5,0,-39.2,320.8,FALSE,FALSE,FALSE,FALSE,FALSE,FALSE,,TRUE,Normal,,100,1024,1024,1024,1024,2,FALSE,FALSE,FALSE,FALSE,FALSE,0,FALSE,FALSE,FALSE,FALSE,75,7.855,1539,2051,7.852,FALSE,3.928,3.927,0.002,FALSE,FALSE,NA,81.7,81.5,81.6,0,1,0,0,5,2661.8,665.46,,Idle,0,20,FALSE,5,TRUE,10,Go Home,FALSE,FALSE,FALSE,FALSE,FALSE,FALSE,FALSE,FALSE,FALSE,FALSE,FALSE,FALSE,6.974147796,79.91426532,3.7,145,328,TRUE,1,1,FALSE,FALSE,FALSE,FALSE,,TRUE,FALSE,FALSE,Course Lock,65.6,,16.4,Calm,29,,1.12.8,Mavic Mini,1SDCH7G0169R0K,1SFLH6Q0AB03DJ,1SRCH7F014TAHX,1U5X071EXP5ZJG,90.6,0.3,9.8,6.335014,3.131716,0,0,Mavic Mini,1SDCH7G0169R0K,1SFLH6Q0AB03DJ,1SRCH7F014TAHX,1U5X071EXP5ZJG,DJI Fly,,1.12.8,169EE7D0-C827-21FC-F217-45DB8365E56A,1SDCH7G0169R0K,,,,,6.97416882,79.9142575,5,,
2/21/2024,20:00.6,0m 3.7s,3.7,6.974148284,79.91427561,0,0,0.3,52,0.9,0,0,0,0,0,0,0,0,2,-0.3,-41.3,318.7,,Manual Takeoff,Other,Takeoff (RC Assisted),10,4,TRUE,,Mavic Mini,TRUE,FALSE,,Smart,RC,TRUE,TRUE,FALSE,,,TRUE,,FALSE,FALSE,FALSE,FALSE,FALSE,FALSE,FALSE,FALSE,FALSE,FALSE,0,Follow Yaw,-0.5,0,-39.2,320.8,FALSE,FALSE,FALSE,FALSE,FALSE,FALSE,,TRUE,Normal,,100,1024,1024,1024,1024,2,FALSE,FALSE,FALSE,FALSE,FALSE,0,FALSE,FALSE,FALSE,FALSE,75,7.854,1539,2051,7.859,FALSE,3.928,3.926,0.002,FALSE,FALSE,NA,81.7,81.5,81.6,0,1,0,0,5,2661.8,665.46,,Idle,0,20,FALSE,5,TRUE,10,Go Home,FALSE,FALSE,FALSE,FALSE,FALSE,FALSE,FALSE,FALSE,FALSE,FALSE,FALSE,FALSE,6.974147796,79.91426532,3.7,145,328,TRUE,1,1,FALSE,FALSE,FALSE,FALSE,,TRUE,FALSE,FALSE,Course Lock,65.6,,16.4,Calm,29,,1.12.8,Mavic Mini,1SDCH7G0169R0K,1SFLH6Q0AB03DJ,1SRCH7F014TAHX,1U5X071EXP5ZJG,90.6,0.3,9.8,6.335014,3.131716,0,0,Mavic Mini,1SDCH7G0169R0K,1SFLH6Q0AB03DJ,1SRCH7F014TAHX,1U5X071EXP5ZJG,DJI Fly,,1.12.8,169EE7D0-C827-21FC-F217-45DB8365E56A,1SDCH7G0169R0K,,,,,6.97416882,79.9142575,5,,
2/21/2024,20:00.6,0m 3.8s,3.8,6.974148356,79.9142755,0,0,0.3,52,0.9,0,0,0,0,0,0,0,0,2.1,-0.3,-41.3,318.7,,Manual Takeoff,Other,Takeoff (RC Assisted),10,4,TRUE,,Mavic Mini,TRUE,FALSE,,Smart,RC,TRUE,TRUE,FALSE,,,TRUE,,FALSE,FALSE,FALSE,FALSE,FALSE,FALSE,FALSE,FALSE,FALSE,FALSE,0,Follow Yaw,-0.5,0,-39.2,320.8,FALSE,FALSE,FALSE,FALSE,FALSE,FALSE,,TRUE,Normal,,100,1024,1024,1024,1024,2,FALSE,FALSE,FALSE,FALSE,FALSE,0,FALSE,FALSE,FALSE,FALSE,75,7.854,1539,2051,7.859,FALSE,3.928,3.926,0.002,FALSE,FALSE,NA,81.7,81.5,81.6,0,1,0,0,5,2661.8,665.46,,Idle,0,20,FALSE,5,TRUE,10,Go Home,FALSE,FALSE,FALSE,FALSE,FALSE,FALSE,FALSE,FALSE,FALSE,FALSE,FALSE,FALSE,6.974147796,79.91426532,3.6,145,328,TRUE,1,1,FALSE,FALSE,FALSE,FALSE,,TRUE,FALSE,FALSE,Course Lock,65.6,,16.4,Calm,29,,1.12.8,Mavic Mini,1SDCH7G0169R0K,1SFLH6Q0AB03DJ,1SRCH7F014TAHX,1U5X071EXP5ZJG,90.6,0.3,9.8,6.335014,3.131716,0,0,Mavic Mini,1SDCH7G0169R0K,1SFLH6Q0AB03DJ,1SRCH7F014TAHX,1U5X071EXP5ZJG,DJI Fly,,1.12.8,169EE7D0-C827-21FC-F217-45DB8365E56A,1SDCH7G0169R0K,,,,,6.97416882,79.9142575,5,,
2/21/2024,20:00.8,0m 3.9s,3.9,6.974148406,79.91427548,0,0,0.3,52,0.9,0,0,0,0,0,0,0,0,2.1,-0.3,-41.3,318.7,,Manual Takeoff,Other,Takeoff (RC Assisted),10,4,TRUE,,Mavic Mini,TRUE,FALSE,,Smart,RC,TRUE,TRUE,FALSE,,,TRUE,,FALSE,FALSE,FALSE,FALSE,FALSE,FALSE,FALSE,FALSE,FALSE,FALSE,0,Follow Yaw,-0.5,0,-39.2,320.8,FALSE,FALSE,FALSE,FALSE,FALSE,FALSE,,TRUE,Normal,,100,1024,1024,1024,1024,2,FALSE,FALSE,FALSE,FALSE,FALSE,0,FALSE,FALSE,FALSE,FALSE,75,7.854,1539,2051,7.859,FALSE,3.928,3.926,0.002,FALSE,FALSE,NA,81.7,81.5,81.6,0,1,0,0,5,2661.8,665.46,,Idle,0,20,FALSE,5,TRUE,10,Go Home,FALSE,FALSE,FALSE,FALSE,FALSE,FALSE,FALSE,FALSE,FALSE,FALSE,FALSE,FALSE,6.974147796,79.91426532,3.6,145,328,TRUE,1,1,FALSE,FALSE,FALSE,FALSE,,TRUE,FALSE,FALSE,Course Lock,65.6,,16.4,Calm,29,,1.12.8,Mavic Mini,1SDCH7G0169R0K,1SFLH6Q0AB03DJ,1SRCH7F014TAHX,1U5X071EXP5ZJG,90.6,0.3,9.8,6.335014,3.131716,0,0,Mavic Mini,1SDCH7G0169R0K,1SFLH6Q0AB03DJ,1SRCH7F014TAHX,1U5X071EXP5ZJG,DJI Fly,,1.12.8,169EE7D0-C827-21FC-F217-45DB8365E56A,1SDCH7G0169R0K,,,,,6.97416882,79.9142575,5,,
2/21/2024,20:00.8,0m 4.0s,4,6.97414846,79.91427546,0,0,0.3,52,1,0,0,0,0,0,0,0,0,2,-0.3,-41.3,318.7,,Manual Takeoff,Other,Takeoff (RC Assisted),10,4,TRUE,,Mavic Mini,TRUE,FALSE,,Smart,RC,TRUE,TRUE,FALSE,,,TRUE,,FALSE,FALSE,FALSE,FALSE,FALSE,FALSE,FALSE,FALSE,FALSE,FALSE,0,Follow Yaw,-0.5,0,-39.1,320.9,FALSE,FALSE,FALSE,FALSE,FALSE,FALSE,,TRUE,Normal,,100,1024,1024,1024,1024,2,FALSE,FALSE,FALSE,FALSE,FALSE,0,FALSE,FALSE,FALSE,FALSE,75,7.854,1539,2051,7.859,FALSE,3.928,3.926,0.002,FALSE,FALSE,NA,81.7,81.5,81.6,0,1,0,0,5,2661.8,665.46,,Idle,0,20,FALSE,5,TRUE,10,Go Home,FALSE,FALSE,FALSE,FALSE,FALSE,FALSE,FALSE,FALSE,FALSE,FALSE,FALSE,FALSE,6.974147796,79.91426532,3.6,145,328,TRUE,1,1,FALSE,FALSE,FALSE,FALSE,,TRUE,FALSE,FALSE,Course Lock,65.6,,16.4,Calm,29,,1.12.8,Mavic Mini,1SDCH7G0169R0K,1SFLH6Q0AB03DJ,1SRCH7F014TAHX,1U5X071EXP5ZJG,90.6,0.3,9.8,6.335014,3.131716,0,0,Mavic Mini,1SDCH7G0169R0K,1SFLH6Q0AB03DJ,1SRCH7F014TAHX,1U5X071EXP5ZJG,DJI Fly,,1.12.8,169EE7D0-C827-21FC-F217-45DB8365E56A,1SDCH7G0169R0K,,,,,6.974173514,79.91425498,5,,
2/21/2024,20:00.9,0m 4.1s,4.1,6.974148461,79.91427544,0,0,0.3,52,1,0,0,0,0,0,0,0,0,2.1,-0.3,-41.3,318.7,,Manual Takeoff,Other,Takeoff (RC Assisted),10,4,TRUE,,Mavic Mini,TRUE,FALSE,,Smart,RC,TRUE,TRUE,FALSE,,,TRUE,,FALSE,FALSE,FALSE,FALSE,FALSE,FALSE,FALSE,FALSE,FALSE,FALSE,0,Follow Yaw,-0.5,0,-39.2,320.8,FALSE,FALSE,FALSE,FALSE,FALSE,FALSE,,TRUE,Normal,,100,1024,1024,1024,1024,2,FALSE,FALSE,FALSE,FALSE,FALSE,0,FALSE,FALSE,FALSE,FALSE,75,7.854,1539,2051,7.859,FALSE,3.928,3.926,0.002,FALSE,FALSE,NA,81.7,81.5,81.6,0,1,0,0,5,2661.8,665.46,,Idle,0,20,FALSE,5,TRUE,10,Go Home,FALSE,FALSE,FALSE,FALSE,FALSE,FALSE,FALSE,FALSE,FALSE,FALSE,FALSE,FALSE,6.974147796,79.91426532,3.6,145,328,TRUE,1,1,FALSE,FALSE,FALSE,FALSE,,TRUE,FALSE,FALSE,Course Lock,65.6,,16.4,Calm,29,,1.12.8,Mavic Mini,1SDCH7G0169R0K,1SFLH6Q0AB03DJ,1SRCH7F014TAHX,1U5X071EXP5ZJG,90.6,0.3,9.8,6.335014,3.131716,0,0,Mavic Mini,1SDCH7G0169R0K,1SFLH6Q0AB03DJ,1SRCH7F014TAHX,1U5X071EXP5ZJG,DJI Fly,,1.12.8,169EE7D0-C827-21FC-F217-45DB8365E56A,1SDCH7G0169R0K,,,,,6.974173514,79.91425498,5,,
2/21/2024,20:01.0,0m 4.2s,4.2,6.974148386,79.91427539,0,0,0.3,52,1,0,0,0,0,0,0,0,0,2.1,-0.3,-41.3,318.7,,Manual Takeoff,Other,Takeoff (RC Assisted),10,4,TRUE,,Mavic Mini,TRUE,FALSE,,Smart,RC,TRUE,TRUE,FALSE,,,TRUE,,FALSE,FALSE,FALSE,FALSE,FALSE,FALSE,FALSE,FALSE,FALSE,FALSE,0,Follow Yaw,-0.5,0,-39.1,320.9,FALSE,FALSE,FALSE,FALSE,FALSE,FALSE,,TRUE,Normal,,100,1024,1024,1024,1024,2,FALSE,FALSE,FALSE,FALSE,FALSE,0,FALSE,FALSE,FALSE,FALSE,75,7.854,1539,2051,7.859,FALSE,3.928,3.926,0.002,FALSE,FALSE,NA,81.7,81.5,81.6,0,1,0,0,5,2661.8,665.46,,Idle,0,20,FALSE,5,TRUE,10,Go Home,FALSE,FALSE,FALSE,FALSE,FALSE,FALSE,FALSE,FALSE,FALSE,FALSE,FALSE,FALSE,6.974147796,79.91426532,3.6,145,328,TRUE,1,1,FALSE,FALSE,FALSE,FALSE,,TRUE,FALSE,FALSE,Course Lock,65.6,,16.4,Calm,29,,1.12.8,Mavic Mini,1SDCH7G0169R0K,1SFLH6Q0AB03DJ,1SRCH7F014TAHX,1U5X071EXP5ZJG,90.6,0.3,9.8,6.335014,3.131716,0,0,Mavic Mini,1SDCH7G0169R0K,1SFLH6Q0AB03DJ,1SRCH7F014TAHX,1U5X071EXP5ZJG,DJI Fly,,1.12.8,169EE7D0-C827-21FC-F217-45DB8365E56A,1SDCH7G0169R0K,,,,,6.974173514,79.91425498,5,,
2/21/2024,20:01.1,0m 4.3s,4.3,6.974148419,79.91427538,0,0,0.3,52,1,0,0,0,0,0,0,0,0,2,-0.3,-41.3,318.7,,Manual Takeoff,Other,Takeoff (RC Assisted),10,4,TRUE,,Mavic Mini,TRUE,FALSE,,Smart,RC,TRUE,TRUE,FALSE,,,TRUE,,FALSE,FALSE,FALSE,FALSE,FALSE,FALSE,FALSE,FALSE,FALSE,FALSE,0,Follow Yaw,-0.5,0,-39.1,320.9,FALSE,FALSE,FALSE,FALSE,FALSE,FALSE,,TRUE,Normal,,100,1024,1024,1024,1024,2,FALSE,FALSE,FALSE,FALSE,FALSE,0,FALSE,FALSE,FALSE,FALSE,75,7.854,1539,2051,7.859,FALSE,3.928,3.926,0.002,FALSE,FALSE,NA,81.7,81.5,81.6,0,1,0,0,5,2661.8,665.46,,Idle,0,20,FALSE,5,TRUE,10,Go Home,FALSE,FALSE,FALSE,FALSE,FALSE,FALSE,FALSE,FALSE,FALSE,FALSE,FALSE,FALSE,6.974147796,79.91426532,3.6,145,328,TRUE,1,1,FALSE,FALSE,FALSE,FALSE,,TRUE,FALSE,FALSE,Course Lock,65.6,,16.4,Calm,29,,1.12.8,Mavic Mini,1SDCH7G0169R0K,1SFLH6Q0AB03DJ,1SRCH7F014TAHX,1U5X071EXP5ZJG,90.6,0.3,9.8,6.335014,3.131716,0,0,Mavic Mini,1SDCH7G0169R0K,1SFLH6Q0AB03DJ,1SRCH7F014TAHX,1U5X071EXP5ZJG,DJI Fly,,1.12.8,169EE7D0-C827-21FC-F217-45DB8365E56A,1SDCH7G0169R0K,,,,,6.974173514,79.91425498,5,,
2/21/2024,20:01.2,0m 4.4s,4.4,6.974148456,79.91427536,0,0,0.3,52,1,0,0,0,0,0,0,0,0,2,-0.3,-41.3,318.7,,Manual Takeoff,Other,Takeoff (RC Assisted),10,4,TRUE,,Mavic Mini,TRUE,FALSE,,Smart,RC,TRUE,TRUE,FALSE,,,TRUE,,FALSE,FALSE,FALSE,FALSE,FALSE,FALSE,FALSE,FALSE,FALSE,FALSE,0,Follow Yaw,-0.5,0,-39.2,320.8,FALSE,FALSE,FALSE,FALSE,FALSE,FALSE,,TRUE,Normal,,100,1024,1024,1024,1024,2,FALSE,FALSE,FALSE,FALSE,FALSE,0,FALSE,FALSE,FALSE,FALSE,75,7.854,1539,2051,7.859,FALSE,3.928,3.926,0.002,FALSE,FALSE,NA,81.7,81.5,81.6,0,1,0,0,5,2661.8,665.46,,Idle,0,20,FALSE,5,TRUE,10,Go Home,FALSE,FALSE,FALSE,FALSE,FALSE,FALSE,FALSE,FALSE,FALSE,FALSE,FALSE,FALSE,6.974147796,79.91426532,3.6,145,328,TRUE,1,1,FALSE,FALSE,FALSE,FALSE,,TRUE,FALSE,FALSE,Course Lock,65.6,,16.4,Calm,29,,1.12.8,Mavic Mini,1SDCH7G0169R0K,1SFLH6Q0AB03DJ,1SRCH7F014TAHX,1U5X071EXP5ZJG,90.6,0.3,9.8,6.335014,3.131716,0,0,Mavic Mini,1SDCH7G0169R0K,1SFLH6Q0AB03DJ,1SRCH7F014TAHX,1U5X071EXP5ZJG,DJI Fly,,1.12.8,169EE7D0-C827-21FC-F217-45DB8365E56A,1SDCH7G0169R0K,,,,,6.974173514,79.91425498,5,,
2/21/2024,20:01.3,0m 4.5s,4.5,6.974148458,79.91427541,0,0,0.3,52,1,0,0,0,0,0,0,0,0,2,-0.3,-41.3,318.7,,Manual Takeoff,Other,Takeoff (RC Assisted),10,4,TRUE,,Mavic Mini,TRUE,FALSE,,Smart,RC,TRUE,TRUE,FALSE,,,TRUE,,FALSE,FALSE,FALSE,FALSE,FALSE,FALSE,FALSE,FALSE,FALSE,FALSE,0,Follow Yaw,-0.5,0,-39.2,320.8,FALSE,FALSE,FALSE,FALSE,FALSE,FALSE,,TRUE,Normal,,100,1024,1024,1024,1024,2,FALSE,FALSE,FALSE,FALSE,FALSE,0,FALSE,FALSE,FALSE,FALSE,75,7.854,1539,2051,7.859,FALSE,3.928,3.926,0.002,FALSE,FALSE,NA,81.7,81.5,81.6,0,1,0,0,5,2661.8,665.46,,Idle,0,20,FALSE,5,TRUE,10,Go Home,FALSE,FALSE,FALSE,FALSE,FALSE,FALSE,FALSE,FALSE,FALSE,FALSE,FALSE,FALSE,6.974147796,79.91426532,3.6,145,328,TRUE,1,1,FALSE,FALSE,FALSE,FALSE,,TRUE,FALSE,FALSE,Course Lock,65.6,,16.4,Calm,29,,1.12.8,Mavic Mini,1SDCH7G0169R0K,1SFLH6Q0AB03DJ,1SRCH7F014TAHX,1U5X071EXP5ZJG,90.6,0.3,9.8,6.335014,3.131716,0,0,Mavic Mini,1SDCH7G0169R0K,1SFLH6Q0AB03DJ,1SRCH7F014TAHX,1U5X071EXP5ZJG,DJI Fly,,1.12.8,169EE7D0-C827-21FC-F217-45DB8365E56A,1SDCH7G0169R0K,,,,,6.974173514,79.91425498,5,,
2/21/2024,20:01.5,0m 4.6s,4.6,6.974148411,79.91427554,0,0,0.3,52,1.1,0,0,0,0,0,0,0,0,2,-0.3,-41.4,318.6,,Manual Takeoff,Other,Takeoff (RC Assisted),10,4,TRUE,,Mavic Mini,TRUE,FALSE,,Smart,RC,TRUE,TRUE,FALSE,,,TRUE,,FALSE,FALSE,FALSE,FALSE,FALSE,FALSE,FALSE,FALSE,FALSE,FALSE,0,Follow Yaw,-0.5,0,-39.2,320.8,FALSE,FALSE,FALSE,FALSE,FALSE,FALSE,,TRUE,Normal,,100,1024,1024,1024,1024,2,FALSE,FALSE,FALSE,FALSE,FALSE,0,FALSE,FALSE,FALSE,FALSE,75,7.854,1539,2051,7.859,FALSE,3.928,3.926,0.002,FALSE,FALSE,NA,81.7,81.5,81.6,0,1,0,0,5,2661.8,665.46,,Idle,0,20,FALSE,5,TRUE,10,Go Home,FALSE,FALSE,FALSE,FALSE,FALSE,FALSE,FALSE,FALSE,FALSE,FALSE,FALSE,FALSE,6.974147796,79.91426532,3.7,145,328,TRUE,1,1,FALSE,FALSE,FALSE,FALSE,,TRUE,FALSE,FALSE,Course Lock,65.6,,16.4,Calm,29,,1.12.8,Mavic Mini,1SDCH7G0169R0K,1SFLH6Q0AB03DJ,1SRCH7F014TAHX,1U5X071EXP5ZJG,90.6,0.3,9.8,6.335014,3.131716,0,0,Mavic Mini,1SDCH7G0169R0K,1SFLH6Q0AB03DJ,1SRCH7F014TAHX,1U5X071EXP5ZJG,DJI Fly,,1.12.8,169EE7D0-C827-21FC-F217-45DB8365E56A,1SDCH7G0169R0K,,,,,6.974173514,79.91425498,5,,
2/21/2024,20:01.5,0m 4.7s,4.7,6.97414845,79.91427556,0,0,0.3,52,1.1,0,0,0,0,0,0,0,0,2.1,-0.3,-41.3,318.7,,Manual Takeoff,Other,Takeoff (RC Assisted),10,4,TRUE,,Mavic Mini,TRUE,FALSE,,Smart,RC,TRUE,TRUE,FALSE,,,TRUE,,FALSE,FALSE,FALSE,FALSE,FALSE,FALSE,FALSE,FALSE,FALSE,FALSE,0,Follow Yaw,-0.5,0,-39.2,320.8,FALSE,FALSE,FALSE,FALSE,FALSE,FALSE,,TRUE,Normal,,100,1024,1024,1024,1024,2,FALSE,FALSE,FALSE,FALSE,FALSE,0,FALSE,FALSE,FALSE,FALSE,75,7.854,1539,2051,7.859,FALSE,3.928,3.926,0.002,FALSE,FALSE,NA,81.7,81.5,81.6,0,1,0,0,5,2842.6,710.67,,Idle,0,20,FALSE,5,TRUE,10,Go Home,FALSE,FALSE,FALSE,FALSE,FALSE,FALSE,FALSE,FALSE,FALSE,FALSE,FALSE,FALSE,6.974147796,79.91426532,3.7,145,328,TRUE,1,1,FALSE,FALSE,FALSE,FALSE,,TRUE,FALSE,FALSE,Course Lock,65.6,,16.4,Calm,29,,1.12.8,Mavic Mini,1SDCH7G0169R0K,1SFLH6Q0AB03DJ,1SRCH7F014TAHX,1U5X071EXP5ZJG,90.6,0.3,9.8,6.335014,3.131716,0,0,Mavic Mini,1SDCH7G0169R0K,1SFLH6Q0AB03DJ,1SRCH7F014TAHX,1U5X071EXP5ZJG,DJI Fly,,1.12.8,169EE7D0-C827-21FC-F217-45DB8365E56A,1SDCH7G0169R0K,,,,,6.974173514,79.91425498,5,,
2/21/2024,20:01.7,0m 4.8s,4.8,6.974148493,79.91427557,0,0,0.3,52,1.1,0,0,0,0,0,0,0,0,2.1,-0.3,-41.3,318.7,,Manual Takeoff,Other,Takeoff (RC Assisted),10,4,TRUE,,Mavic Mini,TRUE,FALSE,,Smart,RC,TRUE,TRUE,FALSE,,,TRUE,,FALSE,FALSE,FALSE,FALSE,FALSE,FALSE,FALSE,FALSE,FALSE,FALSE,0,Follow Yaw,-0.5,0,-39.2,320.8,FALSE,FALSE,FALSE,FALSE,FALSE,FALSE,,TRUE,Normal,,100,1024,1024,1024,1024,2,FALSE,FALSE,FALSE,FALSE,FALSE,0,FALSE,FALSE,FALSE,FALSE,75,7.854,1539,2051,7.859,FALSE,3.928,3.926,0.002,FALSE,FALSE,NA,81.7,81.5,81.6,0,1,0,0,5,2842.6,710.67,,Idle,0,20,FALSE,5,TRUE,10,Go Home,FALSE,FALSE,FALSE,FALSE,FALSE,FALSE,FALSE,FALSE,FALSE,FALSE,FALSE,FALSE,6.974147796,79.91426532,3.7,145,328,TRUE,1,1,FALSE,FALSE,FALSE,FALSE,,TRUE,FALSE,FALSE,Course Lock,65.6,,16.4,Calm,29,,1.12.8,Mavic Mini,1SDCH7G0169R0K,1SFLH6Q0AB03DJ,1SRCH7F014TAHX,1U5X071EXP5ZJG,90.6,0.3,9.8,6.335014,3.131716,0,0,Mavic Mini,1SDCH7G0169R0K,1SFLH6Q0AB03DJ,1SRCH7F014TAHX,1U5X071EXP5ZJG,DJI Fly,,1.12.8,169EE7D0-C827-21FC-F217-45DB8365E56A,1SDCH7G0169R0K,,,,,6.974173514,79.91425498,5,,
2/21/2024,20:01.8,0m 4.9s,4.9,6.974148549,79.91427556,0,0,0.3,52,1.1,0,0,0,0,0,0,0,0,2.1,-0.3,-41.3,318.7,,Manual Takeoff,Other,Takeoff (RC Assisted),10,4,TRUE,,Mavic Mini,TRUE,FALSE,,Smart,RC,TRUE,TRUE,FALSE,,,TRUE,,FALSE,FALSE,FALSE,FALSE,FALSE,FALSE,FALSE,FALSE,FALSE,FALSE,0,Follow Yaw,-0.5,0,-39.2,320.8,FALSE,FALSE,FALSE,FALSE,FALSE,FALSE,,TRUE,Normal,,100,1024,1024,1024,1024,2,FALSE,FALSE,FALSE,FALSE,FALSE,0,FALSE,FALSE,FALSE,FALSE,75,7.857,1539,2051,7.859,FALSE,3.93,3.927,0.003,FALSE,FALSE,NA,81.7,81.5,81.6,0,1,0,0,5,2842.6,710.67,,Idle,0,20,FALSE,5,TRUE,10,Go Home,FALSE,FALSE,FALSE,FALSE,FALSE,FALSE,FALSE,FALSE,FALSE,FALSE,FALSE,FALSE,6.974147796,79.91426532,3.7,145,328,TRUE,1,1,FALSE,FALSE,FALSE,FALSE,,TRUE,FALSE,FALSE,Course Lock,65.6,,16.4,Calm,29,,1.12.8,Mavic Mini,1SDCH7G0169R0K,1SFLH6Q0AB03DJ,1SRCH7F014TAHX,1U5X071EXP5ZJG,90.6,0.3,9.8,6.335014,3.131716,0,0,Mavic Mini,1SDCH7G0169R0K,1SFLH6Q0AB03DJ,1SRCH7F014TAHX,1U5X071EXP5ZJG,DJI Fly,,1.12.8,169EE7D0-C827-21FC-F217-45DB8365E56A,1SDCH7G0169R0K,,,,,6.974173514,79.91425498,5,,
2/21/2024,20:01.9,0m 5.0s,5,6.974148667,79.91427556,0,0,0.3,52,1.2,0,0,0,0,0,0,0,0,2.1,-0.3,-41.3,318.7,,Manual Takeoff,Other,Takeoff (RC Assisted),10,4,TRUE,,Mavic Mini,TRUE,FALSE,,Smart,RC,TRUE,TRUE,FALSE,,,TRUE,,FALSE,FALSE,FALSE,FALSE,FALSE,FALSE,FALSE,FALSE,FALSE,FALSE,0,Follow Yaw,-0.5,0,-39.2,320.8,FALSE,FALSE,FALSE,FALSE,FALSE,FALSE,,TRUE,Normal,,100,1024,1024,1024,1024,2,FALSE,FALSE,FALSE,FALSE,FALSE,0,FALSE,FALSE,FALSE,FALSE,75,7.857,1539,2051,7.859,FALSE,3.93,3.927,0.003,FALSE,FALSE,NA,81.7,81.5,81.6,0,1,0,0,5,2842.6,710.67,,Idle,0,20,FALSE,5,TRUE,10,Go Home,FALSE,FALSE,FALSE,FALSE,FALSE,FALSE,FALSE,FALSE,FALSE,FALSE,FALSE,FALSE,6.974147796,79.91426532,3.7,145,328,TRUE,1,1,FALSE,FALSE,FALSE,FALSE,,TRUE,FALSE,FALSE,Course Lock,65.6,,16.4,Calm,29,,1.12.8,Mavic Mini,1SDCH7G0169R0K,1SFLH6Q0AB03DJ,1SRCH7F014TAHX,1U5X071EXP5ZJG,90.6,0.3,9.8,6.335014,3.131716,0,0,Mavic Mini,1SDCH7G0169R0K,1SFLH6Q0AB03DJ,1SRCH7F014TAHX,1U5X071EXP5ZJG,DJI Fly,,1.12.8,169EE7D0-C827-21FC-F217-45DB8365E56A,1SDCH7G0169R0K,,,,,6.974173514,79.91425498,5,,
2/21/2024,20:02.0,0m 5.1s,5.1,6.974148673,79.91427555,0,0,0.3,52,1.2,0,0,0,0,0,0,0,0,2.1,-0.3,-41.3,318.7,,Manual Takeoff,Other,Takeoff (RC Assisted),10,4,TRUE,,Mavic Mini,TRUE,FALSE,,Smart,RC,TRUE,TRUE,FALSE,,,TRUE,,FALSE,FALSE,FALSE,FALSE,FALSE,FALSE,FALSE,FALSE,FALSE,FALSE,0,Follow Yaw,-0.5,0,-39.2,320.8,FALSE,FALSE,FALSE,FALSE,FALSE,FALSE,,TRUE,Normal,,100,1024,1024,1024,1024,2,FALSE,FALSE,FALSE,FALSE,FALSE,0,FALSE,FALSE,FALSE,FALSE,75,7.857,1539,2051,7.859,FALSE,3.93,3.927,0.003,FALSE,FALSE,NA,81.7,81.5,81.6,0,1,0,0,5,2842.6,710.67,,Idle,0,20,FALSE,5,TRUE,10,Go Home,FALSE,FALSE,FALSE,FALSE,FALSE,FALSE,FALSE,FALSE,FALSE,FALSE,FALSE,FALSE,6.974147796,79.91426532,3.7,145,328,TRUE,1,1,FALSE,FALSE,FALSE,FALSE,,TRUE,FALSE,FALSE,Course Lock,65.6,,16.4,Calm,29,,1.12.8,Mavic Mini,1SDCH7G0169R0K,1SFLH6Q0AB03DJ,1SRCH7F014TAHX,1U5X071EXP5ZJG,90.6,0.3,9.8,6.335014,3.131716,0,0,Mavic Mini,1SDCH7G0169R0K,1SFLH6Q0AB03DJ,1SRCH7F014TAHX,1U5X071EXP5ZJG,DJI Fly,,1.12.8,169EE7D0-C827-21FC-F217-45DB8365E56A,1SDCH7G0169R0K,,,,,6.974173514,79.91425498,5,,
2/21/2024,20:02.1,0m 5.2s,5.2,6.974148679,79.91427554,0,0,0.3,52,1.2,0,0,0,0,0,0,0,0,2.1,-0.3,-41.3,318.7,,Manual Takeoff,Other,Takeoff (RC Assisted),10,4,TRUE,,Mavic Mini,TRUE,FALSE,,Smart,RC,TRUE,TRUE,FALSE,,,TRUE,,FALSE,FALSE,FALSE,FALSE,FALSE,FALSE,FALSE,FALSE,FALSE,FALSE,0,Follow Yaw,-0.5,0,-39.2,320.8,FALSE,FALSE,FALSE,FALSE,FALSE,FALSE,,TRUE,Normal,,100,1024,1024,1024,1024,2,FALSE,FALSE,FALSE,FALSE,FALSE,0,FALSE,FALSE,FALSE,FALSE,75,7.857,1539,2051,7.859,FALSE,3.93,3.927,0.003,FALSE,FALSE,NA,81.7,81.5,81.6,0,1,0,0,5,2842.6,710.67,,Idle,0,20,FALSE,5,TRUE,10,Go Home,FALSE,FALSE,FALSE,FALSE,FALSE,FALSE,FALSE,FALSE,FALSE,FALSE,FALSE,FALSE,6.974147796,79.91426532,3.7,145,328,TRUE,1,1,FALSE,FALSE,FALSE,FALSE,,TRUE,FALSE,FALSE,Course Lock,65.6,,16.4,Calm,29,,1.12.8,Mavic Mini,1SDCH7G0169R0K,1SFLH6Q0AB03DJ,1SRCH7F014TAHX,1U5X071EXP5ZJG,90.6,0.3,9.8,6.335014,3.131716,0,0,Mavic Mini,1SDCH7G0169R0K,1SFLH6Q0AB03DJ,1SRCH7F014TAHX,1U5X071EXP5ZJG,DJI Fly,,1.12.8,169EE7D0-C827-21FC-F217-45DB8365E56A,1SDCH7G0169R0K,,,,,6.974173514,79.91425498,5,,
2/21/2024,20:02.2,0m 5.3s,5.3,6.974148717,79.91427558,0,0,0.3,52,1.2,0,0,0,0,0,0,0,0,2,-0.3,-41.4,318.6,,Manual Takeoff,Other,Takeoff (RC Assisted),10,4,TRUE,,Mavic Mini,TRUE,FALSE,,Smart,RC,TRUE,TRUE,FALSE,,,TRUE,,FALSE,FALSE,FALSE,FALSE,FALSE,FALSE,FALSE,FALSE,FALSE,FALSE,0,Follow Yaw,-0.5,0,-39.2,320.8,FALSE,FALSE,FALSE,FALSE,FALSE,FALSE,,TRUE,Normal,,100,1024,1024,1024,1024,2,FALSE,FALSE,FALSE,FALSE,FALSE,0,FALSE,FALSE,FALSE,FALSE,75,7.857,1539,2051,7.859,FALSE,3.93,3.927,0.003,FALSE,FALSE,NA,81.7,81.5,81.6,0,1,0,0,5,2842.6,710.67,,Idle,0,20,FALSE,5,TRUE,10,Go Home,FALSE,FALSE,FALSE,FALSE,FALSE,FALSE,FALSE,FALSE,FALSE,FALSE,FALSE,FALSE,6.974147796,79.91426532,3.7,145,328,TRUE,1,1,FALSE,FALSE,FALSE,FALSE,,TRUE,FALSE,FALSE,Course Lock,65.6,,16.4,Calm,29,,1.12.8,Mavic Mini,1SDCH7G0169R0K,1SFLH6Q0AB03DJ,1SRCH7F014TAHX,1U5X071EXP5ZJG,90.6,0.3,9.8,6.335014,3.131716,0,0,Mavic Mini,1SDCH7G0169R0K,1SFLH6Q0AB03DJ,1SRCH7F014TAHX,1U5X071EXP5ZJG,DJI Fly,,1.12.8,169EE7D0-C827-21FC-F217-45DB8365E56A,1SDCH7G0169R0K,,,,,6.974173514,79.91425498,5,,
