CUSTOM.date [local],CUSTOM.updateTime [local],OSD.flyTime,OSD.flyTime [s],OSD.latitude,OSD.longitude,OSD.height [ft],OSD.heightMax [ft],OSD.vpsHeight [ft],OSD.altitude [ft],OSD.mileage [ft],OSD.hSpeed [MPH],OSD.hSpeedMax [MPH],OSD.xSpeed [MPH],OSD.xSpeedMax [MPH],OSD.ySpeed [MPH],OSD.ySpeedMax [MPH],OSD.zSpeed [MPH],OSD.zSpeedMax [MPH],OSD.pitch,OSD.roll,OSD.yaw,OSD.yaw [360],OSD.directionOfTravel,OSD.flycState,OSD.flycCommand,OSD.flightAction,OSD.gpsNum,OSD.gpsLevel,OSD.isGPSUsed,OSD.nonGPSCause,OSD.droneType,OSD.isSwaveWork,OSD.waveError,OSD.goHomeStatus,OSD.batteryType,OSD.ctrlDevice,OSD.isOnGround,OSD.isMotorOn,OSD.isMotorBlocked,OSD.motorStartFailedCause,OSD.motorFailReason,OSD.isImuPreheated,OSD.imuInitFailReason,OSD.isAcceletorOverRange,OSD.isBarometerDeadInAir,OSD.isCompassError,OSD.isGoHomeHeightModified,OSD.canIOCWork,OSD.isNotEnoughForce,OSD.isOutOfLimit,OSD.isPropellerCatapult,OSD.isVibrating,OSD.isVisionUsed,OSD.voltageWarning,GIMBAL.mode,GIMBAL.pitch,GIMBAL.roll,GIMBAL.yaw,GIMBAL.yaw [360],GIMBAL.isPitchAtLimit,GIMBAL.isRollAtLimit,GIMBAL.isYawAtLimit,GIMBAL.isStuck,CAMERA.isPhoto,CAMERA.isVideo,CAMERA.filename,CAMERA.sdCardIsInserted,CAMERA.sdCardState,RC.downlinkSignal,RC.uplinkSignal,RC.aileron,RC.elevator,RC.throttle,RC.rudder,RC.mode,RC.goHomeDepressed,RC.recordDepressed,RC.shutterDepressed,RC.playbackDepressed,RC.wheelDepressed,RC.wheelOffset,RC.custom1Depressed,RC.custom2Depressed,RC.custom3Depressed,RC.custom4Depressed,BATTERY.chargeLevel,BATTERY.currentPV [V],BATTERY.currentCapacity [mAh],BATTERY.fullCapacity [mAh],BATTERY.voltage [V],BATTERY.isCellVoltageEstimated,BATTERY.cellVoltage1 [V],BATTERY.cellVoltage2 [V],BATTERY.maxCellVoltageDeviation,BATTERY.isCellVoltageDeviationHigh,BATTERY.isVoltageLow,BATTERY.current [A],BATTERY.temperature [F],BATTERY.minTemperature [F],BATTERY.maxTemperature [F],BATTERY.usefulTime [s],BATTERY.goHomeTime [s],BATTERY.landTime [s],BATTERY.goHomeBattery,BATTERY.landBattery,BATTERY.safeFlyRadius,BATTERY.volumeConsume,BATTERY.status,BATTERY.goHomeStatus,BATTERY.goHomeCountdown,BATTERY.lowWarning,BATTERY.lowWarningGoHome,BATTERY.seriousLowWarning,BATTERY.seriousLowWarningLanding,BATTERY.timesCharged,MC.failSafeAction,MC.isObstacleAvoidanceEnabled,MC.isCollisionAvoidanceEnabled,MC.isRthObstacleAvoidanceEnabled,MC.isBraking,MC.isAvoidingObstacle,MC.isAvoidingActiveObstacle,MC.isAscentLimitedByObstacle,MC.isLandingConfirmationNeeded,MC.atLowAltitudeLimit,MC.atDistanceLimit,MC.atAirportAltitudeLimit,MC.atAirportBoundary,HOME.latitude,HOME.longitude,HOME.distance [ft],HOME.height [ft],HOME.heightLimit [ft],HOME.isHomeRecord,HOME.goHomeMode,HOME.aircraftHeadDirection,HOME.isDynamicHomePointEnabled,HOME.isReachedLimitDistance,HOME.isReachedLimitHeight,HOME.isCompassCalibrating,HOME.compassCalibrationState,HOME.isMultipleFlightModeEnabled,HOME.isBeginnerMode,HOME.isIOCEnabled,HOME.iocMode,HOME.goHomeHeight [ft],HOME.courseLockAngle,HOME.forceLandingHeight [ft],HOME.wind,HOME.dataRecorderFileIndex,RECOVER.appType,RECOVER.appVersion,RECOVER.aircraftName,RECOVER.aircraftSerial,RECOVER.cameraSerial,RECOVER.rcSerial,RECOVER.batterySerial,DETAILS.totalTime [s],DETAILS.totalDistance [ft],DETAILS.maxHeight [ft],DETAILS.maxHorizontalSpeed [MPH],DETAILS.maxVerticalSpeed [MPH],DETAILS.photoNum,DETAILS.videoTime [s],DETAILS.aircraftName,DETAILS.aircraftSerial,DETAILS.cameraSerial,DETAILS.rcSerial,DETAILS.batterySerial,DETAILS.appName,DETAILS.appType,DETAILS.appVersion,DETAILS.guid,SERIAL.flightController,SERIAL.camera,SERIAL.gimbal,SERIAL.rc,SERIAL.battery,APPGPS.latitude,APPGPS.longitude,APPGPS.accuracy,APP.tip,APP.warning
2/13/2024,53:00.3,13m 15.3s,795.3,6.97465748,79.91479452,0,0,,68,0,0,0,0,0,0,0,0,0,3.1,2.7,-172.5,187.5,,Starting Motors,Auto Landing,Takeoff (RC Assisted),10,4,TRUE,,Mavic Mini,FALSE,FALSE,,Smart,RC,TRUE,TRUE,FALSE,,,TRUE,,FALSE,FALSE,FALSE,FALSE,FALSE,FALSE,FALSE,FALSE,FALSE,FALSE,0,Follow Yaw,0,0,-171.1,188.9,FALSE,FALSE,FALSE,FALSE,FALSE,FALSE,,TRUE,Normal,,,364,364,364,1610,2,FALSE,FALSE,FALSE,FALSE,FALSE,0,FALSE,FALSE,FALSE,FALSE,40,7.34,825,2054,7.34,FALSE,3.671,3.669,0.002,FALSE,FALSE,NA,123.6,123.6,123.6,,,,,,,,,Idle,,,TRUE,,FALSE,8,Go Home,FALSE,FALSE,FALSE,FALSE,FALSE,FALSE,FALSE,FALSE,FALSE,FALSE,FALSE,FALSE,,,,,,FALSE,,,FALSE,FALSE,FALSE,FALSE,,FALSE,FALSE,FALSE,,,,,Calm,,,1.12.8,Mavic Mini,1SDCH7G0169R0K,1SFLH6Q0AB03DJ,1SRCH7F014TAHX,1U5X071EXP5ZJG,55,0,6.5,0.223694,3.131716,0,0,Mavic Mini,1SDCH7G0169R0K,1SFLH6Q0AB03DJ,1SRCH7F014TAHX,1U5X071EXP5ZJG,DJI Fly,,1.12.8,2C225ECE-A718-33F6-996D-7313ACF8CE32,1SDCH7G0169R0K,,,,,6.974604428,79.91473929,5,Flight mode changed to Starting Motors.,
2/13/2024,53:00.4,13m 15.4s,795.4,6.974657427,79.91479451,0,0,,68,0,0,0,0,0,0,0,0,0,3.1,2.7,-172.5,187.5,,Starting Motors,Auto Landing,Takeoff (RC Assisted),10,4,TRUE,,Mavic Mini,FALSE,FALSE,,Smart,RC,TRUE,TRUE,FALSE,,,TRUE,,FALSE,FALSE,FALSE,FALSE,FALSE,FALSE,FALSE,FALSE,FALSE,FALSE,0,Follow Yaw,0,0,-171.1,188.9,FALSE,FALSE,FALSE,FALSE,FALSE,FALSE,,TRUE,Normal,,,1024,1024,1024,1024,2,FALSE,FALSE,FALSE,FALSE,FALSE,0,FALSE,FALSE,FALSE,FALSE,40,7.34,825,2054,7.34,FALSE,3.671,3.669,0.002,FALSE,FALSE,NA,123.6,123.6,123.6,,,,,,,,,Idle,,,TRUE,,FALSE,8,Go Home,FALSE,FALSE,FALSE,FALSE,FALSE,FALSE,FALSE,FALSE,FALSE,FALSE,FALSE,FALSE,,,,,,FALSE,,,FALSE,FALSE,FALSE,FALSE,,FALSE,FALSE,FALSE,,,,,Calm,,,1.12.8,Mavic Mini,1SDCH7G0169R0K,1SFLH6Q0AB03DJ,1SRCH7F014TAHX,1U5X071EXP5ZJG,55,0,6.5,0.223694,3.131716,0,0,Mavic Mini,1SDCH7G0169R0K,1SFLH6Q0AB03DJ,1SRCH7F014TAHX,1U5X071EXP5ZJG,DJI Fly,,1.12.8,2C225ECE-A718-33F6-996D-7313ACF8CE32,1SDCH7G0169R0K,,,,,6.974604428,79.91473929,5,,
2/13/2024,39:45.3,13m 15.5s,795.5,6.974657287,79.91479442,0,0,0.3,68,0,0,0,0,0,0,0,0,0,3.1,2.7,-172.5,187.5,,Starting Motors,Auto Landing,Takeoff (RC Assisted),9,4,TRUE,,Mavic Mini,TRUE,FALSE,,Smart,RC,TRUE,TRUE,FALSE,,,TRUE,,FALSE,FALSE,FALSE,FALSE,FALSE,FALSE,FALSE,FALSE,FALSE,FALSE,0,Follow Yaw,0,0,-171.1,188.9,FALSE,FALSE,FALSE,FALSE,FALSE,FALSE,,TRUE,Normal,,,1024,1024,1024,1024,2,FALSE,FALSE,FALSE,FALSE,FALSE,0,FALSE,FALSE,FALSE,FALSE,40,7.34,825,2054,7.34,FALSE,3.671,3.669,0.002,FALSE,FALSE,NA,123.6,123.6,123.6,,,,,,,,,Idle,,,TRUE,,FALSE,8,Go Home,FALSE,FALSE,FALSE,FALSE,FALSE,FALSE,FALSE,FALSE,FALSE,FALSE,FALSE,FALSE,,,,,,FALSE,,,FALSE,FALSE,FALSE,FALSE,,FALSE,FALSE,FALSE,,,,,Calm,,,1.12.8,Mavic Mini,1SDCH7G0169R0K,1SFLH6Q0AB03DJ,1SRCH7F014TAHX,1U5X071EXP5ZJG,55,0,6.5,0.223694,3.131716,0,0,Mavic Mini,1SDCH7G0169R0K,1SFLH6Q0AB03DJ,1SRCH7F014TAHX,1U5X071EXP5ZJG,DJI Fly,,1.12.8,2C225ECE-A718-33F6-996D-7313ACF8CE32,1SDCH7G0169R0K,,,,,6.974604428,79.91473929,5,,
2/13/2024,39:45.3,13m 15.6s,795.6,6.974657267,79.91479442,0,0,0.3,68,0,0,0,0,0,0,0,0,0,3.1,2.6,-172.5,187.5,,Starting Motors,Auto Landing,Takeoff (RC Assisted),9,4,TRUE,,Mavic Mini,TRUE,FALSE,,Smart,RC,TRUE,TRUE,FALSE,,,TRUE,,FALSE,FALSE,FALSE,FALSE,FALSE,FALSE,FALSE,FALSE,FALSE,FALSE,0,Follow Yaw,0,0,-171.1,188.9,FALSE,FALSE,FALSE,FALSE,FALSE,FALSE,,TRUE,Normal,,,1024,1024,1024,1024,2,FALSE,FALSE,FALSE,FALSE,FALSE,0,FALSE,FALSE,FALSE,FALSE,40,7.34,825,2054,7.34,FALSE,3.671,3.669,0.002,FALSE,FALSE,NA,123.6,123.6,123.6,,,,,,,,,Idle,,,TRUE,,FALSE,8,Go Home,FALSE,FALSE,FALSE,FALSE,FALSE,FALSE,FALSE,FALSE,FALSE,FALSE,FALSE,FALSE,,,,,,FALSE,,,FALSE,FALSE,FALSE,FALSE,,FALSE,FALSE,FALSE,,,,,Calm,,,1.12.8,Mavic Mini,1SDCH7G0169R0K,1SFLH6Q0AB03DJ,1SRCH7F014TAHX,1U5X071EXP5ZJG,55,0,6.5,0.223694,3.131716,0,0,Mavic Mini,1SDCH7G0169R0K,1SFLH6Q0AB03DJ,1SRCH7F014TAHX,1U5X071EXP5ZJG,DJI Fly,,1.12.8,2C225ECE-A718-33F6-996D-7313ACF8CE32,1SDCH7G0169R0K,,,,,6.974604428,79.91473929,5,,
2/13/2024,39:45.4,13m 15.7s,795.7,6.974657258,79.91479441,0,0,0.3,68,0,0,0,0,0,0,0,0,0,3.1,2.8,-172.5,187.5,,Starting Motors,Auto Landing,Takeoff (RC Assisted),9,4,TRUE,,Mavic Mini,TRUE,FALSE,,Smart,RC,TRUE,TRUE,FALSE,,,TRUE,,FALSE,FALSE,FALSE,FALSE,FALSE,FALSE,FALSE,FALSE,FALSE,FALSE,0,Follow Yaw,0,0,-171.1,188.9,FALSE,FALSE,FALSE,FALSE,FALSE,FALSE,,TRUE,Normal,,100,1024,1024,1024,1024,2,FALSE,FALSE,FALSE,FALSE,FALSE,0,FALSE,FALSE,FALSE,FALSE,40,7.34,825,2054,7.331,FALSE,3.671,3.669,0.002,FALSE,FALSE,NA,123.6,123.6,123.6,0,3,0,0,5,2662.6,665.66,,Idle,0,20,FALSE,5,TRUE,8,Go Home,FALSE,FALSE,FALSE,FALSE,FALSE,FALSE,FALSE,FALSE,FALSE,FALSE,FALSE,FALSE,6.974665741,79.9147898,3.5,103.5,328,TRUE,1,1,FALSE,FALSE,FALSE,FALSE,,TRUE,FALSE,FALSE,Course Lock,246,303.7,16.4,Calm,23,,1.12.8,Mavic Mini,1SDCH7G0169R0K,1SFLH6Q0AB03DJ,1SRCH7F014TAHX,1U5X071EXP5ZJG,55,0,6.5,0.223694,3.131716,0,0,Mavic Mini,1SDCH7G0169R0K,1SFLH6Q0AB03DJ,1SRCH7F014TAHX,1U5X071EXP5ZJG,DJI Fly,,1.12.8,2C225ECE-A718-33F6-996D-7313ACF8CE32,1SDCH7G0169R0K,,,,,6.974604428,79.91473929,5,Data Recorder File Index is 23.; Set Return to Home (RTH) altitude to 75 m (246 ft).; Set maximum flight altitude to 100 m (328 ft).,
2/13/2024,39:45.5,13m 15.8s,795.8,6.974657226,79.91479441,0,0,0.3,68,0,0,0,0,0,0,0,0,0,3.1,2.8,-172.5,187.5,,Starting Motors,Auto Landing,Takeoff (RC Assisted),9,4,TRUE,,Mavic Mini,TRUE,FALSE,,Smart,RC,TRUE,TRUE,FALSE,,,TRUE,,FALSE,FALSE,FALSE,FALSE,FALSE,FALSE,FALSE,FALSE,FALSE,FALSE,0,Follow Yaw,0,0,-171.1,188.9,FALSE,FALSE,FALSE,FALSE,FALSE,FALSE,,TRUE,Normal,,100,1024,1024,1024,1024,2,FALSE,FALSE,FALSE,FALSE,FALSE,0,FALSE,FALSE,FALSE,FALSE,40,7.326,825,2054,7.331,FALSE,3.665,3.661,0.004,FALSE,FALSE,NA,123.6,123.6,123.6,0,3,0,0,5,2662.6,665.66,,Idle,0,20,FALSE,5,TRUE,8,Go Home,FALSE,FALSE,FALSE,FALSE,FALSE,FALSE,FALSE,FALSE,FALSE,FALSE,FALSE,FALSE,6.974665741,79.9147898,3.5,103.5,328,TRUE,1,1,FALSE,FALSE,FALSE,FALSE,,TRUE,FALSE,FALSE,Course Lock,246,303.7,16.4,Calm,23,,1.12.8,Mavic Mini,1SDCH7G0169R0K,1SFLH6Q0AB03DJ,1SRCH7F014TAHX,1U5X071EXP5ZJG,55,0,6.5,0.223694,3.131716,0,0,Mavic Mini,1SDCH7G0169R0K,1SFLH6Q0AB03DJ,1SRCH7F014TAHX,1U5X071EXP5ZJG,DJI Fly,,1.12.8,2C225ECE-A718-33F6-996D-7313ACF8CE32,1SDCH7G0169R0K,,,,,6.974604428,79.91473929,5,,
2/13/2024,39:45.6,13m 15.9s,795.9,6.97465722,79.91479436,0,0,0.3,68,0.1,0,0,0,0,0,0,0,0,3.2,2.7,-172.5,187.5,,Starting Motors,Auto Landing,Takeoff (RC Assisted),9,4,TRUE,,Mavic Mini,TRUE,FALSE,,Smart,RC,TRUE,TRUE,FALSE,,,TRUE,,FALSE,FALSE,FALSE,FALSE,FALSE,FALSE,FALSE,FALSE,FALSE,FALSE,0,Follow Yaw,0,0,-171.1,188.9,FALSE,FALSE,FALSE,FALSE,FALSE,FALSE,,TRUE,Normal,,100,1024,1024,1024,1024,2,FALSE,FALSE,FALSE,FALSE,FALSE,0,FALSE,FALSE,FALSE,FALSE,40,7.326,825,2054,7.331,FALSE,3.665,3.661,0.004,FALSE,FALSE,NA,123.6,123.6,123.6,0,3,0,0,5,2662.6,665.66,,Idle,0,20,FALSE,5,TRUE,8,Go Home,FALSE,FALSE,FALSE,FALSE,FALSE,FALSE,FALSE,FALSE,FALSE,FALSE,FALSE,FALSE,6.974665741,79.9147898,3.5,103.5,328,TRUE,1,1,FALSE,FALSE,FALSE,FALSE,,TRUE,FALSE,FALSE,Course Lock,246,303.7,16.4,Calm,23,,1.12.8,Mavic Mini,1SDCH7G0169R0K,1SFLH6Q0AB03DJ,1SRCH7F014TAHX,1U5X071EXP5ZJG,55,0,6.5,0.223694,3.131716,0,0,Mavic Mini,1SDCH7G0169R0K,1SFLH6Q0AB03DJ,1SRCH7F014TAHX,1U5X071EXP5ZJG,DJI Fly,,1.12.8,2C225ECE-A718-33F6-996D-7313ACF8CE32,1SDCH7G0169R0K,,,,,6.974604428,79.91473929,5,,
2/13/2024,39:45.7,13m 16.0s,796,6.974657209,79.91479436,0,0,0.3,68,0.1,0,0,0,0,0,0,0,0,3.1,2.6,-172.5,187.5,,Starting Motors,Auto Landing,Takeoff (RC Assisted),9,4,TRUE,,Mavic Mini,TRUE,FALSE,,Smart,RC,TRUE,TRUE,FALSE,,,TRUE,,FALSE,FALSE,FALSE,FALSE,FALSE,FALSE,FALSE,FALSE,FALSE,FALSE,0,Follow Yaw,0,0,-171.1,188.9,FALSE,FALSE,FALSE,FALSE,FALSE,FALSE,,TRUE,Normal,,100,1024,1024,1024,1024,2,FALSE,FALSE,FALSE,FALSE,FALSE,0,FALSE,FALSE,FALSE,FALSE,40,7.326,825,2054,7.331,FALSE,3.665,3.661,0.004,FALSE,FALSE,NA,123.6,123.6,123.6,0,3,0,0,5,2662.6,665.66,,Idle,0,20,FALSE,5,TRUE,8,Go Home,FALSE,FALSE,FALSE,FALSE,FALSE,FALSE,FALSE,FALSE,FALSE,FALSE,FALSE,FALSE,6.974665741,79.9147898,3.5,103.5,328,TRUE,1,1,FALSE,FALSE,FALSE,FALSE,,TRUE,FALSE,FALSE,Course Lock,246,303.7,16.4,Calm,23,,1.12.8,Mavic Mini,1SDCH7G0169R0K,1SFLH6Q0AB03DJ,1SRCH7F014TAHX,1U5X071EXP5ZJG,55,0,6.5,0.223694,3.131716,0,0,Mavic Mini,1SDCH7G0169R0K,1SFLH6Q0AB03DJ,1SRCH7F014TAHX,1U5X071EXP5ZJG,DJI Fly,,1.12.8,2C225ECE-A718-33F6-996D-7313ACF8CE32,1SDCH7G0169R0K,,,,,6.974604428,79.91473929,5,,
2/13/2024,39:45.8,13m 16.1s,796.1,6.974657206,79.91479436,0,0,0.3,68,0.1,0,0,0,0,0,0,0,0,3.1,2.6,-172.5,187.5,,Starting Motors,Auto Landing,Takeoff (RC Assisted),9,4,TRUE,,Mavic Mini,TRUE,FALSE,,Smart,RC,TRUE,TRUE,FALSE,,,TRUE,,FALSE,FALSE,FALSE,FALSE,FALSE,FALSE,FALSE,FALSE,FALSE,FALSE,0,Follow Yaw,0,0,-171.1,188.9,FALSE,FALSE,FALSE,FALSE,FALSE,FALSE,,TRUE,Normal,,100,1024,1024,1024,1024,2,FALSE,FALSE,FALSE,FALSE,FALSE,0,FALSE,FALSE,FALSE,FALSE,40,7.326,825,2054,7.331,FALSE,3.665,3.661,0.004,FALSE,FALSE,NA,123.6,123.6,123.6,0,3,0,0,5,2662.6,665.66,,Idle,0,20,FALSE,5,TRUE,8,Go Home,FALSE,FALSE,FALSE,FALSE,FALSE,FALSE,FALSE,FALSE,FALSE,FALSE,FALSE,FALSE,6.974665741,79.9147898,3.5,103.5,328,TRUE,1,1,FALSE,FALSE,FALSE,FALSE,,TRUE,FALSE,FALSE,Course Lock,246,303.7,16.4,Calm,23,,1.12.8,Mavic Mini,1SDCH7G0169R0K,1SFLH6Q0AB03DJ,1SRCH7F014TAHX,1U5X071EXP5ZJG,55,0,6.5,0.223694,3.131716,0,0,Mavic Mini,1SDCH7G0169R0K,1SFLH6Q0AB03DJ,1SRCH7F014TAHX,1U5X071EXP5ZJG,DJI Fly,,1.12.8,2C225ECE-A718-33F6-996D-7313ACF8CE32,1SDCH7G0169R0K,,,,,6.974604428,79.91473929,5,,
2/13/2024,39:45.9,13m 16.2s,796.2,6.974657175,79.91479436,0,0,0.3,68,0.1,0,0,0,0,0,0,0,0,3.1,2.7,-172.6,187.4,,Starting Motors,Auto Landing,Takeoff (RC Assisted),9,4,TRUE,,Mavic Mini,TRUE,FALSE,,Smart,RC,TRUE,TRUE,FALSE,,,TRUE,,FALSE,FALSE,FALSE,FALSE,FALSE,FALSE,FALSE,FALSE,FALSE,FALSE,0,Follow Yaw,0,0,-171.1,188.9,FALSE,FALSE,FALSE,FALSE,FALSE,FALSE,,TRUE,Normal,,100,1024,1024,1024,1024,2,FALSE,FALSE,FALSE,FALSE,FALSE,0,FALSE,FALSE,FALSE,FALSE,40,7.326,825,2054,7.331,FALSE,3.665,3.661,0.004,FALSE,FALSE,NA,123.6,123.6,123.6,0,3,0,0,5,2662.6,665.66,,Idle,0,20,FALSE,5,TRUE,8,Go Home,FALSE,FALSE,FALSE,FALSE,FALSE,FALSE,FALSE,FALSE,FALSE,FALSE,FALSE,FALSE,6.974665741,79.9147898,3.5,103.5,328,TRUE,1,1,FALSE,FALSE,FALSE,FALSE,,TRUE,FALSE,FALSE,Course Lock,246,303.7,16.4,Calm,23,,1.12.8,Mavic Mini,1SDCH7G0169R0K,1SFLH6Q0AB03DJ,1SRCH7F014TAHX,1U5X071EXP5ZJG,55,0,6.5,0.223694,3.131716,0,0,Mavic Mini,1SDCH7G0169R0K,1SFLH6Q0AB03DJ,1SRCH7F014TAHX,1U5X071EXP5ZJG,DJI Fly,,1.12.8,2C225ECE-A718-33F6-996D-7313ACF8CE32,1SDCH7G0169R0K,,,,,6.974604428,79.91473929,5,,
2/13/2024,39:46.0,13m 16.3s,796.3,6.974657147,79.91479435,0,0,0.3,68,0.1,0,0,0,0,0,0,0,0,3.1,2.7,-172.6,187.4,,Starting Motors,Auto Landing,Takeoff (RC Assisted),9,4,TRUE,,Mavic Mini,TRUE,FALSE,,Smart,RC,TRUE,TRUE,FALSE,,,TRUE,,FALSE,FALSE,FALSE,FALSE,FALSE,FALSE,FALSE,FALSE,FALSE,FALSE,0,Follow Yaw,0,0,-171.1,188.9,FALSE,FALSE,FALSE,FALSE,FALSE,FALSE,,TRUE,Normal,,100,1024,1024,1024,1024,2,FALSE,FALSE,FALSE,FALSE,FALSE,0,FALSE,FALSE,FALSE,FALSE,40,7.326,825,2054,7.331,FALSE,3.665,3.661,0.004,FALSE,FALSE,NA,123.6,123.6,123.6,0,3,0,0,5,2662.6,665.66,,Idle,0,20,FALSE,5,TRUE,8,Go Home,FALSE,FALSE,FALSE,FALSE,FALSE,FALSE,FALSE,FALSE,FALSE,FALSE,FALSE,FALSE,6.974665741,79.9147898,3.5,103.5,328,TRUE,1,1,FALSE,FALSE,FALSE,FALSE,,TRUE,FALSE,FALSE,Course Lock,246,303.7,16.4,Calm,23,,1.12.8,Mavic Mini,1SDCH7G0169R0K,1SFLH6Q0AB03DJ,1SRCH7F014TAHX,1U5X071EXP5ZJG,55,0,6.5,0.223694,3.131716,0,0,Mavic Mini,1SDCH7G0169R0K,1SFLH6Q0AB03DJ,1SRCH7F014TAHX,1U5X071EXP5ZJG,DJI Fly,,1.12.8,2C225ECE-A718-33F6-996D-7313ACF8CE32,1SDCH7G0169R0K,,,,,6.974604428,79.91473929,5,,
2/13/2024,39:46.2,13m 16.4s,796.4,6.974657133,79.91479435,0,0,0.3,68,0.1,0,0,0,0,0,0,0,0,3.1,2.6,-172.5,187.5,,Manual Takeoff,Auto Landing,Takeoff (RC Assisted),9,4,TRUE,,Mavic Mini,TRUE,FALSE,,Smart,RC,TRUE,TRUE,FALSE,,,TRUE,,FALSE,FALSE,FALSE,FALSE,FALSE,FALSE,FALSE,FALSE,FALSE,FALSE,0,Follow Yaw,0,0,-171.1,188.9,FALSE,FALSE,FALSE,FALSE,FALSE,FALSE,,TRUE,Normal,,100,1024,1024,1024,1024,2,FALSE,FALSE,FALSE,FALSE,FALSE,0,FALSE,FALSE,FALSE,FALSE,40,7.326,825,2054,7.331,FALSE,3.665,3.661,0.004,FALSE,FALSE,NA,123.6,123.6,123.6,0,3,0,0,5,2662.6,665.66,,Idle,0,20,FALSE,5,TRUE,8,Go Home,FALSE,FALSE,FALSE,FALSE,FALSE,FALSE,FALSE,FALSE,FALSE,FALSE,FALSE,FALSE,6.974665741,79.9147898,3.5,103.5,328,TRUE,1,1,FALSE,FALSE,FALSE,FALSE,,TRUE,FALSE,FALSE,Course Lock,246,303.7,16.4,Calm,23,,1.12.8,Mavic Mini,1SDCH7G0169R0K,1SFLH6Q0AB03DJ,1SRCH7F014TAHX,1U5X071EXP5ZJG,55,0,6.5,0.223694,3.131716,0,0,Mavic Mini,1SDCH7G0169R0K,1SFLH6Q0AB03DJ,1SRCH7F014TAHX,1U5X071EXP5ZJG,DJI Fly,,1.12.8,2C225ECE-A718-33F6-996D-7313ACF8CE32,1SDCH7G0169R0K,,,,,6.974604428,79.91473929,5,Flight mode changed to Manual Takeoff.,
2/13/2024,39:46.3,13m 16.5s,796.5,6.974657127,79.91479435,0,0,0.3,68,0.1,0,0,0,0,0,0,0,0,3.1,2.6,-172.5,187.5,,Manual Takeoff,Auto Landing,Takeoff (RC Assisted),10,4,TRUE,,Mavic Mini,TRUE,FALSE,,Smart,RC,TRUE,TRUE,FALSE,,,TRUE,,FALSE,FALSE,FALSE,FALSE,FALSE,FALSE,FALSE,FALSE,FALSE,FALSE,0,Follow Yaw,0,0,-171.1,188.9,FALSE,FALSE,FALSE,FALSE,FALSE,FALSE,,TRUE,Normal,,100,1024,1024,1024,1024,2,FALSE,FALSE,FALSE,FALSE,FALSE,0,FALSE,FALSE,FALSE,FALSE,40,7.326,825,2054,7.331,FALSE,3.665,3.661,0.004,FALSE,FALSE,NA,123.6,123.6,123.6,0,3,0,0,5,2662.6,665.66,,Idle,0,20,FALSE,5,TRUE,8,Go Home,FALSE,FALSE,FALSE,FALSE,FALSE,FALSE,FALSE,FALSE,FALSE,FALSE,FALSE,FALSE,6.974665741,79.9147898,3.5,103.5,328,TRUE,1,1,FALSE,FALSE,FALSE,FALSE,,TRUE,FALSE,FALSE,Course Lock,246,303.7,16.4,Calm,23,,1.12.8,Mavic Mini,1SDCH7G0169R0K,1SFLH6Q0AB03DJ,1SRCH7F014TAHX,1U5X071EXP5ZJG,55,0,6.5,0.223694,3.131716,0,0,Mavic Mini,1SDCH7G0169R0K,1SFLH6Q0AB03DJ,1SRCH7F014TAHX,1U5X071EXP5ZJG,DJI Fly,,1.12.8,2C225ECE-A718-33F6-996D-7313ACF8CE32,1SDCH7G0169R0K,,,,,6.974604428,79.91473929,5,,
2/13/2024,39:46.4,13m 16.6s,796.6,6.974657094,79.91479439,0,0,0.3,68,0.1,0,0,0,0,0,0,0,0,3.1,2.6,-172.6,187.4,,Manual Takeoff,Auto Landing,Takeoff (RC Assisted),10,4,TRUE,,Mavic Mini,TRUE,FALSE,,Smart,RC,TRUE,TRUE,FALSE,,,TRUE,,FALSE,FALSE,FALSE,FALSE,FALSE,FALSE,FALSE,FALSE,FALSE,FALSE,0,Follow Yaw,0,0,-171.1,188.9,FALSE,FALSE,FALSE,FALSE,FALSE,FALSE,,TRUE,Normal,,100,1024,1024,1024,1024,2,FALSE,FALSE,FALSE,FALSE,FALSE,0,FALSE,FALSE,FALSE,FALSE,40,7.326,825,2054,7.331,FALSE,3.665,3.661,0.004,FALSE,FALSE,NA,123.6,123.6,123.6,0,3,0,0,5,2662.6,665.66,,Idle,0,20,FALSE,5,TRUE,8,Go Home,FALSE,FALSE,FALSE,FALSE,FALSE,FALSE,FALSE,FALSE,FALSE,FALSE,FALSE,FALSE,6.974665741,79.9147898,3.5,103.5,328,TRUE,1,1,FALSE,FALSE,FALSE,FALSE,,TRUE,FALSE,FALSE,Course Lock,246,303.7,16.4,Calm,23,,1.12.8,Mavic Mini,1SDCH7G0169R0K,1SFLH6Q0AB03DJ,1SRCH7F014TAHX,1U5X071EXP5ZJG,55,0,6.5,0.223694,3.131716,0,0,Mavic Mini,1SDCH7G0169R0K,1SFLH6Q0AB03DJ,1SRCH7F014TAHX,1U5X071EXP5ZJG,DJI Fly,,1.12.8,2C225ECE-A718-33F6-996D-7313ACF8CE32,1SDCH7G0169R0K,,,,,6.974604428,79.91473929,5,,
2/13/2024,39:46.5,13m 16.7s,796.7,6.97465705,79.91479445,0,0,0.3,68,0.1,0,0,0,0,0,0,0,0,3.1,2.6,-172.6,187.4,,Manual Takeoff,Auto Landing,Takeoff (RC Assisted),10,4,TRUE,,Mavic Mini,TRUE,FALSE,,Smart,RC,TRUE,TRUE,FALSE,,,TRUE,,FALSE,FALSE,FALSE,FALSE,FALSE,FALSE,FALSE,FALSE,FALSE,FALSE,0,Follow Yaw,0,0,-171.1,188.9,FALSE,FALSE,FALSE,FALSE,FALSE,FALSE,,TRUE,Normal,,100,1024,1024,1024,1024,2,FALSE,FALSE,FALSE,FALSE,FALSE,0,FALSE,FALSE,FALSE,FALSE,40,7.326,825,2054,7.337,FALSE,3.665,3.661,0.004,FALSE,FALSE,NA,123.6,123.6,123.6,0,3,0,0,5,2666.6,666.66,,Idle,0,20,FALSE,5,TRUE,8,Go Home,FALSE,FALSE,FALSE,FALSE,FALSE,FALSE,FALSE,FALSE,FALSE,FALSE,FALSE,FALSE,6.974665741,79.9147898,3.5,103.5,328,TRUE,1,1,FALSE,FALSE,FALSE,FALSE,,TRUE,FALSE,FALSE,Course Lock,246,303.7,16.4,Calm,23,,1.12.8,Mavic Mini,1SDCH7G0169R0K,1SFLH6Q0AB03DJ,1SRCH7F014TAHX,1U5X071EXP5ZJG,55,0,6.5,0.223694,3.131716,0,0,Mavic Mini,1SDCH7G0169R0K,1SFLH6Q0AB03DJ,1SRCH7F014TAHX,1U5X071EXP5ZJG,DJI Fly,,1.12.8,2C225ECE-A718-33F6-996D-7313ACF8CE32,1SDCH7G0169R0K,,,,,6.974604428,79.91473929,5,,
2/13/2024,39:46.5,13m 16.8s,796.8,6.974657033,79.91479455,0,0,0.3,68,0.2,0,0,0,0,0,0,0,0,3.1,2.6,-172.5,187.5,,Manual Takeoff,Auto Landing,Takeoff (RC Assisted),10,4,TRUE,,Mavic Mini,TRUE,FALSE,,Smart,RC,TRUE,TRUE,FALSE,,,TRUE,,FALSE,FALSE,FALSE,FALSE,FALSE,FALSE,FALSE,FALSE,FALSE,FALSE,0,Follow Yaw,0,0,-171.1,188.9,FALSE,FALSE,FALSE,FALSE,FALSE,FALSE,,TRUE,Normal,,100,1024,1024,1024,1024,2,FALSE,FALSE,FALSE,FALSE,FALSE,0,FALSE,FALSE,FALSE,FALSE,40,7.326,825,2054,7.337,FALSE,3.665,3.661,0.004,FALSE,FALSE,NA,123.6,123.6,123.6,0,3,0,0,5,2666.6,666.66,,Idle,0,20,FALSE,5,TRUE,8,Go Home,FALSE,FALSE,FALSE,FALSE,FALSE,FALSE,FALSE,FALSE,FALSE,FALSE,FALSE,FALSE,6.974665741,79.9147898,3.6,103.5,328,TRUE,1,1,FALSE,FALSE,FALSE,FALSE,,TRUE,FALSE,FALSE,Course Lock,246,303.7,16.4,Calm,23,,1.12.8,Mavic Mini,1SDCH7G0169R0K,1SFLH6Q0AB03DJ,1SRCH7F014TAHX,1U5X071EXP5ZJG,55,0,6.5,0.223694,3.131716,0,0,Mavic Mini,1SDCH7G0169R0K,1SFLH6Q0AB03DJ,1SRCH7F014TAHX,1U5X071EXP5ZJG,DJI Fly,,1.12.8,2C225ECE-A718-33F6-996D-7313ACF8CE32,1SDCH7G0169R0K,,,,,6.974604428,79.91473929,5,,
2/13/2024,39:46.6,13m 16.9s,796.9,6.974657027,79.91479457,0,0,0.3,68,0.2,0,0,0,0,0,0,0,0,3.1,2.6,-172.6,187.4,,Manual Takeoff,Auto Landing,Takeoff (RC Assisted),10,4,TRUE,,Mavic Mini,TRUE,FALSE,,Smart,RC,TRUE,TRUE,FALSE,,,TRUE,,FALSE,FALSE,FALSE,FALSE,FALSE,FALSE,FALSE,FALSE,FALSE,FALSE,0,Follow Yaw,0,0,-171.1,188.9,FALSE,FALSE,FALSE,FALSE,FALSE,FALSE,,TRUE,Normal,,100,1024,1024,1024,1024,2,FALSE,FALSE,FALSE,FALSE,FALSE,0,FALSE,FALSE,FALSE,FALSE,40,7.327,824,2054,7.337,FALSE,3.665,3.662,0.004,FALSE,FALSE,NA,123.6,123.6,123.6,0,3,0,0,5,2666.6,666.66,,Idle,0,20,FALSE,5,TRUE,8,Go Home,FALSE,FALSE,FALSE,FALSE,FALSE,FALSE,FALSE,FALSE,FALSE,FALSE,FALSE,FALSE,6.974665741,79.9147898,3.6,103.5,328,TRUE,1,1,FALSE,FALSE,FALSE,FALSE,,TRUE,FALSE,FALSE,Course Lock,246,303.7,16.4,Calm,23,,1.12.8,Mavic Mini,1SDCH7G0169R0K,1SFLH6Q0AB03DJ,1SRCH7F014TAHX,1U5X071EXP5ZJG,55,0,6.5,0.223694,3.131716,0,0,Mavic Mini,1SDCH7G0169R0K,1SFLH6Q0AB03DJ,1SRCH7F014TAHX,1U5X071EXP5ZJG,DJI Fly,,1.12.8,2C225ECE-A718-33F6-996D-7313ACF8CE32,1SDCH7G0169R0K,,,,,6.974604428,79.91473929,5,,
2/13/2024,39:46.7,13m 17.0s,797,6.974656995,79.91479458,0,0,0.3,68,0.2,0,0,0,0,0,0,0,0,3.1,2.6,-172.6,187.4,,Manual Takeoff,Auto Landing,Takeoff (RC Assisted),10,4,TRUE,,Mavic Mini,TRUE,FALSE,,Smart,RC,TRUE,TRUE,FALSE,,,TRUE,,FALSE,FALSE,FALSE,FALSE,FALSE,FALSE,FALSE,FALSE,FALSE,FALSE,0,Follow Yaw,0,0,-171.1,188.9,FALSE,FALSE,FALSE,FALSE,FALSE,FALSE,,TRUE,Normal,,100,1024,1024,1024,1024,2,FALSE,FALSE,FALSE,FALSE,FALSE,0,FALSE,FALSE,FALSE,FALSE,40,7.327,824,2054,7.337,FALSE,3.665,3.662,0.004,FALSE,FALSE,NA,123.6,123.6,123.6,0,3,0,0,5,2666.6,666.66,,Idle,0,20,FALSE,5,TRUE,8,Go Home,FALSE,FALSE,FALSE,FALSE,FALSE,FALSE,FALSE,FALSE,FALSE,FALSE,FALSE,FALSE,6.974665741,79.9147898,3.6,103.5,328,TRUE,1,1,FALSE,FALSE,FALSE,FALSE,,TRUE,FALSE,FALSE,Course Lock,246,303.7,16.4,Calm,23,,1.12.8,Mavic Mini,1SDCH7G0169R0K,1SFLH6Q0AB03DJ,1SRCH7F014TAHX,1U5X071EXP5ZJG,55,0,6.5,0.223694,3.131716,0,0,Mavic Mini,1SDCH7G0169R0K,1SFLH6Q0AB03DJ,1SRCH7F014TAHX,1U5X071EXP5ZJG,DJI Fly,,1.12.8,2C225ECE-A718-33F6-996D-7313ACF8CE32,1SDCH7G0169R0K,,,,,6.974604428,79.91473929,5,,
2/13/2024,39:46.8,13m 17.1s,797.1,6.974656952,79.91479458,0,0,0.3,68,0.2,0,0,0,0,0,0,0,0,3.1,2.6,-172.6,187.4,,Manual Takeoff,Auto Landing,Takeoff (RC Assisted),10,4,TRUE,,Mavic Mini,TRUE,FALSE,,Smart,RC,TRUE,TRUE,FALSE,,,TRUE,,FALSE,FALSE,FALSE,FALSE,FALSE,FALSE,FALSE,FALSE,FALSE,FALSE,0,Follow Yaw,0,0,-171.1,188.9,FALSE,FALSE,FALSE,FALSE,FALSE,FALSE,,TRUE,Normal,,100,1024,1024,1024,1024,2,FALSE,FALSE,FALSE,FALSE,FALSE,0,FALSE,FALSE,FALSE,FALSE,40,7.327,824,2054,7.337,FALSE,3.665,3.662,0.004,FALSE,FALSE,NA,123.6,123.6,123.6,0,3,0,0,5,2666.6,666.66,,Idle,0,20,FALSE,5,TRUE,8,Go Home,FALSE,FALSE,FALSE,FALSE,FALSE,FALSE,FALSE,FALSE,FALSE,FALSE,FALSE,FALSE,6.974665741,79.9147898,3.6,103.5,328,TRUE,1,1,FALSE,FALSE,FALSE,FALSE,,TRUE,FALSE,FALSE,Course Lock,246,303.7,16.4,Calm,23,,1.12.8,Mavic Mini,1SDCH7G0169R0K,1SFLH6Q0AB03DJ,1SRCH7F014TAHX,1U5X071EXP5ZJG,55,0,6.5,0.223694,3.131716,0,0,Mavic Mini,1SDCH7G0169R0K,1SFLH6Q0AB03DJ,1SRCH7F014TAHX,1U5X071EXP5ZJG,DJI Fly,,1.12.8,2C225ECE-A718-33F6-996D-7313ACF8CE32,1SDCH7G0169R0K,,,,,6.974604428,79.91473929,5,,
2/13/2024,39:46.9,13m 17.2s,797.2,6.974656849,79.91479452,0,0,0.3,68,0.2,0,0,0,0,0,0,0,0,3.1,2.6,-172.6,187.4,,Manual Takeoff,Auto Landing,Takeoff (RC Assisted),10,4,TRUE,,Mavic Mini,TRUE,FALSE,,Smart,RC,TRUE,TRUE,FALSE,,,TRUE,,FALSE,FALSE,FALSE,FALSE,FALSE,FALSE,FALSE,FALSE,FALSE,FALSE,0,Follow Yaw,0,0,-171.1,188.9,FALSE,FALSE,FALSE,FALSE,FALSE,FALSE,,TRUE,Normal,,100,1024,1024,1024,1024,2,FALSE,FALSE,FALSE,FALSE,FALSE,0,FALSE,FALSE,FALSE,FALSE,40,7.327,824,2054,7.337,FALSE,3.665,3.662,0.004,FALSE,FALSE,NA,123.6,123.6,123.6,0,3,0,0,5,2666.6,666.66,,Idle,0,20,FALSE,5,TRUE,8,Go Home,FALSE,FALSE,FALSE,FALSE,FALSE,FALSE,FALSE,FALSE,FALSE,FALSE,FALSE,FALSE,6.974665741,79.9147898,3.6,103.5,328,TRUE,1,1,FALSE,FALSE,FALSE,FALSE,,TRUE,FALSE,FALSE,Course Lock,246,303.7,16.4,Calm,23,,1.12.8,Mavic Mini,1SDCH7G0169R0K,1SFLH6Q0AB03DJ,1SRCH7F014TAHX,1U5X071EXP5ZJG,55,0,6.5,0.223694,3.131716,0,0,Mavic Mini,1SDCH7G0169R0K,1SFLH6Q0AB03DJ,1SRCH7F014TAHX,1U5X071EXP5ZJG,DJI Fly,,1.12.8,2C225ECE-A718-33F6-996D-7313ACF8CE32,1SDCH7G0169R0K,,,,,6.974604428,79.91473929,5,,
2/13/2024,39:47.0,13m 17.3s,797.3,6.97465679,79.91479452,0,0,0.3,68,0.3,0,0,0,0,0,0,0,0,3.1,2.6,-172.6,187.4,,Manual Takeoff,Auto Landing,Takeoff (RC Assisted),10,4,TRUE,,Mavic Mini,TRUE,FALSE,,Smart,RC,TRUE,TRUE,FALSE,,,TRUE,,FALSE,FALSE,FALSE,FALSE,FALSE,FALSE,FALSE,FALSE,FALSE,FALSE,0,Follow Yaw,0,0,-171.1,188.9,FALSE,FALSE,FALSE,FALSE,FALSE,FALSE,,TRUE,Normal,,100,1024,1024,1024,1024,2,FALSE,FALSE,FALSE,FALSE,FALSE,0,FALSE,FALSE,FALSE,FALSE,40,7.327,824,2054,7.337,FALSE,3.665,3.662,0.004,FALSE,FALSE,NA,123.6,123.6,123.6,0,3,0,0,5,2666.6,666.66,,Idle,0,20,FALSE,5,TRUE,8,Go Home,FALSE,FALSE,FALSE,FALSE,FALSE,FALSE,FALSE,FALSE,FALSE,FALSE,FALSE,FALSE,6.974665741,79.9147898,3.6,103.5,328,TRUE,1,1,FALSE,FALSE,FALSE,FALSE,,TRUE,FALSE,FALSE,Course Lock,246,303.7,16.4,Calm,23,,1.12.8,Mavic Mini,1SDCH7G0169R0K,1SFLH6Q0AB03DJ,1SRCH7F014TAHX,1U5X071EXP5ZJG,55,0,6.5,0.223694,3.131716,0,0,Mavic Mini,1SDCH7G0169R0K,1SFLH6Q0AB03DJ,1SRCH7F014TAHX,1U5X071EXP5ZJG,DJI Fly,,1.12.8,2C225ECE-A718-33F6-996D-7313ACF8CE32,1SDCH7G0169R0K,,,,,6.974677853,79.91478774,10,,
2/13/2024,39:47.1,13m 17.4s,797.4,6.974656732,79.91479455,0,0,0.3,68,0.3,0,0,0,0,0,0,0,0,3.1,2.6,-172.5,187.5,,Manual Takeoff,Auto Landing,Takeoff (RC Assisted),10,4,TRUE,,Mavic Mini,TRUE,FALSE,,Smart,RC,TRUE,TRUE,FALSE,,,TRUE,,FALSE,FALSE,FALSE,FALSE,FALSE,FALSE,FALSE,FALSE,FALSE,FALSE,0,Follow Yaw,0,0,-171.1,188.9,FALSE,FALSE,FALSE,FALSE,FALSE,FALSE,,TRUE,Normal,,100,1024,1024,1024,1024,2,FALSE,FALSE,FALSE,FALSE,FALSE,0,FALSE,FALSE,FALSE,FALSE,40,7.327,824,2054,7.337,FALSE,3.665,3.662,0.004,FALSE,FALSE,NA,123.6,123.6,123.6,0,3,0,0,5,2666.6,666.66,,Idle,0,20,FALSE,5,TRUE,8,Go Home,FALSE,FALSE,FALSE,FALSE,FALSE,FALSE,FALSE,FALSE,FALSE,FALSE,FALSE,FALSE,6.974665741,79.9147898,3.7,103.5,328,TRUE,1,1,FALSE,FALSE,FALSE,FALSE,,TRUE,FALSE,FALSE,Course Lock,246,303.7,16.4,Calm,23,,1.12.8,Mavic Mini,1SDCH7G0169R0K,1SFLH6Q0AB03DJ,1SRCH7F014TAHX,1U5X071EXP5ZJG,55,0,6.5,0.223694,3.131716,0,0,Mavic Mini,1SDCH7G0169R0K,1SFLH6Q0AB03DJ,1SRCH7F014TAHX,1U5X071EXP5ZJG,DJI Fly,,1.12.8,2C225ECE-A718-33F6-996D-7313ACF8CE32,1SDCH7G0169R0K,,,,,6.974677853,79.91478774,10,,
2/13/2024,39:47.2,13m 17.5s,797.5,6.974656672,79.91479461,0,0,0.3,68,0.3,0,0,0,0,0,0,0,0,3.1,2.6,-172.5,187.5,,Manual Takeoff,Auto Landing,Takeoff (RC Assisted),9,4,TRUE,,Mavic Mini,TRUE,FALSE,,Smart,RC,TRUE,TRUE,FALSE,,,TRUE,,FALSE,FALSE,FALSE,FALSE,FALSE,FALSE,FALSE,FALSE,FALSE,FALSE,0,Follow Yaw,0,0,-171.1,188.9,FALSE,FALSE,FALSE,FALSE,FALSE,FALSE,,TRUE,Normal,,100,1024,1024,1024,1024,2,FALSE,FALSE,FALSE,FALSE,FALSE,0,FALSE,FALSE,FALSE,FALSE,40,7.327,824,2054,7.337,FALSE,3.665,3.662,0.004,FALSE,FALSE,NA,123.6,123.6,123.6,0,3,0,0,5,2666.6,666.66,,Idle,0,20,FALSE,5,TRUE,8,Go Home,FALSE,FALSE,FALSE,FALSE,FALSE,FALSE,FALSE,FALSE,FALSE,FALSE,FALSE,FALSE,6.974665741,79.9147898,3.7,103.5,328,TRUE,1,1,FALSE,FALSE,FALSE,FALSE,,TRUE,FALSE,FALSE,Course Lock,246,303.7,16.4,Calm,23,,1.12.8,Mavic Mini,1SDCH7G0169R0K,1SFLH6Q0AB03DJ,1SRCH7F014TAHX,1U5X071EXP5ZJG,55,0,6.5,0.223694,3.131716,0,0,Mavic Mini,1SDCH7G0169R0K,1SFLH6Q0AB03DJ,1SRCH7F014TAHX,1U5X071EXP5ZJG,DJI Fly,,1.12.8,2C225ECE-A718-33F6-996D-7313ACF8CE32,1SDCH7G0169R0K,,,,,6.974677853,79.91478774,10,,
2/13/2024,39:47.3,13m 17.6s,797.6,6.97465669,79.91479454,0,0,0.3,68,0.3,0,0,0,0,0,0,0,0,3.1,2.6,-172.5,187.5,,Manual Takeoff,Auto Landing,Takeoff (RC Assisted),9,4,TRUE,,Mavic Mini,TRUE,FALSE,,Smart,RC,TRUE,TRUE,FALSE,,,TRUE,,FALSE,FALSE,FALSE,FALSE,FALSE,FALSE,FALSE,FALSE,FALSE,FALSE,0,Follow Yaw,0,0,-171.1,188.9,FALSE,FALSE,FALSE,FALSE,FALSE,FALSE,,TRUE,Normal,,100,1024,1024,1024,1024,2,FALSE,FALSE,FALSE,FALSE,FALSE,0,FALSE,FALSE,FALSE,FALSE,40,7.327,824,2054,7.337,FALSE,3.665,3.662,0.004,FALSE,FALSE,NA,123.6,123.6,123.6,0,3,0,0,5,2666.6,666.66,,Idle,0,20,FALSE,5,TRUE,8,Go Home,FALSE,FALSE,FALSE,FALSE,FALSE,FALSE,FALSE,FALSE,FALSE,FALSE,FALSE,FALSE,6.974665741,79.9147898,3.7,103.5,328,TRUE,1,1,FALSE,FALSE,FALSE,FALSE,,TRUE,FALSE,FALSE,Course Lock,246,303.7,16.4,Calm,23,,1.12.8,Mavic Mini,1SDCH7G0169R0K,1SFLH6Q0AB03DJ,1SRCH7F014TAHX,1U5X071EXP5ZJG,55,0,6.5,0.223694,3.131716,0,0,Mavic Mini,1SDCH7G0169R0K,1SFLH6Q0AB03DJ,1SRCH7F014TAHX,1U5X071EXP5ZJG,DJI Fly,,1.12.8,2C225ECE-A718-33F6-996D-7313ACF8CE32,1SDCH7G0169R0K,,,,,6.974677853,79.91478774,10,,
2/13/2024,39:47.4,13m 17.7s,797.7,6.974656686,79.9147945,0,0,0.3,68,0.4,0,0,0,0,0,0,0,0,3.1,2.6,-172.6,187.4,,Manual Takeoff,Auto Landing,Takeoff (RC Assisted),9,4,TRUE,,Mavic Mini,TRUE,FALSE,,Smart,RC,TRUE,TRUE,FALSE,,,TRUE,,FALSE,FALSE,FALSE,FALSE,FALSE,FALSE,FALSE,FALSE,FALSE,FALSE,0,Follow Yaw,0,0,-171.1,188.9,FALSE,FALSE,FALSE,FALSE,FALSE,FALSE,,TRUE,Normal,,100,1024,1024,1024,1024,2,FALSE,FALSE,FALSE,FALSE,FALSE,0,FALSE,FALSE,FALSE,FALSE,40,7.327,824,2054,7.329,FALSE,3.665,3.662,0.004,FALSE,FALSE,NA,123.6,123.6,123.6,0,3,0,0,5,2715.3,678.82,,Idle,0,20,FALSE,5,TRUE,8,Go Home,FALSE,FALSE,FALSE,FALSE,FALSE,FALSE,FALSE,FALSE,FALSE,FALSE,FALSE,FALSE,6.974665741,79.9147898,3.7,103.5,328,TRUE,1,1,FALSE,FALSE,FALSE,FALSE,,TRUE,FALSE,FALSE,Course Lock,246,303.7,16.4,Calm,23,,1.12.8,Mavic Mini,1SDCH7G0169R0K,1SFLH6Q0AB03DJ,1SRCH7F014TAHX,1U5X071EXP5ZJG,55,0,6.5,0.223694,3.131716,0,0,Mavic Mini,1SDCH7G0169R0K,1SFLH6Q0AB03DJ,1SRCH7F014TAHX,1U5X071EXP5ZJG,DJI Fly,,1.12.8,2C225ECE-A718-33F6-996D-7313ACF8CE32,1SDCH7G0169R0K,,,,,6.974677853,79.91478774,10,,
2/13/2024,39:47.6,13m 17.8s,797.8,6.974656659,79.91479448,0,0,0.3,68,0.4,0,0,0,0,0,0,0,0,3.1,2.6,-172.5,187.5,,Manual Takeoff,Auto Landing,Takeoff (RC Assisted),9,4,TRUE,,Mavic Mini,TRUE,FALSE,,Smart,RC,TRUE,TRUE,FALSE,,,TRUE,,FALSE,FALSE,FALSE,FALSE,FALSE,FALSE,FALSE,FALSE,FALSE,FALSE,0,Follow Yaw,0,0,-171.1,188.9,FALSE,FALSE,FALSE,FALSE,FALSE,FALSE,,TRUE,Normal,,100,1024,1024,1024,1024,2,FALSE,FALSE,FALSE,FALSE,FALSE,0,FALSE,FALSE,FALSE,FALSE,40,7.327,824,2054,7.329,FALSE,3.665,3.662,0.004,FALSE,FALSE,NA,123.6,123.6,123.6,0,3,0,0,5,2715.3,678.82,,Idle,0,20,FALSE,5,TRUE,8,Go Home,FALSE,FALSE,FALSE,FALSE,FALSE,FALSE,FALSE,FALSE,FALSE,FALSE,FALSE,FALSE,6.974665741,79.9147898,3.7,103.5,328,TRUE,1,1,FALSE,FALSE,FALSE,FALSE,,TRUE,FALSE,FALSE,Course Lock,246,303.7,16.4,Calm,23,,1.12.8,Mavic Mini,1SDCH7G0169R0K,1SFLH6Q0AB03DJ,1SRCH7F014TAHX,1U5X071EXP5ZJG,55,0,6.5,0.223694,3.131716,0,0,Mavic Mini,1SDCH7G0169R0K,1SFLH6Q0AB03DJ,1SRCH7F014TAHX,1U5X071EXP5ZJG,DJI Fly,,1.12.8,2C225ECE-A718-33F6-996D-7313ACF8CE32,1SDCH7G0169R0K,,,,,6.974677853,79.91478774,10,,
2/13/2024,39:47.7,13m 17.9s,797.9,6.974656622,79.91479446,0,0,0.3,68,0.4,0,0,0,0,0,0,0,0,3.1,2.6,-172.5,187.5,,Manual Takeoff,Auto Landing,Takeoff (RC Assisted),10,4,TRUE,,Mavic Mini,TRUE,FALSE,,Smart,RC,TRUE,TRUE,FALSE,,,TRUE,,FALSE,FALSE,FALSE,FALSE,FALSE,FALSE,FALSE,FALSE,FALSE,FALSE,0,Follow Yaw,0,0,-171.1,188.9,FALSE,FALSE,FALSE,FALSE,FALSE,FALSE,,TRUE,Normal,,100,1024,1024,1024,1024,2,FALSE,FALSE,FALSE,FALSE,FALSE,0,FALSE,FALSE,FALSE,FALSE,40,7.327,824,2054,7.329,FALSE,3.665,3.662,0.004,FALSE,FALSE,NA,123.6,123.6,123.6,0,3,0,0,5,2715.3,678.82,,Idle,0,20,FALSE,5,TRUE,8,Go Home,FALSE,FALSE,FALSE,FALSE,FALSE,FALSE,FALSE,FALSE,FALSE,FALSE,FALSE,FALSE,6.974665741,79.9147898,3.7,103.5,328,TRUE,1,1,FALSE,FALSE,FALSE,FALSE,,TRUE,FALSE,FALSE,Course Lock,246,303.7,16.4,Calm,23,,1.12.8,Mavic Mini,1SDCH7G0169R0K,1SFLH6Q0AB03DJ,1SRCH7F014TAHX,1U5X071EXP5ZJG,55,0,6.5,0.223694,3.131716,0,0,Mavic Mini,1SDCH7G0169R0K,1SFLH6Q0AB03DJ,1SRCH7F014TAHX,1U5X071EXP5ZJG,DJI Fly,,1.12.8,2C225ECE-A718-33F6-996D-7313ACF8CE32,1SDCH7G0169R0K,,,,,6.974677853,79.91478774,10,,
2/13/2024,39:47.8,13m 18.0s,798,6.974656535,79.91479453,0,0,0.3,68,0.4,0,0,0,0,0,0,0,0,3.1,2.7,-172.5,187.5,,Manual Takeoff,Auto Landing,Takeoff (RC Assisted),10,4,TRUE,,Mavic Mini,TRUE,FALSE,,Smart,RC,TRUE,TRUE,FALSE,,,TRUE,,FALSE,FALSE,FALSE,FALSE,FALSE,FALSE,FALSE,FALSE,FALSE,FALSE,0,Follow Yaw,0,0,-171.1,188.9,FALSE,FALSE,FALSE,FALSE,FALSE,FALSE,,TRUE,Normal,,100,1024,1024,1024,1024,2,FALSE,FALSE,FALSE,FALSE,FALSE,0,FALSE,FALSE,FALSE,FALSE,40,7.324,824,2054,7.329,FALSE,3.663,3.661,0.004,FALSE,FALSE,NA,123.6,123.6,123.6,0,3,0,0,5,2715.3,678.82,,Idle,0,20,FALSE,5,TRUE,8,Go Home,FALSE,FALSE,FALSE,FALSE,FALSE,FALSE,FALSE,FALSE,FALSE,FALSE,FALSE,FALSE,6.974665741,79.9147898,3.7,103.5,328,TRUE,1,1,FALSE,FALSE,FALSE,FALSE,,TRUE,FALSE,FALSE,Course Lock,246,303.7,16.4,Calm,23,,1.12.8,Mavic Mini,1SDCH7G0169R0K,1SFLH6Q0AB03DJ,1SRCH7F014TAHX,1U5X071EXP5ZJG,55,0,6.5,0.223694,3.131716,0,0,Mavic Mini,1SDCH7G0169R0K,1SFLH6Q0AB03DJ,1SRCH7F014TAHX,1U5X071EXP5ZJG,DJI Fly,,1.12.8,2C225ECE-A718-33F6-996D-7313ACF8CE32,1SDCH7G0169R0K,,,,,6.974677853,79.91478774,10,,
2/13/2024,39:47.9,13m 18.1s,798.1,6.974656483,79.91479457,0,0,0.3,68,0.5,0,0,0,0,0,0,0,0,3.1,2.7,-172.5,187.5,,Manual Takeoff,Auto Landing,Takeoff (RC Assisted),11,4,TRUE,,Mavic Mini,TRUE,FALSE,,Smart,RC,TRUE,TRUE,FALSE,,,TRUE,,FALSE,FALSE,FALSE,FALSE,FALSE,FALSE,FALSE,FALSE,FALSE,FALSE,0,Follow Yaw,0,0,-171.1,188.9,FALSE,FALSE,FALSE,FALSE,FALSE,FALSE,,TRUE,Normal,,100,1024,1024,1024,1024,2,FALSE,FALSE,FALSE,FALSE,FALSE,0,FALSE,FALSE,FALSE,FALSE,40,7.324,824,2054,7.329,FALSE,3.663,3.661,0.004,FALSE,FALSE,NA,123.6,123.6,123.6,0,3,0,0,5,2715.3,678.82,,Idle,0,20,FALSE,5,TRUE,8,Go Home,FALSE,FALSE,FALSE,FALSE,FALSE,FALSE,FALSE,FALSE,FALSE,FALSE,FALSE,FALSE,6.974665741,79.9147898,3.7,103.5,328,TRUE,1,1,FALSE,FALSE,FALSE,FALSE,,TRUE,FALSE,FALSE,Course Lock,246,303.7,16.4,Calm,23,,1.12.8,Mavic Mini,1SDCH7G0169R0K,1SFLH6Q0AB03DJ,1SRCH7F014TAHX,1U5X071EXP5ZJG,55,0,6.5,0.223694,3.131716,0,0,Mavic Mini,1SDCH7G0169R0K,1SFLH6Q0AB03DJ,1SRCH7F014TAHX,1U5X071EXP5ZJG,DJI Fly,,1.12.8,2C225ECE-A718-33F6-996D-7313ACF8CE32,1SDCH7G0169R0K,,,,,6.974677853,79.91478774,10,,
2/13/2024,39:48.0,13m 18.2s,798.2,6.974656469,79.91479456,0,0,0.3,68,0.5,0,0,0,0,0,0,0,0,3.1,2.6,-172.5,187.5,,Manual Takeoff,Auto Landing,Takeoff (RC Assisted),11,4,TRUE,,Mavic Mini,TRUE,FALSE,,Smart,RC,TRUE,TRUE,FALSE,,,TRUE,,FALSE,FALSE,FALSE,FALSE,FALSE,FALSE,FALSE,FALSE,FALSE,FALSE,0,Follow Yaw,0,0,-171.1,188.9,FALSE,FALSE,FALSE,FALSE,FALSE,FALSE,,TRUE,Normal,,100,1024,1024,1024,1024,2,FALSE,FALSE,FALSE,FALSE,FALSE,0,FALSE,FALSE,FALSE,FALSE,40,7.324,824,2054,7.329,FALSE,3.663,3.661,0.004,FALSE,FALSE,NA,123.6,123.6,123.6,0,3,0,0,5,2715.3,678.82,,Idle,0,20,FALSE,5,TRUE,8,Go Home,FALSE,FALSE,FALSE,FALSE,FALSE,FALSE,FALSE,FALSE,FALSE,FALSE,FALSE,FALSE,6.974665741,79.9147898,3.7,103.5,328,TRUE,1,1,FALSE,FALSE,FALSE,FALSE,,TRUE,FALSE,FALSE,Course Lock,246,303.7,16.4,Calm,23,,1.12.8,Mavic Mini,1SDCH7G0169R0K,1SFLH6Q0AB03DJ,1SRCH7F014TAHX,1U5X071EXP5ZJG,55,0,6.5,0.223694,3.131716,0,0,Mavic Mini,1SDCH7G0169R0K,1SFLH6Q0AB03DJ,1SRCH7F014TAHX,1U5X071EXP5ZJG,DJI Fly,,1.12.8,2C225ECE-A718-33F6-996D-7313ACF8CE32,1SDCH7G0169R0K,,,,,6.974677853,79.91478774,10,,
2/13/2024,39:48.1,13m 18.3s,798.3,6.974656464,79.91479452,0,0,0.3,68,0.5,0,0,0,0,0,0,0,0,3.1,2.6,-172.5,187.5,,Manual Takeoff,Auto Landing,Takeoff (RC Assisted),11,4,TRUE,,Mavic Mini,TRUE,FALSE,,Smart,RC,TRUE,TRUE,FALSE,,,TRUE,,FALSE,FALSE,FALSE,FALSE,FALSE,FALSE,FALSE,FALSE,FALSE,FALSE,0,Follow Yaw,0,0,-171.1,188.9,FALSE,FALSE,FALSE,FALSE,FALSE,FALSE,,TRUE,Normal,,100,1024,1024,1024,1024,2,FALSE,FALSE,FALSE,FALSE,FALSE,0,FALSE,FALSE,FALSE,FALSE,40,7.324,824,2054,7.329,FALSE,3.663,3.661,0.004,FALSE,FALSE,NA,123.6,123.6,123.6,0,3,0,0,5,2715.3,678.82,,Idle,0,20,FALSE,5,TRUE,8,Go Home,FALSE,FALSE,FALSE,FALSE,FALSE,FALSE,FALSE,FALSE,FALSE,FALSE,FALSE,FALSE,6.974665741,79.9147898,3.7,103.5,328,TRUE,1,1,FALSE,FALSE,FALSE,FALSE,,TRUE,FALSE,FALSE,Course Lock,246,303.7,16.4,Calm,23,,1.12.8,Mavic Mini,1SDCH7G0169R0K,1SFLH6Q0AB03DJ,1SRCH7F014TAHX,1U5X071EXP5ZJG,55,0,6.5,0.223694,3.131716,0,0,Mavic Mini,1SDCH7G0169R0K,1SFLH6Q0AB03DJ,1SRCH7F014TAHX,1U5X071EXP5ZJG,DJI Fly,,1.12.8,2C225ECE-A718-33F6-996D-7313ACF8CE32,1SDCH7G0169R0K,,,,,6.974677853,79.91478774,10,,
2/13/2024,39:48.2,13m 18.4s,798.4,6.974656436,79.9147945,0,0,0.3,68,0.5,0,0,0,0,0,0,0,0,3.1,2.7,-172.5,187.5,,Manual Takeoff,Auto Landing,Takeoff (RC Assisted),11,4,TRUE,,Mavic Mini,TRUE,FALSE,,Smart,RC,TRUE,TRUE,FALSE,,,TRUE,,FALSE,FALSE,FALSE,FALSE,FALSE,FALSE,FALSE,FALSE,FALSE,FALSE,0,Follow Yaw,0,0,-171.1,188.9,FALSE,FALSE,FALSE,FALSE,FALSE,FALSE,,TRUE,Normal,,100,1024,1024,1086,1024,2,FALSE,FALSE,FALSE,FALSE,FALSE,0,FALSE,FALSE,FALSE,FALSE,40,7.324,824,2054,7.329,FALSE,3.663,3.661,0.004,FALSE,FALSE,NA,123.6,123.6,123.6,0,3,0,0,5,2715.3,678.82,,Idle,0,20,FALSE,5,TRUE,8,Go Home,FALSE,FALSE,FALSE,FALSE,FALSE,FALSE,FALSE,FALSE,FALSE,FALSE,FALSE,FALSE,6.974665741,79.9147898,3.7,103.5,328,TRUE,1,1,FALSE,FALSE,FALSE,FALSE,,TRUE,FALSE,FALSE,Course Lock,246,303.7,16.4,Calm,23,,1.12.8,Mavic Mini,1SDCH7G0169R0K,1SFLH6Q0AB03DJ,1SRCH7F014TAHX,1U5X071EXP5ZJG,55,0,6.5,0.223694,3.131716,0,0,Mavic Mini,1SDCH7G0169R0K,1SFLH6Q0AB03DJ,1SRCH7F014TAHX,1U5X071EXP5ZJG,DJI Fly,,1.12.8,2C225ECE-A718-33F6-996D-7313ACF8CE32,1SDCH7G0169R0K,,,,,6.974677853,79.91478774,10,,
2/13/2024,39:48.2,13m 18.5s,798.5,6.974656421,79.9147944,0,0,0.3,68,0.5,0,0,0,0,0,0,0,0,3.1,2.7,-172.6,187.4,,Manual Takeoff,Auto Landing,Takeoff (RC Assisted),9,4,TRUE,,Mavic Mini,TRUE,FALSE,,Smart,RC,TRUE,TRUE,FALSE,,,TRUE,,FALSE,FALSE,FALSE,FALSE,FALSE,FALSE,FALSE,FALSE,FALSE,FALSE,0,Follow Yaw,0,0,-171.1,188.9,FALSE,FALSE,FALSE,FALSE,FALSE,FALSE,,TRUE,Normal,,100,1024,1024,1381,1024,2,FALSE,FALSE,FALSE,FALSE,FALSE,0,FALSE,FALSE,FALSE,FALSE,40,7.324,824,2054,7.329,FALSE,3.663,3.661,0.004,FALSE,FALSE,NA,123.6,123.6,123.6,0,3,0,0,5,2715.3,678.82,,Idle,0,20,FALSE,5,TRUE,8,Go Home,FALSE,FALSE,FALSE,FALSE,FALSE,FALSE,FALSE,FALSE,FALSE,FALSE,FALSE,FALSE,6.974665741,79.9147898,3.7,103.5,328,TRUE,1,1,FALSE,FALSE,FALSE,FALSE,,TRUE,FALSE,FALSE,Course Lock,246,303.7,16.4,Calm,23,,1.12.8,Mavic Mini,1SDCH7G0169R0K,1SFLH6Q0AB03DJ,1SRCH7F014TAHX,1U5X071EXP5ZJG,55,0,6.5,0.223694,3.131716,0,0,Mavic Mini,1SDCH7G0169R0K,1SFLH6Q0AB03DJ,1SRCH7F014TAHX,1U5X071EXP5ZJG,DJI Fly,,1.12.8,2C225ECE-A718-33F6-996D-7313ACF8CE32,1SDCH7G0169R0K,,,,,6.974677853,79.91478774,10,,
2/13/2024,39:48.3,13m 18.6s,798.6,6.974656368,79.91479439,0,0,0.3,68,0.5,0,0,0,0,0,0,0,0,3.1,2.6,-172.6,187.4,,Manual Takeoff,Auto Landing,Takeoff (RC Assisted),9,4,TRUE,,Mavic Mini,TRUE,FALSE,,Smart,RC,TRUE,TRUE,FALSE,,,TRUE,,FALSE,FALSE,FALSE,FALSE,FALSE,FALSE,FALSE,FALSE,FALSE,FALSE,0,Follow Yaw,0,0,-171.1,188.9,FALSE,FALSE,FALSE,FALSE,FALSE,FALSE,,TRUE,Normal,,100,1024,1024,1572,1024,2,FALSE,FALSE,FALSE,FALSE,FALSE,0,FALSE,FALSE,FALSE,FALSE,40,7.324,824,2054,7.329,FALSE,3.663,3.661,0.004,FALSE,FALSE,NA,123.6,123.6,123.6,0,3,0,0,5,2715.3,678.82,,Idle,0,20,FALSE,5,TRUE,8,Go Home,FALSE,FALSE,FALSE,FALSE,FALSE,FALSE,FALSE,FALSE,FALSE,FALSE,FALSE,FALSE,6.974665741,79.9147898,3.8,103.5,328,TRUE,1,1,FALSE,FALSE,FALSE,FALSE,,TRUE,FALSE,FALSE,Course Lock,246,303.7,16.4,Calm,23,,1.12.8,Mavic Mini,1SDCH7G0169R0K,1SFLH6Q0AB03DJ,1SRCH7F014TAHX,1U5X071EXP5ZJG,55,0,6.5,0.223694,3.131716,0,0,Mavic Mini,1SDCH7G0169R0K,1SFLH6Q0AB03DJ,1SRCH7F014TAHX,1U5X071EXP5ZJG,DJI Fly,,1.12.8,2C225ECE-A718-33F6-996D-7313ACF8CE32,1SDCH7G0169R0K,,,,,6.974677853,79.91478774,10,,
2/13/2024,39:48.4,13m 18.7s,798.7,6.974656308,79.9147944,0,0,0.3,68,0.6,0,0,0,0,0,0,0,0,2.7,1.4,-172.6,187.4,,Manual Takeoff,Auto Landing,Takeoff (RC Assisted),9,4,TRUE,,Mavic Mini,TRUE,FALSE,,Smart,RC,TRUE,TRUE,FALSE,,,TRUE,,FALSE,FALSE,FALSE,FALSE,FALSE,FALSE,FALSE,FALSE,FALSE,FALSE,0,Follow Yaw,0,0,-171.1,188.9,FALSE,FALSE,FALSE,FALSE,FALSE,FALSE,,TRUE,Normal,,100,1024,1024,1582,1024,2,FALSE,FALSE,FALSE,FALSE,FALSE,0,FALSE,FALSE,FALSE,FALSE,40,7.324,824,2054,7.325,FALSE,3.663,3.661,0.004,FALSE,FALSE,NA,123.6,123.6,123.6,0,3,0,0,5,2847,711.76,,Idle,0,20,FALSE,5,TRUE,8,Go Home,FALSE,FALSE,FALSE,FALSE,FALSE,FALSE,FALSE,FALSE,FALSE,FALSE,FALSE,FALSE,6.974665741,79.9147898,3.8,103.5,328,TRUE,1,1,FALSE,FALSE,FALSE,FALSE,,TRUE,FALSE,FALSE,Course Lock,246,303.7,16.4,Calm,23,,1.12.8,Mavic Mini,1SDCH7G0169R0K,1SFLH6Q0AB03DJ,1SRCH7F014TAHX,1U5X071EXP5ZJG,55,0,6.5,0.223694,3.131716,0,0,Mavic Mini,1SDCH7G0169R0K,1SFLH6Q0AB03DJ,1SRCH7F014TAHX,1U5X071EXP5ZJG,DJI Fly,,1.12.8,2C225ECE-A718-33F6-996D-7313ACF8CE32,1SDCH7G0169R0K,,,,,6.974677853,79.91478774,10,,
2/13/2024,39:48.5,13m 18.8s,798.8,6.974656283,79.91479445,0,0,0.3,68,0.6,0,0,0,0,0,0,0,0,2.6,0.7,-172.7,187.3,,Manual Takeoff,Auto Landing,Takeoff (RC Assisted),9,4,TRUE,,Mavic Mini,TRUE,FALSE,,Smart,RC,TRUE,TRUE,FALSE,,,TRUE,,FALSE,FALSE,FALSE,FALSE,FALSE,FALSE,FALSE,FALSE,FALSE,FALSE,0,Follow Yaw,0,0,-171.1,188.9,FALSE,FALSE,FALSE,FALSE,FALSE,FALSE,,TRUE,Normal,,100,1024,1024,1591,1024,2,FALSE,FALSE,FALSE,FALSE,FALSE,0,FALSE,FALSE,FALSE,FALSE,40,7.324,824,2054,7.325,FALSE,3.663,3.661,0.004,FALSE,FALSE,NA,123.6,123.6,123.6,0,3,0,0,5,2847,711.76,,Idle,0,20,FALSE,5,TRUE,8,Go Home,FALSE,FALSE,FALSE,FALSE,FALSE,FALSE,FALSE,FALSE,FALSE,FALSE,FALSE,FALSE,6.974665741,79.9147898,3.8,103.5,328,TRUE,1,1,FALSE,FALSE,FALSE,FALSE,,TRUE,FALSE,FALSE,Course Lock,246,303.7,16.4,Calm,23,,1.12.8,Mavic Mini,1SDCH7G0169R0K,1SFLH6Q0AB03DJ,1SRCH7F014TAHX,1U5X071EXP5ZJG,55,0,6.5,0.223694,3.131716,0,0,Mavic Mini,1SDCH7G0169R0K,1SFLH6Q0AB03DJ,1SRCH7F014TAHX,1U5X071EXP5ZJG,DJI Fly,,1.12.8,2C225ECE-A718-33F6-996D-7313ACF8CE32,1SDCH7G0169R0K,,,,,6.974677853,79.91478774,10,,
2/13/2024,39:48.6,13m 18.9s,798.9,6.974656289,79.91479462,0,0,0.3,68,0.7,0,0,0,0,0,0,0,0,2.6,0.5,-172.7,187.3,,Manual Takeoff,Auto Landing,Takeoff (RC Assisted),9,4,TRUE,,Mavic Mini,TRUE,FALSE,,Smart,RC,TRUE,TRUE,FALSE,,,TRUE,,FALSE,FALSE,FALSE,FALSE,FALSE,FALSE,FALSE,FALSE,FALSE,FALSE,0,Follow Yaw,0,0,-171.1,188.9,FALSE,FALSE,FALSE,FALSE,FALSE,FALSE,,TRUE,Normal,,100,1024,1024,1592,1024,2,FALSE,FALSE,FALSE,FALSE,FALSE,0,FALSE,FALSE,FALSE,FALSE,40,7.324,824,2054,7.325,FALSE,3.663,3.661,0.004,FALSE,FALSE,NA,123.6,123.6,123.6,0,3,0,0,5,2847,711.76,,Idle,0,20,FALSE,5,TRUE,8,Go Home,FALSE,FALSE,FALSE,FALSE,FALSE,FALSE,FALSE,FALSE,FALSE,FALSE,FALSE,FALSE,6.974665741,79.9147898,3.8,103.5,328,TRUE,1,1,FALSE,FALSE,FALSE,FALSE,,TRUE,FALSE,FALSE,Course Lock,246,303.7,16.4,Calm,23,,1.12.8,Mavic Mini,1SDCH7G0169R0K,1SFLH6Q0AB03DJ,1SRCH7F014TAHX,1U5X071EXP5ZJG,55,0,6.5,0.223694,3.131716,0,0,Mavic Mini,1SDCH7G0169R0K,1SFLH6Q0AB03DJ,1SRCH7F014TAHX,1U5X071EXP5ZJG,DJI Fly,,1.12.8,2C225ECE-A718-33F6-996D-7313ACF8CE32,1SDCH7G0169R0K,,,,,6.974677853,79.91478774,10,,
2/13/2024,39:48.7,13m 19.0s,799,6.974656254,79.91479466,0,0,0.3,68,0.7,0,0,0,0,0,0,0,0,2.6,0.3,-173.4,186.6,,Manual Takeoff,Auto Landing,Takeoff (RC Assisted),9,4,TRUE,,Mavic Mini,TRUE,FALSE,,Smart,RC,TRUE,TRUE,FALSE,,,TRUE,,FALSE,FALSE,FALSE,FALSE,FALSE,FALSE,FALSE,FALSE,FALSE,FALSE,0,Follow Yaw,0,0,-171.2,188.8,FALSE,FALSE,FALSE,FALSE,FALSE,FALSE,,TRUE,Normal,,100,1024,1024,1591,1024,2,FALSE,FALSE,FALSE,FALSE,FALSE,0,FALSE,FALSE,FALSE,FALSE,40,7.324,824,2054,7.325,FALSE,3.663,3.661,0.004,FALSE,FALSE,NA,123.6,123.6,123.6,0,3,0,0,5,2847,711.76,,Idle,0,20,FALSE,5,TRUE,8,Go Home,FALSE,FALSE,FALSE,FALSE,FALSE,FALSE,FALSE,FALSE,FALSE,FALSE,FALSE,FALSE,6.974665741,79.9147898,3.8,103.5,328,TRUE,1,1,FALSE,FALSE,FALSE,FALSE,,TRUE,FALSE,FALSE,Course Lock,246,303.7,16.4,Calm,23,,1.12.8,Mavic Mini,1SDCH7G0169R0K,1SFLH6Q0AB03DJ,1SRCH7F014TAHX,1U5X071EXP5ZJG,55,0,6.5,0.223694,3.131716,0,0,Mavic Mini,1SDCH7G0169R0K,1SFLH6Q0AB03DJ,1SRCH7F014TAHX,1U5X071EXP5ZJG,DJI Fly,,1.12.8,2C225ECE-A718-33F6-996D-7313ACF8CE32,1SDCH7G0169R0K,,,,,6.974677853,79.91478774,10,,
2/13/2024,39:48.8,13m 19.1s,799.1,6.974656212,79.91479469,0,0,0.3,68,0.7,0,0,0,0,0,0,0,0,2.5,-0.1,-174.3,185.7,,Manual Takeoff,Auto Landing,Takeoff (RC Assisted),9,4,TRUE,,Mavic Mini,TRUE,FALSE,,Smart,RC,TRUE,TRUE,FALSE,,,TRUE,,FALSE,FALSE,FALSE,FALSE,FALSE,FALSE,FALSE,FALSE,FALSE,FALSE,0,Follow Yaw,0,0,-171.5,188.5,FALSE,FALSE,FALSE,FALSE,FALSE,FALSE,,TRUE,Normal,,100,1024,1024,1591,1024,2,FALSE,FALSE,FALSE,FALSE,FALSE,0,FALSE,FALSE,FALSE,FALSE,40,7.324,824,2054,7.325,FALSE,3.663,3.661,0.004,FALSE,FALSE,NA,123.6,123.6,123.6,0,3,0,0,5,2847,711.76,,Idle,0,20,FALSE,5,TRUE,8,Go Home,FALSE,FALSE,FALSE,FALSE,FALSE,FALSE,FALSE,FALSE,FALSE,FALSE,FALSE,FALSE,6.974665741,79.9147898,3.9,103.5,328,TRUE,1,1,FALSE,FALSE,FALSE,FALSE,,TRUE,FALSE,FALSE,Course Lock,246,303.7,16.4,Calm,23,,1.12.8,Mavic Mini,1SDCH7G0169R0K,1SFLH6Q0AB03DJ,1SRCH7F014TAHX,1U5X071EXP5ZJG,55,0,6.5,0.223694,3.131716,0,0,Mavic Mini,1SDCH7G0169R0K,1SFLH6Q0AB03DJ,1SRCH7F014TAHX,1U5X071EXP5ZJG,DJI Fly,,1.12.8,2C225ECE-A718-33F6-996D-7313ACF8CE32,1SDCH7G0169R0K,,,,,6.974677853,79.91478774,10,,
2/13/2024,39:48.9,13m 19.2s,799.2,6.97465616,79.91479471,0,0,0.3,68,0.7,0,0,0,0,0,0,0,0,1.4,-0.8,-175.4,184.6,,Manual Takeoff,Auto Landing,Takeoff (RC Assisted),9,4,TRUE,,Mavic Mini,TRUE,FALSE,,Smart,RC,TRUE,TRUE,FALSE,,,TRUE,,FALSE,FALSE,FALSE,FALSE,FALSE,FALSE,FALSE,FALSE,FALSE,FALSE,0,Follow Yaw,0,0,-172.2,187.8,FALSE,FALSE,FALSE,FALSE,FALSE,FALSE,,TRUE,Normal,,100,1024,1024,1591,1024,2,FALSE,FALSE,FALSE,FALSE,FALSE,0,FALSE,FALSE,FALSE,FALSE,40,7.275,823,2054,7.325,FALSE,3.641,3.634,0.007,FALSE,FALSE,NA,123.6,123.6,123.6,0,3,0,0,5,2847,711.76,,Idle,0,20,FALSE,5,TRUE,8,Go Home,FALSE,FALSE,FALSE,FALSE,FALSE,FALSE,FALSE,FALSE,FALSE,FALSE,FALSE,FALSE,6.974665741,79.9147898,3.9,103.5,328,TRUE,1,1,FALSE,FALSE,FALSE,FALSE,,TRUE,FALSE,FALSE,Course Lock,246,303.7,16.4,Calm,23,,1.12.8,Mavic Mini,1SDCH7G0169R0K,1SFLH6Q0AB03DJ,1SRCH7F014TAHX,1U5X071EXP5ZJG,55,0,6.5,0.223694,3.131716,0,0,Mavic Mini,1SDCH7G0169R0K,1SFLH6Q0AB03DJ,1SRCH7F014TAHX,1U5X071EXP5ZJG,DJI Fly,,1.12.8,2C225ECE-A718-33F6-996D-7313ACF8CE32,1SDCH7G0169R0K,,,,,6.974677853,79.91478774,10,,
2/13/2024,39:49.1,13m 19.3s,799.3,6.974656048,79.91479468,0,0,0.3,68,0.8,0,0,0,0,0,0,0,0,-0.8,-1.8,-176.3,183.7,,Manual Takeoff,Auto Landing,Takeoff (RC Assisted),9,4,TRUE,,Mavic Mini,TRUE,FALSE,,Smart,RC,TRUE,TRUE,FALSE,,,TRUE,,FALSE,FALSE,FALSE,FALSE,FALSE,FALSE,FALSE,FALSE,FALSE,FALSE,0,Follow Yaw,0,0,-173.1,186.9,FALSE,FALSE,FALSE,FALSE,FALSE,FALSE,,TRUE,Normal,,100,1024,1024,1586,1024,2,FALSE,FALSE,FALSE,FALSE,FALSE,0,FALSE,FALSE,FALSE,FALSE,40,7.275,823,2054,7.325,FALSE,3.641,3.634,0.007,FALSE,FALSE,NA,123.6,123.6,123.6,0,3,0,0,5,2847,711.76,,Idle,0,20,FALSE,5,TRUE,8,Go Home,FALSE,FALSE,FALSE,FALSE,FALSE,FALSE,FALSE,FALSE,FALSE,FALSE,FALSE,FALSE,6.974665741,79.9147898,3.9,103.5,328,TRUE,1,1,FALSE,FALSE,FALSE,FALSE,,TRUE,FALSE,FALSE,Course Lock,246,303.7,16.4,Calm,23,,1.12.8,Mavic Mini,1SDCH7G0169R0K,1SFLH6Q0AB03DJ,1SRCH7F014TAHX,1U5X071EXP5ZJG,55,0,6.5,0.223694,3.131716,0,0,Mavic Mini,1SDCH7G0169R0K,1SFLH6Q0AB03DJ,1SRCH7F014TAHX,1U5X071EXP5ZJG,DJI Fly,,1.12.8,2C225ECE-A718-33F6-996D-7313ACF8CE32,1SDCH7G0169R0K,,,,,6.974677853,79.91478774,10,,
2/13/2024,39:49.2,13m 19.4s,799.4,6.97465595,79.91479465,0,0,0.3,68,0.8,0,0,0,0,0,0,-0.223694,0,-1,-2.2,-177.3,182.7,,Manual Takeoff,Auto Landing,Takeoff (RC Assisted),9,4,TRUE,,Mavic Mini,TRUE,FALSE,,Smart,RC,FALSE,TRUE,FALSE,,,TRUE,,FALSE,FALSE,FALSE,FALSE,FALSE,FALSE,FALSE,FALSE,FALSE,FALSE,0,Follow Yaw,0,0,-173.9,186.1,FALSE,FALSE,FALSE,FALSE,FALSE,FALSE,,TRUE,Normal,,100,1024,1024,1586,1024,2,FALSE,FALSE,FALSE,FALSE,FALSE,0,FALSE,FALSE,FALSE,FALSE,40,7.275,823,2054,7.325,FALSE,3.641,3.634,0.007,FALSE,FALSE,NA,123.6,123.6,123.6,0,3,0,0,5,2847,711.76,,Idle,0,20,FALSE,5,TRUE,8,Go Home,FALSE,FALSE,FALSE,FALSE,FALSE,FALSE,FALSE,FALSE,FALSE,FALSE,FALSE,FALSE,6.974665741,79.9147898,3.9,103.5,328,TRUE,1,1,FALSE,FALSE,FALSE,FALSE,,TRUE,FALSE,FALSE,Course Lock,246,303.7,16.4,Calm,23,,1.12.8,Mavic Mini,1SDCH7G0169R0K,1SFLH6Q0AB03DJ,1SRCH7F014TAHX,1U5X071EXP5ZJG,55,0,6.5,0.223694,3.131716,0,0,Mavic Mini,1SDCH7G0169R0K,1SFLH6Q0AB03DJ,1SRCH7F014TAHX,1U5X071EXP5ZJG,DJI Fly,,1.12.8,2C225ECE-A718-33F6-996D-7313ACF8CE32,1SDCH7G0169R0K,,,,,6.974677853,79.91478774,10,,
2/13/2024,39:49.3,13m 19.5s,799.5,6.974655804,79.91479464,0,0,0.3,68,0.8,0.223694,0.223694,-0.223694,0,0,0,-0.447388,0,-0.6,-1.4,-177.5,182.5,184.3,Tripod,Auto Landing,,9,4,TRUE,,Mavic Mini,TRUE,FALSE,,Smart,RC,FALSE,TRUE,FALSE,,,TRUE,,FALSE,FALSE,FALSE,FALSE,FALSE,FALSE,FALSE,FALSE,FALSE,FALSE,0,Follow Yaw,0,0,-174.6,185.4,FALSE,FALSE,FALSE,FALSE,FALSE,FALSE,,TRUE,Normal,,100,1024,1024,1587,1024,2,FALSE,FALSE,FALSE,FALSE,FALSE,0,FALSE,FALSE,FALSE,FALSE,40,7.275,823,2054,7.325,FALSE,3.641,3.634,0.007,FALSE,FALSE,NA,123.6,123.6,123.6,0,3,0,0,5,2847,711.76,,Idle,0,20,FALSE,5,TRUE,8,Go Home,FALSE,FALSE,FALSE,FALSE,FALSE,FALSE,FALSE,FALSE,FALSE,FALSE,FALSE,FALSE,6.974665741,79.9147898,4,103.5,328,TRUE,1,1,FALSE,FALSE,FALSE,FALSE,,TRUE,FALSE,FALSE,Course Lock,246,303.7,16.4,Calm,23,,1.12.8,Mavic Mini,1SDCH7G0169R0K,1SFLH6Q0AB03DJ,1SRCH7F014TAHX,1U5X071EXP5ZJG,55,0,6.5,0.223694,3.131716,0,0,Mavic Mini,1SDCH7G0169R0K,1SFLH6Q0AB03DJ,1SRCH7F014TAHX,1U5X071EXP5ZJG,DJI Fly,,1.12.8,2C225ECE-A718-33F6-996D-7313ACF8CE32,1SDCH7G0169R0K,,,,,6.974677853,79.91478774,10,Flight mode changed to Tripod.,
2/13/2024,39:49.4,13m 19.6s,799.6,6.974655664,79.91479467,0,0,0.6,68,0.9,0.223694,0.223694,-0.223694,0,0,0,-0.894776,0,1.5,0,-177.5,182.5,170,Tripod,Auto Landing,,9,4,TRUE,,Mavic Mini,TRUE,FALSE,,Smart,RC,FALSE,TRUE,FALSE,,,TRUE,,FALSE,FALSE,FALSE,FALSE,FALSE,FALSE,FALSE,FALSE,FALSE,FALSE,0,Follow Yaw,0,0,-174.9,185.1,FALSE,FALSE,FALSE,FALSE,FALSE,FALSE,,TRUE,Normal,,100,1024,1024,1584,1024,2,FALSE,FALSE,FALSE,FALSE,FALSE,0,FALSE,FALSE,FALSE,FALSE,40,7.275,823,2054,7.325,FALSE,3.641,3.634,0.007,FALSE,FALSE,NA,123.6,123.6,123.6,0,3,0,0,5,2847,711.76,,Idle,0,20,FALSE,5,TRUE,8,Go Home,FALSE,FALSE,FALSE,FALSE,FALSE,FALSE,FALSE,FALSE,FALSE,FALSE,FALSE,FALSE,6.974665741,79.9147898,4,103.5,328,TRUE,1,1,FALSE,FALSE,FALSE,FALSE,,TRUE,FALSE,FALSE,Course Lock,246,303.7,16.4,Calm,23,,1.12.8,Mavic Mini,1SDCH7G0169R0K,1SFLH6Q0AB03DJ,1SRCH7F014TAHX,1U5X071EXP5ZJG,55,0,6.5,0.223694,3.131716,0,0,Mavic Mini,1SDCH7G0169R0K,1SFLH6Q0AB03DJ,1SRCH7F014TAHX,1U5X071EXP5ZJG,DJI Fly,,1.12.8,2C225ECE-A718-33F6-996D-7313ACF8CE32,1SDCH7G0169R0K,,,,,6.974677853,79.91478774,10,,
2/13/2024,39:49.4,13m 19.7s,799.7,6.974655552,79.91479457,0,0,0.6,68,0.9,0.223694,0.223694,-0.223694,0,0,0,-1.342164,0,2.3,0.2,-177.4,182.6,214.9,Tripod,Auto Landing,,9,4,TRUE,,Mavic Mini,TRUE,FALSE,,Smart,RC,FALSE,TRUE,FALSE,,,TRUE,,FALSE,FALSE,FALSE,FALSE,FALSE,FALSE,FALSE,FALSE,FALSE,FALSE,0,Follow Yaw,0,0,-175,185,FALSE,FALSE,FALSE,FALSE,FALSE,FALSE,,TRUE,Normal,,100,1024,1024,1576,1024,2,FALSE,FALSE,FALSE,FALSE,FALSE,0,FALSE,FALSE,FALSE,FALSE,40,7.275,823,2054,7.239,FALSE,3.641,3.634,0.007,FALSE,FALSE,NA,123.6,123.6,123.6,0,0,2,0,5,3096.4,774.11,,Idle,0,20,FALSE,5,TRUE,8,Go Home,FALSE,FALSE,FALSE,FALSE,FALSE,FALSE,FALSE,FALSE,FALSE,FALSE,FALSE,FALSE,6.974655931,79.91479465,0.1,103.5,328,TRUE,1,1,FALSE,FALSE,FALSE,FALSE,,TRUE,FALSE,FALSE,Course Lock,246,303.7,16.4,Calm,23,,1.12.8,Mavic Mini,1SDCH7G0169R0K,1SFLH6Q0AB03DJ,1SRCH7F014TAHX,1U5X071EXP5ZJG,55,0,6.5,0.223694,3.131716,0,0,Mavic Mini,1SDCH7G0169R0K,1SFLH6Q0AB03DJ,1SRCH7F014TAHX,1U5X071EXP5ZJG,DJI Fly,,1.12.8,2C225ECE-A718-33F6-996D-7313ACF8CE32,1SDCH7G0169R0K,,,,,6.974677853,79.91478774,10,Home Point Updated.,
2/13/2024,39:49.5,13m 19.8s,799.8,6.974655348,79.9147946,0.3,0.3,0.9,68,1,0.223694,0.223694,-0.223694,0,0,0,-1.789552,0,3,0.4,-177,183,173.2,Tripod,Auto Landing,,9,4,TRUE,,Mavic Mini,TRUE,FALSE,,Smart,RC,FALSE,TRUE,FALSE,,,TRUE,,FALSE,FALSE,FALSE,FALSE,FALSE,FALSE,FALSE,FALSE,FALSE,FALSE,0,Follow Yaw,0,0,-175,185,FALSE,FALSE,FALSE,FALSE,FALSE,FALSE,,TRUE,Normal,,100,1024,1024,1571,1024,2,FALSE,FALSE,FALSE,FALSE,FALSE,0,FALSE,FALSE,FALSE,FALSE,40,7.275,823,2054,7.239,FALSE,3.641,3.634,0.007,FALSE,FALSE,NA,123.6,123.6,123.6,0,0,2,0,5,3096.4,774.11,,Idle,0,20,FALSE,5,TRUE,8,Go Home,FALSE,FALSE,FALSE,FALSE,FALSE,FALSE,FALSE,FALSE,FALSE,FALSE,FALSE,FALSE,6.974655931,79.91479465,0.2,103.5,328,TRUE,1,1,FALSE,FALSE,FALSE,FALSE,,TRUE,FALSE,FALSE,Course Lock,246,303.7,16.4,Calm,23,,1.12.8,Mavic Mini,1SDCH7G0169R0K,1SFLH6Q0AB03DJ,1SRCH7F014TAHX,1U5X071EXP5ZJG,55,0,6.5,0.223694,3.131716,0,0,Mavic Mini,1SDCH7G0169R0K,1SFLH6Q0AB03DJ,1SRCH7F014TAHX,1U5X071EXP5ZJG,DJI Fly,,1.12.8,2C225ECE-A718-33F6-996D-7313ACF8CE32,1SDCH7G0169R0K,,,,,6.974677853,79.91478774,10,,
2/13/2024,39:49.6,13m 19.9s,799.9,6.974655127,79.91479462,0.6,0.6,1.3,68,1.1,0.223694,0.223694,-0.223694,0,0,0,-2.013246,0,3,0.4,-176.8,183.2,176.3,Tripod,Auto Landing,,10,4,TRUE,,Mavic Mini,TRUE,FALSE,,Smart,RC,FALSE,TRUE,FALSE,,,TRUE,,FALSE,FALSE,FALSE,FALSE,FALSE,FALSE,FALSE,FALSE,FALSE,FALSE,0,Follow Yaw,0,0,-175,185,FALSE,FALSE,FALSE,FALSE,FALSE,FALSE,,TRUE,Normal,,100,1024,1024,1551,1024,2,FALSE,FALSE,FALSE,FALSE,FALSE,0,FALSE,FALSE,FALSE,FALSE,40,7.275,823,2054,7.239,FALSE,3.641,3.634,0.007,FALSE,FALSE,NA,123.6,123.6,123.6,0,0,2,0,5,3096.4,774.11,,Idle,0,20,FALSE,5,TRUE,8,Go Home,FALSE,FALSE,FALSE,FALSE,FALSE,FALSE,FALSE,FALSE,FALSE,FALSE,FALSE,FALSE,6.974655931,79.91479465,0.2,103.5,328,TRUE,1,1,FALSE,FALSE,FALSE,FALSE,,TRUE,FALSE,FALSE,Course Lock,246,303.7,16.4,Calm,23,,1.12.8,Mavic Mini,1SDCH7G0169R0K,1SFLH6Q0AB03DJ,1SRCH7F014TAHX,1U5X071EXP5ZJG,55,0,6.5,0.223694,3.131716,0,0,Mavic Mini,1SDCH7G0169R0K,1SFLH6Q0AB03DJ,1SRCH7F014TAHX,1U5X071EXP5ZJG,DJI Fly,,1.12.8,2C225ECE-A718-33F6-996D-7313ACF8CE32,1SDCH7G0169R0K,,,,,6.974677853,79.91478774,10,,
2/13/2024,39:49.7,13m 20.0s,800,6.974654877,79.91479468,0.9,0.9,1.3,69,1.2,0.223694,0.223694,-0.223694,0,0,0,-2.460634,0,3.3,0.5,-176.7,183.3,169.5,Tripod,Auto Landing,,10,4,TRUE,,Mavic Mini,TRUE,FALSE,,Smart,RC,FALSE,TRUE,FALSE,,,TRUE,,FALSE,FALSE,FALSE,FALSE,FALSE,FALSE,FALSE,FALSE,FALSE,FALSE,0,Follow Yaw,0,0,-175,185,FALSE,FALSE,FALSE,FALSE,FALSE,FALSE,,TRUE,Normal,,100,1024,1024,1527,1024,2,FALSE,FALSE,FALSE,FALSE,FALSE,0,FALSE,FALSE,FALSE,FALSE,40,7.275,823,2054,7.239,FALSE,3.641,3.634,0.007,FALSE,FALSE,NA,123.6,123.6,123.6,0,0,2,0,5,3096.4,774.11,,Idle,0,20,FALSE,5,TRUE,8,Go Home,FALSE,FALSE,FALSE,FALSE,FALSE,FALSE,FALSE,FALSE,FALSE,FALSE,FALSE,FALSE,6.974655931,79.91479465,0.3,103.5,328,TRUE,1,1,FALSE,FALSE,FALSE,FALSE,,TRUE,FALSE,FALSE,Course Lock,246,303.7,16.4,Calm,23,,1.12.8,Mavic Mini,1SDCH7G0169R0K,1SFLH6Q0AB03DJ,1SRCH7F014TAHX,1U5X071EXP5ZJG,55,0,6.5,0.223694,3.131716,0,0,Mavic Mini,1SDCH7G0169R0K,1SFLH6Q0AB03DJ,1SRCH7F014TAHX,1U5X071EXP5ZJG,DJI Fly,,1.12.8,2C225ECE-A718-33F6-996D-7313ACF8CE32,1SDCH7G0169R0K,,,,,6.974677853,79.91478774,10,,
2/13/2024,39:49.8,13m 20.1s,800.1,6.974654614,79.91479474,1.3,1.3,1.9,69,1.3,0.223694,0.223694,-0.223694,0,0,0,-2.460634,0,2.9,0.3,-176.7,183.3,169.1,Tripod,Auto Landing,,11,4,TRUE,,Mavic Mini,TRUE,FALSE,,Smart,RC,FALSE,TRUE,FALSE,,,TRUE,,FALSE,FALSE,FALSE,FALSE,FALSE,FALSE,FALSE,FALSE,FALSE,FALSE,0,Follow Yaw,0,0,-175,185,FALSE,FALSE,FALSE,FALSE,FALSE,FALSE,,TRUE,Normal,,100,1024,1024,1527,1024,2,FALSE,FALSE,FALSE,FALSE,FALSE,0,FALSE,FALSE,FALSE,FALSE,40,7.275,823,2054,7.239,FALSE,3.641,3.634,0.007,FALSE,FALSE,NA,123.6,123.6,123.6,0,0,2,0,5,3096.4,774.11,,Idle,0,20,FALSE,5,TRUE,8,Go Home,FALSE,FALSE,FALSE,FALSE,FALSE,FALSE,FALSE,FALSE,FALSE,FALSE,FALSE,FALSE,6.974655931,79.91479465,0.4,103.5,328,TRUE,1,1,FALSE,FALSE,FALSE,FALSE,,TRUE,FALSE,FALSE,Course Lock,246,303.7,16.4,Calm,23,,1.12.8,Mavic Mini,1SDCH7G0169R0K,1SFLH6Q0AB03DJ,1SRCH7F014TAHX,1U5X071EXP5ZJG,55,0,6.5,0.223694,3.131716,0,0,Mavic Mini,1SDCH7G0169R0K,1SFLH6Q0AB03DJ,1SRCH7F014TAHX,1U5X071EXP5ZJG,DJI Fly,,1.12.8,2C225ECE-A718-33F6-996D-7313ACF8CE32,1SDCH7G0169R0K,,,,,6.974677853,79.91478774,10,,
2/13/2024,39:49.9,13m 20.2s,800.2,6.974654189,79.91479483,1.6,1.6,2.2,69,1.5,0.223694,0.223694,-0.223694,0,0,0,-2.684328,0,3.7,0.1,-176.7,183.3,170.8,Tripod,Auto Landing,,11,4,TRUE,,Mavic Mini,TRUE,FALSE,,Smart,RC,FALSE,TRUE,FALSE,,,TRUE,,FALSE,FALSE,FALSE,FALSE,FALSE,FALSE,FALSE,FALSE,FALSE,FALSE,0,Follow Yaw,0,0,-175,185,FALSE,FALSE,FALSE,FALSE,FALSE,FALSE,,TRUE,Normal,,100,1024,1024,1436,1024,2,FALSE,FALSE,FALSE,FALSE,FALSE,0,FALSE,FALSE,FALSE,FALSE,40,7.275,823,2054,7.239,FALSE,3.641,3.634,0.007,FALSE,FALSE,NA,123.6,123.6,123.6,0,0,2,0,5,3096.4,774.11,,Idle,0,20,FALSE,5,TRUE,8,Go Home,FALSE,FALSE,FALSE,FALSE,FALSE,FALSE,FALSE,FALSE,FALSE,FALSE,FALSE,FALSE,6.974655931,79.91479465,0.6,103.5,328,TRUE,1,1,FALSE,FALSE,FALSE,FALSE,,TRUE,FALSE,FALSE,Course Lock,246,303.7,16.4,Calm,23,,1.12.8,Mavic Mini,1SDCH7G0169R0K,1SFLH6Q0AB03DJ,1SRCH7F014TAHX,1U5X071EXP5ZJG,55,0,6.5,0.223694,3.131716,0,0,Mavic Mini,1SDCH7G0169R0K,1SFLH6Q0AB03DJ,1SRCH7F014TAHX,1U5X071EXP5ZJG,DJI Fly,,1.12.8,2C225ECE-A718-33F6-996D-7313ACF8CE32,1SDCH7G0169R0K,,,,,6.974677853,79.91478774,10,Home Point updated. RTH altitude adjusted to 75 m! (Code: 120852).,
2/13/2024,39:50.0,13m 20.3s,800.3,6.974654017,79.91479476,1.9,1.9,2.6,70,1.5,0,0.223694,0,0,0,0,-2.460634,0,3.6,-0.1,-176.9,183.1,,Tripod,Auto Landing,,11,4,TRUE,,Mavic Mini,TRUE,FALSE,,Smart,RC,FALSE,TRUE,FALSE,,,TRUE,,FALSE,FALSE,FALSE,FALSE,FALSE,FALSE,FALSE,FALSE,FALSE,FALSE,0,Follow Yaw,0,0,-175,185,FALSE,FALSE,FALSE,FALSE,FALSE,FALSE,,TRUE,Normal,,100,1024,1024,1282,1024,2,FALSE,FALSE,FALSE,FALSE,FALSE,0,FALSE,FALSE,FALSE,FALSE,40,7.141,822,2054,7.239,FALSE,3.572,3.569,0.007,FALSE,FALSE,NA,123.6,123.6,123.6,0,0,2,0,5,3096.4,774.11,,Idle,0,20,FALSE,5,TRUE,8,Go Home,FALSE,FALSE,FALSE,FALSE,FALSE,FALSE,FALSE,FALSE,FALSE,FALSE,FALSE,FALSE,6.974655931,79.91479465,0.6,103.5,328,TRUE,1,1,FALSE,FALSE,FALSE,FALSE,,TRUE,FALSE,FALSE,Course Lock,246,303.7,16.4,Calm,23,,1.12.8,Mavic Mini,1SDCH7G0169R0K,1SFLH6Q0AB03DJ,1SRCH7F014TAHX,1U5X071EXP5ZJG,55,0,6.5,0.223694,3.131716,0,0,Mavic Mini,1SDCH7G0169R0K,1SFLH6Q0AB03DJ,1SRCH7F014TAHX,1U5X071EXP5ZJG,DJI Fly,,1.12.8,2C225ECE-A718-33F6-996D-7313ACF8CE32,1SDCH7G0169R0K,,,,,6.974677853,79.91478774,10,,
2/13/2024,39:50.2,13m 20.4s,800.4,6.974653968,79.91479471,2.2,2.2,2.9,70,1.5,0,0.223694,0,0,0,0,-2.23694,0,3.7,0,-176.8,183.2,,Tripod,Auto Landing,,11,4,TRUE,,Mavic Mini,TRUE,FALSE,,Smart,RC,FALSE,TRUE,FALSE,,,TRUE,,FALSE,FALSE,FALSE,FALSE,FALSE,FALSE,FALSE,FALSE,FALSE,FALSE,0,Follow Yaw,0,0,-175,185,FALSE,FALSE,FALSE,FALSE,FALSE,FALSE,,TRUE,Normal,,100,1024,1024,1024,1024,2,FALSE,FALSE,FALSE,FALSE,FALSE,0,FALSE,FALSE,FALSE,FALSE,40,7.141,822,2054,7.239,FALSE,3.572,3.569,0.007,FALSE,FALSE,NA,123.6,123.6,123.6,0,0,2,0,5,3096.4,774.11,,Idle,0,20,FALSE,5,TRUE,8,Go Home,FALSE,FALSE,FALSE,FALSE,FALSE,FALSE,FALSE,FALSE,FALSE,FALSE,FALSE,FALSE,6.974655931,79.91479465,0.7,103.5,328,TRUE,1,1,FALSE,FALSE,FALSE,FALSE,,TRUE,FALSE,FALSE,Course Lock,246,303.7,16.4,Calm,23,,1.12.8,Mavic Mini,1SDCH7G0169R0K,1SFLH6Q0AB03DJ,1SRCH7F014TAHX,1U5X071EXP5ZJG,55,0,6.5,0.223694,3.131716,0,0,Mavic Mini,1SDCH7G0169R0K,1SFLH6Q0AB03DJ,1SRCH7F014TAHX,1U5X071EXP5ZJG,DJI Fly,,1.12.8,2C225ECE-A718-33F6-996D-7313ACF8CE32,1SDCH7G0169R0K,,,,,6.974677853,79.91478774,10,,
