CUSTOM.date [local],CUSTOM.updateTime [local],OSD.flyTime,OSD.flyTime [s],OSD.latitude,OSD.longitude,OSD.height [ft],OSD.heightMax [ft],OSD.vpsHeight [ft],OSD.altitude [ft],OSD.mileage [ft],OSD.hSpeed [MPH],OSD.hSpeedMax [MPH],OSD.xSpeed [MPH],OSD.xSpeedMax [MPH],OSD.ySpeed [MPH],OSD.ySpeedMax [MPH],OSD.zSpeed [MPH],OSD.zSpeedMax [MPH],OSD.pitch,OSD.roll,OSD.yaw,OSD.yaw [360],OSD.directionOfTravel,OSD.flycState,OSD.flycCommand,OSD.flightAction,OSD.gpsNum,OSD.gpsLevel,OSD.isGPSUsed,OSD.nonGPSCause,OSD.droneType,OSD.isSwaveWork,OSD.waveError,OSD.goHomeStatus,OSD.batteryType,OSD.ctrlDevice,OSD.isOnGround,OSD.isMotorOn,OSD.isMotorBlocked,OSD.motorStartFailedCause,OSD.motorFailReason,OSD.isImuPreheated,OSD.imuInitFailReason,OSD.isAcceletorOverRange,OSD.isBarometerDeadInAir,OSD.isCompassError,OSD.isGoHomeHeightModified,OSD.canIOCWork,OSD.isNotEnoughForce,OSD.isOutOfLimit,OSD.isPropellerCatapult,OSD.isVibrating,OSD.isVisionUsed,OSD.voltageWarning,GIMBAL.mode,GIMBAL.pitch,GIMBAL.roll,GIMBAL.yaw,GIMBAL.yaw [360],GIMBAL.isPitchAtLimit,GIMBAL.isRollAtLimit,GIMBAL.isYawAtLimit,GIMBAL.isStuck,CAMERA.isPhoto,CAMERA.isVideo,CAMERA.filename,CAMERA.sdCardIsInserted,CAMERA.sdCardState,RC.downlinkSignal,RC.uplinkSignal,RC.aileron,RC.elevator,RC.throttle,RC.rudder,RC.mode,RC.goHomeDepressed,RC.recordDepressed,RC.shutterDepressed,RC.playbackDepressed,RC.wheelDepressed,RC.wheelOffset,RC.custom1Depressed,RC.custom2Depressed,RC.custom3Depressed,RC.custom4Depressed,BATTERY.chargeLevel,BATTERY.currentPV [V],BATTERY.currentCapacity [mAh],BATTERY.fullCapacity [mAh],BATTERY.voltage [V],BATTERY.isCellVoltageEstimated,BATTERY.cellVoltage1 [V],BATTERY.cellVoltage2 [V],BATTERY.maxCellVoltageDeviation,BATTERY.isCellVoltageDeviationHigh,BATTERY.isVoltageLow,BATTERY.current [A],BATTERY.temperature [F],BATTERY.minTemperature [F],BATTERY.maxTemperature [F],BATTERY.usefulTime [s],BATTERY.goHomeTime [s],BATTERY.landTime [s],BATTERY.goHomeBattery,BATTERY.landBattery,BATTERY.safeFlyRadius,BATTERY.volumeConsume,BATTERY.status,BATTERY.goHomeStatus,BATTERY.goHomeCountdown,BATTERY.lowWarning,BATTERY.lowWarningGoHome,BATTERY.seriousLowWarning,BATTERY.seriousLowWarningLanding,BATTERY.timesCharged,MC.failSafeAction,MC.isObstacleAvoidanceEnabled,MC.isCollisionAvoidanceEnabled,MC.isRthObstacleAvoidanceEnabled,MC.isBraking,MC.isAvoidingObstacle,MC.isAvoidingActiveObstacle,MC.isAscentLimitedByObstacle,MC.isLandingConfirmationNeeded,MC.atLowAltitudeLimit,MC.atDistanceLimit,MC.atAirportAltitudeLimit,MC.atAirportBoundary,HOME.latitude,HOME.longitude,HOME.distance [ft],HOME.height [ft],HOME.heightLimit [ft],HOME.isHomeRecord,HOME.goHomeMode,HOME.aircraftHeadDirection,HOME.isDynamicHomePointEnabled,HOME.isReachedLimitDistance,HOME.isReachedLimitHeight,HOME.isCompassCalibrating,HOME.compassCalibrationState,HOME.isMultipleFlightModeEnabled,HOME.isBeginnerMode,HOME.isIOCEnabled,HOME.iocMode,HOME.goHomeHeight [ft],HOME.courseLockAngle,HOME.forceLandingHeight [ft],HOME.wind,HOME.dataRecorderFileIndex,RECOVER.appType,RECOVER.appVersion,RECOVER.aircraftName,RECOVER.aircraftSerial,RECOVER.cameraSerial,RECOVER.rcSerial,RECOVER.batterySerial,DETAILS.totalTime [s],DETAILS.totalDistance [ft],DETAILS.maxHeight [ft],DETAILS.maxHorizontalSpeed [MPH],DETAILS.maxVerticalSpeed [MPH],DETAILS.photoNum,DETAILS.videoTime [s],DETAILS.aircraftName,DETAILS.aircraftSerial,DETAILS.cameraSerial,DETAILS.rcSerial,DETAILS.batterySerial,DETAILS.appName,DETAILS.appType,DETAILS.appVersion,DETAILS.guid,SERIAL.flightController,SERIAL.camera,SERIAL.gimbal,SERIAL.rc,SERIAL.battery,APPGPS.latitude,APPGPS.longitude,APPGPS.accuracy,APP.tip,APP.warning
2/27/2024,26:17.1,11m 3.5s,663.5,6.974615722,79.91439479,0,0,,52,0,0,0,0,0,0,0,0,0,5.9,-0.2,-158.4,201.6,,P-GPS,Other,Takeoff (RC Assisted),14,5,TRUE,,Mavic Mini,FALSE,FALSE,,Smart,RC,TRUE,TRUE,FALSE,,,TRUE,,FALSE,FALSE,FALSE,FALSE,FALSE,FALSE,FALSE,FALSE,FALSE,FALSE,0,Follow Yaw,0,0,-159.9,200.1,FALSE,FALSE,FALSE,FALSE,FALSE,FALSE,,TRUE,Normal,,,878,645,694,1203,1,FALSE,FALSE,FALSE,FALSE,FALSE,0,FALSE,FALSE,FALSE,FALSE,52,7.49,1082,2063,7.49,TRUE,3.745,3.745,,FALSE,FALSE,NA,117.7,117.6,117.6,,,,,,,,,Idle,,,TRUE,,FALSE,6,Go Home,FALSE,FALSE,FALSE,FALSE,FALSE,FALSE,FALSE,FALSE,FALSE,FALSE,FALSE,FALSE,,,,,,FALSE,,,FALSE,FALSE,FALSE,FALSE,,FALSE,FALSE,FALSE,,,,,Calm,,,1.12.8,Mavic Mini,1SDCH7G0169R0K,1SFLH6Q0AB03DJ,1SRCH7F014TAHX,1U5X071EXP6C9Y,71.9,0.2,6.5,4.611675,2.23694,0,0,Mavic Mini,1SDCH7G0169R0K,1SFLH6Q0AB03DJ,1SRCH7F014TAHX,1U5X071EXP6C9Y,DJI Fly,,1.12.8,74ABB725-FC6C-1CC8-6C1A-3CAB126E8F4C,1SDCH7G0169R0K,,,,,,,,Flight mode changed to P-GPS.,
2/27/2024,15:13.7,11m 3.6s,663.6,6.974615726,79.91439479,0,0,,52,0,0,0,0,0,0,0,0,0,5.9,-0.2,-158.4,201.6,,Starting Motors,Other,Takeoff (RC Assisted),14,5,TRUE,,Mavic Mini,FALSE,FALSE,,Smart,RC,TRUE,TRUE,FALSE,,,TRUE,,FALSE,FALSE,FALSE,FALSE,FALSE,FALSE,FALSE,FALSE,FALSE,FALSE,0,Follow Yaw,0,0,-159.9,200.1,FALSE,FALSE,FALSE,FALSE,FALSE,FALSE,,TRUE,Normal,,,1024,1024,1024,1024,1,FALSE,FALSE,FALSE,FALSE,FALSE,0,FALSE,FALSE,FALSE,FALSE,52,7.49,1082,2063,7.49,TRUE,3.745,3.745,,FALSE,FALSE,NA,117.7,117.6,117.6,,,,,,,,,Idle,,,TRUE,,FALSE,6,Go Home,FALSE,FALSE,FALSE,FALSE,FALSE,FALSE,FALSE,FALSE,FALSE,FALSE,FALSE,FALSE,,,,,,FALSE,,,FALSE,FALSE,FALSE,FALSE,,FALSE,FALSE,FALSE,,,,,Calm,,,1.12.8,Mavic Mini,1SDCH7G0169R0K,1SFLH6Q0AB03DJ,1SRCH7F014TAHX,1U5X071EXP6C9Y,71.9,0.2,6.5,4.611675,2.23694,0,0,Mavic Mini,1SDCH7G0169R0K,1SFLH6Q0AB03DJ,1SRCH7F014TAHX,1U5X071EXP6C9Y,DJI Fly,,1.12.8,74ABB725-FC6C-1CC8-6C1A-3CAB126E8F4C,1SDCH7G0169R0K,,,,,,,,Flight mode changed to Starting Motors.,
2/27/2024,15:13.8,11m 3.7s,663.7,6.97461573,79.91439479,0,0,0.3,52,0,0,0,0,0,0,0,0,0,5.9,-0.2,-158.4,201.6,,Starting Motors,Other,Takeoff (RC Assisted),14,5,TRUE,,Mavic Mini,TRUE,FALSE,,Smart,RC,TRUE,TRUE,FALSE,,,TRUE,,FALSE,FALSE,FALSE,FALSE,FALSE,FALSE,FALSE,FALSE,FALSE,FALSE,0,Follow Yaw,0,0,-159.9,200.1,FALSE,FALSE,FALSE,FALSE,FALSE,FALSE,,TRUE,Normal,,100,1024,1024,1024,1024,1,FALSE,FALSE,FALSE,FALSE,FALSE,0,FALSE,FALSE,FALSE,FALSE,52,7.49,1082,2063,7.49,TRUE,3.745,3.745,,FALSE,FALSE,NA,117.7,117.6,117.6,,,,,,,,,Idle,,,TRUE,,FALSE,6,Go Home,FALSE,FALSE,FALSE,FALSE,FALSE,FALSE,FALSE,FALSE,FALSE,FALSE,FALSE,FALSE,,,,,,FALSE,,,FALSE,FALSE,FALSE,FALSE,,FALSE,FALSE,FALSE,,,,,Calm,,,1.12.8,Mavic Mini,1SDCH7G0169R0K,1SFLH6Q0AB03DJ,1SRCH7F014TAHX,1U5X071EXP6C9Y,71.9,0.2,6.5,4.611675,2.23694,0,0,Mavic Mini,1SDCH7G0169R0K,1SFLH6Q0AB03DJ,1SRCH7F014TAHX,1U5X071EXP6C9Y,DJI Fly,,1.12.8,74ABB725-FC6C-1CC8-6C1A-3CAB126E8F4C,1SDCH7G0169R0K,,,,,,,,,
2/27/2024,15:14.0,11m 3.8s,663.8,6.974615736,79.91439479,0,0,0.3,52,0,0,0,0,0,0,0,0,0,5.9,-0.2,-158.4,201.6,,Starting Motors,Other,Takeoff (RC Assisted),14,5,TRUE,,Mavic Mini,TRUE,FALSE,,Smart,RC,TRUE,TRUE,FALSE,,,TRUE,,FALSE,FALSE,FALSE,FALSE,FALSE,FALSE,FALSE,FALSE,FALSE,FALSE,0,Follow Yaw,0,0,-159.9,200.1,FALSE,FALSE,FALSE,FALSE,FALSE,FALSE,,TRUE,Normal,,100,1024,1024,1024,1024,1,FALSE,FALSE,FALSE,FALSE,FALSE,0,FALSE,FALSE,FALSE,FALSE,52,7.49,1082,2063,7.49,TRUE,3.745,3.745,,FALSE,FALSE,NA,117.7,117.6,117.6,,,,,,,,,Idle,,,TRUE,,FALSE,6,Go Home,FALSE,FALSE,FALSE,FALSE,FALSE,FALSE,FALSE,FALSE,FALSE,FALSE,FALSE,FALSE,,,,,,FALSE,,,FALSE,FALSE,FALSE,FALSE,,FALSE,FALSE,FALSE,,,,,Calm,,,1.12.8,Mavic Mini,1SDCH7G0169R0K,1SFLH6Q0AB03DJ,1SRCH7F014TAHX,1U5X071EXP6C9Y,71.9,0.2,6.5,4.611675,2.23694,0,0,Mavic Mini,1SDCH7G0169R0K,1SFLH6Q0AB03DJ,1SRCH7F014TAHX,1U5X071EXP6C9Y,DJI Fly,,1.12.8,74ABB725-FC6C-1CC8-6C1A-3CAB126E8F4C,1SDCH7G0169R0K,,,,,,,,,
2/27/2024,15:14.1,11m 3.9s,663.9,6.974615721,79.91439478,0,0,0.3,52,0,0,0,0,0,0,0,0,0,5.9,-0.2,-158.4,201.6,,Starting Motors,Other,Takeoff (RC Assisted),14,5,TRUE,,Mavic Mini,TRUE,FALSE,,Smart,RC,TRUE,TRUE,FALSE,,,TRUE,,FALSE,FALSE,FALSE,FALSE,FALSE,FALSE,FALSE,FALSE,FALSE,FALSE,0,Follow Yaw,0,0,-159.9,200.1,FALSE,FALSE,FALSE,FALSE,FALSE,FALSE,,TRUE,Normal,,100,1024,1024,1024,1024,1,FALSE,FALSE,FALSE,FALSE,FALSE,0,FALSE,FALSE,FALSE,FALSE,52,7.49,1082,2063,7.49,TRUE,3.745,3.745,,FALSE,FALSE,NA,117.7,117.6,117.6,,,,,,,,,Idle,,,TRUE,,FALSE,6,Go Home,FALSE,FALSE,FALSE,FALSE,FALSE,FALSE,FALSE,FALSE,FALSE,FALSE,FALSE,FALSE,,,,,,FALSE,,,FALSE,FALSE,FALSE,FALSE,,FALSE,FALSE,FALSE,,,,,Calm,,,1.12.8,Mavic Mini,1SDCH7G0169R0K,1SFLH6Q0AB03DJ,1SRCH7F014TAHX,1U5X071EXP6C9Y,71.9,0.2,6.5,4.611675,2.23694,0,0,Mavic Mini,1SDCH7G0169R0K,1SFLH6Q0AB03DJ,1SRCH7F014TAHX,1U5X071EXP6C9Y,DJI Fly,,1.12.8,74ABB725-FC6C-1CC8-6C1A-3CAB126E8F4C,1SDCH7G0169R0K,,,,,,,,,
2/27/2024,15:14.2,11m 4.0s,664,6.974615726,79.91439478,0,0,0.3,52,0,0,0,0,0,0,0,0,0,5.9,-0.3,-158.4,201.6,,Starting Motors,Other,Takeoff (RC Assisted),14,5,TRUE,,Mavic Mini,TRUE,FALSE,,Smart,RC,TRUE,TRUE,FALSE,,,TRUE,,FALSE,FALSE,FALSE,FALSE,FALSE,FALSE,FALSE,FALSE,FALSE,FALSE,0,Follow Yaw,0,0,-159.9,200.1,FALSE,FALSE,FALSE,FALSE,FALSE,FALSE,,TRUE,Normal,,100,1024,1024,1024,1024,1,FALSE,FALSE,FALSE,FALSE,FALSE,0,FALSE,FALSE,FALSE,FALSE,52,7.49,1082,2063,7.49,TRUE,3.745,3.745,,FALSE,FALSE,NA,117.7,117.6,117.6,,,,,,,,,Idle,,,TRUE,,FALSE,6,Go Home,FALSE,FALSE,FALSE,FALSE,FALSE,FALSE,FALSE,FALSE,FALSE,FALSE,FALSE,FALSE,,,,,,FALSE,,,FALSE,FALSE,FALSE,FALSE,,FALSE,FALSE,FALSE,,,,,Calm,,,1.12.8,Mavic Mini,1SDCH7G0169R0K,1SFLH6Q0AB03DJ,1SRCH7F014TAHX,1U5X071EXP6C9Y,71.9,0.2,6.5,4.611675,2.23694,0,0,Mavic Mini,1SDCH7G0169R0K,1SFLH6Q0AB03DJ,1SRCH7F014TAHX,1U5X071EXP6C9Y,DJI Fly,,1.12.8,74ABB725-FC6C-1CC8-6C1A-3CAB126E8F4C,1SDCH7G0169R0K,,,,,,,,,
2/27/2024,15:14.3,11m 4.1s,664.1,6.974615729,79.91439478,0,0,0.3,52,0,0,0,0,0,0,0,0,0,6,-0.2,-158.4,201.6,,Starting Motors,Other,Takeoff (RC Assisted),14,5,TRUE,,Mavic Mini,TRUE,FALSE,,Smart,RC,TRUE,TRUE,FALSE,,,TRUE,,FALSE,FALSE,FALSE,FALSE,FALSE,FALSE,FALSE,FALSE,FALSE,FALSE,0,Follow Yaw,0,0,-159.9,200.1,FALSE,FALSE,FALSE,FALSE,FALSE,FALSE,,TRUE,Normal,,100,1024,1024,1024,1024,1,FALSE,FALSE,FALSE,FALSE,FALSE,0,FALSE,FALSE,FALSE,FALSE,52,7.49,1082,2063,7.49,TRUE,3.745,3.745,,FALSE,FALSE,NA,117.7,117.6,117.6,,,,,,,,,Idle,,,TRUE,,FALSE,6,Go Home,FALSE,FALSE,FALSE,FALSE,FALSE,FALSE,FALSE,FALSE,FALSE,FALSE,FALSE,FALSE,,,,,,FALSE,,,FALSE,FALSE,FALSE,FALSE,,FALSE,FALSE,FALSE,,,,,Calm,,,1.12.8,Mavic Mini,1SDCH7G0169R0K,1SFLH6Q0AB03DJ,1SRCH7F014TAHX,1U5X071EXP6C9Y,71.9,0.2,6.5,4.611675,2.23694,0,0,Mavic Mini,1SDCH7G0169R0K,1SFLH6Q0AB03DJ,1SRCH7F014TAHX,1U5X071EXP6C9Y,DJI Fly,,1.12.8,74ABB725-FC6C-1CC8-6C1A-3CAB126E8F4C,1SDCH7G0169R0K,,,,,,,,,
2/27/2024,15:14.4,11m 4.2s,664.2,6.974615733,79.91439478,0,0,0.3,52,0,0,0,0,0,0,0,0,0,6,-0.3,-158.4,201.6,,Starting Motors,Other,Takeoff (RC Assisted),14,5,TRUE,,Mavic Mini,TRUE,FALSE,,Smart,RC,TRUE,TRUE,FALSE,,,TRUE,,FALSE,FALSE,FALSE,FALSE,FALSE,FALSE,FALSE,FALSE,FALSE,FALSE,0,Follow Yaw,0,0,-159.9,200.1,FALSE,FALSE,FALSE,FALSE,FALSE,FALSE,,TRUE,Normal,,100,1024,1024,1024,1024,1,FALSE,FALSE,FALSE,FALSE,FALSE,0,FALSE,FALSE,FALSE,FALSE,52,7.49,1082,2063,7.478,TRUE,3.739,3.739,,FALSE,FALSE,NA,117.7,117.6,117.6,0,0,0,0,5,2326.8,581.7,,Idle,0,20,FALSE,5,TRUE,6,Go Home,FALSE,FALSE,FALSE,FALSE,FALSE,FALSE,FALSE,FALSE,FALSE,FALSE,FALSE,FALSE,6.974619928,79.91439735,1.7,177.4,328,TRUE,1,1,FALSE,FALSE,FALSE,FALSE,,TRUE,FALSE,FALSE,Course Lock,49.2,254.5,16.4,Calm,39,,1.12.8,Mavic Mini,1SDCH7G0169R0K,1SFLH6Q0AB03DJ,1SRCH7F014TAHX,1U5X071EXP6C9Y,71.9,0.2,6.5,4.611675,2.23694,0,0,Mavic Mini,1SDCH7G0169R0K,1SFLH6Q0AB03DJ,1SRCH7F014TAHX,1U5X071EXP6C9Y,DJI Fly,,1.12.8,74ABB725-FC6C-1CC8-6C1A-3CAB126E8F4C,1SDCH7G0169R0K,,,,,,,,Data Recorder File Index is 39.; Set Return to Home (RTH) altitude to 15 m (49 ft).; Set maximum flight altitude to 100 m (328 ft).,
2/27/2024,15:14.5,11m 4.3s,664.3,6.974615842,79.91439478,0,0,0.3,52,0,0,0,0,0,0,0,0,0,6,-0.3,-158.3,201.7,,Starting Motors,Other,Takeoff (RC Assisted),14,5,TRUE,,Mavic Mini,TRUE,FALSE,,Smart,RC,TRUE,TRUE,FALSE,,,TRUE,,FALSE,FALSE,FALSE,FALSE,FALSE,FALSE,FALSE,FALSE,FALSE,FALSE,0,Follow Yaw,0,0,-159.9,200.1,FALSE,FALSE,FALSE,FALSE,FALSE,FALSE,,TRUE,Normal,,100,1024,1024,1024,1024,1,FALSE,FALSE,FALSE,FALSE,FALSE,0,FALSE,FALSE,FALSE,FALSE,52,7.49,1082,2063,7.478,TRUE,3.739,3.739,,FALSE,FALSE,NA,117.7,117.6,117.6,0,0,0,0,5,2326.8,581.7,,Idle,0,20,FALSE,5,TRUE,6,Go Home,FALSE,FALSE,FALSE,FALSE,FALSE,FALSE,FALSE,FALSE,FALSE,FALSE,FALSE,FALSE,6.974619928,79.91439735,1.7,177.4,328,TRUE,1,1,FALSE,FALSE,FALSE,FALSE,,TRUE,FALSE,FALSE,Course Lock,49.2,254.5,16.4,Calm,39,,1.12.8,Mavic Mini,1SDCH7G0169R0K,1SFLH6Q0AB03DJ,1SRCH7F014TAHX,1U5X071EXP6C9Y,71.9,0.2,6.5,4.611675,2.23694,0,0,Mavic Mini,1SDCH7G0169R0K,1SFLH6Q0AB03DJ,1SRCH7F014TAHX,1U5X071EXP6C9Y,DJI Fly,,1.12.8,74ABB725-FC6C-1CC8-6C1A-3CAB126E8F4C,1SDCH7G0169R0K,,,,,,,,,
2/27/2024,15:14.5,11m 4.4s,664.4,6.974615898,79.91439478,0,0,0.3,52,0,0,0,0,0,0,0,0,0,6,-0.3,-158.3,201.7,,Starting Motors,Other,Takeoff (RC Assisted),14,5,TRUE,,Mavic Mini,TRUE,FALSE,,Smart,RC,TRUE,TRUE,FALSE,,,TRUE,,FALSE,FALSE,FALSE,FALSE,FALSE,FALSE,FALSE,FALSE,FALSE,FALSE,0,Follow Yaw,0,0,-159.9,200.1,FALSE,FALSE,FALSE,FALSE,FALSE,FALSE,,TRUE,Normal,,100,1024,1024,1024,1024,1,FALSE,FALSE,FALSE,FALSE,FALSE,0,FALSE,FALSE,FALSE,FALSE,52,7.49,1082,2063,7.478,TRUE,3.739,3.739,,FALSE,FALSE,NA,117.7,117.6,117.6,0,0,0,0,5,2326.8,581.7,,Idle,0,20,FALSE,5,TRUE,6,Go Home,FALSE,FALSE,FALSE,FALSE,FALSE,FALSE,FALSE,FALSE,FALSE,FALSE,FALSE,FALSE,6.974619928,79.91439735,1.7,177.4,328,TRUE,1,1,FALSE,FALSE,FALSE,FALSE,,TRUE,FALSE,FALSE,Course Lock,49.2,254.5,16.4,Calm,39,,1.12.8,Mavic Mini,1SDCH7G0169R0K,1SFLH6Q0AB03DJ,1SRCH7F014TAHX,1U5X071EXP6C9Y,71.9,0.2,6.5,4.611675,2.23694,0,0,Mavic Mini,1SDCH7G0169R0K,1SFLH6Q0AB03DJ,1SRCH7F014TAHX,1U5X071EXP6C9Y,DJI Fly,,1.12.8,74ABB725-FC6C-1CC8-6C1A-3CAB126E8F4C,1SDCH7G0169R0K,,,,,,,,,
2/27/2024,15:14.7,11m 4.5s,664.5,6.974615878,79.91439482,0,0,0.3,52,0,0,0,0,0,0,0,0,0,6,-0.4,-158.4,201.6,,Starting Motors,Other,Takeoff (RC Assisted),14,5,TRUE,,Mavic Mini,TRUE,FALSE,,Smart,RC,TRUE,TRUE,FALSE,,,TRUE,,FALSE,FALSE,FALSE,FALSE,FALSE,FALSE,FALSE,FALSE,FALSE,FALSE,0,Follow Yaw,0,0,-159.9,200.1,FALSE,FALSE,FALSE,FALSE,FALSE,FALSE,,TRUE,Normal,,100,1024,1024,1024,1024,1,FALSE,FALSE,FALSE,FALSE,FALSE,0,FALSE,FALSE,FALSE,FALSE,52,7.446,1082,2063,7.478,FALSE,3.726,3.72,0.006,FALSE,FALSE,NA,117.7,117.6,117.6,0,0,0,0,5,2326.8,581.7,,Idle,0,20,FALSE,5,TRUE,6,Go Home,FALSE,FALSE,FALSE,FALSE,FALSE,FALSE,FALSE,FALSE,FALSE,FALSE,FALSE,FALSE,6.974619928,79.91439735,1.7,177.4,328,TRUE,1,1,FALSE,FALSE,FALSE,FALSE,,TRUE,FALSE,FALSE,Course Lock,49.2,254.5,16.4,Calm,39,,1.12.8,Mavic Mini,1SDCH7G0169R0K,1SFLH6Q0AB03DJ,1SRCH7F014TAHX,1U5X071EXP6C9Y,71.9,0.2,6.5,4.611675,2.23694,0,0,Mavic Mini,1SDCH7G0169R0K,1SFLH6Q0AB03DJ,1SRCH7F014TAHX,1U5X071EXP6C9Y,DJI Fly,,1.12.8,74ABB725-FC6C-1CC8-6C1A-3CAB126E8F4C,1SDCH7G0169R0K,,,,,,,,,
2/27/2024,15:14.8,11m 4.6s,664.6,6.974615847,79.91439487,0,0,0.3,52,0.1,0,0,0,0,0,0,0,0,6,-0.3,-158.4,201.6,,Starting Motors,Other,Takeoff (RC Assisted),14,5,TRUE,,Mavic Mini,TRUE,FALSE,,Smart,RC,TRUE,TRUE,FALSE,,,TRUE,,FALSE,FALSE,FALSE,FALSE,FALSE,FALSE,FALSE,FALSE,FALSE,FALSE,0,Follow Yaw,0,0,-159.9,200.1,FALSE,FALSE,FALSE,FALSE,FALSE,FALSE,,TRUE,Normal,,100,1024,1024,1024,1024,1,FALSE,FALSE,FALSE,FALSE,FALSE,0,FALSE,FALSE,FALSE,FALSE,52,7.446,1082,2063,7.478,FALSE,3.726,3.72,0.006,FALSE,FALSE,NA,117.7,117.6,117.6,0,0,0,0,5,2326.8,581.7,,Idle,0,20,FALSE,5,TRUE,6,Go Home,FALSE,FALSE,FALSE,FALSE,FALSE,FALSE,FALSE,FALSE,FALSE,FALSE,FALSE,FALSE,6.974619928,79.91439735,1.7,177.4,328,TRUE,1,1,FALSE,FALSE,FALSE,FALSE,,TRUE,FALSE,FALSE,Course Lock,49.2,254.5,16.4,Calm,39,,1.12.8,Mavic Mini,1SDCH7G0169R0K,1SFLH6Q0AB03DJ,1SRCH7F014TAHX,1U5X071EXP6C9Y,71.9,0.2,6.5,4.611675,2.23694,0,0,Mavic Mini,1SDCH7G0169R0K,1SFLH6Q0AB03DJ,1SRCH7F014TAHX,1U5X071EXP6C9Y,DJI Fly,,1.12.8,74ABB725-FC6C-1CC8-6C1A-3CAB126E8F4C,1SDCH7G0169R0K,,,,,,,,,
2/27/2024,15:14.8,11m 4.7s,664.7,6.97461583,79.91439496,0,0,0.3,52,0.1,0,0,0,0,0,0,0,0,6,-0.3,-158.3,201.7,,Manual Takeoff,Other,Takeoff (RC Assisted),14,5,TRUE,,Mavic Mini,TRUE,FALSE,,Smart,RC,TRUE,TRUE,FALSE,,,TRUE,,FALSE,FALSE,FALSE,FALSE,FALSE,FALSE,FALSE,FALSE,FALSE,FALSE,0,Follow Yaw,0,0,-159.9,200.1,FALSE,FALSE,FALSE,FALSE,FALSE,FALSE,,TRUE,Normal,,100,1024,1024,1024,1024,1,FALSE,FALSE,FALSE,FALSE,FALSE,0,FALSE,FALSE,FALSE,FALSE,52,7.446,1082,2063,7.478,FALSE,3.726,3.72,0.006,FALSE,FALSE,NA,117.7,117.6,117.6,0,0,0,0,5,2326.8,581.7,,Idle,0,20,FALSE,5,TRUE,6,Go Home,FALSE,FALSE,FALSE,FALSE,FALSE,FALSE,FALSE,FALSE,FALSE,FALSE,FALSE,FALSE,6.974619928,79.91439735,1.7,177.4,328,TRUE,1,1,FALSE,FALSE,FALSE,FALSE,,TRUE,FALSE,FALSE,Course Lock,49.2,254.5,16.4,Calm,39,,1.12.8,Mavic Mini,1SDCH7G0169R0K,1SFLH6Q0AB03DJ,1SRCH7F014TAHX,1U5X071EXP6C9Y,71.9,0.2,6.5,4.611675,2.23694,0,0,Mavic Mini,1SDCH7G0169R0K,1SFLH6Q0AB03DJ,1SRCH7F014TAHX,1U5X071EXP6C9Y,DJI Fly,,1.12.8,74ABB725-FC6C-1CC8-6C1A-3CAB126E8F4C,1SDCH7G0169R0K,,,,,,,,Flight mode changed to Manual Takeoff.,
2/27/2024,15:14.9,11m 4.8s,664.8,6.97461587,79.91439498,0,0,0.3,52,0.1,0,0,0,0,0,0,0,0,6,-0.3,-158.3,201.7,,Manual Takeoff,Other,Takeoff (RC Assisted),14,5,TRUE,,Mavic Mini,TRUE,FALSE,,Smart,RC,TRUE,TRUE,FALSE,,,TRUE,,FALSE,FALSE,FALSE,FALSE,FALSE,FALSE,FALSE,FALSE,FALSE,FALSE,0,Follow Yaw,0,0,-159.9,200.1,FALSE,FALSE,FALSE,FALSE,FALSE,FALSE,,TRUE,Normal,,100,1024,1024,1024,1024,1,FALSE,FALSE,FALSE,FALSE,FALSE,0,FALSE,FALSE,FALSE,FALSE,52,7.446,1082,2063,7.478,FALSE,3.726,3.72,0.006,FALSE,FALSE,NA,117.7,117.6,117.6,0,0,0,0,5,2326.8,581.7,,Idle,0,20,FALSE,5,TRUE,6,Go Home,FALSE,FALSE,FALSE,FALSE,FALSE,FALSE,FALSE,FALSE,FALSE,FALSE,FALSE,FALSE,6.974619928,79.91439735,1.7,177.4,328,TRUE,1,1,FALSE,FALSE,FALSE,FALSE,,TRUE,FALSE,FALSE,Course Lock,49.2,254.5,16.4,Calm,39,,1.12.8,Mavic Mini,1SDCH7G0169R0K,1SFLH6Q0AB03DJ,1SRCH7F014TAHX,1U5X071EXP6C9Y,71.9,0.2,6.5,4.611675,2.23694,0,0,Mavic Mini,1SDCH7G0169R0K,1SFLH6Q0AB03DJ,1SRCH7F014TAHX,1U5X071EXP6C9Y,DJI Fly,,1.12.8,74ABB725-FC6C-1CC8-6C1A-3CAB126E8F4C,1SDCH7G0169R0K,,,,,,,,,
2/27/2024,15:15.0,11m 4.9s,664.9,6.974615888,79.91439498,0,0,0.3,52,0.1,0,0,0,0,0,0,0,0,6,-0.3,-158.3,201.7,,Manual Takeoff,Other,Takeoff (RC Assisted),14,5,TRUE,,Mavic Mini,TRUE,FALSE,,Smart,RC,TRUE,TRUE,FALSE,,,TRUE,,FALSE,FALSE,FALSE,FALSE,FALSE,FALSE,FALSE,FALSE,FALSE,FALSE,0,Follow Yaw,0,0,-159.9,200.1,FALSE,FALSE,FALSE,FALSE,FALSE,FALSE,,TRUE,Normal,,100,1024,1024,1024,1024,1,FALSE,FALSE,FALSE,FALSE,FALSE,0,FALSE,FALSE,FALSE,FALSE,52,7.446,1082,2063,7.478,FALSE,3.726,3.72,0.006,FALSE,FALSE,NA,117.7,117.6,117.6,0,0,0,0,5,2326.8,581.7,,Idle,0,20,FALSE,5,TRUE,6,Go Home,FALSE,FALSE,FALSE,FALSE,FALSE,FALSE,FALSE,FALSE,FALSE,FALSE,FALSE,FALSE,6.974619928,79.91439735,1.7,177.4,328,TRUE,1,1,FALSE,FALSE,FALSE,FALSE,,TRUE,FALSE,FALSE,Course Lock,49.2,254.5,16.4,Calm,39,,1.12.8,Mavic Mini,1SDCH7G0169R0K,1SFLH6Q0AB03DJ,1SRCH7F014TAHX,1U5X071EXP6C9Y,71.9,0.2,6.5,4.611675,2.23694,0,0,Mavic Mini,1SDCH7G0169R0K,1SFLH6Q0AB03DJ,1SRCH7F014TAHX,1U5X071EXP6C9Y,DJI Fly,,1.12.8,74ABB725-FC6C-1CC8-6C1A-3CAB126E8F4C,1SDCH7G0169R0K,,,,,,,,,
2/27/2024,15:15.1,11m 5.0s,665,6.974615903,79.91439498,0,0,0.3,52,0.1,0,0,0,0,0,0,0,0,6,-0.3,-158.3,201.7,,Manual Takeoff,Other,Takeoff (RC Assisted),14,5,TRUE,,Mavic Mini,TRUE,FALSE,,Smart,RC,TRUE,TRUE,FALSE,,,TRUE,,FALSE,FALSE,FALSE,FALSE,FALSE,FALSE,FALSE,FALSE,FALSE,FALSE,0,Follow Yaw,0,0,-159.9,200.1,FALSE,FALSE,FALSE,FALSE,FALSE,FALSE,,TRUE,Normal,,100,1024,1024,1024,1024,1,FALSE,FALSE,FALSE,FALSE,FALSE,0,FALSE,FALSE,FALSE,FALSE,52,7.446,1082,2063,7.478,FALSE,3.726,3.72,0.006,FALSE,FALSE,NA,117.7,117.6,117.6,0,0,0,0,5,2326.8,581.7,,Idle,0,20,FALSE,5,TRUE,6,Go Home,FALSE,FALSE,FALSE,FALSE,FALSE,FALSE,FALSE,FALSE,FALSE,FALSE,FALSE,FALSE,6.974619928,79.91439735,1.7,177.4,328,TRUE,1,1,FALSE,FALSE,FALSE,FALSE,,TRUE,FALSE,FALSE,Course Lock,49.2,254.5,16.4,Calm,39,,1.12.8,Mavic Mini,1SDCH7G0169R0K,1SFLH6Q0AB03DJ,1SRCH7F014TAHX,1U5X071EXP6C9Y,71.9,0.2,6.5,4.611675,2.23694,0,0,Mavic Mini,1SDCH7G0169R0K,1SFLH6Q0AB03DJ,1SRCH7F014TAHX,1U5X071EXP6C9Y,DJI Fly,,1.12.8,74ABB725-FC6C-1CC8-6C1A-3CAB126E8F4C,1SDCH7G0169R0K,,,,,,,,,
2/27/2024,15:15.2,11m 5.1s,665.1,6.974615908,79.91439498,0,0,0.3,52,0.1,0,0,0,0,0,0,0,0,6,-0.3,-158.3,201.7,,Manual Takeoff,Other,Takeoff (RC Assisted),14,5,TRUE,,Mavic Mini,TRUE,FALSE,,Smart,RC,TRUE,TRUE,FALSE,,,TRUE,,FALSE,FALSE,FALSE,FALSE,FALSE,FALSE,FALSE,FALSE,FALSE,FALSE,0,Follow Yaw,0,0,-159.9,200.1,FALSE,FALSE,FALSE,FALSE,FALSE,FALSE,,TRUE,Normal,,100,1024,1024,1024,1024,1,FALSE,FALSE,FALSE,FALSE,FALSE,0,FALSE,FALSE,FALSE,FALSE,52,7.446,1082,2063,7.478,FALSE,3.726,3.72,0.006,FALSE,FALSE,NA,117.7,117.6,117.6,0,0,0,0,5,2326.8,581.7,,Idle,0,20,FALSE,5,TRUE,6,Go Home,FALSE,FALSE,FALSE,FALSE,FALSE,FALSE,FALSE,FALSE,FALSE,FALSE,FALSE,FALSE,6.974619928,79.91439735,1.7,177.4,328,TRUE,1,1,FALSE,FALSE,FALSE,FALSE,,TRUE,FALSE,FALSE,Course Lock,49.2,254.5,16.4,Calm,39,,1.12.8,Mavic Mini,1SDCH7G0169R0K,1SFLH6Q0AB03DJ,1SRCH7F014TAHX,1U5X071EXP6C9Y,71.9,0.2,6.5,4.611675,2.23694,0,0,Mavic Mini,1SDCH7G0169R0K,1SFLH6Q0AB03DJ,1SRCH7F014TAHX,1U5X071EXP6C9Y,DJI Fly,,1.12.8,74ABB725-FC6C-1CC8-6C1A-3CAB126E8F4C,1SDCH7G0169R0K,,,,,,,,,
2/27/2024,15:15.4,11m 5.2s,665.2,6.974615881,79.91439492,0,0,0.3,52,0.2,0,0,0,0,0,0,0,0,6,-0.3,-158.4,201.6,,Manual Takeoff,Other,Takeoff (RC Assisted),14,5,TRUE,,Mavic Mini,TRUE,FALSE,,Smart,RC,TRUE,TRUE,FALSE,,,TRUE,,FALSE,FALSE,FALSE,FALSE,FALSE,FALSE,FALSE,FALSE,FALSE,FALSE,0,Follow Yaw,0,0,-159.9,200.1,FALSE,FALSE,FALSE,FALSE,FALSE,FALSE,,TRUE,Normal,,100,1024,1024,1024,1024,1,FALSE,FALSE,FALSE,FALSE,FALSE,0,FALSE,FALSE,FALSE,FALSE,52,7.446,1082,2063,7.454,FALSE,3.726,3.72,0.006,FALSE,FALSE,NA,117.7,117.6,117.6,0,0,0,0,5,2461.4,615.36,,Idle,0,20,FALSE,5,TRUE,6,Go Home,FALSE,FALSE,FALSE,FALSE,FALSE,FALSE,FALSE,FALSE,FALSE,FALSE,FALSE,FALSE,6.974619928,79.91439735,1.7,177.4,328,TRUE,1,1,FALSE,FALSE,FALSE,FALSE,,TRUE,FALSE,FALSE,Course Lock,49.2,254.5,16.4,Calm,39,,1.12.8,Mavic Mini,1SDCH7G0169R0K,1SFLH6Q0AB03DJ,1SRCH7F014TAHX,1U5X071EXP6C9Y,71.9,0.2,6.5,4.611675,2.23694,0,0,Mavic Mini,1SDCH7G0169R0K,1SFLH6Q0AB03DJ,1SRCH7F014TAHX,1U5X071EXP6C9Y,DJI Fly,,1.12.8,74ABB725-FC6C-1CC8-6C1A-3CAB126E8F4C,1SDCH7G0169R0K,,,,,,,,,
2/27/2024,15:15.5,11m 5.3s,665.3,6.974615885,79.91439495,0,0,0.3,52,0.2,0,0,0,0,0,0,0,0,6,-0.3,-158.4,201.6,,Manual Takeoff,Other,Takeoff (RC Assisted),14,5,TRUE,,Mavic Mini,TRUE,FALSE,,Smart,RC,TRUE,TRUE,FALSE,,,TRUE,,FALSE,FALSE,FALSE,FALSE,FALSE,FALSE,FALSE,FALSE,FALSE,FALSE,0,Follow Yaw,0,0,-159.9,200.1,FALSE,FALSE,FALSE,FALSE,FALSE,FALSE,,TRUE,Normal,,100,1024,1024,1024,1024,0,FALSE,FALSE,FALSE,FALSE,FALSE,0,FALSE,FALSE,FALSE,FALSE,52,7.446,1082,2063,7.454,FALSE,3.726,3.72,0.006,FALSE,FALSE,NA,117.7,117.6,117.6,0,0,0,0,5,2461.4,615.36,,Idle,0,20,FALSE,5,TRUE,6,Go Home,FALSE,FALSE,FALSE,FALSE,FALSE,FALSE,FALSE,FALSE,FALSE,FALSE,FALSE,FALSE,6.974619928,79.91439735,1.7,177.4,328,TRUE,1,1,FALSE,FALSE,FALSE,FALSE,,TRUE,FALSE,FALSE,Course Lock,49.2,254.5,16.4,Calm,39,,1.12.8,Mavic Mini,1SDCH7G0169R0K,1SFLH6Q0AB03DJ,1SRCH7F014TAHX,1U5X071EXP6C9Y,71.9,0.2,6.5,4.611675,2.23694,0,0,Mavic Mini,1SDCH7G0169R0K,1SFLH6Q0AB03DJ,1SRCH7F014TAHX,1U5X071EXP6C9Y,DJI Fly,,1.12.8,74ABB725-FC6C-1CC8-6C1A-3CAB126E8F4C,1SDCH7G0169R0K,,,,,,,,,
2/27/2024,15:15.5,11m 5.4s,665.4,6.974615888,79.914395,0,0,0.3,52,0.2,0,0,0,0,0,0,0,0,6,-0.3,-158.3,201.7,,Manual Takeoff,Other,Takeoff (RC Assisted),14,5,TRUE,,Mavic Mini,TRUE,FALSE,,Smart,RC,TRUE,TRUE,FALSE,,,TRUE,,FALSE,FALSE,FALSE,FALSE,FALSE,FALSE,FALSE,FALSE,FALSE,FALSE,0,Follow Yaw,0,0,-159.9,200.1,FALSE,FALSE,FALSE,FALSE,FALSE,FALSE,,TRUE,Normal,,100,1024,1024,1024,1024,0,FALSE,FALSE,FALSE,FALSE,FALSE,0,FALSE,FALSE,FALSE,FALSE,52,7.446,1082,2063,7.454,FALSE,3.726,3.72,0.006,FALSE,FALSE,NA,117.7,117.6,117.6,0,0,0,0,5,2461.4,615.36,,Idle,0,20,FALSE,5,TRUE,6,Go Home,FALSE,FALSE,FALSE,FALSE,FALSE,FALSE,FALSE,FALSE,FALSE,FALSE,FALSE,FALSE,6.974619928,79.91439735,1.7,177.4,328,TRUE,1,1,FALSE,FALSE,FALSE,FALSE,,TRUE,FALSE,FALSE,Course Lock,49.2,254.5,16.4,Calm,39,,1.12.8,Mavic Mini,1SDCH7G0169R0K,1SFLH6Q0AB03DJ,1SRCH7F014TAHX,1U5X071EXP6C9Y,71.9,0.2,6.5,4.611675,2.23694,0,0,Mavic Mini,1SDCH7G0169R0K,1SFLH6Q0AB03DJ,1SRCH7F014TAHX,1U5X071EXP6C9Y,DJI Fly,,1.12.8,74ABB725-FC6C-1CC8-6C1A-3CAB126E8F4C,1SDCH7G0169R0K,,,,,,,,,
2/27/2024,15:15.7,11m 5.5s,665.5,6.974615891,79.91439502,0,0,0.3,52,0.2,0,0,0,0,0,0,0,0,6,-0.3,-158.4,201.6,,Manual Takeoff,Other,Takeoff (RC Assisted),14,5,TRUE,,Mavic Mini,TRUE,FALSE,,Smart,RC,TRUE,TRUE,FALSE,,,TRUE,,FALSE,FALSE,FALSE,FALSE,FALSE,FALSE,FALSE,FALSE,FALSE,FALSE,0,Follow Yaw,0,0,-159.9,200.1,FALSE,FALSE,FALSE,FALSE,FALSE,FALSE,,TRUE,Normal,,100,1024,1024,1024,1024,0,FALSE,FALSE,FALSE,FALSE,FALSE,0,FALSE,FALSE,FALSE,FALSE,52,7.492,1082,2063,7.454,FALSE,3.75,3.742,0.008,FALSE,FALSE,NA,117.7,117.6,117.6,0,0,0,0,5,2461.4,615.36,,Idle,0,20,FALSE,5,TRUE,6,Go Home,FALSE,FALSE,FALSE,FALSE,FALSE,FALSE,FALSE,FALSE,FALSE,FALSE,FALSE,FALSE,6.974619928,79.91439735,1.6,177.4,328,TRUE,1,1,FALSE,FALSE,FALSE,FALSE,,TRUE,FALSE,FALSE,Course Lock,49.2,254.5,16.4,Calm,39,,1.12.8,Mavic Mini,1SDCH7G0169R0K,1SFLH6Q0AB03DJ,1SRCH7F014TAHX,1U5X071EXP6C9Y,71.9,0.2,6.5,4.611675,2.23694,0,0,Mavic Mini,1SDCH7G0169R0K,1SFLH6Q0AB03DJ,1SRCH7F014TAHX,1U5X071EXP6C9Y,DJI Fly,,1.12.8,74ABB725-FC6C-1CC8-6C1A-3CAB126E8F4C,1SDCH7G0169R0K,,,,,6.974587077,79.91443142,5,,
2/27/2024,15:15.7,11m 5.6s,665.6,6.974615849,79.91439508,0,0,0.3,52,0.2,0,0,0,0,0,0,0,0,6,-0.3,-158.3,201.7,,Manual Takeoff,Other,Takeoff (RC Assisted),14,5,TRUE,,Mavic Mini,TRUE,FALSE,,Smart,RC,TRUE,TRUE,FALSE,,,TRUE,,FALSE,FALSE,FALSE,FALSE,FALSE,FALSE,FALSE,FALSE,FALSE,FALSE,0,Follow Yaw,0,0,-159.9,200.1,FALSE,FALSE,FALSE,FALSE,FALSE,FALSE,,TRUE,Normal,,100,1024,1024,1024,1024,0,FALSE,FALSE,FALSE,FALSE,FALSE,0,FALSE,FALSE,FALSE,FALSE,52,7.492,1082,2063,7.454,FALSE,3.75,3.742,0.008,FALSE,FALSE,NA,117.7,117.6,117.6,0,0,0,0,5,2461.4,615.36,,Idle,0,20,FALSE,5,TRUE,6,Go Home,FALSE,FALSE,FALSE,FALSE,FALSE,FALSE,FALSE,FALSE,FALSE,FALSE,FALSE,FALSE,6.974619928,79.91439735,1.7,177.4,328,TRUE,1,1,FALSE,FALSE,FALSE,FALSE,,TRUE,FALSE,FALSE,Course Lock,49.2,254.5,16.4,Calm,39,,1.12.8,Mavic Mini,1SDCH7G0169R0K,1SFLH6Q0AB03DJ,1SRCH7F014TAHX,1U5X071EXP6C9Y,71.9,0.2,6.5,4.611675,2.23694,0,0,Mavic Mini,1SDCH7G0169R0K,1SFLH6Q0AB03DJ,1SRCH7F014TAHX,1U5X071EXP6C9Y,DJI Fly,,1.12.8,74ABB725-FC6C-1CC8-6C1A-3CAB126E8F4C,1SDCH7G0169R0K,,,,,6.974587077,79.91443142,5,,
2/27/2024,15:15.9,11m 5.7s,665.7,6.974615853,79.91439508,0,0,0.3,52,0.2,0,0,0,0,0,0,0,0,6,-0.3,-158.3,201.7,,Manual Takeoff,Other,Takeoff (RC Assisted),14,5,TRUE,,Mavic Mini,TRUE,FALSE,,Smart,RC,TRUE,TRUE,FALSE,,,TRUE,,FALSE,FALSE,FALSE,FALSE,FALSE,FALSE,FALSE,FALSE,FALSE,FALSE,0,Follow Yaw,0,0,-159.9,200.1,FALSE,FALSE,FALSE,FALSE,FALSE,FALSE,,TRUE,Normal,,100,1024,1024,1024,1024,0,FALSE,FALSE,FALSE,FALSE,FALSE,0,FALSE,FALSE,FALSE,FALSE,52,7.492,1082,2063,7.454,FALSE,3.75,3.742,0.008,FALSE,FALSE,NA,117.7,117.6,117.6,0,0,0,0,5,2461.4,615.36,,Idle,0,20,FALSE,5,TRUE,6,Go Home,FALSE,FALSE,FALSE,FALSE,FALSE,FALSE,FALSE,FALSE,FALSE,FALSE,FALSE,FALSE,6.974619928,79.91439735,1.6,177.4,328,TRUE,1,1,FALSE,FALSE,FALSE,FALSE,,TRUE,FALSE,FALSE,Course Lock,49.2,254.5,16.4,Calm,39,,1.12.8,Mavic Mini,1SDCH7G0169R0K,1SFLH6Q0AB03DJ,1SRCH7F014TAHX,1U5X071EXP6C9Y,71.9,0.2,6.5,4.611675,2.23694,0,0,Mavic Mini,1SDCH7G0169R0K,1SFLH6Q0AB03DJ,1SRCH7F014TAHX,1U5X071EXP6C9Y,DJI Fly,,1.12.8,74ABB725-FC6C-1CC8-6C1A-3CAB126E8F4C,1SDCH7G0169R0K,,,,,6.974587077,79.91443142,5,,
2/27/2024,15:16.1,11m 5.8s,665.8,6.974615858,79.91439508,0,0,0.3,52,0.2,0,0,0,0,0,0,0,0,6,-0.3,-158.4,201.6,,Manual Takeoff,Other,Takeoff (RC Assisted),14,5,TRUE,,Mavic Mini,TRUE,FALSE,,Smart,RC,TRUE,TRUE,FALSE,,,TRUE,,FALSE,FALSE,FALSE,FALSE,FALSE,FALSE,FALSE,FALSE,FALSE,FALSE,0,Follow Yaw,0,0,-159.9,200.1,FALSE,FALSE,FALSE,FALSE,FALSE,FALSE,,TRUE,Normal,,100,1024,1024,1024,1024,0,FALSE,FALSE,FALSE,FALSE,FALSE,0,FALSE,FALSE,FALSE,FALSE,52,7.492,1082,2063,7.454,FALSE,3.75,3.742,0.008,FALSE,FALSE,NA,117.7,117.6,117.6,0,0,0,0,5,2461.4,615.36,,Idle,0,20,FALSE,5,TRUE,6,Go Home,FALSE,FALSE,FALSE,FALSE,FALSE,FALSE,FALSE,FALSE,FALSE,FALSE,FALSE,FALSE,6.974619928,79.91439735,1.6,177.4,328,TRUE,1,1,FALSE,FALSE,FALSE,FALSE,,TRUE,FALSE,FALSE,Course Lock,49.2,254.5,16.4,Calm,39,,1.12.8,Mavic Mini,1SDCH7G0169R0K,1SFLH6Q0AB03DJ,1SRCH7F014TAHX,1U5X071EXP6C9Y,71.9,0.2,6.5,4.611675,2.23694,0,0,Mavic Mini,1SDCH7G0169R0K,1SFLH6Q0AB03DJ,1SRCH7F014TAHX,1U5X071EXP6C9Y,DJI Fly,,1.12.8,74ABB725-FC6C-1CC8-6C1A-3CAB126E8F4C,1SDCH7G0169R0K,,,,,6.974587077,79.91443142,5,,
2/27/2024,15:16.1,11m 5.9s,665.9,6.974615862,79.91439507,0,0,0.3,52,0.2,0,0,0,0,0,0,0,0,6,-0.3,-158.4,201.6,,Manual Takeoff,Other,Takeoff (RC Assisted),14,5,TRUE,,Mavic Mini,TRUE,FALSE,,Smart,RC,TRUE,TRUE,FALSE,,,TRUE,,FALSE,FALSE,FALSE,FALSE,FALSE,FALSE,FALSE,FALSE,FALSE,FALSE,0,Follow Yaw,0,0,-159.9,200.1,FALSE,FALSE,FALSE,FALSE,FALSE,FALSE,,TRUE,Normal,,100,1024,1024,1024,1024,0,FALSE,FALSE,FALSE,FALSE,FALSE,0,FALSE,FALSE,FALSE,FALSE,52,7.492,1082,2063,7.454,FALSE,3.75,3.742,0.008,FALSE,FALSE,NA,117.7,117.6,117.6,0,0,0,0,5,2461.4,615.36,,Idle,0,20,FALSE,5,TRUE,6,Go Home,FALSE,FALSE,FALSE,FALSE,FALSE,FALSE,FALSE,FALSE,FALSE,FALSE,FALSE,FALSE,6.974619928,79.91439735,1.6,177.4,328,TRUE,1,1,FALSE,FALSE,FALSE,FALSE,,TRUE,FALSE,FALSE,Course Lock,49.2,254.5,16.4,Calm,39,,1.12.8,Mavic Mini,1SDCH7G0169R0K,1SFLH6Q0AB03DJ,1SRCH7F014TAHX,1U5X071EXP6C9Y,71.9,0.2,6.5,4.611675,2.23694,0,0,Mavic Mini,1SDCH7G0169R0K,1SFLH6Q0AB03DJ,1SRCH7F014TAHX,1U5X071EXP6C9Y,DJI Fly,,1.12.8,74ABB725-FC6C-1CC8-6C1A-3CAB126E8F4C,1SDCH7G0169R0K,,,,,6.974587077,79.91443142,5,,
2/27/2024,15:16.2,11m 6.0s,666,6.974615836,79.914395,0,0,0.3,52,0.2,0,0,0,0,0,0,0,0,6,-0.3,-158.4,201.6,,Manual Takeoff,Other,Takeoff (RC Assisted),14,5,TRUE,,Mavic Mini,TRUE,FALSE,,Smart,RC,TRUE,TRUE,FALSE,,,TRUE,,FALSE,FALSE,FALSE,FALSE,FALSE,FALSE,FALSE,FALSE,FALSE,FALSE,0,Follow Yaw,0,0,-159.9,200.1,FALSE,FALSE,FALSE,FALSE,FALSE,FALSE,,TRUE,Normal,,100,1024,1024,1024,1024,0,FALSE,FALSE,FALSE,FALSE,FALSE,0,FALSE,FALSE,FALSE,FALSE,52,7.492,1082,2063,7.454,FALSE,3.75,3.742,0.008,FALSE,FALSE,NA,117.7,117.6,117.6,0,0,0,0,5,2461.4,615.36,,Idle,0,20,FALSE,5,TRUE,6,Go Home,FALSE,FALSE,FALSE,FALSE,FALSE,FALSE,FALSE,FALSE,FALSE,FALSE,FALSE,FALSE,6.974619928,79.91439735,1.7,177.4,328,TRUE,1,1,FALSE,FALSE,FALSE,FALSE,,TRUE,FALSE,FALSE,Course Lock,49.2,254.5,16.4,Calm,39,,1.12.8,Mavic Mini,1SDCH7G0169R0K,1SFLH6Q0AB03DJ,1SRCH7F014TAHX,1U5X071EXP6C9Y,71.9,0.2,6.5,4.611675,2.23694,0,0,Mavic Mini,1SDCH7G0169R0K,1SFLH6Q0AB03DJ,1SRCH7F014TAHX,1U5X071EXP6C9Y,DJI Fly,,1.12.8,74ABB725-FC6C-1CC8-6C1A-3CAB126E8F4C,1SDCH7G0169R0K,,,,,6.974587077,79.91443142,5,,
2/27/2024,15:16.2,11m 6.1s,666.1,6.974615841,79.914395,0,0,0.3,52,0.3,0,0,0,0,0,0,0,0,6,-0.3,-158.4,201.6,,Manual Takeoff,Other,Takeoff (RC Assisted),14,5,TRUE,,Mavic Mini,TRUE,FALSE,,Smart,RC,TRUE,TRUE,FALSE,,,TRUE,,FALSE,FALSE,FALSE,FALSE,FALSE,FALSE,FALSE,FALSE,FALSE,FALSE,0,Follow Yaw,0,0,-159.9,200.1,FALSE,FALSE,FALSE,FALSE,FALSE,FALSE,,TRUE,Normal,,100,1024,1024,1024,1024,0,FALSE,FALSE,FALSE,FALSE,FALSE,0,FALSE,FALSE,FALSE,FALSE,52,7.492,1082,2063,7.454,FALSE,3.75,3.742,0.008,FALSE,FALSE,NA,117.7,117.6,117.6,0,0,0,0,5,2461.4,615.36,,Idle,0,20,FALSE,5,TRUE,6,Go Home,FALSE,FALSE,FALSE,FALSE,FALSE,FALSE,FALSE,FALSE,FALSE,FALSE,FALSE,FALSE,6.974619928,79.91439735,1.7,177.4,328,TRUE,1,1,FALSE,FALSE,FALSE,FALSE,,TRUE,FALSE,FALSE,Course Lock,49.2,254.5,16.4,Calm,39,,1.12.8,Mavic Mini,1SDCH7G0169R0K,1SFLH6Q0AB03DJ,1SRCH7F014TAHX,1U5X071EXP6C9Y,71.9,0.2,6.5,4.611675,2.23694,0,0,Mavic Mini,1SDCH7G0169R0K,1SFLH6Q0AB03DJ,1SRCH7F014TAHX,1U5X071EXP6C9Y,DJI Fly,,1.12.8,74ABB725-FC6C-1CC8-6C1A-3CAB126E8F4C,1SDCH7G0169R0K,,,,,6.974587077,79.91443142,5,,
2/27/2024,15:16.3,11m 6.2s,666.2,6.974615847,79.91439499,0,0,0.3,52,0.3,0,0,0,0,0,0,0,0,6,-0.3,-158.3,201.7,,Manual Takeoff,Other,Takeoff (RC Assisted),14,5,TRUE,,Mavic Mini,TRUE,FALSE,,Smart,RC,TRUE,TRUE,FALSE,,,TRUE,,FALSE,FALSE,FALSE,FALSE,FALSE,FALSE,FALSE,FALSE,FALSE,FALSE,0,Follow Yaw,0,0,-159.9,200.1,FALSE,FALSE,FALSE,FALSE,FALSE,FALSE,,TRUE,Normal,,100,1024,1024,1024,1024,2,FALSE,FALSE,FALSE,FALSE,FALSE,0,FALSE,FALSE,FALSE,FALSE,52,7.492,1082,2063,7.488,FALSE,3.75,3.742,0.008,FALSE,FALSE,NA,117.7,117.6,117.6,0,0,0,0,5,2686,671.52,,Idle,0,20,FALSE,5,TRUE,6,Go Home,FALSE,FALSE,FALSE,FALSE,FALSE,FALSE,FALSE,FALSE,FALSE,FALSE,FALSE,FALSE,6.974619928,79.91439735,1.7,177.4,328,TRUE,1,1,FALSE,FALSE,FALSE,FALSE,,TRUE,FALSE,FALSE,Course Lock,49.2,254.5,16.4,Calm,39,,1.12.8,Mavic Mini,1SDCH7G0169R0K,1SFLH6Q0AB03DJ,1SRCH7F014TAHX,1U5X071EXP6C9Y,71.9,0.2,6.5,4.611675,2.23694,0,0,Mavic Mini,1SDCH7G0169R0K,1SFLH6Q0AB03DJ,1SRCH7F014TAHX,1U5X071EXP6C9Y,DJI Fly,,1.12.8,74ABB725-FC6C-1CC8-6C1A-3CAB126E8F4C,1SDCH7G0169R0K,,,,,6.974587077,79.91443142,5,,
2/27/2024,15:16.4,11m 6.3s,666.3,6.974615852,79.91439499,0,0,0.3,52,0.3,0,0,0,0,0,0,0,0,6,-0.3,-158.4,201.6,,Manual Takeoff,Other,Takeoff (RC Assisted),14,5,TRUE,,Mavic Mini,TRUE,FALSE,,Smart,RC,TRUE,TRUE,FALSE,,,TRUE,,FALSE,FALSE,FALSE,FALSE,FALSE,FALSE,FALSE,FALSE,FALSE,FALSE,0,Follow Yaw,0,0,-159.9,200.1,FALSE,FALSE,FALSE,FALSE,FALSE,FALSE,,TRUE,Normal,,100,1024,1024,1024,1024,2,FALSE,FALSE,FALSE,FALSE,FALSE,0,FALSE,FALSE,FALSE,FALSE,52,7.492,1082,2063,7.488,FALSE,3.75,3.742,0.008,FALSE,FALSE,NA,117.7,117.6,117.6,0,0,0,0,5,2686,671.52,,Idle,0,20,FALSE,5,TRUE,6,Go Home,FALSE,FALSE,FALSE,FALSE,FALSE,FALSE,FALSE,FALSE,FALSE,FALSE,FALSE,FALSE,6.974619928,79.91439735,1.7,177.4,328,TRUE,1,1,FALSE,FALSE,FALSE,FALSE,,TRUE,FALSE,FALSE,Course Lock,49.2,254.5,16.4,Calm,39,,1.12.8,Mavic Mini,1SDCH7G0169R0K,1SFLH6Q0AB03DJ,1SRCH7F014TAHX,1U5X071EXP6C9Y,71.9,0.2,6.5,4.611675,2.23694,0,0,Mavic Mini,1SDCH7G0169R0K,1SFLH6Q0AB03DJ,1SRCH7F014TAHX,1U5X071EXP6C9Y,DJI Fly,,1.12.8,74ABB725-FC6C-1CC8-6C1A-3CAB126E8F4C,1SDCH7G0169R0K,,,,,6.974587077,79.91443142,5,,
2/27/2024,15:16.4,11m 6.4s,666.4,6.974615833,79.91439497,0,0,0.3,52,0.3,0,0,0,0,0,0,0,0,6,-0.3,-158.4,201.6,,Manual Takeoff,Other,Takeoff (RC Assisted),14,5,TRUE,,Mavic Mini,TRUE,FALSE,,Smart,RC,TRUE,TRUE,FALSE,,,TRUE,,FALSE,FALSE,FALSE,FALSE,FALSE,FALSE,FALSE,FALSE,FALSE,FALSE,0,Follow Yaw,0,0,-159.9,200.1,FALSE,FALSE,FALSE,FALSE,FALSE,FALSE,,TRUE,Normal,,100,1024,1024,1024,1024,2,FALSE,FALSE,FALSE,FALSE,FALSE,0,FALSE,FALSE,FALSE,FALSE,52,7.492,1082,2063,7.488,FALSE,3.75,3.742,0.008,FALSE,FALSE,NA,117.7,117.6,117.6,0,0,0,0,5,2686,671.52,,Idle,0,20,FALSE,5,TRUE,6,Go Home,FALSE,FALSE,FALSE,FALSE,FALSE,FALSE,FALSE,FALSE,FALSE,FALSE,FALSE,FALSE,6.974619928,79.91439735,1.7,177.4,328,TRUE,1,1,FALSE,FALSE,FALSE,FALSE,,TRUE,FALSE,FALSE,Course Lock,49.2,254.5,16.4,Calm,39,,1.12.8,Mavic Mini,1SDCH7G0169R0K,1SFLH6Q0AB03DJ,1SRCH7F014TAHX,1U5X071EXP6C9Y,71.9,0.2,6.5,4.611675,2.23694,0,0,Mavic Mini,1SDCH7G0169R0K,1SFLH6Q0AB03DJ,1SRCH7F014TAHX,1U5X071EXP6C9Y,DJI Fly,,1.12.8,74ABB725-FC6C-1CC8-6C1A-3CAB126E8F4C,1SDCH7G0169R0K,,,,,6.974587077,79.91443142,5,,
2/27/2024,15:16.6,11m 6.5s,666.5,6.974615838,79.91439497,0,0,0.3,52,0.3,0,0,0,0,0,0,0,0,6,-0.3,-158.3,201.7,,Manual Takeoff,Other,Takeoff (RC Assisted),14,5,TRUE,,Mavic Mini,TRUE,FALSE,,Smart,RC,TRUE,TRUE,FALSE,,,TRUE,,FALSE,FALSE,FALSE,FALSE,FALSE,FALSE,FALSE,FALSE,FALSE,FALSE,0,Follow Yaw,0,0,-159.9,200.1,FALSE,FALSE,FALSE,FALSE,FALSE,FALSE,,TRUE,Normal,,100,1024,1024,1024,1024,2,FALSE,FALSE,FALSE,FALSE,FALSE,0,FALSE,FALSE,FALSE,FALSE,52,7.492,1082,2063,7.488,FALSE,3.75,3.742,0.008,FALSE,FALSE,NA,117.7,117.6,117.6,0,0,0,0,5,2686,671.52,,Idle,0,20,FALSE,5,TRUE,6,Go Home,FALSE,FALSE,FALSE,FALSE,FALSE,FALSE,FALSE,FALSE,FALSE,FALSE,FALSE,FALSE,6.974619928,79.91439735,1.7,177.4,328,TRUE,1,1,FALSE,FALSE,FALSE,FALSE,,TRUE,FALSE,FALSE,Course Lock,49.2,254.5,16.4,Calm,39,,1.12.8,Mavic Mini,1SDCH7G0169R0K,1SFLH6Q0AB03DJ,1SRCH7F014TAHX,1U5X071EXP6C9Y,71.9,0.2,6.5,4.611675,2.23694,0,0,Mavic Mini,1SDCH7G0169R0K,1SFLH6Q0AB03DJ,1SRCH7F014TAHX,1U5X071EXP6C9Y,DJI Fly,,1.12.8,74ABB725-FC6C-1CC8-6C1A-3CAB126E8F4C,1SDCH7G0169R0K,,,,,6.974587077,79.91443142,5,,
2/27/2024,15:16.7,11m 6.6s,666.6,6.974615844,79.91439496,0,0,0.3,52,0.3,0,0,0,0,0,0,0,0,6,-0.3,-158.4,201.6,,Manual Takeoff,Other,Takeoff (RC Assisted),14,5,TRUE,,Mavic Mini,TRUE,FALSE,,Smart,RC,TRUE,TRUE,FALSE,,,TRUE,,FALSE,FALSE,FALSE,FALSE,FALSE,FALSE,FALSE,FALSE,FALSE,FALSE,0,Follow Yaw,0,0,-159.9,200.1,FALSE,FALSE,FALSE,FALSE,FALSE,FALSE,,TRUE,Normal,,100,1024,1024,1024,1024,2,FALSE,FALSE,FALSE,FALSE,FALSE,0,FALSE,FALSE,FALSE,FALSE,52,7.492,1082,2063,7.488,FALSE,3.75,3.742,0.008,FALSE,FALSE,NA,117.7,117.6,117.6,0,0,0,0,5,2686,671.52,,Idle,0,20,FALSE,5,TRUE,6,Go Home,FALSE,FALSE,FALSE,FALSE,FALSE,FALSE,FALSE,FALSE,FALSE,FALSE,FALSE,FALSE,6.974619928,79.91439735,1.7,177.4,328,TRUE,1,1,FALSE,FALSE,FALSE,FALSE,,TRUE,FALSE,FALSE,Course Lock,49.2,254.5,16.4,Calm,39,,1.12.8,Mavic Mini,1SDCH7G0169R0K,1SFLH6Q0AB03DJ,1SRCH7F014TAHX,1U5X071EXP6C9Y,71.9,0.2,6.5,4.611675,2.23694,0,0,Mavic Mini,1SDCH7G0169R0K,1SFLH6Q0AB03DJ,1SRCH7F014TAHX,1U5X071EXP6C9Y,DJI Fly,,1.12.8,74ABB725-FC6C-1CC8-6C1A-3CAB126E8F4C,1SDCH7G0169R0K,,,,,6.974587077,79.91443142,5,,
2/27/2024,15:16.8,11m 6.7s,666.7,6.974615848,79.914395,0,0,0.3,52,0.3,0,0,0,0,0,0,0,0,6,-0.3,-158.4,201.6,,Manual Takeoff,Other,Takeoff (RC Assisted),14,5,TRUE,,Mavic Mini,TRUE,FALSE,,Smart,RC,TRUE,TRUE,FALSE,,,TRUE,,FALSE,FALSE,FALSE,FALSE,FALSE,FALSE,FALSE,FALSE,FALSE,FALSE,0,Follow Yaw,0,0,-159.9,200.1,FALSE,FALSE,FALSE,FALSE,FALSE,FALSE,,TRUE,Normal,,100,1024,1024,1024,1024,2,FALSE,FALSE,FALSE,FALSE,FALSE,0,FALSE,FALSE,FALSE,FALSE,52,7.483,1081,2063,7.488,FALSE,3.742,3.741,0.008,FALSE,FALSE,NA,117.7,117.6,117.6,0,0,0,0,5,2686,671.52,,Idle,0,20,FALSE,5,TRUE,6,Go Home,FALSE,FALSE,FALSE,FALSE,FALSE,FALSE,FALSE,FALSE,FALSE,FALSE,FALSE,FALSE,6.974619928,79.91439735,1.7,177.4,328,TRUE,1,1,FALSE,FALSE,FALSE,FALSE,,TRUE,FALSE,FALSE,Course Lock,49.2,254.5,16.4,Calm,39,,1.12.8,Mavic Mini,1SDCH7G0169R0K,1SFLH6Q0AB03DJ,1SRCH7F014TAHX,1U5X071EXP6C9Y,71.9,0.2,6.5,4.611675,2.23694,0,0,Mavic Mini,1SDCH7G0169R0K,1SFLH6Q0AB03DJ,1SRCH7F014TAHX,1U5X071EXP6C9Y,DJI Fly,,1.12.8,74ABB725-FC6C-1CC8-6C1A-3CAB126E8F4C,1SDCH7G0169R0K,,,,,6.974587077,79.91443142,5,,
2/27/2024,15:16.9,11m 6.8s,666.8,6.974615854,79.91439505,0,0,0.3,52,0.3,0,0,0,0,0,0,0,0,6,-0.3,-158.3,201.7,,Manual Takeoff,Other,Takeoff (RC Assisted),14,5,TRUE,,Mavic Mini,TRUE,FALSE,,Smart,RC,TRUE,TRUE,FALSE,,,TRUE,,FALSE,FALSE,FALSE,FALSE,FALSE,FALSE,FALSE,FALSE,FALSE,FALSE,0,Follow Yaw,0,0,-159.9,200.1,FALSE,FALSE,FALSE,FALSE,FALSE,FALSE,,TRUE,Normal,,100,1024,1024,1024,1024,2,FALSE,FALSE,FALSE,FALSE,FALSE,0,FALSE,FALSE,FALSE,FALSE,52,7.483,1081,2063,7.488,FALSE,3.742,3.741,0.008,FALSE,FALSE,NA,117.7,117.6,117.6,0,0,0,0,5,2686,671.52,,Idle,0,20,FALSE,5,TRUE,6,Go Home,FALSE,FALSE,FALSE,FALSE,FALSE,FALSE,FALSE,FALSE,FALSE,FALSE,FALSE,FALSE,6.974619928,79.91439735,1.7,177.4,328,TRUE,1,1,FALSE,FALSE,FALSE,FALSE,,TRUE,FALSE,FALSE,Course Lock,49.2,254.5,16.4,Calm,39,,1.12.8,Mavic Mini,1SDCH7G0169R0K,1SFLH6Q0AB03DJ,1SRCH7F014TAHX,1U5X071EXP6C9Y,71.9,0.2,6.5,4.611675,2.23694,0,0,Mavic Mini,1SDCH7G0169R0K,1SFLH6Q0AB03DJ,1SRCH7F014TAHX,1U5X071EXP6C9Y,DJI Fly,,1.12.8,74ABB725-FC6C-1CC8-6C1A-3CAB126E8F4C,1SDCH7G0169R0K,,,,,6.974587077,79.91443142,5,,
2/27/2024,15:17.2,11m 6.9s,666.9,6.974615771,79.91439503,0,0,0.3,52,0.3,0,0,0,0,0,0,0,0,6,-0.3,-158.4,201.6,,Manual Takeoff,Other,Takeoff (RC Assisted),14,5,TRUE,,Mavic Mini,TRUE,FALSE,,Smart,RC,TRUE,TRUE,FALSE,,,TRUE,,FALSE,FALSE,FALSE,FALSE,FALSE,FALSE,FALSE,FALSE,FALSE,FALSE,0,Follow Yaw,0,0,-159.9,200.1,FALSE,FALSE,FALSE,FALSE,FALSE,FALSE,,TRUE,Normal,,100,1024,1024,1024,1024,2,FALSE,FALSE,FALSE,FALSE,FALSE,0,FALSE,FALSE,FALSE,FALSE,52,7.483,1081,2063,7.488,FALSE,3.742,3.741,0.008,FALSE,FALSE,NA,117.7,117.6,117.6,0,0,0,0,5,2686,671.52,,Idle,0,20,FALSE,5,TRUE,6,Go Home,FALSE,FALSE,FALSE,FALSE,FALSE,FALSE,FALSE,FALSE,FALSE,FALSE,FALSE,FALSE,6.974619928,79.91439735,1.7,177.4,328,TRUE,1,1,FALSE,FALSE,FALSE,FALSE,,TRUE,FALSE,FALSE,Course Lock,49.2,254.5,16.4,Calm,39,,1.12.8,Mavic Mini,1SDCH7G0169R0K,1SFLH6Q0AB03DJ,1SRCH7F014TAHX,1U5X071EXP6C9Y,71.9,0.2,6.5,4.611675,2.23694,0,0,Mavic Mini,1SDCH7G0169R0K,1SFLH6Q0AB03DJ,1SRCH7F014TAHX,1U5X071EXP6C9Y,DJI Fly,,1.12.8,74ABB725-FC6C-1CC8-6C1A-3CAB126E8F4C,1SDCH7G0169R0K,,,,,6.974587077,79.91443142,5,,
2/27/2024,15:17.2,11m 7.0s,667,6.974615668,79.914395,0,0,0.3,52,0.4,0,0,0,0,0,0,0,0,6,-0.3,-158.3,201.7,,Manual Takeoff,Other,Takeoff (RC Assisted),14,5,TRUE,,Mavic Mini,TRUE,FALSE,,Smart,RC,TRUE,TRUE,FALSE,,,TRUE,,FALSE,FALSE,FALSE,FALSE,FALSE,FALSE,FALSE,FALSE,FALSE,FALSE,0,Follow Yaw,0,0,-159.9,200.1,FALSE,FALSE,FALSE,FALSE,FALSE,FALSE,,TRUE,Normal,,100,1024,1024,1024,1024,2,FALSE,FALSE,FALSE,FALSE,FALSE,0,FALSE,FALSE,FALSE,FALSE,52,7.483,1081,2063,7.488,FALSE,3.742,3.741,0.008,FALSE,FALSE,NA,117.7,117.6,117.6,0,0,0,0,5,2686,671.52,,Idle,0,20,FALSE,5,TRUE,6,Go Home,FALSE,FALSE,FALSE,FALSE,FALSE,FALSE,FALSE,FALSE,FALSE,FALSE,FALSE,FALSE,6.974619928,79.91439735,1.7,177.4,328,TRUE,1,1,FALSE,FALSE,FALSE,FALSE,,TRUE,FALSE,FALSE,Course Lock,49.2,254.5,16.4,Calm,39,,1.12.8,Mavic Mini,1SDCH7G0169R0K,1SFLH6Q0AB03DJ,1SRCH7F014TAHX,1U5X071EXP6C9Y,71.9,0.2,6.5,4.611675,2.23694,0,0,Mavic Mini,1SDCH7G0169R0K,1SFLH6Q0AB03DJ,1SRCH7F014TAHX,1U5X071EXP6C9Y,DJI Fly,,1.12.8,74ABB725-FC6C-1CC8-6C1A-3CAB126E8F4C,1SDCH7G0169R0K,,,,,6.974587077,79.91443142,5,,
2/27/2024,15:17.3,11m 7.1s,667.1,6.974615637,79.91439502,0,0,0.3,52,0.4,0,0,0,0,0,0,0,0,6,-0.3,-158.4,201.6,,Manual Takeoff,Other,Takeoff (RC Assisted),14,5,TRUE,,Mavic Mini,TRUE,FALSE,,Smart,RC,TRUE,TRUE,FALSE,,,TRUE,,FALSE,FALSE,FALSE,FALSE,FALSE,FALSE,FALSE,FALSE,FALSE,FALSE,0,Follow Yaw,0,0,-159.9,200.1,FALSE,FALSE,FALSE,FALSE,FALSE,FALSE,,TRUE,Normal,,100,1024,1024,1024,1024,2,FALSE,FALSE,FALSE,FALSE,FALSE,0,FALSE,FALSE,FALSE,FALSE,52,7.483,1081,2063,7.488,FALSE,3.742,3.741,0.008,FALSE,FALSE,NA,117.7,117.6,117.6,0,0,0,0,5,2686,671.52,,Idle,0,20,FALSE,5,TRUE,6,Go Home,FALSE,FALSE,FALSE,FALSE,FALSE,FALSE,FALSE,FALSE,FALSE,FALSE,FALSE,FALSE,6.974619928,79.91439735,1.7,177.4,328,TRUE,1,1,FALSE,FALSE,FALSE,FALSE,,TRUE,FALSE,FALSE,Course Lock,49.2,254.5,16.4,Calm,39,,1.12.8,Mavic Mini,1SDCH7G0169R0K,1SFLH6Q0AB03DJ,1SRCH7F014TAHX,1U5X071EXP6C9Y,71.9,0.2,6.5,4.611675,2.23694,0,0,Mavic Mini,1SDCH7G0169R0K,1SFLH6Q0AB03DJ,1SRCH7F014TAHX,1U5X071EXP6C9Y,DJI Fly,,1.12.8,74ABB725-FC6C-1CC8-6C1A-3CAB126E8F4C,1SDCH7G0169R0K,,,,,6.974587077,79.91443142,5,,
2/27/2024,15:17.4,11m 7.2s,667.2,6.974615624,79.91439505,0,0,0.3,52,0.4,0,0,0,0,0,0,0,0,6,-0.3,-158.4,201.6,,Manual Takeoff,Other,Takeoff (RC Assisted),14,5,TRUE,,Mavic Mini,TRUE,FALSE,,Smart,RC,TRUE,TRUE,FALSE,,,TRUE,,FALSE,FALSE,FALSE,FALSE,FALSE,FALSE,FALSE,FALSE,FALSE,FALSE,0,Follow Yaw,0,0,-159.9,200.1,FALSE,FALSE,FALSE,FALSE,FALSE,FALSE,,TRUE,Normal,,100,1024,1024,1024,1024,2,FALSE,FALSE,FALSE,FALSE,FALSE,0,FALSE,FALSE,FALSE,FALSE,52,7.483,1081,2063,7.487,FALSE,3.742,3.741,0.008,FALSE,FALSE,NA,117.7,117.6,117.6,0,0,0,0,5,2953.5,738.38,,Idle,0,20,FALSE,5,TRUE,6,Go Home,FALSE,FALSE,FALSE,FALSE,FALSE,FALSE,FALSE,FALSE,FALSE,FALSE,FALSE,FALSE,6.974619928,79.91439735,1.7,177.4,328,TRUE,1,1,FALSE,FALSE,FALSE,FALSE,,TRUE,FALSE,FALSE,Course Lock,49.2,254.5,16.4,Calm,39,,1.12.8,Mavic Mini,1SDCH7G0169R0K,1SFLH6Q0AB03DJ,1SRCH7F014TAHX,1U5X071EXP6C9Y,71.9,0.2,6.5,4.611675,2.23694,0,0,Mavic Mini,1SDCH7G0169R0K,1SFLH6Q0AB03DJ,1SRCH7F014TAHX,1U5X071EXP6C9Y,DJI Fly,,1.12.8,74ABB725-FC6C-1CC8-6C1A-3CAB126E8F4C,1SDCH7G0169R0K,,,,,6.974587077,79.91443142,5,,
2/27/2024,15:17.5,11m 7.3s,667.3,6.974615641,79.91439512,0,0,0.3,52,0.4,0,0,0,0,0,0,0,0,6,-0.3,-158.3,201.7,,Manual Takeoff,Other,Takeoff (RC Assisted),14,5,TRUE,,Mavic Mini,TRUE,FALSE,,Smart,RC,TRUE,TRUE,FALSE,,,TRUE,,FALSE,FALSE,FALSE,FALSE,FALSE,FALSE,FALSE,FALSE,FALSE,FALSE,0,Follow Yaw,0,0,-159.9,200.1,FALSE,FALSE,FALSE,FALSE,FALSE,FALSE,,TRUE,Normal,,100,1024,1024,1024,1024,2,FALSE,FALSE,FALSE,FALSE,FALSE,0,FALSE,FALSE,FALSE,FALSE,52,7.483,1081,2063,7.487,FALSE,3.742,3.741,0.008,FALSE,FALSE,NA,117.7,117.6,117.6,0,0,0,0,5,2953.5,738.38,,Idle,0,20,FALSE,5,TRUE,6,Go Home,FALSE,FALSE,FALSE,FALSE,FALSE,FALSE,FALSE,FALSE,FALSE,FALSE,FALSE,FALSE,6.974619928,79.91439735,1.7,177.4,328,TRUE,1,1,FALSE,FALSE,FALSE,FALSE,,TRUE,FALSE,FALSE,Course Lock,49.2,254.5,16.4,Calm,39,,1.12.8,Mavic Mini,1SDCH7G0169R0K,1SFLH6Q0AB03DJ,1SRCH7F014TAHX,1U5X071EXP6C9Y,71.9,0.2,6.5,4.611675,2.23694,0,0,Mavic Mini,1SDCH7G0169R0K,1SFLH6Q0AB03DJ,1SRCH7F014TAHX,1U5X071EXP6C9Y,DJI Fly,,1.12.8,74ABB725-FC6C-1CC8-6C1A-3CAB126E8F4C,1SDCH7G0169R0K,,,,,6.974587077,79.91443142,5,,
2/27/2024,15:17.6,11m 7.4s,667.4,6.974615649,79.91439514,0,0,0.3,52,0.4,0,0,0,0,0,0,0,0,6,-0.3,-158.4,201.6,,Manual Takeoff,Other,Takeoff (RC Assisted),14,5,TRUE,,Mavic Mini,TRUE,FALSE,,Smart,RC,TRUE,TRUE,FALSE,,,TRUE,,FALSE,FALSE,FALSE,FALSE,FALSE,FALSE,FALSE,FALSE,FALSE,FALSE,0,Follow Yaw,0,0,-159.9,200.1,FALSE,FALSE,FALSE,FALSE,FALSE,FALSE,,TRUE,Normal,,100,1024,1024,1024,1024,2,FALSE,FALSE,FALSE,FALSE,FALSE,0,FALSE,FALSE,FALSE,FALSE,52,7.483,1081,2063,7.487,FALSE,3.742,3.741,0.008,FALSE,FALSE,NA,117.7,117.6,117.6,0,0,0,0,5,2953.5,738.38,,Idle,0,20,FALSE,5,TRUE,6,Go Home,FALSE,FALSE,FALSE,FALSE,FALSE,FALSE,FALSE,FALSE,FALSE,FALSE,FALSE,FALSE,6.974619928,79.91439735,1.7,177.4,328,TRUE,1,1,FALSE,FALSE,FALSE,FALSE,,TRUE,FALSE,FALSE,Course Lock,49.2,254.5,16.4,Calm,39,,1.12.8,Mavic Mini,1SDCH7G0169R0K,1SFLH6Q0AB03DJ,1SRCH7F014TAHX,1U5X071EXP6C9Y,71.9,0.2,6.5,4.611675,2.23694,0,0,Mavic Mini,1SDCH7G0169R0K,1SFLH6Q0AB03DJ,1SRCH7F014TAHX,1U5X071EXP6C9Y,DJI Fly,,1.12.8,74ABB725-FC6C-1CC8-6C1A-3CAB126E8F4C,1SDCH7G0169R0K,,,,,6.974587077,79.91443142,5,,
2/27/2024,15:17.7,11m 7.5s,667.5,6.97461566,79.91439514,0,0,0.3,52,0.4,0,0,0,0,0,0,0,0,6,-0.3,-158.4,201.6,,Manual Takeoff,Other,Takeoff (RC Assisted),14,5,TRUE,,Mavic Mini,TRUE,FALSE,,Smart,RC,TRUE,TRUE,FALSE,,,TRUE,,FALSE,FALSE,FALSE,FALSE,FALSE,FALSE,FALSE,FALSE,FALSE,FALSE,0,Follow Yaw,0,0,-159.9,200.1,FALSE,FALSE,FALSE,FALSE,FALSE,FALSE,,TRUE,Normal,,100,1024,1024,1024,1024,2,FALSE,FALSE,FALSE,FALSE,FALSE,0,FALSE,FALSE,FALSE,FALSE,52,7.483,1081,2063,7.487,FALSE,3.742,3.741,0.008,FALSE,FALSE,NA,117.7,117.6,117.6,0,0,0,0,5,2953.5,738.38,,Idle,0,20,FALSE,5,TRUE,6,Go Home,FALSE,FALSE,FALSE,FALSE,FALSE,FALSE,FALSE,FALSE,FALSE,FALSE,FALSE,FALSE,6.974619928,79.91439735,1.7,177.4,328,TRUE,1,1,FALSE,FALSE,FALSE,FALSE,,TRUE,FALSE,FALSE,Course Lock,49.2,254.5,16.4,Calm,39,,1.12.8,Mavic Mini,1SDCH7G0169R0K,1SFLH6Q0AB03DJ,1SRCH7F014TAHX,1U5X071EXP6C9Y,71.9,0.2,6.5,4.611675,2.23694,0,0,Mavic Mini,1SDCH7G0169R0K,1SFLH6Q0AB03DJ,1SRCH7F014TAHX,1U5X071EXP6C9Y,DJI Fly,,1.12.8,74ABB725-FC6C-1CC8-6C1A-3CAB126E8F4C,1SDCH7G0169R0K,,,,,6.974587077,79.91443142,5,,
2/27/2024,15:17.7,11m 7.6s,667.6,6.974615672,79.91439513,0,0,0.3,52,0.4,0,0,0,0,0,0,0,0,6,-0.3,-158.3,201.7,,Manual Takeoff,Other,Takeoff (RC Assisted),14,5,TRUE,,Mavic Mini,TRUE,FALSE,,Smart,RC,TRUE,TRUE,FALSE,,,TRUE,,FALSE,FALSE,FALSE,FALSE,FALSE,FALSE,FALSE,FALSE,FALSE,FALSE,0,Follow Yaw,0,0,-159.9,200.1,FALSE,FALSE,FALSE,FALSE,FALSE,FALSE,,TRUE,Normal,,100,1024,1024,1068,1024,2,FALSE,FALSE,FALSE,FALSE,FALSE,0,FALSE,FALSE,FALSE,FALSE,52,7.483,1081,2063,7.487,FALSE,3.742,3.741,0.008,FALSE,FALSE,NA,117.7,117.6,117.6,0,0,0,0,5,2953.5,738.38,,Idle,0,20,FALSE,5,TRUE,6,Go Home,FALSE,FALSE,FALSE,FALSE,FALSE,FALSE,FALSE,FALSE,FALSE,FALSE,FALSE,FALSE,6.974619928,79.91439735,1.7,177.4,328,TRUE,1,1,FALSE,FALSE,FALSE,FALSE,,TRUE,FALSE,FALSE,Course Lock,49.2,254.5,16.4,Calm,39,,1.12.8,Mavic Mini,1SDCH7G0169R0K,1SFLH6Q0AB03DJ,1SRCH7F014TAHX,1U5X071EXP6C9Y,71.9,0.2,6.5,4.611675,2.23694,0,0,Mavic Mini,1SDCH7G0169R0K,1SFLH6Q0AB03DJ,1SRCH7F014TAHX,1U5X071EXP6C9Y,DJI Fly,,1.12.8,74ABB725-FC6C-1CC8-6C1A-3CAB126E8F4C,1SDCH7G0169R0K,,,,,6.974587077,79.91443142,5,,
2/27/2024,15:17.8,11m 7.7s,667.7,6.974615588,79.91439509,0,0,0.3,52,0.5,0,0,0,0,0,0,0,0,6,-0.2,-158.4,201.6,,Manual Takeoff,Other,Takeoff (RC Assisted),14,5,TRUE,,Mavic Mini,TRUE,FALSE,,Smart,RC,TRUE,TRUE,FALSE,,,TRUE,,FALSE,FALSE,FALSE,FALSE,FALSE,FALSE,FALSE,FALSE,FALSE,FALSE,0,Follow Yaw,0,0,-159.9,200.1,FALSE,FALSE,FALSE,FALSE,FALSE,FALSE,,TRUE,Normal,,100,1024,1024,1159,1024,2,FALSE,FALSE,FALSE,FALSE,FALSE,0,FALSE,FALSE,FALSE,FALSE,52,7.483,1081,2063,7.487,FALSE,3.742,3.741,0.008,FALSE,FALSE,NA,117.7,117.6,117.6,0,0,0,0,5,2953.5,738.38,,Idle,0,20,FALSE,5,TRUE,6,Go Home,FALSE,FALSE,FALSE,FALSE,FALSE,FALSE,FALSE,FALSE,FALSE,FALSE,FALSE,FALSE,6.974619928,79.91439735,1.7,177.4,328,TRUE,1,1,FALSE,FALSE,FALSE,FALSE,,TRUE,FALSE,FALSE,Course Lock,49.2,254.5,16.4,Calm,39,,1.12.8,Mavic Mini,1SDCH7G0169R0K,1SFLH6Q0AB03DJ,1SRCH7F014TAHX,1U5X071EXP6C9Y,71.9,0.2,6.5,4.611675,2.23694,0,0,Mavic Mini,1SDCH7G0169R0K,1SFLH6Q0AB03DJ,1SRCH7F014TAHX,1U5X071EXP6C9Y,DJI Fly,,1.12.8,74ABB725-FC6C-1CC8-6C1A-3CAB126E8F4C,1SDCH7G0169R0K,,,,,6.974587077,79.91443142,5,,
2/27/2024,15:17.9,11m 7.8s,667.8,6.974615549,79.91439508,0,0,0.3,52,0.5,0,0,0,0,0,0,0,0,6,-0.3,-158.3,201.7,,Manual Takeoff,Other,Takeoff (RC Assisted),14,5,TRUE,,Mavic Mini,TRUE,FALSE,,Smart,RC,TRUE,TRUE,FALSE,,,TRUE,,FALSE,FALSE,FALSE,FALSE,FALSE,FALSE,FALSE,FALSE,FALSE,FALSE,0,Follow Yaw,0,0,-159.9,200.1,FALSE,FALSE,FALSE,FALSE,FALSE,FALSE,,TRUE,Normal,,100,1024,1024,1159,1024,2,FALSE,FALSE,FALSE,FALSE,FALSE,0,FALSE,FALSE,FALSE,FALSE,52,7.486,1081,2063,7.487,FALSE,3.745,3.741,0.008,FALSE,FALSE,NA,117.7,117.6,117.6,0,0,0,0,5,2953.5,738.38,,Idle,0,20,FALSE,5,TRUE,6,Go Home,FALSE,FALSE,FALSE,FALSE,FALSE,FALSE,FALSE,FALSE,FALSE,FALSE,FALSE,FALSE,6.974619928,79.91439735,1.7,177.4,328,TRUE,1,1,FALSE,FALSE,FALSE,FALSE,,TRUE,FALSE,FALSE,Course Lock,49.2,254.5,16.4,Calm,39,,1.12.8,Mavic Mini,1SDCH7G0169R0K,1SFLH6Q0AB03DJ,1SRCH7F014TAHX,1U5X071EXP6C9Y,71.9,0.2,6.5,4.611675,2.23694,0,0,Mavic Mini,1SDCH7G0169R0K,1SFLH6Q0AB03DJ,1SRCH7F014TAHX,1U5X071EXP6C9Y,DJI Fly,,1.12.8,74ABB725-FC6C-1CC8-6C1A-3CAB126E8F4C,1SDCH7G0169R0K,,,,,6.974587077,79.91443142,5,,
2/27/2024,15:18.0,11m 7.9s,667.9,6.974615536,79.91439507,0,0,0.3,52,0.5,0,0,0,0,0,0,0,0,6,-0.3,-158.3,201.7,,Manual Takeoff,Other,Takeoff (RC Assisted),14,5,TRUE,,Mavic Mini,TRUE,FALSE,,Smart,RC,TRUE,TRUE,FALSE,,,TRUE,,FALSE,FALSE,FALSE,FALSE,FALSE,FALSE,FALSE,FALSE,FALSE,FALSE,0,Follow Yaw,0,0,-159.9,200.1,FALSE,FALSE,FALSE,FALSE,FALSE,FALSE,,TRUE,Normal,,100,1024,1024,1284,1024,2,FALSE,FALSE,FALSE,FALSE,FALSE,0,FALSE,FALSE,FALSE,FALSE,52,7.486,1081,2063,7.487,FALSE,3.745,3.741,0.008,FALSE,FALSE,NA,117.9,117.6,117.8,0,0,0,0,5,2953.5,738.38,,Idle,0,20,FALSE,5,TRUE,6,Go Home,FALSE,FALSE,FALSE,FALSE,FALSE,FALSE,FALSE,FALSE,FALSE,FALSE,FALSE,FALSE,6.974619928,79.91439735,1.8,177.4,328,TRUE,1,1,FALSE,FALSE,FALSE,FALSE,,TRUE,FALSE,FALSE,Course Lock,49.2,254.5,16.4,Calm,39,,1.12.8,Mavic Mini,1SDCH7G0169R0K,1SFLH6Q0AB03DJ,1SRCH7F014TAHX,1U5X071EXP6C9Y,71.9,0.2,6.5,4.611675,2.23694,0,0,Mavic Mini,1SDCH7G0169R0K,1SFLH6Q0AB03DJ,1SRCH7F014TAHX,1U5X071EXP6C9Y,DJI Fly,,1.12.8,74ABB725-FC6C-1CC8-6C1A-3CAB126E8F4C,1SDCH7G0169R0K,,,,,6.974587077,79.91443142,5,,
2/27/2024,15:18.2,11m 8.0s,668,6.97461553,79.91439506,0,0,0.3,52,0.5,0,0,0,0,0,0,0,0,6,-0.3,-158.3,201.7,,Manual Takeoff,Other,Takeoff (RC Assisted),14,5,TRUE,,Mavic Mini,TRUE,FALSE,,Smart,RC,TRUE,TRUE,FALSE,,,TRUE,,FALSE,FALSE,FALSE,FALSE,FALSE,FALSE,FALSE,FALSE,FALSE,FALSE,0,Follow Yaw,0,0,-159.9,200.1,FALSE,FALSE,FALSE,FALSE,FALSE,FALSE,,TRUE,Normal,,100,1024,1024,1345,1024,2,FALSE,FALSE,FALSE,FALSE,FALSE,0,FALSE,FALSE,FALSE,FALSE,52,7.486,1081,2063,7.487,FALSE,3.745,3.741,0.008,FALSE,FALSE,NA,117.9,117.6,117.8,0,0,0,0,5,2953.5,738.38,,Idle,0,20,FALSE,5,TRUE,6,Go Home,FALSE,FALSE,FALSE,FALSE,FALSE,FALSE,FALSE,FALSE,FALSE,FALSE,FALSE,FALSE,6.974619928,79.91439735,1.8,177.4,328,TRUE,1,1,FALSE,FALSE,FALSE,FALSE,,TRUE,FALSE,FALSE,Course Lock,49.2,254.5,16.4,Calm,39,,1.12.8,Mavic Mini,1SDCH7G0169R0K,1SFLH6Q0AB03DJ,1SRCH7F014TAHX,1U5X071EXP6C9Y,71.9,0.2,6.5,4.611675,2.23694,0,0,Mavic Mini,1SDCH7G0169R0K,1SFLH6Q0AB03DJ,1SRCH7F014TAHX,1U5X071EXP6C9Y,DJI Fly,,1.12.8,74ABB725-FC6C-1CC8-6C1A-3CAB126E8F4C,1SDCH7G0169R0K,,,,,6.974587077,79.91443142,5,,
2/27/2024,15:18.2,11m 8.1s,668.1,6.974615426,79.91439506,0,0,0.3,52,0.5,0,0,0,0,0,0,0,0,5.9,-0.3,-158.3,201.7,,Manual Takeoff,Other,Takeoff (RC Assisted),14,5,TRUE,,Mavic Mini,TRUE,FALSE,,Smart,RC,TRUE,TRUE,FALSE,,,TRUE,,FALSE,FALSE,FALSE,FALSE,FALSE,FALSE,FALSE,FALSE,FALSE,FALSE,0,Follow Yaw,0,0,-159.9,200.1,FALSE,FALSE,FALSE,FALSE,FALSE,FALSE,,TRUE,Normal,,100,1024,1024,1350,1024,2,FALSE,FALSE,FALSE,FALSE,FALSE,0,FALSE,FALSE,FALSE,FALSE,52,7.486,1081,2063,7.487,FALSE,3.745,3.741,0.008,FALSE,FALSE,NA,117.9,117.6,117.8,0,0,0,0,5,2953.5,738.38,,Idle,0,20,FALSE,5,TRUE,6,Go Home,FALSE,FALSE,FALSE,FALSE,FALSE,FALSE,FALSE,FALSE,FALSE,FALSE,FALSE,FALSE,6.974619928,79.91439735,1.8,177.4,328,TRUE,1,1,FALSE,FALSE,FALSE,FALSE,,TRUE,FALSE,FALSE,Course Lock,49.2,254.5,16.4,Calm,39,,1.12.8,Mavic Mini,1SDCH7G0169R0K,1SFLH6Q0AB03DJ,1SRCH7F014TAHX,1U5X071EXP6C9Y,71.9,0.2,6.5,4.611675,2.23694,0,0,Mavic Mini,1SDCH7G0169R0K,1SFLH6Q0AB03DJ,1SRCH7F014TAHX,1U5X071EXP6C9Y,DJI Fly,,1.12.8,74ABB725-FC6C-1CC8-6C1A-3CAB126E8F4C,1SDCH7G0169R0K,,,,,6.974587077,79.91443142,5,,
2/27/2024,15:18.3,11m 8.2s,668.2,6.97461538,79.91439505,0,0,0.3,52,0.6,0,0,0,0,0,0,0,0,6,-0.4,-158.3,201.7,,Manual Takeoff,Other,Takeoff (RC Assisted),14,5,TRUE,,Mavic Mini,TRUE,FALSE,,Smart,RC,TRUE,TRUE,FALSE,,,TRUE,,FALSE,FALSE,FALSE,FALSE,FALSE,FALSE,FALSE,FALSE,FALSE,FALSE,0,Follow Yaw,0,0,-159.9,200.1,FALSE,FALSE,FALSE,FALSE,FALSE,FALSE,,TRUE,Normal,,100,1024,1024,1349,1024,2,FALSE,FALSE,FALSE,FALSE,FALSE,0,FALSE,FALSE,FALSE,FALSE,52,7.486,1081,2063,7.469,FALSE,3.745,3.741,0.008,FALSE,FALSE,NA,117.9,117.6,117.8,0,0,0,0,5,3201,800.25,,Idle,0,20,FALSE,5,TRUE,6,Go Home,FALSE,FALSE,FALSE,FALSE,FALSE,FALSE,FALSE,FALSE,FALSE,FALSE,FALSE,FALSE,6.974619928,79.91439735,1.8,177.4,328,TRUE,1,1,FALSE,FALSE,FALSE,FALSE,,TRUE,FALSE,FALSE,Course Lock,49.2,254.5,16.4,Calm,39,,1.12.8,Mavic Mini,1SDCH7G0169R0K,1SFLH6Q0AB03DJ,1SRCH7F014TAHX,1U5X071EXP6C9Y,71.9,0.2,6.5,4.611675,2.23694,0,0,Mavic Mini,1SDCH7G0169R0K,1SFLH6Q0AB03DJ,1SRCH7F014TAHX,1U5X071EXP6C9Y,DJI Fly,,1.12.8,74ABB725-FC6C-1CC8-6C1A-3CAB126E8F4C,1SDCH7G0169R0K,,,,,6.974587077,79.91443142,5,,
2/27/2024,15:18.5,11m 8.3s,668.3,6.974615367,79.91439505,0,0,0.3,52,0.6,0,0,0,0,0,0,0,0,6,-0.5,-158.4,201.6,,Manual Takeoff,Other,Takeoff (RC Assisted),14,5,TRUE,,Mavic Mini,TRUE,FALSE,,Smart,RC,TRUE,TRUE,FALSE,,,TRUE,,FALSE,FALSE,FALSE,FALSE,FALSE,FALSE,FALSE,FALSE,FALSE,FALSE,0,Follow Yaw,0,0,-159.9,200.1,FALSE,FALSE,FALSE,FALSE,FALSE,FALSE,,TRUE,Normal,,100,1024,1024,1348,1024,2,FALSE,FALSE,FALSE,FALSE,FALSE,0,FALSE,FALSE,FALSE,FALSE,52,7.486,1081,2063,7.469,FALSE,3.745,3.741,0.008,FALSE,FALSE,NA,117.9,117.6,117.8,0,0,0,0,5,3201,800.25,,Idle,0,20,FALSE,5,TRUE,6,Go Home,FALSE,FALSE,FALSE,FALSE,FALSE,FALSE,FALSE,FALSE,FALSE,FALSE,FALSE,FALSE,6.974619928,79.91439735,1.8,177.4,328,TRUE,1,1,FALSE,FALSE,FALSE,FALSE,,TRUE,FALSE,FALSE,Course Lock,49.2,254.5,16.4,Calm,39,,1.12.8,Mavic Mini,1SDCH7G0169R0K,1SFLH6Q0AB03DJ,1SRCH7F014TAHX,1U5X071EXP6C9Y,71.9,0.2,6.5,4.611675,2.23694,0,0,Mavic Mini,1SDCH7G0169R0K,1SFLH6Q0AB03DJ,1SRCH7F014TAHX,1U5X071EXP6C9Y,DJI Fly,,1.12.8,74ABB725-FC6C-1CC8-6C1A-3CAB126E8F4C,1SDCH7G0169R0K,,,,,6.974587077,79.91443142,5,,
2/27/2024,15:18.5,11m 8.4s,668.4,6.974615361,79.91439505,0,0,0.3,52,0.6,0,0,0,0,0,0,0,0,6.2,-0.6,-158.7,201.3,,Manual Takeoff,Other,Takeoff (RC Assisted),14,5,TRUE,,Mavic Mini,TRUE,FALSE,,Smart,RC,TRUE,TRUE,FALSE,,,TRUE,,FALSE,FALSE,FALSE,FALSE,FALSE,FALSE,FALSE,FALSE,FALSE,FALSE,0,Follow Yaw,0,0,-159.9,200.1,FALSE,FALSE,FALSE,FALSE,FALSE,FALSE,,TRUE,Normal,,100,1024,1024,1342,1024,2,FALSE,FALSE,FALSE,FALSE,FALSE,0,FALSE,FALSE,FALSE,FALSE,52,7.486,1081,2063,7.469,FALSE,3.745,3.741,0.008,FALSE,FALSE,NA,117.9,117.6,117.8,0,0,0,0,5,3201,800.25,,Idle,0,20,FALSE,5,TRUE,6,Go Home,FALSE,FALSE,FALSE,FALSE,FALSE,FALSE,FALSE,FALSE,FALSE,FALSE,FALSE,FALSE,6.974619928,79.91439735,1.8,177.4,328,TRUE,1,1,FALSE,FALSE,FALSE,FALSE,,TRUE,FALSE,FALSE,Course Lock,49.2,254.5,16.4,Calm,39,,1.12.8,Mavic Mini,1SDCH7G0169R0K,1SFLH6Q0AB03DJ,1SRCH7F014TAHX,1U5X071EXP6C9Y,71.9,0.2,6.5,4.611675,2.23694,0,0,Mavic Mini,1SDCH7G0169R0K,1SFLH6Q0AB03DJ,1SRCH7F014TAHX,1U5X071EXP6C9Y,DJI Fly,,1.12.8,74ABB725-FC6C-1CC8-6C1A-3CAB126E8F4C,1SDCH7G0169R0K,,,,,6.974587077,79.91443142,5,,
2/27/2024,15:18.6,11m 8.5s,668.5,6.974615377,79.91439505,0,0,0.3,52,0.6,0,0,0,0,0,0,0,0,5.8,-0.7,-158.9,201.1,,Manual Takeoff,Other,Takeoff (RC Assisted),14,5,TRUE,,Mavic Mini,TRUE,FALSE,,Smart,RC,TRUE,TRUE,FALSE,,,TRUE,,FALSE,FALSE,FALSE,FALSE,FALSE,FALSE,FALSE,FALSE,FALSE,FALSE,0,Follow Yaw,0,0,-159.9,200.1,FALSE,FALSE,FALSE,FALSE,FALSE,FALSE,,TRUE,Normal,,100,1024,1024,1335,1024,2,FALSE,FALSE,FALSE,FALSE,FALSE,0,FALSE,FALSE,FALSE,FALSE,52,7.486,1081,2063,7.469,FALSE,3.745,3.741,0.008,FALSE,FALSE,NA,117.9,117.6,117.8,0,0,0,0,5,3201,800.25,,Idle,0,20,FALSE,5,TRUE,6,Go Home,FALSE,FALSE,FALSE,FALSE,FALSE,FALSE,FALSE,FALSE,FALSE,FALSE,FALSE,FALSE,6.974619928,79.91439735,1.8,177.4,328,TRUE,1,1,FALSE,FALSE,FALSE,FALSE,,TRUE,FALSE,FALSE,Course Lock,49.2,254.5,16.4,Calm,39,,1.12.8,Mavic Mini,1SDCH7G0169R0K,1SFLH6Q0AB03DJ,1SRCH7F014TAHX,1U5X071EXP6C9Y,71.9,0.2,6.5,4.611675,2.23694,0,0,Mavic Mini,1SDCH7G0169R0K,1SFLH6Q0AB03DJ,1SRCH7F014TAHX,1U5X071EXP6C9Y,DJI Fly,,1.12.8,74ABB725-FC6C-1CC8-6C1A-3CAB126E8F4C,1SDCH7G0169R0K,,,,,6.974587077,79.91443142,5,,
2/27/2024,15:18.7,11m 8.6s,668.6,6.974615453,79.91439508,0,0,0.3,52,0.6,0,0,0,0,0,0,0,0,4.9,-0.4,-158.9,201.1,,Manual Takeoff,Other,Takeoff (RC Assisted),14,5,TRUE,,Mavic Mini,TRUE,FALSE,,Smart,RC,TRUE,TRUE,FALSE,,,TRUE,,FALSE,FALSE,FALSE,FALSE,FALSE,FALSE,FALSE,FALSE,FALSE,FALSE,0,Follow Yaw,0,0,-159.9,200.1,FALSE,FALSE,FALSE,FALSE,FALSE,FALSE,,TRUE,Normal,,100,1024,1024,1331,1024,2,FALSE,FALSE,FALSE,FALSE,FALSE,0,FALSE,FALSE,FALSE,FALSE,52,7.486,1081,2063,7.469,FALSE,3.745,3.741,0.008,FALSE,FALSE,NA,117.9,117.6,117.8,0,0,0,0,5,3201,800.25,,Idle,0,20,FALSE,5,TRUE,6,Go Home,FALSE,FALSE,FALSE,FALSE,FALSE,FALSE,FALSE,FALSE,FALSE,FALSE,FALSE,FALSE,6.974619928,79.91439735,1.8,177.4,328,TRUE,1,1,FALSE,FALSE,FALSE,FALSE,,TRUE,FALSE,FALSE,Course Lock,49.2,254.5,16.4,Calm,39,,1.12.8,Mavic Mini,1SDCH7G0169R0K,1SFLH6Q0AB03DJ,1SRCH7F014TAHX,1U5X071EXP6C9Y,71.9,0.2,6.5,4.611675,2.23694,0,0,Mavic Mini,1SDCH7G0169R0K,1SFLH6Q0AB03DJ,1SRCH7F014TAHX,1U5X071EXP6C9Y,DJI Fly,,1.12.8,74ABB725-FC6C-1CC8-6C1A-3CAB126E8F4C,1SDCH7G0169R0K,,,,,6.974587077,79.91443142,5,,
2/27/2024,15:18.8,11m 8.7s,668.7,6.974615466,79.91439516,0,0,0.3,52,0.6,0,0,0,0,0,0,0,0,3.5,-1.6,-159,201,,Manual Takeoff,Other,Takeoff (RC Assisted),14,5,TRUE,,Mavic Mini,TRUE,FALSE,,Smart,RC,TRUE,TRUE,FALSE,,,TRUE,,FALSE,FALSE,FALSE,FALSE,FALSE,FALSE,FALSE,FALSE,FALSE,FALSE,0,Follow Yaw,0,0,-159.9,200.1,FALSE,FALSE,FALSE,FALSE,FALSE,FALSE,,TRUE,Normal,,100,1024,1024,1331,1024,2,FALSE,FALSE,FALSE,FALSE,FALSE,0,FALSE,FALSE,FALSE,FALSE,52,7.486,1081,2063,7.469,FALSE,3.745,3.741,0.008,FALSE,FALSE,NA,117.9,117.6,117.8,0,0,0,0,5,3201,800.25,,Idle,0,20,FALSE,5,TRUE,6,Go Home,FALSE,FALSE,FALSE,FALSE,FALSE,FALSE,FALSE,FALSE,FALSE,FALSE,FALSE,FALSE,6.974619928,79.91439735,1.8,177.4,328,TRUE,1,1,FALSE,FALSE,FALSE,FALSE,,TRUE,FALSE,FALSE,Course Lock,49.2,254.5,16.4,Calm,39,,1.12.8,Mavic Mini,1SDCH7G0169R0K,1SFLH6Q0AB03DJ,1SRCH7F014TAHX,1U5X071EXP6C9Y,71.9,0.2,6.5,4.611675,2.23694,0,0,Mavic Mini,1SDCH7G0169R0K,1SFLH6Q0AB03DJ,1SRCH7F014TAHX,1U5X071EXP6C9Y,DJI Fly,,1.12.8,74ABB725-FC6C-1CC8-6C1A-3CAB126E8F4C,1SDCH7G0169R0K,,,,,6.974587077,79.91443142,5,,
