CUSTOM.date [local],CUSTOM.updateTime [local],OSD.flyTime,OSD.flyTime [s],OSD.latitude,OSD.longitude,OSD.height [ft],OSD.heightMax [ft],OSD.vpsHeight [ft],OSD.altitude [ft],OSD.mileage [ft],OSD.hSpeed [MPH],OSD.hSpeedMax [MPH],OSD.xSpeed [MPH],OSD.xSpeedMax [MPH],OSD.ySpeed [MPH],OSD.ySpeedMax [MPH],OSD.zSpeed [MPH],OSD.zSpeedMax [MPH],OSD.pitch,OSD.roll,OSD.yaw,OSD.yaw [360],OSD.directionOfTravel,OSD.flycState,OSD.flycCommand,OSD.flightAction,OSD.gpsNum,OSD.gpsLevel,OSD.isGPSUsed,OSD.nonGPSCause,OSD.droneType,OSD.isSwaveWork,OSD.waveError,OSD.goHomeStatus,OSD.batteryType,OSD.ctrlDevice,OSD.isOnGround,OSD.isMotorOn,OSD.isMotorBlocked,OSD.motorStartFailedCause,OSD.motorFailReason,OSD.isImuPreheated,OSD.imuInitFailReason,OSD.isAcceletorOverRange,OSD.isBarometerDeadInAir,OSD.isCompassError,OSD.isGoHomeHeightModified,OSD.canIOCWork,OSD.isNotEnoughForce,OSD.isOutOfLimit,OSD.isPropellerCatapult,OSD.isVibrating,OSD.isVisionUsed,OSD.voltageWarning,GIMBAL.mode,GIMBAL.pitch,GIMBAL.roll,GIMBAL.yaw,GIMBAL.yaw [360],GIMBAL.isPitchAtLimit,GIMBAL.isRollAtLimit,GIMBAL.isYawAtLimit,GIMBAL.isStuck,CAMERA.isPhoto,CAMERA.isVideo,CAMERA.filename,CAMERA.sdCardIsInserted,CAMERA.sdCardState,RC.downlinkSignal,RC.uplinkSignal,RC.aileron,RC.elevator,RC.throttle,RC.rudder,RC.mode,RC.goHomeDepressed,RC.recordDepressed,RC.shutterDepressed,RC.playbackDepressed,RC.wheelDepressed,RC.wheelOffset,RC.custom1Depressed,RC.custom2Depressed,RC.custom3Depressed,RC.custom4Depressed,BATTERY.chargeLevel,BATTERY.currentPV [V],BATTERY.currentCapacity [mAh],BATTERY.fullCapacity [mAh],BATTERY.voltage [V],BATTERY.isCellVoltageEstimated,BATTERY.cellVoltage1 [V],BATTERY.cellVoltage2 [V],BATTERY.maxCellVoltageDeviation,BATTERY.isCellVoltageDeviationHigh,BATTERY.isVoltageLow,BATTERY.current [A],BATTERY.temperature [F],BATTERY.minTemperature [F],BATTERY.maxTemperature [F],BATTERY.usefulTime [s],BATTERY.goHomeTime [s],BATTERY.landTime [s],BATTERY.goHomeBattery,BATTERY.landBattery,BATTERY.safeFlyRadius,BATTERY.volumeConsume,BATTERY.status,BATTERY.goHomeStatus,BATTERY.goHomeCountdown,BATTERY.lowWarning,BATTERY.lowWarningGoHome,BATTERY.seriousLowWarning,BATTERY.seriousLowWarningLanding,BATTERY.timesCharged,MC.failSafeAction,MC.isObstacleAvoidanceEnabled,MC.isCollisionAvoidanceEnabled,MC.isRthObstacleAvoidanceEnabled,MC.isBraking,MC.isAvoidingObstacle,MC.isAvoidingActiveObstacle,MC.isAscentLimitedByObstacle,MC.isLandingConfirmationNeeded,MC.atLowAltitudeLimit,MC.atDistanceLimit,MC.atAirportAltitudeLimit,MC.atAirportBoundary,HOME.latitude,HOME.longitude,HOME.distance [ft],HOME.height [ft],HOME.heightLimit [ft],HOME.isHomeRecord,HOME.goHomeMode,HOME.aircraftHeadDirection,HOME.isDynamicHomePointEnabled,HOME.isReachedLimitDistance,HOME.isReachedLimitHeight,HOME.isCompassCalibrating,HOME.compassCalibrationState,HOME.isMultipleFlightModeEnabled,HOME.isBeginnerMode,HOME.isIOCEnabled,HOME.iocMode,HOME.goHomeHeight [ft],HOME.courseLockAngle,HOME.forceLandingHeight [ft],HOME.wind,HOME.dataRecorderFileIndex,RECOVER.appType,RECOVER.appVersion,RECOVER.aircraftName,RECOVER.aircraftSerial,RECOVER.cameraSerial,RECOVER.rcSerial,RECOVER.batterySerial,DETAILS.totalTime [s],DETAILS.totalDistance [ft],DETAILS.maxHeight [ft],DETAILS.maxHorizontalSpeed [MPH],DETAILS.maxVerticalSpeed [MPH],DETAILS.photoNum,DETAILS.videoTime [s],DETAILS.aircraftName,DETAILS.aircraftSerial,DETAILS.cameraSerial,DETAILS.rcSerial,DETAILS.batterySerial,DETAILS.appName,DETAILS.appType,DETAILS.appVersion,DETAILS.guid,SERIAL.flightController,SERIAL.camera,SERIAL.gimbal,SERIAL.rc,SERIAL.battery,APPGPS.latitude,APPGPS.longitude,APPGPS.accuracy,APP.tip,APP.warning
3/2/2024,03:07.2,2m 13.3s,133.3,6.972893421,79.91595191,0,0,,56,0,0,0,0,0,0,0,0,0,7.3,1.1,-120.1,239.9,,Tripod,Other,Takeoff (RC Assisted),15,5,TRUE,,Mavic Mini,FALSE,FALSE,,Smart,RC,TRUE,TRUE,FALSE,,,TRUE,,FALSE,FALSE,FALSE,FALSE,FALSE,FALSE,FALSE,FALSE,FALSE,FALSE,0,Follow Yaw,0,0,-102.6,257.4,FALSE,FALSE,FALSE,FALSE,FALSE,FALSE,,TRUE,Normal,,,1024,1024,1024,1024,2,FALSE,FALSE,FALSE,FALSE,FALSE,0,FALSE,FALSE,FALSE,FALSE,88,7.932,1809,2065,7.932,TRUE,3.966,3.966,,FALSE,FALSE,NA,96.4,96.4,96.4,,,,,,,,,Idle,,,TRUE,,FALSE,11,Go Home,FALSE,FALSE,FALSE,FALSE,FALSE,FALSE,FALSE,FALSE,FALSE,FALSE,FALSE,FALSE,,,,,,FALSE,,,FALSE,FALSE,FALSE,FALSE,,FALSE,FALSE,FALSE,,,,,Calm,,,1.12.8,Mavic Mini,1SDCH7G0169R0K,1SFLH6Q0AB03DJ,1SRCH7F014TAHX,1U5X071EXP5ZJG,146.2,0,108.2,2.248124,3.579104,0,0,Mavic Mini,1SDCH7G0169R0K,1SFLH6Q0AB03DJ,1SRCH7F014TAHX,1U5X071EXP5ZJG,DJI Fly,,1.12.8,7515A58F-8DC5-D702-FCAA-7A27C896A764,1SDCH7G0169R0K,,,,,,,,Flight mode changed to Tripod.,
3/2/2024,03:07.2,2m 13.4s,133.4,6.97289337,79.91595195,0,0,,56,0,0,0,0,0,0,0,0,0,7.3,1.1,-120.1,239.9,,Starting Motors,Other,Takeoff (RC Assisted),15,5,TRUE,,Mavic Mini,FALSE,FALSE,,Smart,RC,TRUE,TRUE,FALSE,,,TRUE,,FALSE,FALSE,FALSE,FALSE,FALSE,FALSE,FALSE,FALSE,FALSE,FALSE,0,Follow Yaw,0,0,-102.7,257.3,FALSE,FALSE,FALSE,FALSE,FALSE,FALSE,,TRUE,Normal,,,1024,1024,1024,1024,2,FALSE,FALSE,FALSE,FALSE,FALSE,0,FALSE,FALSE,FALSE,FALSE,88,7.932,1809,2065,7.923,TRUE,3.962,3.962,,FALSE,FALSE,NA,96.4,96.4,96.4,0,0,0,0,5,1893.2,473.3,,Idle,0,20,FALSE,5,TRUE,11,Go Home,FALSE,FALSE,FALSE,FALSE,FALSE,FALSE,FALSE,FALSE,FALSE,FALSE,FALSE,FALSE,6.972893258,79.91594689,1.8,122,328,TRUE,1,1,FALSE,FALSE,FALSE,FALSE,,TRUE,FALSE,FALSE,Course Lock,49.2,,16.4,Calm,41,,1.12.8,Mavic Mini,1SDCH7G0169R0K,1SFLH6Q0AB03DJ,1SRCH7F014TAHX,1U5X071EXP5ZJG,146.2,0,108.2,2.248124,3.579104,0,0,Mavic Mini,1SDCH7G0169R0K,1SFLH6Q0AB03DJ,1SRCH7F014TAHX,1U5X071EXP5ZJG,DJI Fly,,1.12.8,7515A58F-8DC5-D702-FCAA-7A27C896A764,1SDCH7G0169R0K,,,,,,,,Data Recorder File Index is 41.; Set Return to Home (RTH) altitude to 15 m (49 ft).; Set maximum flight altitude to 100 m (328 ft).; Flight mode changed to Starting Motors.,
3/2/2024,03:07.3,2m 13.5s,133.5,6.972893368,79.91595196,0,0,0.3,56,0,0,0,0,0,0,0,0,0,7.3,1.1,-120.1,239.9,,Starting Motors,Other,Takeoff (RC Assisted),15,5,TRUE,,Mavic Mini,TRUE,FALSE,,Smart,RC,TRUE,TRUE,FALSE,,,TRUE,,FALSE,FALSE,FALSE,FALSE,FALSE,FALSE,FALSE,FALSE,FALSE,FALSE,0,Follow Yaw,0,0,-102.7,257.3,FALSE,FALSE,FALSE,FALSE,FALSE,FALSE,,TRUE,Normal,,100,1024,1024,1024,1024,2,FALSE,FALSE,FALSE,FALSE,FALSE,0,FALSE,FALSE,FALSE,FALSE,88,7.932,1809,2065,7.923,TRUE,3.962,3.962,,FALSE,FALSE,NA,96.4,96.4,96.4,0,0,0,0,5,1893.2,473.3,,Idle,0,20,FALSE,5,TRUE,11,Go Home,FALSE,FALSE,FALSE,FALSE,FALSE,FALSE,FALSE,FALSE,FALSE,FALSE,FALSE,FALSE,6.972893258,79.91594689,1.8,122,328,TRUE,1,1,FALSE,FALSE,FALSE,FALSE,,TRUE,FALSE,FALSE,Course Lock,49.2,,16.4,Calm,41,,1.12.8,Mavic Mini,1SDCH7G0169R0K,1SFLH6Q0AB03DJ,1SRCH7F014TAHX,1U5X071EXP5ZJG,146.2,0,108.2,2.248124,3.579104,0,0,Mavic Mini,1SDCH7G0169R0K,1SFLH6Q0AB03DJ,1SRCH7F014TAHX,1U5X071EXP5ZJG,DJI Fly,,1.12.8,7515A58F-8DC5-D702-FCAA-7A27C896A764,1SDCH7G0169R0K,,,,,,,,,
3/2/2024,03:07.3,2m 13.6s,133.6,6.97289341,79.91595196,0,0,0.3,56,0,0,0,0,0,0,0,0,0,7.3,1.1,-120.1,239.9,,Starting Motors,Other,Takeoff (RC Assisted),15,5,TRUE,,Mavic Mini,TRUE,FALSE,,Smart,RC,TRUE,TRUE,FALSE,,,TRUE,,FALSE,FALSE,FALSE,FALSE,FALSE,FALSE,FALSE,FALSE,FALSE,FALSE,0,Follow Yaw,0,0,-102.7,257.3,FALSE,FALSE,FALSE,FALSE,FALSE,FALSE,,TRUE,Normal,,100,1024,1024,1024,1024,2,FALSE,FALSE,FALSE,FALSE,FALSE,0,FALSE,FALSE,FALSE,FALSE,88,7.932,1809,2065,7.923,TRUE,3.962,3.962,,FALSE,FALSE,NA,96.4,96.4,96.4,0,0,0,0,5,1893.2,473.3,,Idle,0,20,FALSE,5,TRUE,11,Go Home,FALSE,FALSE,FALSE,FALSE,FALSE,FALSE,FALSE,FALSE,FALSE,FALSE,FALSE,FALSE,6.972893258,79.91594689,1.8,122,328,TRUE,1,1,FALSE,FALSE,FALSE,FALSE,,TRUE,FALSE,FALSE,Course Lock,49.2,,16.4,Calm,41,,1.12.8,Mavic Mini,1SDCH7G0169R0K,1SFLH6Q0AB03DJ,1SRCH7F014TAHX,1U5X071EXP5ZJG,146.2,0,108.2,2.248124,3.579104,0,0,Mavic Mini,1SDCH7G0169R0K,1SFLH6Q0AB03DJ,1SRCH7F014TAHX,1U5X071EXP5ZJG,DJI Fly,,1.12.8,7515A58F-8DC5-D702-FCAA-7A27C896A764,1SDCH7G0169R0K,,,,,,,,,
3/2/2024,03:07.4,2m 13.7s,133.7,6.972893456,79.91595195,0,0,0.3,56,0,0,0,0,0,0,0,0,0,7.4,1.2,-120.1,239.9,,Starting Motors,Other,Takeoff (RC Assisted),15,5,TRUE,,Mavic Mini,TRUE,FALSE,,Smart,RC,TRUE,TRUE,FALSE,,,TRUE,,FALSE,FALSE,FALSE,FALSE,FALSE,FALSE,FALSE,FALSE,FALSE,FALSE,0,Follow Yaw,0,0,-102.7,257.3,FALSE,FALSE,FALSE,FALSE,FALSE,FALSE,,TRUE,Normal,,100,1024,1024,1024,1024,2,FALSE,FALSE,FALSE,FALSE,FALSE,0,FALSE,FALSE,FALSE,FALSE,88,7.932,1809,2065,7.923,TRUE,3.962,3.962,,FALSE,FALSE,NA,96.4,96.4,96.4,0,0,0,0,5,1893.2,473.3,,Idle,0,20,FALSE,5,TRUE,11,Go Home,FALSE,FALSE,FALSE,FALSE,FALSE,FALSE,FALSE,FALSE,FALSE,FALSE,FALSE,FALSE,6.972893258,79.91594689,1.8,122,328,TRUE,1,1,FALSE,FALSE,FALSE,FALSE,,TRUE,FALSE,FALSE,Course Lock,49.2,,16.4,Calm,41,,1.12.8,Mavic Mini,1SDCH7G0169R0K,1SFLH6Q0AB03DJ,1SRCH7F014TAHX,1U5X071EXP5ZJG,146.2,0,108.2,2.248124,3.579104,0,0,Mavic Mini,1SDCH7G0169R0K,1SFLH6Q0AB03DJ,1SRCH7F014TAHX,1U5X071EXP5ZJG,DJI Fly,,1.12.8,7515A58F-8DC5-D702-FCAA-7A27C896A764,1SDCH7G0169R0K,,,,,,,,,
3/2/2024,03:07.5,2m 13.8s,133.8,6.9728935,79.91595202,0,0,0.3,56,0,0,0,0,0,0,0,0,0,7.4,1.1,-120.1,239.9,,Starting Motors,Other,Takeoff (RC Assisted),15,5,TRUE,,Mavic Mini,TRUE,FALSE,,Smart,RC,TRUE,TRUE,FALSE,,,TRUE,,FALSE,FALSE,FALSE,FALSE,FALSE,FALSE,FALSE,FALSE,FALSE,FALSE,0,Follow Yaw,0,0,-102.7,257.3,FALSE,FALSE,FALSE,FALSE,FALSE,FALSE,,TRUE,Normal,,100,1024,1024,1024,1024,2,FALSE,FALSE,FALSE,FALSE,FALSE,0,FALSE,FALSE,FALSE,FALSE,88,7.932,1809,2065,7.923,TRUE,3.962,3.962,,FALSE,FALSE,NA,96.4,96.4,96.4,0,0,0,0,5,1893.2,473.3,,Idle,0,20,FALSE,5,TRUE,11,Go Home,FALSE,FALSE,FALSE,FALSE,FALSE,FALSE,FALSE,FALSE,FALSE,FALSE,FALSE,FALSE,6.972893258,79.91594689,1.8,122,328,TRUE,1,1,FALSE,FALSE,FALSE,FALSE,,TRUE,FALSE,FALSE,Course Lock,49.2,,16.4,Calm,41,,1.12.8,Mavic Mini,1SDCH7G0169R0K,1SFLH6Q0AB03DJ,1SRCH7F014TAHX,1U5X071EXP5ZJG,146.2,0,108.2,2.248124,3.579104,0,0,Mavic Mini,1SDCH7G0169R0K,1SFLH6Q0AB03DJ,1SRCH7F014TAHX,1U5X071EXP5ZJG,DJI Fly,,1.12.8,7515A58F-8DC5-D702-FCAA-7A27C896A764,1SDCH7G0169R0K,,,,,,,,,
3/2/2024,03:07.6,2m 13.9s,133.9,6.972893509,79.91595206,0,0,0.3,56,0,0,0,0,0,0,0,0,0,7.3,1.2,-120.2,239.8,,Starting Motors,Other,Takeoff (RC Assisted),15,5,TRUE,,Mavic Mini,TRUE,FALSE,,Smart,RC,TRUE,TRUE,FALSE,,,TRUE,,FALSE,FALSE,FALSE,FALSE,FALSE,FALSE,FALSE,FALSE,FALSE,FALSE,0,Follow Yaw,0,0,-102.7,257.3,FALSE,FALSE,FALSE,FALSE,FALSE,FALSE,,TRUE,Normal,,100,1024,1024,1024,1024,2,FALSE,FALSE,FALSE,FALSE,FALSE,0,FALSE,FALSE,FALSE,FALSE,88,7.932,1809,2065,7.923,TRUE,3.962,3.962,,FALSE,FALSE,NA,96.4,96.4,96.4,0,0,0,0,5,1893.2,473.3,,Idle,0,20,FALSE,5,TRUE,11,Go Home,FALSE,FALSE,FALSE,FALSE,FALSE,FALSE,FALSE,FALSE,FALSE,FALSE,FALSE,FALSE,6.972893258,79.91594689,1.8,122,328,TRUE,1,1,FALSE,FALSE,FALSE,FALSE,,TRUE,FALSE,FALSE,Course Lock,49.2,,16.4,Calm,41,,1.12.8,Mavic Mini,1SDCH7G0169R0K,1SFLH6Q0AB03DJ,1SRCH7F014TAHX,1U5X071EXP5ZJG,146.2,0,108.2,2.248124,3.579104,0,0,Mavic Mini,1SDCH7G0169R0K,1SFLH6Q0AB03DJ,1SRCH7F014TAHX,1U5X071EXP5ZJG,DJI Fly,,1.12.8,7515A58F-8DC5-D702-FCAA-7A27C896A764,1SDCH7G0169R0K,,,,,,,,,
3/2/2024,03:07.7,2m 14.0s,134,6.972893503,79.91595207,0,0,0.3,56,0,0,0,0,0,0,0,0,0,7.3,1.1,-120.3,239.7,,Starting Motors,Other,Takeoff (RC Assisted),15,5,TRUE,,Mavic Mini,TRUE,FALSE,,Smart,RC,TRUE,TRUE,FALSE,,,TRUE,,FALSE,FALSE,FALSE,FALSE,FALSE,FALSE,FALSE,FALSE,FALSE,FALSE,0,Follow Yaw,0,0,-102.8,257.2,FALSE,FALSE,FALSE,FALSE,FALSE,FALSE,,TRUE,Normal,,100,1024,1024,1024,1024,2,FALSE,FALSE,FALSE,FALSE,FALSE,0,FALSE,FALSE,FALSE,FALSE,88,7.932,1809,2065,7.923,TRUE,3.962,3.962,,FALSE,FALSE,NA,96.4,96.4,96.4,0,0,0,0,5,1893.2,473.3,,Idle,0,20,FALSE,5,TRUE,11,Go Home,FALSE,FALSE,FALSE,FALSE,FALSE,FALSE,FALSE,FALSE,FALSE,FALSE,FALSE,FALSE,6.972893258,79.91594689,1.8,122,328,TRUE,1,1,FALSE,FALSE,FALSE,FALSE,,TRUE,FALSE,FALSE,Course Lock,49.2,,16.4,Calm,41,,1.12.8,Mavic Mini,1SDCH7G0169R0K,1SFLH6Q0AB03DJ,1SRCH7F014TAHX,1U5X071EXP5ZJG,146.2,0,108.2,2.248124,3.579104,0,0,Mavic Mini,1SDCH7G0169R0K,1SFLH6Q0AB03DJ,1SRCH7F014TAHX,1U5X071EXP5ZJG,DJI Fly,,1.12.8,7515A58F-8DC5-D702-FCAA-7A27C896A764,1SDCH7G0169R0K,,,,,,,,,
3/2/2024,03:07.8,2m 14.1s,134.1,6.972893496,79.91595208,0,0,0.3,56,0,0,0,0,0,0,0,0,0,7.3,1.1,-120.5,239.5,,Starting Motors,Other,Takeoff (RC Assisted),15,5,TRUE,,Mavic Mini,TRUE,FALSE,,Smart,RC,TRUE,TRUE,FALSE,,,TRUE,,FALSE,FALSE,FALSE,FALSE,FALSE,FALSE,FALSE,FALSE,FALSE,FALSE,0,Follow Yaw,0,0,-102.8,257.2,FALSE,FALSE,FALSE,FALSE,FALSE,FALSE,,TRUE,Normal,,100,1024,1024,1024,1024,2,FALSE,FALSE,FALSE,FALSE,FALSE,0,FALSE,FALSE,FALSE,FALSE,88,7.886,1809,2065,7.923,FALSE,3.958,3.928,0.03,FALSE,FALSE,NA,96.4,96.4,96.4,0,0,0,0,5,1893.2,473.3,,Idle,0,20,FALSE,5,TRUE,11,Go Home,FALSE,FALSE,FALSE,FALSE,FALSE,FALSE,FALSE,FALSE,FALSE,FALSE,FALSE,FALSE,6.972893258,79.91594689,1.8,122,328,TRUE,1,1,FALSE,FALSE,FALSE,FALSE,,TRUE,FALSE,FALSE,Course Lock,49.2,,16.4,Calm,41,,1.12.8,Mavic Mini,1SDCH7G0169R0K,1SFLH6Q0AB03DJ,1SRCH7F014TAHX,1U5X071EXP5ZJG,146.2,0,108.2,2.248124,3.579104,0,0,Mavic Mini,1SDCH7G0169R0K,1SFLH6Q0AB03DJ,1SRCH7F014TAHX,1U5X071EXP5ZJG,DJI Fly,,1.12.8,7515A58F-8DC5-D702-FCAA-7A27C896A764,1SDCH7G0169R0K,,,,,,,,,
3/2/2024,03:07.8,2m 14.2s,134.2,6.972893429,79.91595215,0,0,0.3,56,0.1,0,0,0,0,0,0,0,0,7.3,1.1,-120.6,239.4,,Starting Motors,Other,Takeoff (RC Assisted),15,5,TRUE,,Mavic Mini,TRUE,FALSE,,Smart,RC,TRUE,TRUE,FALSE,,,TRUE,,FALSE,FALSE,FALSE,FALSE,FALSE,FALSE,FALSE,FALSE,FALSE,FALSE,0,Follow Yaw,0,0,-103,257,FALSE,FALSE,FALSE,FALSE,FALSE,FALSE,,TRUE,Normal,,100,1024,1024,1024,1024,2,FALSE,FALSE,FALSE,FALSE,FALSE,0,FALSE,FALSE,FALSE,FALSE,88,7.886,1809,2065,7.923,FALSE,3.958,3.928,0.03,FALSE,FALSE,NA,96.4,96.4,96.4,0,0,0,0,5,1893.2,473.3,,Idle,0,20,FALSE,5,TRUE,11,Go Home,FALSE,FALSE,FALSE,FALSE,FALSE,FALSE,FALSE,FALSE,FALSE,FALSE,FALSE,FALSE,6.972893258,79.91594689,1.9,122,328,TRUE,1,1,FALSE,FALSE,FALSE,FALSE,,TRUE,FALSE,FALSE,Course Lock,49.2,,16.4,Calm,41,,1.12.8,Mavic Mini,1SDCH7G0169R0K,1SFLH6Q0AB03DJ,1SRCH7F014TAHX,1U5X071EXP5ZJG,146.2,0,108.2,2.248124,3.579104,0,0,Mavic Mini,1SDCH7G0169R0K,1SFLH6Q0AB03DJ,1SRCH7F014TAHX,1U5X071EXP5ZJG,DJI Fly,,1.12.8,7515A58F-8DC5-D702-FCAA-7A27C896A764,1SDCH7G0169R0K,,,,,,,,,
3/2/2024,03:07.9,2m 14.3s,134.3,6.972893419,79.91595219,0,0,0.3,56,0.1,0,0,0,0,0,0,0,0,7.4,1.1,-121,239,,Starting Motors,Other,Takeoff (RC Assisted),15,5,TRUE,,Mavic Mini,TRUE,FALSE,,Smart,RC,TRUE,TRUE,FALSE,,,TRUE,,FALSE,FALSE,FALSE,FALSE,FALSE,FALSE,FALSE,FALSE,FALSE,FALSE,0,Follow Yaw,0,0,-103.2,256.8,FALSE,FALSE,FALSE,FALSE,FALSE,FALSE,,TRUE,Normal,,100,1024,1024,1024,1024,2,FALSE,FALSE,FALSE,FALSE,FALSE,0,FALSE,FALSE,FALSE,FALSE,88,7.886,1809,2065,7.923,FALSE,3.958,3.928,0.03,FALSE,FALSE,NA,96.4,96.4,96.4,0,0,0,0,5,1893.2,473.3,,Idle,0,20,FALSE,5,TRUE,11,Go Home,FALSE,FALSE,FALSE,FALSE,FALSE,FALSE,FALSE,FALSE,FALSE,FALSE,FALSE,FALSE,6.972893258,79.91594689,1.9,122,328,TRUE,1,1,FALSE,FALSE,FALSE,FALSE,,TRUE,FALSE,FALSE,Course Lock,49.2,,16.4,Calm,41,,1.12.8,Mavic Mini,1SDCH7G0169R0K,1SFLH6Q0AB03DJ,1SRCH7F014TAHX,1U5X071EXP5ZJG,146.2,0,108.2,2.248124,3.579104,0,0,Mavic Mini,1SDCH7G0169R0K,1SFLH6Q0AB03DJ,1SRCH7F014TAHX,1U5X071EXP5ZJG,DJI Fly,,1.12.8,7515A58F-8DC5-D702-FCAA-7A27C896A764,1SDCH7G0169R0K,,,,,,,,,
3/2/2024,03:08.0,2m 14.4s,134.4,6.972893412,79.9159522,0,0,0.3,56,0.1,0,0,0,0,0,0,0,0,7.4,1.1,-121,239,,Starting Motors,Other,Takeoff (RC Assisted),15,5,TRUE,,Mavic Mini,TRUE,FALSE,,Smart,RC,TRUE,TRUE,FALSE,,,TRUE,,FALSE,FALSE,FALSE,FALSE,FALSE,FALSE,FALSE,FALSE,FALSE,FALSE,0,Follow Yaw,0,0,-103.4,256.6,FALSE,FALSE,FALSE,FALSE,FALSE,FALSE,,TRUE,Normal,,100,1024,1024,1024,1024,2,FALSE,FALSE,FALSE,FALSE,FALSE,0,FALSE,FALSE,FALSE,FALSE,87,7.886,1809,2065,7.921,FALSE,3.958,3.928,0.03,FALSE,FALSE,NA,96.4,96.4,96.4,0,0,0,0,5,1916.7,479.19,,Idle,0,20,FALSE,5,TRUE,11,Go Home,FALSE,FALSE,FALSE,FALSE,FALSE,FALSE,FALSE,FALSE,FALSE,FALSE,FALSE,FALSE,6.972893258,79.91594689,1.9,122,328,TRUE,1,1,FALSE,FALSE,FALSE,FALSE,,TRUE,FALSE,FALSE,Course Lock,49.2,,16.4,Calm,41,,1.12.8,Mavic Mini,1SDCH7G0169R0K,1SFLH6Q0AB03DJ,1SRCH7F014TAHX,1U5X071EXP5ZJG,146.2,0,108.2,2.248124,3.579104,0,0,Mavic Mini,1SDCH7G0169R0K,1SFLH6Q0AB03DJ,1SRCH7F014TAHX,1U5X071EXP5ZJG,DJI Fly,,1.12.8,7515A58F-8DC5-D702-FCAA-7A27C896A764,1SDCH7G0169R0K,,,,,,,,,
3/2/2024,03:08.2,2m 14.5s,134.5,6.972893406,79.9159522,0,0,0.3,56,0.1,0,0,0,0,0,0,0,0,7.4,1.1,-121.2,238.8,,Manual Takeoff,Other,Takeoff (RC Assisted),15,5,TRUE,,Mavic Mini,TRUE,FALSE,,Smart,RC,TRUE,TRUE,FALSE,,,TRUE,,FALSE,FALSE,FALSE,FALSE,FALSE,FALSE,FALSE,FALSE,FALSE,FALSE,0,Follow Yaw,0,0,-103.6,256.4,FALSE,FALSE,FALSE,FALSE,FALSE,FALSE,,TRUE,Normal,,100,1024,1024,1024,1024,2,FALSE,FALSE,FALSE,FALSE,FALSE,0,FALSE,FALSE,FALSE,FALSE,87,7.886,1809,2065,7.921,FALSE,3.958,3.928,0.03,FALSE,FALSE,NA,96.4,96.4,96.4,0,0,0,0,5,1916.7,479.19,,Idle,0,20,FALSE,5,TRUE,11,Go Home,FALSE,FALSE,FALSE,FALSE,FALSE,FALSE,FALSE,FALSE,FALSE,FALSE,FALSE,FALSE,6.972893258,79.91594689,1.9,122,328,TRUE,1,1,FALSE,FALSE,FALSE,FALSE,,TRUE,FALSE,FALSE,Course Lock,49.2,,16.4,Calm,41,,1.12.8,Mavic Mini,1SDCH7G0169R0K,1SFLH6Q0AB03DJ,1SRCH7F014TAHX,1U5X071EXP5ZJG,146.2,0,108.2,2.248124,3.579104,0,0,Mavic Mini,1SDCH7G0169R0K,1SFLH6Q0AB03DJ,1SRCH7F014TAHX,1U5X071EXP5ZJG,DJI Fly,,1.12.8,7515A58F-8DC5-D702-FCAA-7A27C896A764,1SDCH7G0169R0K,,,,,,,,Flight mode changed to Manual Takeoff.,
3/2/2024,03:08.3,2m 14.6s,134.6,6.972893382,79.91595227,0,0,0.3,56,0.1,0,0,0,0,0,0,0,0,7.4,1.1,-121.2,238.8,,Manual Takeoff,Other,Takeoff (RC Assisted),15,5,TRUE,,Mavic Mini,TRUE,FALSE,,Smart,RC,TRUE,TRUE,FALSE,,,TRUE,,FALSE,FALSE,FALSE,FALSE,FALSE,FALSE,FALSE,FALSE,FALSE,FALSE,0,Follow Yaw,0,0,-103.7,256.3,FALSE,FALSE,FALSE,FALSE,FALSE,FALSE,,TRUE,Normal,,100,1024,1024,1038,1024,2,FALSE,FALSE,FALSE,FALSE,FALSE,0,FALSE,FALSE,FALSE,FALSE,87,7.886,1809,2065,7.921,FALSE,3.958,3.928,0.03,FALSE,FALSE,NA,96.4,96.4,96.4,0,0,0,0,5,1916.7,479.19,,Idle,0,20,FALSE,5,TRUE,11,Go Home,FALSE,FALSE,FALSE,FALSE,FALSE,FALSE,FALSE,FALSE,FALSE,FALSE,FALSE,FALSE,6.972893258,79.91594689,1.9,122,328,TRUE,1,1,FALSE,FALSE,FALSE,FALSE,,TRUE,FALSE,FALSE,Course Lock,49.2,,16.4,Calm,41,,1.12.8,Mavic Mini,1SDCH7G0169R0K,1SFLH6Q0AB03DJ,1SRCH7F014TAHX,1U5X071EXP5ZJG,146.2,0,108.2,2.248124,3.579104,0,0,Mavic Mini,1SDCH7G0169R0K,1SFLH6Q0AB03DJ,1SRCH7F014TAHX,1U5X071EXP5ZJG,DJI Fly,,1.12.8,7515A58F-8DC5-D702-FCAA-7A27C896A764,1SDCH7G0169R0K,,,,,,,,,
3/2/2024,03:08.4,2m 14.7s,134.7,6.972893376,79.91595231,0,0,0.3,56,0.1,0,0,0,0,0,0,0,0,7.3,1.1,-121.2,238.8,,Manual Takeoff,Other,Takeoff (RC Assisted),15,5,TRUE,,Mavic Mini,TRUE,FALSE,,Smart,RC,TRUE,TRUE,FALSE,,,TRUE,,FALSE,FALSE,FALSE,FALSE,FALSE,FALSE,FALSE,FALSE,FALSE,FALSE,0,Follow Yaw,0,0,-103.7,256.3,FALSE,FALSE,FALSE,FALSE,FALSE,FALSE,,TRUE,Normal,,100,1024,1024,1047,1024,2,FALSE,FALSE,FALSE,FALSE,FALSE,0,FALSE,FALSE,FALSE,FALSE,87,7.886,1809,2065,7.921,FALSE,3.958,3.928,0.03,FALSE,FALSE,NA,96.4,96.4,96.4,0,0,0,0,5,1916.7,479.19,,Idle,0,20,FALSE,5,TRUE,11,Go Home,FALSE,FALSE,FALSE,FALSE,FALSE,FALSE,FALSE,FALSE,FALSE,FALSE,FALSE,FALSE,6.972893258,79.91594689,1.9,122,328,TRUE,1,1,FALSE,FALSE,FALSE,FALSE,,TRUE,FALSE,FALSE,Course Lock,49.2,,16.4,Calm,41,,1.12.8,Mavic Mini,1SDCH7G0169R0K,1SFLH6Q0AB03DJ,1SRCH7F014TAHX,1U5X071EXP5ZJG,146.2,0,108.2,2.248124,3.579104,0,0,Mavic Mini,1SDCH7G0169R0K,1SFLH6Q0AB03DJ,1SRCH7F014TAHX,1U5X071EXP5ZJG,DJI Fly,,1.12.8,7515A58F-8DC5-D702-FCAA-7A27C896A764,1SDCH7G0169R0K,,,,,,,,,
3/2/2024,03:08.5,2m 14.8s,134.8,6.972893423,79.91595232,0,0,0.3,56,0.2,0,0,0,0,0,0,0,0,7.3,1.1,-121.2,238.8,,Manual Takeoff,Other,Takeoff (RC Assisted),15,5,TRUE,,Mavic Mini,TRUE,FALSE,,Smart,RC,TRUE,TRUE,FALSE,,,TRUE,,FALSE,FALSE,FALSE,FALSE,FALSE,FALSE,FALSE,FALSE,FALSE,FALSE,0,Follow Yaw,0,0,-103.7,256.3,FALSE,FALSE,FALSE,FALSE,FALSE,FALSE,,TRUE,Normal,,100,1024,1024,1047,1024,2,FALSE,FALSE,FALSE,FALSE,FALSE,0,FALSE,FALSE,FALSE,FALSE,87,7.886,1809,2065,7.921,FALSE,3.958,3.928,0.03,FALSE,FALSE,NA,96.4,96.4,96.4,0,0,0,0,5,1916.7,479.19,,Idle,0,20,FALSE,5,TRUE,11,Go Home,FALSE,FALSE,FALSE,FALSE,FALSE,FALSE,FALSE,FALSE,FALSE,FALSE,FALSE,FALSE,6.972893258,79.91594689,1.9,122,328,TRUE,1,1,FALSE,FALSE,FALSE,FALSE,,TRUE,FALSE,FALSE,Course Lock,49.2,,16.4,Calm,41,,1.12.8,Mavic Mini,1SDCH7G0169R0K,1SFLH6Q0AB03DJ,1SRCH7F014TAHX,1U5X071EXP5ZJG,146.2,0,108.2,2.248124,3.579104,0,0,Mavic Mini,1SDCH7G0169R0K,1SFLH6Q0AB03DJ,1SRCH7F014TAHX,1U5X071EXP5ZJG,DJI Fly,,1.12.8,7515A58F-8DC5-D702-FCAA-7A27C896A764,1SDCH7G0169R0K,,,,,,,,,
3/2/2024,03:08.6,2m 14.9s,134.9,6.972893472,79.91595232,0,0,0.3,56,0.2,0,0,0,0,0,0,0,0,7.3,1.1,-121.2,238.8,,Manual Takeoff,Other,Takeoff (RC Assisted),15,5,TRUE,,Mavic Mini,TRUE,FALSE,,Smart,RC,TRUE,TRUE,FALSE,,,TRUE,,FALSE,FALSE,FALSE,FALSE,FALSE,FALSE,FALSE,FALSE,FALSE,FALSE,0,Follow Yaw,0,0,-103.7,256.3,FALSE,FALSE,FALSE,FALSE,FALSE,FALSE,,TRUE,Normal,,100,1024,1024,1291,1024,2,FALSE,FALSE,FALSE,FALSE,FALSE,0,FALSE,FALSE,FALSE,FALSE,87,7.886,1809,2065,7.921,FALSE,3.958,3.928,0.03,FALSE,FALSE,NA,96.4,96.4,96.4,0,0,0,0,5,1916.7,479.19,,Idle,0,20,FALSE,5,TRUE,11,Go Home,FALSE,FALSE,FALSE,FALSE,FALSE,FALSE,FALSE,FALSE,FALSE,FALSE,FALSE,FALSE,6.972893258,79.91594689,1.9,122,328,TRUE,1,1,FALSE,FALSE,FALSE,FALSE,,TRUE,FALSE,FALSE,Course Lock,49.2,,16.4,Calm,41,,1.12.8,Mavic Mini,1SDCH7G0169R0K,1SFLH6Q0AB03DJ,1SRCH7F014TAHX,1U5X071EXP5ZJG,146.2,0,108.2,2.248124,3.579104,0,0,Mavic Mini,1SDCH7G0169R0K,1SFLH6Q0AB03DJ,1SRCH7F014TAHX,1U5X071EXP5ZJG,DJI Fly,,1.12.8,7515A58F-8DC5-D702-FCAA-7A27C896A764,1SDCH7G0169R0K,,,,,,,,,
3/2/2024,03:08.7,2m 15.0s,135,6.972893489,79.91595235,0,0,0.3,56,0.2,0,0,0,0,0,0,0,0,7.4,1.1,-121.2,238.8,,Manual Takeoff,Other,Takeoff (RC Assisted),15,5,TRUE,,Mavic Mini,TRUE,FALSE,,Smart,RC,TRUE,TRUE,FALSE,,,TRUE,,FALSE,FALSE,FALSE,FALSE,FALSE,FALSE,FALSE,FALSE,FALSE,FALSE,0,Follow Yaw,0,0,-103.7,256.3,FALSE,FALSE,FALSE,FALSE,FALSE,FALSE,,TRUE,Normal,,100,1024,1024,1291,1024,2,FALSE,FALSE,FALSE,FALSE,FALSE,0,FALSE,FALSE,FALSE,FALSE,87,7.886,1809,2065,7.921,FALSE,3.958,3.928,0.03,FALSE,FALSE,NA,96.4,96.4,96.4,0,0,0,0,5,1916.7,479.19,,Idle,0,20,FALSE,5,TRUE,11,Go Home,FALSE,FALSE,FALSE,FALSE,FALSE,FALSE,FALSE,FALSE,FALSE,FALSE,FALSE,FALSE,6.972893258,79.91594689,1.9,122,328,TRUE,1,1,FALSE,FALSE,FALSE,FALSE,,TRUE,FALSE,FALSE,Course Lock,49.2,,16.4,Calm,41,,1.12.8,Mavic Mini,1SDCH7G0169R0K,1SFLH6Q0AB03DJ,1SRCH7F014TAHX,1U5X071EXP5ZJG,146.2,0,108.2,2.248124,3.579104,0,0,Mavic Mini,1SDCH7G0169R0K,1SFLH6Q0AB03DJ,1SRCH7F014TAHX,1U5X071EXP5ZJG,DJI Fly,,1.12.8,7515A58F-8DC5-D702-FCAA-7A27C896A764,1SDCH7G0169R0K,,,,,,,,,
3/2/2024,03:08.8,2m 15.1s,135.1,6.972893586,79.91595241,0,0,0.3,56,0.2,0,0,0,0,0,0,0,0,7.3,1,-121.2,238.8,,Manual Takeoff,Other,Takeoff (RC Assisted),15,5,TRUE,,Mavic Mini,TRUE,FALSE,,Smart,RC,TRUE,TRUE,FALSE,,,TRUE,,FALSE,FALSE,FALSE,FALSE,FALSE,FALSE,FALSE,FALSE,FALSE,FALSE,0,Follow Yaw,0,0,-103.7,256.3,FALSE,FALSE,FALSE,FALSE,FALSE,FALSE,,TRUE,Normal,,100,1024,1024,1499,1024,2,FALSE,FALSE,FALSE,FALSE,FALSE,0,FALSE,FALSE,FALSE,FALSE,87,7.886,1809,2065,7.921,FALSE,3.958,3.928,0.03,FALSE,FALSE,NA,96.4,96.4,96.4,0,0,0,0,5,1916.7,479.19,,Idle,0,20,FALSE,5,TRUE,11,Go Home,FALSE,FALSE,FALSE,FALSE,FALSE,FALSE,FALSE,FALSE,FALSE,FALSE,FALSE,FALSE,6.972893258,79.91594689,2,122,328,TRUE,1,1,FALSE,FALSE,FALSE,FALSE,,TRUE,FALSE,FALSE,Course Lock,49.2,,16.4,Calm,41,,1.12.8,Mavic Mini,1SDCH7G0169R0K,1SFLH6Q0AB03DJ,1SRCH7F014TAHX,1U5X071EXP5ZJG,146.2,0,108.2,2.248124,3.579104,0,0,Mavic Mini,1SDCH7G0169R0K,1SFLH6Q0AB03DJ,1SRCH7F014TAHX,1U5X071EXP5ZJG,DJI Fly,,1.12.8,7515A58F-8DC5-D702-FCAA-7A27C896A764,1SDCH7G0169R0K,,,,,,,,,
3/2/2024,03:08.9,2m 15.2s,135.2,6.972893584,79.91595246,0,0,0.3,56,0.2,0,0,0,0,0,0,0,0,7.3,1,-121.2,238.8,,Manual Takeoff,Other,Takeoff (RC Assisted),15,5,TRUE,,Mavic Mini,TRUE,FALSE,,Smart,RC,TRUE,TRUE,FALSE,,,TRUE,,FALSE,FALSE,FALSE,FALSE,FALSE,FALSE,FALSE,FALSE,FALSE,FALSE,0,Follow Yaw,0,0,-103.7,256.3,FALSE,FALSE,FALSE,FALSE,FALSE,FALSE,,TRUE,Normal,,100,1024,1024,1499,1024,2,FALSE,FALSE,FALSE,FALSE,FALSE,0,FALSE,FALSE,FALSE,FALSE,87,7.923,1809,2065,7.921,FALSE,3.961,3.962,0.03,FALSE,FALSE,NA,96.4,96.4,96.4,0,0,0,0,5,1916.7,479.19,,Idle,0,20,FALSE,5,TRUE,11,Go Home,FALSE,FALSE,FALSE,FALSE,FALSE,FALSE,FALSE,FALSE,FALSE,FALSE,FALSE,FALSE,6.972893258,79.91594689,2,122,328,TRUE,1,1,FALSE,FALSE,FALSE,FALSE,,TRUE,FALSE,FALSE,Course Lock,49.2,,16.4,Calm,41,,1.12.8,Mavic Mini,1SDCH7G0169R0K,1SFLH6Q0AB03DJ,1SRCH7F014TAHX,1U5X071EXP5ZJG,146.2,0,108.2,2.248124,3.579104,0,0,Mavic Mini,1SDCH7G0169R0K,1SFLH6Q0AB03DJ,1SRCH7F014TAHX,1U5X071EXP5ZJG,DJI Fly,,1.12.8,7515A58F-8DC5-D702-FCAA-7A27C896A764,1SDCH7G0169R0K,,,,,,,,,
3/2/2024,03:09.0,2m 15.3s,135.3,6.972893581,79.91595252,0,0,0.3,56,0.3,0,0,0,0,0,0,0,0,7.2,1,-121.3,238.7,,Manual Takeoff,Other,Takeoff (RC Assisted),15,5,TRUE,,Mavic Mini,TRUE,FALSE,,Smart,RC,TRUE,TRUE,FALSE,,,TRUE,,FALSE,FALSE,FALSE,FALSE,FALSE,FALSE,FALSE,FALSE,FALSE,FALSE,0,Follow Yaw,0,0,-103.8,256.2,FALSE,FALSE,FALSE,FALSE,FALSE,FALSE,,TRUE,Normal,,100,1024,1024,1558,1024,2,FALSE,FALSE,FALSE,FALSE,FALSE,0,FALSE,FALSE,FALSE,FALSE,87,7.923,1808,2065,7.921,FALSE,3.961,3.962,0.03,FALSE,FALSE,NA,96.4,96.4,96.4,0,0,0,0,5,1916.7,479.19,,Idle,0,20,FALSE,5,TRUE,11,Go Home,FALSE,FALSE,FALSE,FALSE,FALSE,FALSE,FALSE,FALSE,FALSE,FALSE,FALSE,FALSE,6.972893258,79.91594689,2,122,328,TRUE,1,1,FALSE,FALSE,FALSE,FALSE,,TRUE,FALSE,FALSE,Course Lock,49.2,,16.4,Calm,41,,1.12.8,Mavic Mini,1SDCH7G0169R0K,1SFLH6Q0AB03DJ,1SRCH7F014TAHX,1U5X071EXP5ZJG,146.2,0,108.2,2.248124,3.579104,0,0,Mavic Mini,1SDCH7G0169R0K,1SFLH6Q0AB03DJ,1SRCH7F014TAHX,1U5X071EXP5ZJG,DJI Fly,,1.12.8,7515A58F-8DC5-D702-FCAA-7A27C896A764,1SDCH7G0169R0K,,,,,6.972887437,79.9159607,5,,
3/2/2024,03:09.1,2m 15.4s,135.4,6.972893572,79.91595252,0,0,0.3,56,0.3,0,0,0,0,0,0,0,0,7.2,0.9,-121.3,238.7,,Manual Takeoff,Other,Takeoff (RC Assisted),15,5,TRUE,,Mavic Mini,TRUE,FALSE,,Smart,RC,TRUE,TRUE,FALSE,,,TRUE,,FALSE,FALSE,FALSE,FALSE,FALSE,FALSE,FALSE,FALSE,FALSE,FALSE,0,Follow Yaw,0,0,-103.8,256.2,FALSE,FALSE,FALSE,FALSE,FALSE,FALSE,,TRUE,Normal,,100,1024,1024,1628,1024,2,FALSE,FALSE,FALSE,FALSE,FALSE,0,FALSE,FALSE,FALSE,FALSE,87,7.923,1808,2065,7.892,FALSE,3.961,3.962,0.03,FALSE,FALSE,NA,96.4,96.4,96.4,0,0,0,0,5,2070.4,517.6,,Idle,0,20,FALSE,5,TRUE,11,Go Home,FALSE,FALSE,FALSE,FALSE,FALSE,FALSE,FALSE,FALSE,FALSE,FALSE,FALSE,FALSE,6.972893258,79.91594689,2,122,328,TRUE,1,1,FALSE,FALSE,FALSE,FALSE,,TRUE,FALSE,FALSE,Course Lock,49.2,,16.4,Calm,41,,1.12.8,Mavic Mini,1SDCH7G0169R0K,1SFLH6Q0AB03DJ,1SRCH7F014TAHX,1U5X071EXP5ZJG,146.2,0,108.2,2.248124,3.579104,0,0,Mavic Mini,1SDCH7G0169R0K,1SFLH6Q0AB03DJ,1SRCH7F014TAHX,1U5X071EXP5ZJG,DJI Fly,,1.12.8,7515A58F-8DC5-D702-FCAA-7A27C896A764,1SDCH7G0169R0K,,,,,6.972887437,79.9159607,5,,
3/2/2024,03:09.2,2m 15.5s,135.5,6.97289352,79.91595254,0,0,0.3,56,0.3,0,0,0,0,0,0,0,0,7.1,0.7,-121.3,238.7,,Manual Takeoff,Other,Takeoff (RC Assisted),15,5,TRUE,,Mavic Mini,TRUE,FALSE,,Smart,RC,TRUE,TRUE,FALSE,,,TRUE,,FALSE,FALSE,FALSE,FALSE,FALSE,FALSE,FALSE,FALSE,FALSE,FALSE,0,Follow Yaw,0,0,-103.8,256.2,FALSE,FALSE,FALSE,FALSE,FALSE,FALSE,,TRUE,Normal,,100,1024,1024,1665,1024,2,FALSE,FALSE,FALSE,FALSE,FALSE,0,FALSE,FALSE,FALSE,FALSE,87,7.923,1808,2065,7.892,FALSE,3.961,3.962,0.03,FALSE,FALSE,NA,96.4,96.4,96.4,0,0,0,0,5,2070.4,517.6,,Idle,0,20,FALSE,5,TRUE,11,Go Home,FALSE,FALSE,FALSE,FALSE,FALSE,FALSE,FALSE,FALSE,FALSE,FALSE,FALSE,FALSE,6.972893258,79.91594689,2,122,328,TRUE,1,1,FALSE,FALSE,FALSE,FALSE,,TRUE,FALSE,FALSE,Course Lock,49.2,,16.4,Calm,41,,1.12.8,Mavic Mini,1SDCH7G0169R0K,1SFLH6Q0AB03DJ,1SRCH7F014TAHX,1U5X071EXP5ZJG,146.2,0,108.2,2.248124,3.579104,0,0,Mavic Mini,1SDCH7G0169R0K,1SFLH6Q0AB03DJ,1SRCH7F014TAHX,1U5X071EXP5ZJG,DJI Fly,,1.12.8,7515A58F-8DC5-D702-FCAA-7A27C896A764,1SDCH7G0169R0K,,,,,6.972887437,79.9159607,5,,
3/2/2024,03:09.2,2m 15.6s,135.6,6.972893512,79.91595257,0,0,0.3,56,0.3,0,0,0,0,0,0,0,0,6.5,0.8,-121.9,238.1,,Manual Takeoff,Other,Takeoff (RC Assisted),15,5,TRUE,,Mavic Mini,TRUE,FALSE,,Smart,RC,TRUE,TRUE,FALSE,,,TRUE,,FALSE,FALSE,FALSE,FALSE,FALSE,FALSE,FALSE,FALSE,FALSE,FALSE,0,Follow Yaw,0,0,-103.9,256.1,FALSE,FALSE,FALSE,FALSE,FALSE,FALSE,,TRUE,Normal,,100,1024,1024,1672,1024,2,FALSE,FALSE,FALSE,FALSE,FALSE,0,FALSE,FALSE,FALSE,FALSE,87,7.923,1808,2065,7.892,FALSE,3.961,3.962,0.03,FALSE,FALSE,NA,96.4,96.4,96.4,0,0,0,0,5,2070.4,517.6,,Idle,0,20,FALSE,5,TRUE,11,Go Home,FALSE,FALSE,FALSE,FALSE,FALSE,FALSE,FALSE,FALSE,FALSE,FALSE,FALSE,FALSE,6.972893258,79.91594689,2,122,328,TRUE,1,1,FALSE,FALSE,FALSE,FALSE,,TRUE,FALSE,FALSE,Course Lock,49.2,,16.4,Calm,41,,1.12.8,Mavic Mini,1SDCH7G0169R0K,1SFLH6Q0AB03DJ,1SRCH7F014TAHX,1U5X071EXP5ZJG,146.2,0,108.2,2.248124,3.579104,0,0,Mavic Mini,1SDCH7G0169R0K,1SFLH6Q0AB03DJ,1SRCH7F014TAHX,1U5X071EXP5ZJG,DJI Fly,,1.12.8,7515A58F-8DC5-D702-FCAA-7A27C896A764,1SDCH7G0169R0K,,,,,6.972887437,79.9159607,5,,
3/2/2024,03:09.3,2m 15.7s,135.7,6.972893513,79.91595263,0,0,0.3,56,0.3,0,0,0,0,0,0,0,0,6.1,0.7,-122.7,237.3,,Manual Takeoff,Other,Takeoff (RC Assisted),15,5,TRUE,,Mavic Mini,TRUE,FALSE,,Smart,RC,TRUE,TRUE,FALSE,,,TRUE,,FALSE,FALSE,FALSE,FALSE,FALSE,FALSE,FALSE,FALSE,FALSE,FALSE,0,Follow Yaw,0,0,-104.5,255.5,FALSE,FALSE,FALSE,FALSE,FALSE,FALSE,,TRUE,Normal,,100,1024,1024,1672,1024,2,FALSE,FALSE,FALSE,FALSE,FALSE,0,FALSE,FALSE,FALSE,FALSE,87,7.923,1808,2065,7.892,FALSE,3.961,3.962,0.03,FALSE,FALSE,NA,96.4,96.4,96.4,0,0,0,0,5,2070.4,517.6,,Idle,0,20,FALSE,5,TRUE,11,Go Home,FALSE,FALSE,FALSE,FALSE,FALSE,FALSE,FALSE,FALSE,FALSE,FALSE,FALSE,FALSE,6.972893258,79.91594689,2,122,328,TRUE,1,1,FALSE,FALSE,FALSE,FALSE,,TRUE,FALSE,FALSE,Course Lock,49.2,,16.4,Calm,41,,1.12.8,Mavic Mini,1SDCH7G0169R0K,1SFLH6Q0AB03DJ,1SRCH7F014TAHX,1U5X071EXP5ZJG,146.2,0,108.2,2.248124,3.579104,0,0,Mavic Mini,1SDCH7G0169R0K,1SFLH6Q0AB03DJ,1SRCH7F014TAHX,1U5X071EXP5ZJG,DJI Fly,,1.12.8,7515A58F-8DC5-D702-FCAA-7A27C896A764,1SDCH7G0169R0K,,,,,6.972887437,79.9159607,5,,
3/2/2024,03:09.5,2m 15.8s,135.8,6.972893533,79.91595267,0,0,0.3,56,0.3,0,0,0,0,0,0,0,0,2.9,0,-123.2,236.8,,Manual Takeoff,Other,Takeoff (RC Assisted),15,5,TRUE,,Mavic Mini,TRUE,FALSE,,Smart,RC,TRUE,TRUE,FALSE,,,TRUE,,FALSE,FALSE,FALSE,FALSE,FALSE,FALSE,FALSE,FALSE,FALSE,FALSE,0,Follow Yaw,0,0,-105,255,FALSE,FALSE,FALSE,FALSE,FALSE,FALSE,,TRUE,Normal,,100,1024,1024,1684,1024,2,FALSE,FALSE,FALSE,FALSE,FALSE,0,FALSE,FALSE,FALSE,FALSE,87,7.923,1808,2065,7.892,FALSE,3.961,3.962,0.03,FALSE,FALSE,NA,96.4,96.4,96.4,0,0,0,0,5,2070.4,517.6,,Idle,0,20,FALSE,5,TRUE,11,Go Home,FALSE,FALSE,FALSE,FALSE,FALSE,FALSE,FALSE,FALSE,FALSE,FALSE,FALSE,FALSE,6.972893258,79.91594689,2,122,328,TRUE,1,1,FALSE,FALSE,FALSE,FALSE,,TRUE,FALSE,FALSE,Course Lock,49.2,,16.4,Calm,41,,1.12.8,Mavic Mini,1SDCH7G0169R0K,1SFLH6Q0AB03DJ,1SRCH7F014TAHX,1U5X071EXP5ZJG,146.2,0,108.2,2.248124,3.579104,0,0,Mavic Mini,1SDCH7G0169R0K,1SFLH6Q0AB03DJ,1SRCH7F014TAHX,1U5X071EXP5ZJG,DJI Fly,,1.12.8,7515A58F-8DC5-D702-FCAA-7A27C896A764,1SDCH7G0169R0K,,,,,6.972887437,79.9159607,5,,
3/2/2024,03:09.5,2m 15.9s,135.9,6.972893544,79.91595273,0,0,0.3,56,0.4,0,0,0,0,0,0,-0.223694,0,1,-2.2,-124.9,235.1,,Manual Takeoff,Other,,15,5,TRUE,,Mavic Mini,TRUE,FALSE,,Smart,RC,FALSE,TRUE,FALSE,,,TRUE,,FALSE,FALSE,FALSE,FALSE,FALSE,FALSE,FALSE,FALSE,FALSE,FALSE,0,Follow Yaw,0,0,-106,254,FALSE,FALSE,FALSE,FALSE,FALSE,FALSE,,TRUE,Normal,,100,1024,1024,1684,1024,2,FALSE,FALSE,FALSE,FALSE,FALSE,0,FALSE,FALSE,FALSE,FALSE,87,7.923,1808,2065,7.892,FALSE,3.961,3.962,0.03,FALSE,FALSE,NA,96.4,96.4,96.4,0,0,0,0,5,2070.4,517.6,,Idle,0,20,FALSE,5,TRUE,11,Go Home,FALSE,FALSE,FALSE,FALSE,FALSE,FALSE,FALSE,FALSE,FALSE,FALSE,FALSE,FALSE,6.972893258,79.91594689,2.1,122,328,TRUE,1,1,FALSE,FALSE,FALSE,FALSE,,TRUE,FALSE,FALSE,Course Lock,49.2,,16.4,Calm,41,,1.12.8,Mavic Mini,1SDCH7G0169R0K,1SFLH6Q0AB03DJ,1SRCH7F014TAHX,1U5X071EXP5ZJG,146.2,0,108.2,2.248124,3.579104,0,0,Mavic Mini,1SDCH7G0169R0K,1SFLH6Q0AB03DJ,1SRCH7F014TAHX,1U5X071EXP5ZJG,DJI Fly,,1.12.8,7515A58F-8DC5-D702-FCAA-7A27C896A764,1SDCH7G0169R0K,,,,,6.972887437,79.9159607,5,,
3/2/2024,03:09.7,2m 16.0s,136,6.97289355,79.91595287,0,0,0.3,56,0.4,0.223694,0.223694,0,0,0.223694,0.223694,-0.447388,0,0,-2,-125.1,234.9,86.8,Tripod,Other,,15,5,TRUE,,Mavic Mini,TRUE,FALSE,,Smart,RC,FALSE,TRUE,FALSE,,,TRUE,,FALSE,FALSE,FALSE,FALSE,FALSE,FALSE,FALSE,FALSE,FALSE,FALSE,0,Follow Yaw,0,0,-106.7,253.3,FALSE,FALSE,FALSE,FALSE,FALSE,FALSE,,TRUE,Normal,,100,1024,1024,1684,1024,2,FALSE,FALSE,FALSE,FALSE,FALSE,0,FALSE,FALSE,FALSE,FALSE,87,7.923,1808,2065,7.892,FALSE,3.961,3.962,0.03,FALSE,FALSE,NA,96.4,96.4,96.4,0,0,0,0,5,2070.4,517.6,,Idle,0,20,FALSE,5,TRUE,11,Go Home,FALSE,FALSE,FALSE,FALSE,FALSE,FALSE,FALSE,FALSE,FALSE,FALSE,FALSE,FALSE,6.972893258,79.91594689,2.1,122,328,TRUE,1,1,FALSE,FALSE,FALSE,FALSE,,TRUE,FALSE,FALSE,Course Lock,49.2,,16.4,Calm,41,,1.12.8,Mavic Mini,1SDCH7G0169R0K,1SFLH6Q0AB03DJ,1SRCH7F014TAHX,1U5X071EXP5ZJG,146.2,0,108.2,2.248124,3.579104,0,0,Mavic Mini,1SDCH7G0169R0K,1SFLH6Q0AB03DJ,1SRCH7F014TAHX,1U5X071EXP5ZJG,DJI Fly,,1.12.8,7515A58F-8DC5-D702-FCAA-7A27C896A764,1SDCH7G0169R0K,,,,,6.972887437,79.9159607,5,Flight mode changed to Tripod.,
3/2/2024,03:09.8,2m 16.1s,136.1,6.972893506,79.91595302,0,0,0.6,56,0.5,0.223694,0.223694,0,0,0.223694,0.223694,-0.894776,0,-0.1,-0.4,-125.2,234.8,111.4,Tripod,Other,,15,5,TRUE,,Mavic Mini,TRUE,FALSE,,Smart,RC,FALSE,TRUE,FALSE,,,TRUE,,FALSE,FALSE,FALSE,FALSE,FALSE,FALSE,FALSE,FALSE,FALSE,FALSE,0,Follow Yaw,0,0,-106.7,253.3,FALSE,FALSE,FALSE,FALSE,FALSE,FALSE,,TRUE,Normal,,100,1024,1024,1684,1024,2,FALSE,FALSE,FALSE,FALSE,FALSE,0,FALSE,FALSE,FALSE,FALSE,87,7.923,1808,2065,7.892,FALSE,3.961,3.962,0.03,FALSE,FALSE,NA,96.4,96.4,96.4,0,0,0,0,5,2070.4,517.6,,Idle,0,20,FALSE,5,TRUE,11,Go Home,FALSE,FALSE,FALSE,FALSE,FALSE,FALSE,FALSE,FALSE,FALSE,FALSE,FALSE,FALSE,6.972893258,79.91594689,2.2,122,328,TRUE,1,1,FALSE,FALSE,FALSE,FALSE,,TRUE,FALSE,FALSE,Course Lock,49.2,,16.4,Calm,41,,1.12.8,Mavic Mini,1SDCH7G0169R0K,1SFLH6Q0AB03DJ,1SRCH7F014TAHX,1U5X071EXP5ZJG,146.2,0,108.2,2.248124,3.579104,0,0,Mavic Mini,1SDCH7G0169R0K,1SFLH6Q0AB03DJ,1SRCH7F014TAHX,1U5X071EXP5ZJG,DJI Fly,,1.12.8,7515A58F-8DC5-D702-FCAA-7A27C896A764,1SDCH7G0169R0K,,,,,6.972887437,79.9159607,5,,
3/2/2024,03:09.9,2m 16.2s,136.2,6.972893418,79.91595315,0.3,0.3,0.6,57,0.5,0.223694,0.223694,-0.223694,0,0,0.223694,-1.565858,0,-0.2,0.8,-125.1,234.9,129.8,Tripod,Other,,15,5,TRUE,,Mavic Mini,TRUE,FALSE,,Smart,RC,FALSE,TRUE,FALSE,,,TRUE,,FALSE,FALSE,FALSE,FALSE,FALSE,FALSE,FALSE,FALSE,FALSE,FALSE,0,Follow Yaw,0,0,-106.7,253.3,FALSE,FALSE,FALSE,FALSE,FALSE,FALSE,,TRUE,Normal,,100,1024,1024,1684,1024,2,FALSE,FALSE,FALSE,FALSE,FALSE,0,FALSE,FALSE,FALSE,FALSE,87,7.923,1808,2065,7.892,FALSE,3.961,3.962,0.03,FALSE,FALSE,NA,96.4,96.4,96.4,0,0,0,0,5,2070.4,517.6,,Idle,0,20,FALSE,5,TRUE,11,Go Home,FALSE,FALSE,FALSE,FALSE,FALSE,FALSE,FALSE,FALSE,FALSE,FALSE,FALSE,FALSE,6.972893258,79.91594689,2.2,122,328,TRUE,1,1,FALSE,FALSE,FALSE,FALSE,,TRUE,FALSE,FALSE,Course Lock,49.2,,16.4,Calm,41,,1.12.8,Mavic Mini,1SDCH7G0169R0K,1SFLH6Q0AB03DJ,1SRCH7F014TAHX,1U5X071EXP5ZJG,146.2,0,108.2,2.248124,3.579104,0,0,Mavic Mini,1SDCH7G0169R0K,1SFLH6Q0AB03DJ,1SRCH7F014TAHX,1U5X071EXP5ZJG,DJI Fly,,1.12.8,7515A58F-8DC5-D702-FCAA-7A27C896A764,1SDCH7G0169R0K,,,,,6.972887437,79.9159607,5,,
3/2/2024,03:10.0,2m 16.3s,136.3,6.97289331,79.91595333,0.6,0.6,0.9,57,0.6,0.223694,0.223694,-0.223694,0,0,0.223694,-2.013246,0,0.7,1.7,-124.8,235.2,127.8,Tripod,Other,,15,5,TRUE,,Mavic Mini,TRUE,FALSE,,Smart,RC,FALSE,TRUE,FALSE,,,TRUE,,FALSE,FALSE,FALSE,FALSE,FALSE,FALSE,FALSE,FALSE,FALSE,FALSE,0,Follow Yaw,0,0,-106.7,253.3,FALSE,FALSE,FALSE,FALSE,FALSE,FALSE,,TRUE,Normal,,100,1024,1024,1684,1024,2,FALSE,FALSE,FALSE,FALSE,FALSE,0,FALSE,FALSE,FALSE,FALSE,87,7.923,1808,2065,7.892,FALSE,3.961,3.962,0.03,FALSE,FALSE,NA,96.4,96.4,96.4,0,0,0,0,5,2070.4,517.6,,Idle,0,20,FALSE,5,TRUE,11,Go Home,FALSE,FALSE,FALSE,FALSE,FALSE,FALSE,FALSE,FALSE,FALSE,FALSE,FALSE,FALSE,6.972893258,79.91594689,2.3,122,328,TRUE,1,1,FALSE,FALSE,FALSE,FALSE,,TRUE,FALSE,FALSE,Course Lock,49.2,,16.4,Calm,41,,1.12.8,Mavic Mini,1SDCH7G0169R0K,1SFLH6Q0AB03DJ,1SRCH7F014TAHX,1U5X071EXP5ZJG,146.2,0,108.2,2.248124,3.579104,0,0,Mavic Mini,1SDCH7G0169R0K,1SFLH6Q0AB03DJ,1SRCH7F014TAHX,1U5X071EXP5ZJG,DJI Fly,,1.12.8,7515A58F-8DC5-D702-FCAA-7A27C896A764,1SDCH7G0169R0K,,,,,6.972887437,79.9159607,5,,
3/2/2024,03:10.1,2m 16.4s,136.4,6.972893211,79.91595345,0.6,0.6,1.3,57,0.7,0.223694,0.223694,-0.223694,0,0,0.223694,-2.460634,0,1.5,1.8,-124.7,235.3,137.3,Tripod,Other,,15,5,TRUE,,Mavic Mini,TRUE,FALSE,,Smart,RC,FALSE,TRUE,FALSE,,,TRUE,,FALSE,FALSE,FALSE,FALSE,FALSE,FALSE,FALSE,FALSE,FALSE,FALSE,0,Follow Yaw,0,0,-106.7,253.3,FALSE,FALSE,FALSE,FALSE,FALSE,FALSE,,TRUE,Normal,,100,1024,1024,1684,1024,2,FALSE,FALSE,FALSE,FALSE,FALSE,0,FALSE,FALSE,FALSE,FALSE,87,7.667,1807,2065,7.887,FALSE,3.833,3.834,0.03,FALSE,FALSE,NA,96.4,96.4,96.4,0,0,0,0,5,2070.4,517.6,,Idle,0,20,FALSE,5,TRUE,11,Go Home,FALSE,FALSE,FALSE,FALSE,FALSE,FALSE,FALSE,FALSE,FALSE,FALSE,FALSE,FALSE,6.972893548,79.91595276,0.2,122,328,TRUE,1,1,FALSE,FALSE,FALSE,FALSE,,TRUE,FALSE,FALSE,Course Lock,49.2,,16.4,Calm,41,,1.12.8,Mavic Mini,1SDCH7G0169R0K,1SFLH6Q0AB03DJ,1SRCH7F014TAHX,1U5X071EXP5ZJG,146.2,0,108.2,2.248124,3.579104,0,0,Mavic Mini,1SDCH7G0169R0K,1SFLH6Q0AB03DJ,1SRCH7F014TAHX,1U5X071EXP5ZJG,DJI Fly,,1.12.8,7515A58F-8DC5-D702-FCAA-7A27C896A764,1SDCH7G0169R0K,,,,,6.972887437,79.9159607,5,Home Point Updated.,
3/2/2024,03:10.2,2m 16.5s,136.5,6.972893115,79.91595356,1.3,1.3,1.6,58,0.7,0.223694,0.223694,-0.223694,0,0,0.223694,-2.908022,0,1.7,1.8,-124.7,235.3,140.2,Tripod,Other,,15,5,TRUE,,Mavic Mini,TRUE,FALSE,,Smart,RC,FALSE,TRUE,FALSE,,,TRUE,,FALSE,FALSE,FALSE,FALSE,FALSE,FALSE,FALSE,FALSE,FALSE,FALSE,0,Follow Yaw,0,0,-106.7,253.3,FALSE,FALSE,FALSE,FALSE,FALSE,FALSE,,TRUE,Normal,,100,1024,1024,1684,1024,2,FALSE,FALSE,FALSE,FALSE,FALSE,0,FALSE,FALSE,FALSE,FALSE,87,7.667,1807,2065,7.887,FALSE,3.833,3.834,0.03,FALSE,FALSE,NA,96.4,96.4,96.4,0,0,0,0,5,2070.4,517.6,,Idle,0,20,FALSE,5,TRUE,11,Go Home,FALSE,FALSE,FALSE,FALSE,FALSE,FALSE,FALSE,FALSE,FALSE,FALSE,FALSE,FALSE,6.972893548,79.91595276,0.3,122,328,TRUE,1,1,FALSE,FALSE,FALSE,FALSE,,TRUE,FALSE,FALSE,Course Lock,49.2,,16.4,Calm,41,,1.12.8,Mavic Mini,1SDCH7G0169R0K,1SFLH6Q0AB03DJ,1SRCH7F014TAHX,1U5X071EXP5ZJG,146.2,0,108.2,2.248124,3.579104,0,0,Mavic Mini,1SDCH7G0169R0K,1SFLH6Q0AB03DJ,1SRCH7F014TAHX,1U5X071EXP5ZJG,DJI Fly,,1.12.8,7515A58F-8DC5-D702-FCAA-7A27C896A764,1SDCH7G0169R0K,,,,,6.972887437,79.9159607,5,,
3/2/2024,03:10.3,2m 16.6s,136.6,6.97289298,79.91595356,1.6,1.6,2.2,58,0.8,0.223694,0.223694,-0.223694,0,0,0.223694,-3.35541,0,2,1.9,-124.6,235.4,177.6,Tripod,Other,,15,5,TRUE,,Mavic Mini,TRUE,FALSE,,Smart,RC,FALSE,TRUE,FALSE,,,TRUE,,FALSE,FALSE,FALSE,FALSE,FALSE,FALSE,FALSE,FALSE,FALSE,FALSE,0,Follow Yaw,0,0,-106.7,253.3,FALSE,FALSE,FALSE,FALSE,FALSE,FALSE,,TRUE,Normal,,100,1024,1024,1684,1024,2,FALSE,FALSE,FALSE,FALSE,FALSE,0,FALSE,FALSE,FALSE,FALSE,87,7.667,1807,2065,7.887,FALSE,3.833,3.834,0.03,FALSE,FALSE,NA,96.4,96.4,96.4,0,0,0,0,5,2070.4,517.6,,Idle,0,20,FALSE,5,TRUE,11,Go Home,FALSE,FALSE,FALSE,FALSE,FALSE,FALSE,FALSE,FALSE,FALSE,FALSE,FALSE,FALSE,6.972893548,79.91595276,0.3,122,328,TRUE,1,1,FALSE,FALSE,FALSE,FALSE,,TRUE,FALSE,FALSE,Course Lock,49.2,,16.4,Calm,41,,1.12.8,Mavic Mini,1SDCH7G0169R0K,1SFLH6Q0AB03DJ,1SRCH7F014TAHX,1U5X071EXP5ZJG,146.2,0,108.2,2.248124,3.579104,0,0,Mavic Mini,1SDCH7G0169R0K,1SFLH6Q0AB03DJ,1SRCH7F014TAHX,1U5X071EXP5ZJG,DJI Fly,,1.12.8,7515A58F-8DC5-D702-FCAA-7A27C896A764,1SDCH7G0169R0K,,,,,6.972887437,79.9159607,5,,
3/2/2024,03:10.4,2m 16.7s,136.7,6.972892841,79.91595355,1.9,1.9,2.6,58,0.8,0.223694,0.223694,-0.223694,0,0,0.223694,-3.579104,0,2.1,1.7,-124.5,235.5,183,Tripod,Other,,15,5,TRUE,,Mavic Mini,TRUE,FALSE,,Smart,RC,FALSE,TRUE,FALSE,,,TRUE,,FALSE,FALSE,FALSE,FALSE,FALSE,FALSE,FALSE,FALSE,FALSE,FALSE,0,Follow Yaw,0,0,-106.7,253.3,FALSE,FALSE,FALSE,FALSE,FALSE,FALSE,,TRUE,Normal,,100,1024,1024,1684,1024,2,FALSE,FALSE,FALSE,FALSE,FALSE,0,FALSE,FALSE,FALSE,FALSE,87,7.667,1807,2065,7.887,FALSE,3.833,3.834,0.03,FALSE,FALSE,NA,96.4,96.4,96.4,0,0,0,0,5,2070.4,517.6,,Idle,0,20,FALSE,5,TRUE,11,Go Home,FALSE,FALSE,FALSE,FALSE,FALSE,FALSE,FALSE,FALSE,FALSE,FALSE,FALSE,FALSE,6.972893548,79.91595276,0.3,122,328,TRUE,1,1,FALSE,FALSE,FALSE,FALSE,,TRUE,FALSE,FALSE,Course Lock,49.2,,16.4,Calm,41,,1.12.8,Mavic Mini,1SDCH7G0169R0K,1SFLH6Q0AB03DJ,1SRCH7F014TAHX,1U5X071EXP5ZJG,146.2,0,108.2,2.248124,3.579104,0,0,Mavic Mini,1SDCH7G0169R0K,1SFLH6Q0AB03DJ,1SRCH7F014TAHX,1U5X071EXP5ZJG,DJI Fly,,1.12.8,7515A58F-8DC5-D702-FCAA-7A27C896A764,1SDCH7G0169R0K,,,,,6.972887437,79.9159607,5,,
3/2/2024,03:10.5,2m 16.8s,136.8,6.972892558,79.91595352,2.6,2.6,3.2,59,0.9,0.223694,0.223694,-0.223694,0,0,0.223694,-3.579104,0,2.2,1.8,-124.4,235.6,185.4,Tripod,Other,,15,5,TRUE,,Mavic Mini,TRUE,FALSE,,Smart,RC,FALSE,TRUE,FALSE,,,TRUE,,FALSE,FALSE,FALSE,FALSE,FALSE,FALSE,FALSE,FALSE,FALSE,FALSE,0,Follow Yaw,0,0,-106.7,253.3,FALSE,FALSE,FALSE,FALSE,FALSE,FALSE,,TRUE,Normal,,100,1024,1024,1684,1024,2,FALSE,FALSE,FALSE,FALSE,FALSE,0,FALSE,FALSE,FALSE,FALSE,87,7.667,1807,2065,7.887,FALSE,3.833,3.834,0.03,FALSE,FALSE,NA,96.4,96.4,96.4,0,0,0,0,5,2070.4,517.6,,Idle,0,20,FALSE,5,TRUE,11,Go Home,FALSE,FALSE,FALSE,FALSE,FALSE,FALSE,FALSE,FALSE,FALSE,FALSE,FALSE,FALSE,6.972893548,79.91595276,0.4,122,328,TRUE,1,1,FALSE,FALSE,FALSE,FALSE,,TRUE,FALSE,FALSE,Course Lock,49.2,,16.4,Calm,41,,1.12.8,Mavic Mini,1SDCH7G0169R0K,1SFLH6Q0AB03DJ,1SRCH7F014TAHX,1U5X071EXP5ZJG,146.2,0,108.2,2.248124,3.579104,0,0,Mavic Mini,1SDCH7G0169R0K,1SFLH6Q0AB03DJ,1SRCH7F014TAHX,1U5X071EXP5ZJG,DJI Fly,,1.12.8,7515A58F-8DC5-D702-FCAA-7A27C896A764,1SDCH7G0169R0K,,,,,6.972887437,79.9159607,5,,
3/2/2024,03:10.6,2m 16.9s,136.9,6.972892389,79.91595348,2.9,2.9,3.6,59,1,0,0.223694,0,0,0,0.223694,-3.35541,0,2.5,1.6,-124.4,235.6,,Tripod,Other,,15,5,TRUE,,Mavic Mini,TRUE,FALSE,,Smart,RC,FALSE,TRUE,FALSE,,,TRUE,,FALSE,FALSE,FALSE,FALSE,FALSE,FALSE,FALSE,FALSE,FALSE,FALSE,0,Follow Yaw,0,0,-106.7,253.3,FALSE,FALSE,FALSE,FALSE,FALSE,FALSE,,TRUE,Normal,,100,1024,1024,1684,1024,2,FALSE,FALSE,FALSE,FALSE,FALSE,0,FALSE,FALSE,FALSE,FALSE,87,7.667,1807,2065,7.887,FALSE,3.833,3.834,0.03,FALSE,FALSE,NA,96.4,96.4,96.4,0,0,0,0,5,2070.4,517.6,,Idle,0,20,FALSE,5,TRUE,11,Go Home,FALSE,FALSE,FALSE,FALSE,FALSE,FALSE,FALSE,FALSE,FALSE,FALSE,FALSE,FALSE,6.972893548,79.91595276,0.4,122,328,TRUE,1,1,FALSE,FALSE,FALSE,FALSE,,TRUE,FALSE,FALSE,Course Lock,49.2,,16.4,Calm,41,,1.12.8,Mavic Mini,1SDCH7G0169R0K,1SFLH6Q0AB03DJ,1SRCH7F014TAHX,1U5X071EXP5ZJG,146.2,0,108.2,2.248124,3.579104,0,0,Mavic Mini,1SDCH7G0169R0K,1SFLH6Q0AB03DJ,1SRCH7F014TAHX,1U5X071EXP5ZJG,DJI Fly,,1.12.8,7515A58F-8DC5-D702-FCAA-7A27C896A764,1SDCH7G0169R0K,,,,,6.972887437,79.9159607,5,,
3/2/2024,03:10.7,2m 17.0s,137,6.972892259,79.91595336,3.6,3.6,4.2,60,1,0,0.223694,0,0,0,0.223694,-3.35541,0,2.5,1.4,-124.4,235.6,,Tripod,Other,,15,5,TRUE,,Mavic Mini,TRUE,FALSE,,Smart,RC,FALSE,TRUE,FALSE,,,TRUE,,FALSE,FALSE,FALSE,FALSE,FALSE,FALSE,FALSE,FALSE,FALSE,FALSE,0,Follow Yaw,0,0,-106.7,253.3,FALSE,FALSE,FALSE,FALSE,FALSE,FALSE,,TRUE,Normal,,100,1024,1024,1679,1024,2,FALSE,FALSE,FALSE,FALSE,FALSE,0,FALSE,FALSE,FALSE,FALSE,87,7.667,1807,2065,7.887,FALSE,3.833,3.834,0.03,FALSE,FALSE,NA,96.4,96.4,96.4,0,0,0,0,5,2070.4,517.6,,Idle,0,20,FALSE,5,TRUE,11,Go Home,FALSE,FALSE,FALSE,FALSE,FALSE,FALSE,FALSE,FALSE,FALSE,FALSE,FALSE,FALSE,6.972893548,79.91595276,0.5,122,328,TRUE,1,1,FALSE,FALSE,FALSE,FALSE,,TRUE,FALSE,FALSE,Course Lock,49.2,,16.4,Calm,41,,1.12.8,Mavic Mini,1SDCH7G0169R0K,1SFLH6Q0AB03DJ,1SRCH7F014TAHX,1U5X071EXP5ZJG,146.2,0,108.2,2.248124,3.579104,0,0,Mavic Mini,1SDCH7G0169R0K,1SFLH6Q0AB03DJ,1SRCH7F014TAHX,1U5X071EXP5ZJG,DJI Fly,,1.12.8,7515A58F-8DC5-D702-FCAA-7A27C896A764,1SDCH7G0169R0K,,,,,6.972887437,79.9159607,5,,
3/2/2024,03:10.7,2m 17.1s,137.1,6.972892134,79.91595324,3.9,3.9,4.9,60,1.1,0,0.223694,0,0,0,0.223694,-3.35541,0,2.2,1.3,-124.4,235.6,,Tripod,Other,,15,5,TRUE,,Mavic Mini,TRUE,FALSE,,Smart,RC,FALSE,TRUE,FALSE,,,TRUE,,FALSE,FALSE,FALSE,FALSE,FALSE,FALSE,FALSE,FALSE,FALSE,FALSE,0,Follow Yaw,0,0,-106.7,253.3,FALSE,FALSE,FALSE,FALSE,FALSE,FALSE,,TRUE,Normal,,100,1024,1024,1597,1024,2,FALSE,FALSE,FALSE,FALSE,FALSE,0,FALSE,FALSE,FALSE,FALSE,87,7.667,1807,2065,7.887,FALSE,3.833,3.834,0.03,FALSE,FALSE,NA,96.4,96.4,96.4,0,0,0,0,5,2070.4,517.6,,Idle,0,20,FALSE,5,TRUE,11,Go Home,FALSE,FALSE,FALSE,FALSE,FALSE,FALSE,FALSE,FALSE,FALSE,FALSE,FALSE,FALSE,6.972893548,79.91595276,0.5,122,328,TRUE,1,1,FALSE,FALSE,FALSE,FALSE,,TRUE,FALSE,FALSE,Course Lock,49.2,,16.4,Calm,41,,1.12.8,Mavic Mini,1SDCH7G0169R0K,1SFLH6Q0AB03DJ,1SRCH7F014TAHX,1U5X071EXP5ZJG,146.2,0,108.2,2.248124,3.579104,0,0,Mavic Mini,1SDCH7G0169R0K,1SFLH6Q0AB03DJ,1SRCH7F014TAHX,1U5X071EXP5ZJG,DJI Fly,,1.12.8,7515A58F-8DC5-D702-FCAA-7A27C896A764,1SDCH7G0169R0K,,,,,6.972887437,79.9159607,5,Home Point updated. RTH altitude adjusted to 15 m! (Code: 120852).,
3/2/2024,03:10.9,2m 17.2s,137.2,6.972892111,79.91595302,4.5,4.5,5.2,61,1.2,0,0.223694,0,0,0,0.223694,-3.35541,0,1.3,1.3,-124.4,235.6,,Tripod,Other,,15,5,TRUE,,Mavic Mini,TRUE,FALSE,,Smart,RC,FALSE,TRUE,FALSE,,,TRUE,,FALSE,FALSE,FALSE,FALSE,FALSE,FALSE,FALSE,FALSE,FALSE,FALSE,0,Follow Yaw,0,0,-106.7,253.3,FALSE,FALSE,FALSE,FALSE,FALSE,FALSE,,TRUE,Normal,,100,1024,1024,1551,1024,2,FALSE,FALSE,FALSE,FALSE,FALSE,0,FALSE,FALSE,FALSE,FALSE,87,7.667,1807,2065,7.887,FALSE,3.833,3.834,0.03,FALSE,FALSE,NA,96.4,96.4,96.4,0,0,0,0,5,2070.4,517.6,,Idle,0,20,FALSE,5,TRUE,11,Go Home,FALSE,FALSE,FALSE,FALSE,FALSE,FALSE,FALSE,FALSE,FALSE,FALSE,FALSE,FALSE,6.972893548,79.91595276,0.5,122,328,TRUE,1,1,FALSE,FALSE,FALSE,FALSE,,TRUE,FALSE,FALSE,Course Lock,49.2,,16.4,Calm,41,,1.12.8,Mavic Mini,1SDCH7G0169R0K,1SFLH6Q0AB03DJ,1SRCH7F014TAHX,1U5X071EXP5ZJG,146.2,0,108.2,2.248124,3.579104,0,0,Mavic Mini,1SDCH7G0169R0K,1SFLH6Q0AB03DJ,1SRCH7F014TAHX,1U5X071EXP5ZJG,DJI Fly,,1.12.8,7515A58F-8DC5-D702-FCAA-7A27C896A764,1SDCH7G0169R0K,,,,,6.972887437,79.9159607,5,,
3/2/2024,03:11.0,2m 17.3s,137.3,6.972892055,79.91595297,4.9,4.9,5.9,61,1.2,0,0.223694,0,0,0,0.223694,-3.35541,0,1.2,1.3,-124.4,235.6,,Tripod,Other,,15,5,TRUE,,Mavic Mini,TRUE,FALSE,,Smart,RC,FALSE,TRUE,FALSE,,,TRUE,,FALSE,FALSE,FALSE,FALSE,FALSE,FALSE,FALSE,FALSE,FALSE,FALSE,0,Follow Yaw,0,0,-106.7,253.3,FALSE,FALSE,FALSE,FALSE,FALSE,FALSE,,TRUE,Normal,,100,1024,1024,1551,1024,2,FALSE,FALSE,FALSE,FALSE,FALSE,0,FALSE,FALSE,FALSE,FALSE,87,7.667,1807,2065,7.887,FALSE,3.833,3.834,0.03,FALSE,FALSE,NA,96.4,96.4,96.4,0,0,0,0,5,2070.4,517.6,,Idle,0,20,FALSE,5,TRUE,11,Go Home,FALSE,FALSE,FALSE,FALSE,FALSE,FALSE,FALSE,FALSE,FALSE,FALSE,FALSE,FALSE,6.972893548,79.91595276,0.5,122,328,TRUE,1,1,FALSE,FALSE,FALSE,FALSE,,TRUE,FALSE,FALSE,Course Lock,49.2,,16.4,Calm,41,,1.12.8,Mavic Mini,1SDCH7G0169R0K,1SFLH6Q0AB03DJ,1SRCH7F014TAHX,1U5X071EXP5ZJG,146.2,0,108.2,2.248124,3.579104,0,0,Mavic Mini,1SDCH7G0169R0K,1SFLH6Q0AB03DJ,1SRCH7F014TAHX,1U5X071EXP5ZJG,DJI Fly,,1.12.8,7515A58F-8DC5-D702-FCAA-7A27C896A764,1SDCH7G0169R0K,,,,,6.972893137,79.91595944,5,,
3/2/2024,03:11.1,2m 17.4s,137.4,6.972892002,79.91595297,5.2,5.2,6.2,62,1.2,0,0.223694,0,0,0,0.223694,-3.131716,0,1.2,1.5,-124.4,235.6,,Tripod,Other,,15,5,TRUE,,Mavic Mini,TRUE,FALSE,,Smart,RC,FALSE,TRUE,FALSE,,,TRUE,,FALSE,FALSE,FALSE,FALSE,FALSE,FALSE,FALSE,FALSE,FALSE,FALSE,0,Follow Yaw,0,0,-106.7,253.3,FALSE,FALSE,FALSE,FALSE,FALSE,FALSE,,TRUE,Normal,,100,1024,1024,1544,1024,2,FALSE,FALSE,FALSE,FALSE,FALSE,0,FALSE,FALSE,FALSE,FALSE,87,7.667,1807,2065,7.707,FALSE,3.833,3.834,0.03,FALSE,FALSE,NA,96.4,96.4,96.4,0,0,1,0,5,2633.6,658.4,,Idle,0,20,FALSE,5,TRUE,11,Go Home,FALSE,FALSE,FALSE,FALSE,FALSE,FALSE,FALSE,FALSE,FALSE,FALSE,FALSE,FALSE,6.972893548,79.91595276,0.5,122,328,TRUE,1,1,FALSE,FALSE,FALSE,FALSE,,TRUE,FALSE,FALSE,Course Lock,49.2,,16.4,Calm,41,,1.12.8,Mavic Mini,1SDCH7G0169R0K,1SFLH6Q0AB03DJ,1SRCH7F014TAHX,1U5X071EXP5ZJG,146.2,0,108.2,2.248124,3.579104,0,0,Mavic Mini,1SDCH7G0169R0K,1SFLH6Q0AB03DJ,1SRCH7F014TAHX,1U5X071EXP5ZJG,DJI Fly,,1.12.8,7515A58F-8DC5-D702-FCAA-7A27C896A764,1SDCH7G0169R0K,,,,,6.972893137,79.91595944,5,,
3/2/2024,03:11.2,2m 17.5s,137.5,6.972891943,79.91595296,5.5,5.5,6.8,62,1.3,0,0.223694,0,0,0,0.223694,-2.908022,0,1.1,1.7,-124.4,235.6,,Tripod,Other,,15,5,TRUE,,Mavic Mini,TRUE,FALSE,,Smart,RC,FALSE,TRUE,FALSE,,,TRUE,,FALSE,FALSE,FALSE,FALSE,FALSE,FALSE,FALSE,FALSE,FALSE,FALSE,0,Follow Yaw,0,0,-106.7,253.3,FALSE,FALSE,FALSE,FALSE,FALSE,FALSE,,TRUE,Normal,,100,1024,1024,1487,1024,2,FALSE,FALSE,FALSE,FALSE,FALSE,0,FALSE,FALSE,FALSE,FALSE,87,7.667,1807,2065,7.707,FALSE,3.833,3.834,0.03,FALSE,FALSE,NA,96.4,96.4,96.4,0,0,1,0,5,2633.6,658.4,,Idle,0,20,FALSE,5,TRUE,11,Go Home,FALSE,FALSE,FALSE,FALSE,FALSE,FALSE,FALSE,FALSE,FALSE,FALSE,FALSE,FALSE,6.972893548,79.91595276,0.5,122,328,TRUE,1,1,FALSE,FALSE,FALSE,FALSE,,TRUE,FALSE,FALSE,Course Lock,49.2,,16.4,Calm,41,,1.12.8,Mavic Mini,1SDCH7G0169R0K,1SFLH6Q0AB03DJ,1SRCH7F014TAHX,1U5X071EXP5ZJG,146.2,0,108.2,2.248124,3.579104,0,0,Mavic Mini,1SDCH7G0169R0K,1SFLH6Q0AB03DJ,1SRCH7F014TAHX,1U5X071EXP5ZJG,DJI Fly,,1.12.8,7515A58F-8DC5-D702-FCAA-7A27C896A764,1SDCH7G0169R0K,,,,,6.972893137,79.91595944,5,,
3/2/2024,03:11.3,2m 17.6s,137.6,6.972892045,79.91595325,5.9,5.9,7.2,62,1.4,0,0.223694,0,0,0,0.223694,-2.684328,0,1,1.7,-124.4,235.6,,Tripod,Other,,15,5,TRUE,,Mavic Mini,TRUE,FALSE,,Smart,RC,FALSE,TRUE,FALSE,,,TRUE,,FALSE,FALSE,FALSE,FALSE,FALSE,FALSE,FALSE,FALSE,FALSE,FALSE,0,Follow Yaw,0,0,-106.7,253.3,FALSE,FALSE,FALSE,FALSE,FALSE,FALSE,,TRUE,Normal,,100,1024,1024,1414,1024,2,FALSE,FALSE,FALSE,FALSE,FALSE,0,FALSE,FALSE,FALSE,FALSE,87,7.728,1806,2065,7.707,FALSE,3.863,3.865,0.03,FALSE,FALSE,NA,96.4,96.4,96.4,0,0,1,0,5,2633.6,658.4,,Idle,0,20,FALSE,5,TRUE,11,Go Home,FALSE,FALSE,FALSE,FALSE,FALSE,FALSE,FALSE,FALSE,FALSE,FALSE,FALSE,FALSE,6.972893548,79.91595276,0.5,122,328,TRUE,1,1,FALSE,FALSE,FALSE,FALSE,,TRUE,FALSE,FALSE,Course Lock,49.2,,16.4,Calm,41,,1.12.8,Mavic Mini,1SDCH7G0169R0K,1SFLH6Q0AB03DJ,1SRCH7F014TAHX,1U5X071EXP5ZJG,146.2,0,108.2,2.248124,3.579104,0,0,Mavic Mini,1SDCH7G0169R0K,1SFLH6Q0AB03DJ,1SRCH7F014TAHX,1U5X071EXP5ZJG,DJI Fly,,1.12.8,7515A58F-8DC5-D702-FCAA-7A27C896A764,1SDCH7G0169R0K,,,,,6.972893137,79.91595944,5,,
3/2/2024,03:11.4,2m 17.7s,137.7,6.972892019,79.91595329,6.2,6.2,7.5,63,1.4,0,0.223694,0,0,0,0.223694,-2.460634,0,0.9,1.9,-124.4,235.6,,Tripod,Other,,15,5,TRUE,,Mavic Mini,TRUE,FALSE,,Smart,RC,FALSE,TRUE,FALSE,,,TRUE,,FALSE,FALSE,FALSE,FALSE,FALSE,FALSE,FALSE,FALSE,FALSE,FALSE,0,Follow Yaw,0,0,-106.7,253.3,FALSE,FALSE,FALSE,FALSE,FALSE,FALSE,,TRUE,Normal,,100,1024,1024,1270,985,2,FALSE,FALSE,FALSE,FALSE,FALSE,0,FALSE,FALSE,FALSE,FALSE,87,7.728,1806,2065,7.707,FALSE,3.863,3.865,0.03,FALSE,FALSE,NA,96.4,96.4,96.4,0,0,1,0,5,2633.6,658.4,,Idle,0,20,FALSE,5,TRUE,11,Go Home,FALSE,FALSE,FALSE,FALSE,FALSE,FALSE,FALSE,FALSE,FALSE,FALSE,FALSE,FALSE,6.972893548,79.91595276,0.5,122,328,TRUE,1,1,FALSE,FALSE,FALSE,FALSE,,TRUE,FALSE,FALSE,Course Lock,49.2,,16.4,Calm,41,,1.12.8,Mavic Mini,1SDCH7G0169R0K,1SFLH6Q0AB03DJ,1SRCH7F014TAHX,1U5X071EXP5ZJG,146.2,0,108.2,2.248124,3.579104,0,0,Mavic Mini,1SDCH7G0169R0K,1SFLH6Q0AB03DJ,1SRCH7F014TAHX,1U5X071EXP5ZJG,DJI Fly,,1.12.8,7515A58F-8DC5-D702-FCAA-7A27C896A764,1SDCH7G0169R0K,,,,,6.972893137,79.91595944,5,,
3/2/2024,03:11.5,2m 17.8s,137.8,6.972891991,79.91595327,6.5,6.5,7.8,63,1.4,0,0.223694,0,0,0,0.223694,-2.23694,0,1,1.8,-124.4,235.6,,Tripod,Other,,15,5,TRUE,,Mavic Mini,TRUE,FALSE,,Smart,RC,FALSE,TRUE,FALSE,,,TRUE,,FALSE,FALSE,FALSE,FALSE,FALSE,FALSE,FALSE,FALSE,FALSE,FALSE,0,Follow Yaw,0,0,-106.7,253.3,FALSE,FALSE,FALSE,FALSE,FALSE,FALSE,,TRUE,Normal,,100,1024,1024,1270,985,2,FALSE,FALSE,FALSE,FALSE,FALSE,0,FALSE,FALSE,FALSE,FALSE,87,7.728,1806,2065,7.707,FALSE,3.863,3.865,0.03,FALSE,FALSE,NA,96.4,96.4,96.4,0,0,1,0,5,2633.6,658.4,,Idle,0,20,FALSE,5,TRUE,11,Go Home,FALSE,FALSE,FALSE,FALSE,FALSE,FALSE,FALSE,FALSE,FALSE,FALSE,FALSE,FALSE,6.972893548,79.91595276,0.5,122,328,TRUE,1,1,FALSE,FALSE,FALSE,FALSE,,TRUE,FALSE,FALSE,Course Lock,49.2,,16.4,Calm,41,,1.12.8,Mavic Mini,1SDCH7G0169R0K,1SFLH6Q0AB03DJ,1SRCH7F014TAHX,1U5X071EXP5ZJG,146.2,0,108.2,2.248124,3.579104,0,0,Mavic Mini,1SDCH7G0169R0K,1SFLH6Q0AB03DJ,1SRCH7F014TAHX,1U5X071EXP5ZJG,DJI Fly,,1.12.8,7515A58F-8DC5-D702-FCAA-7A27C896A764,1SDCH7G0169R0K,,,,,6.972893137,79.91595944,5,,
3/2/2024,03:11.6,2m 17.9s,137.9,6.972891963,79.91595323,6.8,6.8,8.2,63,1.4,0,0.223694,0,0,0,0.223694,-2.013246,0,1.2,1.7,-124.3,235.7,,Tripod,Other,,15,5,TRUE,,Mavic Mini,TRUE,FALSE,,Smart,RC,FALSE,TRUE,FALSE,,,TRUE,,FALSE,FALSE,FALSE,FALSE,FALSE,FALSE,FALSE,FALSE,FALSE,FALSE,0,Follow Yaw,0,0,-106.7,253.3,FALSE,FALSE,FALSE,FALSE,FALSE,FALSE,,TRUE,Normal,,100,1024,1024,1169,819,2,FALSE,FALSE,FALSE,FALSE,FALSE,0,FALSE,FALSE,FALSE,FALSE,87,7.728,1806,2065,7.707,FALSE,3.863,3.865,0.03,FALSE,FALSE,NA,96.4,96.4,96.4,0,0,1,0,5,2633.6,658.4,,Idle,0,20,FALSE,5,TRUE,11,Go Home,FALSE,FALSE,FALSE,FALSE,FALSE,FALSE,FALSE,FALSE,FALSE,FALSE,FALSE,FALSE,6.972893548,79.91595276,0.6,122,328,TRUE,1,1,FALSE,FALSE,FALSE,FALSE,,TRUE,FALSE,FALSE,Course Lock,49.2,,16.4,Calm,41,,1.12.8,Mavic Mini,1SDCH7G0169R0K,1SFLH6Q0AB03DJ,1SRCH7F014TAHX,1U5X071EXP5ZJG,146.2,0,108.2,2.248124,3.579104,0,0,Mavic Mini,1SDCH7G0169R0K,1SFLH6Q0AB03DJ,1SRCH7F014TAHX,1U5X071EXP5ZJG,DJI Fly,,1.12.8,7515A58F-8DC5-D702-FCAA-7A27C896A764,1SDCH7G0169R0K,,,,,6.972893137,79.91595944,5,,
3/2/2024,03:11.8,2m 18.0s,138,6.972891852,79.91595307,7.2,7.2,8.5,64,1.5,0,0.223694,0,0,0,0.223694,-1.789552,0,1.2,1.7,-124.3,235.7,,Tripod,Other,,15,5,TRUE,,Mavic Mini,TRUE,FALSE,,Smart,RC,FALSE,TRUE,FALSE,,,TRUE,,FALSE,FALSE,FALSE,FALSE,FALSE,FALSE,FALSE,FALSE,FALSE,FALSE,0,Follow Yaw,0,0,-106.8,253.2,FALSE,FALSE,FALSE,FALSE,FALSE,FALSE,,TRUE,Normal,,100,1024,1024,1073,647,2,FALSE,FALSE,FALSE,FALSE,FALSE,0,FALSE,FALSE,FALSE,FALSE,87,7.728,1806,2065,7.707,FALSE,3.863,3.865,0.03,FALSE,FALSE,NA,96.4,96.4,96.4,0,0,1,0,5,2633.6,658.4,,Idle,0,20,FALSE,5,TRUE,11,Go Home,FALSE,FALSE,FALSE,FALSE,FALSE,FALSE,FALSE,FALSE,FALSE,FALSE,FALSE,FALSE,6.972893548,79.91595276,0.6,122,328,TRUE,1,1,FALSE,FALSE,FALSE,FALSE,,TRUE,FALSE,FALSE,Course Lock,49.2,,16.4,Calm,41,,1.12.8,Mavic Mini,1SDCH7G0169R0K,1SFLH6Q0AB03DJ,1SRCH7F014TAHX,1U5X071EXP5ZJG,146.2,0,108.2,2.248124,3.579104,0,0,Mavic Mini,1SDCH7G0169R0K,1SFLH6Q0AB03DJ,1SRCH7F014TAHX,1U5X071EXP5ZJG,DJI Fly,,1.12.8,7515A58F-8DC5-D702-FCAA-7A27C896A764,1SDCH7G0169R0K,,,,,6.972893137,79.91595944,5,,
3/2/2024,03:11.9,2m 18.1s,138.1,6.972891768,79.91595294,7.5,7.5,8.8,64,1.5,0,0.223694,0,0,0,0.223694,-1.342164,0,1.4,1.8,-124.3,235.7,,Tripod,Other,,15,5,TRUE,,Mavic Mini,TRUE,FALSE,,Smart,RC,FALSE,TRUE,FALSE,,,TRUE,,FALSE,FALSE,FALSE,FALSE,FALSE,FALSE,FALSE,FALSE,FALSE,FALSE,0,Follow Yaw,0,0,-106.9,253.1,FALSE,FALSE,FALSE,FALSE,FALSE,FALSE,,TRUE,Normal,,100,1024,1024,1053,564,2,FALSE,FALSE,FALSE,FALSE,FALSE,0,FALSE,FALSE,FALSE,FALSE,87,7.728,1806,2065,7.707,FALSE,3.863,3.865,0.03,FALSE,FALSE,NA,96.4,96.4,96.4,0,0,1,0,5,2633.6,658.4,,Idle,0,20,FALSE,5,TRUE,11,Go Home,FALSE,FALSE,FALSE,FALSE,FALSE,FALSE,FALSE,FALSE,FALSE,FALSE,FALSE,FALSE,6.972893548,79.91595276,0.6,122,328,TRUE,1,1,FALSE,FALSE,FALSE,FALSE,,TRUE,FALSE,FALSE,Course Lock,49.2,,16.4,Calm,41,,1.12.8,Mavic Mini,1SDCH7G0169R0K,1SFLH6Q0AB03DJ,1SRCH7F014TAHX,1U5X071EXP5ZJG,146.2,0,108.2,2.248124,3.579104,0,0,Mavic Mini,1SDCH7G0169R0K,1SFLH6Q0AB03DJ,1SRCH7F014TAHX,1U5X071EXP5ZJG,DJI Fly,,1.12.8,7515A58F-8DC5-D702-FCAA-7A27C896A764,1SDCH7G0169R0K,,,,,6.972893137,79.91595944,5,,
3/2/2024,03:11.9,2m 18.2s,138.2,6.972891668,79.91595276,7.5,7.5,9.1,64,1.6,0,0.223694,0,0,0,0.223694,-0.894776,0,1.7,1.6,-124.4,235.6,,Tripod,Other,,15,5,TRUE,,Mavic Mini,TRUE,FALSE,,Smart,RC,FALSE,TRUE,FALSE,,,TRUE,,FALSE,FALSE,FALSE,FALSE,FALSE,FALSE,FALSE,FALSE,FALSE,FALSE,0,Follow Yaw,0,0,-107.1,252.9,FALSE,FALSE,FALSE,FALSE,FALSE,FALSE,,TRUE,Normal,,100,1024,1024,1024,486,2,FALSE,FALSE,FALSE,FALSE,FALSE,0,FALSE,FALSE,FALSE,FALSE,87,7.728,1806,2065,7.707,FALSE,3.863,3.865,0.03,FALSE,FALSE,NA,96.4,96.4,96.4,0,0,1,0,5,2633.6,658.4,,Idle,0,20,FALSE,5,TRUE,11,Go Home,FALSE,FALSE,FALSE,FALSE,FALSE,FALSE,FALSE,FALSE,FALSE,FALSE,FALSE,FALSE,6.972893548,79.91595276,0.6,122,328,TRUE,1,1,FALSE,FALSE,FALSE,FALSE,,TRUE,FALSE,FALSE,Course Lock,49.2,,16.4,Calm,41,,1.12.8,Mavic Mini,1SDCH7G0169R0K,1SFLH6Q0AB03DJ,1SRCH7F014TAHX,1U5X071EXP5ZJG,146.2,0,108.2,2.248124,3.579104,0,0,Mavic Mini,1SDCH7G0169R0K,1SFLH6Q0AB03DJ,1SRCH7F014TAHX,1U5X071EXP5ZJG,DJI Fly,,1.12.8,7515A58F-8DC5-D702-FCAA-7A27C896A764,1SDCH7G0169R0K,,,,,6.972893137,79.91595944,5,,
3/2/2024,03:12.0,2m 18.3s,138.3,6.972891567,79.91595256,7.5,7.5,9.1,64,1.7,0,0.223694,0,0,0,0.223694,-0.447388,0,1.8,1.4,-124.6,235.4,,Tripod,Other,,15,5,TRUE,,Mavic Mini,TRUE,FALSE,,Smart,RC,FALSE,TRUE,FALSE,,,TRUE,,FALSE,FALSE,FALSE,FALSE,FALSE,FALSE,FALSE,FALSE,FALSE,FALSE,0,Follow Yaw,0,0,-107.7,252.3,FALSE,FALSE,FALSE,FALSE,FALSE,FALSE,,TRUE,Normal,,100,1024,1024,1024,485,2,FALSE,FALSE,FALSE,FALSE,FALSE,0,FALSE,FALSE,FALSE,FALSE,87,7.728,1806,2065,7.707,FALSE,3.863,3.865,0.03,FALSE,FALSE,NA,96.4,96.4,96.4,0,0,1,0,5,2633.6,658.4,,Idle,0,20,FALSE,5,TRUE,11,Go Home,FALSE,FALSE,FALSE,FALSE,FALSE,FALSE,FALSE,FALSE,FALSE,FALSE,FALSE,FALSE,6.972893548,79.91595276,0.7,122,328,TRUE,1,1,FALSE,FALSE,FALSE,FALSE,,TRUE,FALSE,FALSE,Course Lock,49.2,,16.4,Calm,41,,1.12.8,Mavic Mini,1SDCH7G0169R0K,1SFLH6Q0AB03DJ,1SRCH7F014TAHX,1U5X071EXP5ZJG,146.2,0,108.2,2.248124,3.579104,0,0,Mavic Mini,1SDCH7G0169R0K,1SFLH6Q0AB03DJ,1SRCH7F014TAHX,1U5X071EXP5ZJG,DJI Fly,,1.12.8,7515A58F-8DC5-D702-FCAA-7A27C896A764,1SDCH7G0169R0K,,,,,6.972893137,79.91595944,5,,
3/2/2024,03:12.1,2m 18.4s,138.4,6.972891514,79.91595244,7.5,7.5,9.1,64,1.7,0,0.223694,0,0,0,0.223694,0,0,1.9,1.3,-125,235,,Tripod,Other,,15,5,TRUE,,Mavic Mini,TRUE,FALSE,,Smart,RC,FALSE,TRUE,FALSE,,,TRUE,,FALSE,FALSE,FALSE,FALSE,FALSE,FALSE,FALSE,FALSE,FALSE,FALSE,0,Follow Yaw,0,0,-108.7,251.3,FALSE,FALSE,FALSE,FALSE,FALSE,FALSE,,TRUE,Normal,,100,1024,1024,1024,485,2,FALSE,FALSE,FALSE,FALSE,FALSE,0,FALSE,FALSE,FALSE,FALSE,87,7.728,1806,2065,7.729,FALSE,3.863,3.865,0.03,FALSE,FALSE,NA,96.4,96.4,96.4,0,0,1,0,5,4038.5,1009.64,,Idle,0,20,FALSE,5,TRUE,11,Go Home,FALSE,FALSE,FALSE,FALSE,FALSE,FALSE,FALSE,FALSE,FALSE,FALSE,FALSE,FALSE,6.972893548,79.91595276,0.7,122,328,TRUE,1,1,FALSE,FALSE,FALSE,FALSE,,TRUE,FALSE,FALSE,Course Lock,49.2,,16.4,Calm,41,,1.12.8,Mavic Mini,1SDCH7G0169R0K,1SFLH6Q0AB03DJ,1SRCH7F014TAHX,1U5X071EXP5ZJG,146.2,0,108.2,2.248124,3.579104,0,0,Mavic Mini,1SDCH7G0169R0K,1SFLH6Q0AB03DJ,1SRCH7F014TAHX,1U5X071EXP5ZJG,DJI Fly,,1.12.8,7515A58F-8DC5-D702-FCAA-7A27C896A764,1SDCH7G0169R0K,,,,,6.972893137,79.91595944,5,,
3/2/2024,03:12.2,2m 18.5s,138.5,6.972891409,79.91595221,7.5,7.5,9.1,64,1.8,0,0.223694,0,0,0,0.223694,0,0,1.9,1.3,-125.7,234.3,,Tripod,Other,,15,5,TRUE,,Mavic Mini,TRUE,FALSE,,Smart,RC,FALSE,TRUE,FALSE,,,TRUE,,FALSE,FALSE,FALSE,FALSE,FALSE,FALSE,FALSE,FALSE,FALSE,FALSE,0,Follow Yaw,0,0,-110.1,249.9,FALSE,FALSE,FALSE,FALSE,FALSE,FALSE,,TRUE,Normal,,100,1024,1024,1024,485,2,FALSE,FALSE,FALSE,FALSE,FALSE,0,FALSE,FALSE,FALSE,FALSE,87,7.728,1806,2065,7.729,FALSE,3.863,3.865,0.03,FALSE,FALSE,NA,96.4,96.4,96.4,0,0,1,0,5,4038.5,1009.64,,Idle,0,20,FALSE,5,TRUE,11,Go Home,FALSE,FALSE,FALSE,FALSE,FALSE,FALSE,FALSE,FALSE,FALSE,FALSE,FALSE,FALSE,6.972893548,79.91595276,0.8,122,328,TRUE,1,1,FALSE,FALSE,FALSE,FALSE,,TRUE,FALSE,FALSE,Course Lock,49.2,,16.4,Calm,41,,1.12.8,Mavic Mini,1SDCH7G0169R0K,1SFLH6Q0AB03DJ,1SRCH7F014TAHX,1U5X071EXP5ZJG,146.2,0,108.2,2.248124,3.579104,0,0,Mavic Mini,1SDCH7G0169R0K,1SFLH6Q0AB03DJ,1SRCH7F014TAHX,1U5X071EXP5ZJG,DJI Fly,,1.12.8,7515A58F-8DC5-D702-FCAA-7A27C896A764,1SDCH7G0169R0K,,,,,6.972893137,79.91595944,5,,
