CUSTOM.date [local],CUSTOM.updateTime [local],OSD.flyTime,OSD.flyTime [s],OSD.latitude,OSD.longitude,OSD.height [ft],OSD.heightMax [ft],OSD.vpsHeight [ft],OSD.altitude [ft],OSD.mileage [ft],OSD.hSpeed [MPH],OSD.hSpeedMax [MPH],OSD.xSpeed [MPH],OSD.xSpeedMax [MPH],OSD.ySpeed [MPH],OSD.ySpeedMax [MPH],OSD.zSpeed [MPH],OSD.zSpeedMax [MPH],OSD.pitch,OSD.roll,OSD.yaw,OSD.yaw [360],OSD.directionOfTravel,OSD.flycState,OSD.flycCommand,OSD.flightAction,OSD.gpsNum,OSD.gpsLevel,OSD.isGPSUsed,OSD.nonGPSCause,OSD.droneType,OSD.isSwaveWork,OSD.waveError,OSD.goHomeStatus,OSD.batteryType,OSD.ctrlDevice,OSD.isOnGround,OSD.isMotorOn,OSD.isMotorBlocked,OSD.motorStartFailedCause,OSD.motorFailReason,OSD.isImuPreheated,OSD.imuInitFailReason,OSD.isAcceletorOverRange,OSD.isBarometerDeadInAir,OSD.isCompassError,OSD.isGoHomeHeightModified,OSD.canIOCWork,OSD.isNotEnoughForce,OSD.isOutOfLimit,OSD.isPropellerCatapult,OSD.isVibrating,OSD.isVisionUsed,OSD.voltageWarning,GIMBAL.mode,GIMBAL.pitch,GIMBAL.roll,GIMBAL.yaw,GIMBAL.yaw [360],GIMBAL.isPitchAtLimit,GIMBAL.isRollAtLimit,GIMBAL.isYawAtLimit,GIMBAL.isStuck,CAMERA.isPhoto,CAMERA.isVideo,CAMERA.filename,CAMERA.sdCardIsInserted,CAMERA.sdCardState,RC.downlinkSignal,RC.uplinkSignal,RC.aileron,RC.elevator,RC.throttle,RC.rudder,RC.mode,RC.goHomeDepressed,RC.recordDepressed,RC.shutterDepressed,RC.playbackDepressed,RC.wheelDepressed,RC.wheelOffset,RC.custom1Depressed,RC.custom2Depressed,RC.custom3Depressed,RC.custom4Depressed,BATTERY.chargeLevel,BATTERY.currentPV [V],BATTERY.currentCapacity [mAh],BATTERY.fullCapacity [mAh],BATTERY.voltage [V],BATTERY.isCellVoltageEstimated,BATTERY.cellVoltage1 [V],BATTERY.cellVoltage2 [V],BATTERY.maxCellVoltageDeviation,BATTERY.isCellVoltageDeviationHigh,BATTERY.isVoltageLow,BATTERY.current [A],BATTERY.temperature [F],BATTERY.minTemperature [F],BATTERY.maxTemperature [F],BATTERY.usefulTime [s],BATTERY.goHomeTime [s],BATTERY.landTime [s],BATTERY.goHomeBattery,BATTERY.landBattery,BATTERY.safeFlyRadius,BATTERY.volumeConsume,BATTERY.status,BATTERY.goHomeStatus,BATTERY.goHomeCountdown,BATTERY.lowWarning,BATTERY.lowWarningGoHome,BATTERY.seriousLowWarning,BATTERY.seriousLowWarningLanding,BATTERY.timesCharged,MC.failSafeAction,MC.isObstacleAvoidanceEnabled,MC.isCollisionAvoidanceEnabled,MC.isRthObstacleAvoidanceEnabled,MC.isBraking,MC.isAvoidingObstacle,MC.isAvoidingActiveObstacle,MC.isAscentLimitedByObstacle,MC.isLandingConfirmationNeeded,MC.atLowAltitudeLimit,MC.atDistanceLimit,MC.atAirportAltitudeLimit,MC.atAirportBoundary,HOME.latitude,HOME.longitude,HOME.distance [ft],HOME.height [ft],HOME.heightLimit [ft],HOME.isHomeRecord,HOME.goHomeMode,HOME.aircraftHeadDirection,HOME.isDynamicHomePointEnabled,HOME.isReachedLimitDistance,HOME.isReachedLimitHeight,HOME.isCompassCalibrating,HOME.compassCalibrationState,HOME.isMultipleFlightModeEnabled,HOME.isBeginnerMode,HOME.isIOCEnabled,HOME.iocMode,HOME.goHomeHeight [ft],HOME.courseLockAngle,HOME.forceLandingHeight [ft],HOME.wind,HOME.dataRecorderFileIndex,RECOVER.appType,RECOVER.appVersion,RECOVER.aircraftName,RECOVER.aircraftSerial,RECOVER.cameraSerial,RECOVER.rcSerial,RECOVER.batterySerial,DETAILS.totalTime [s],DETAILS.totalDistance [ft],DETAILS.maxHeight [ft],DETAILS.maxHorizontalSpeed [MPH],DETAILS.maxVerticalSpeed [MPH],DETAILS.photoNum,DETAILS.videoTime [s],DETAILS.aircraftName,DETAILS.aircraftSerial,DETAILS.cameraSerial,DETAILS.rcSerial,DETAILS.batterySerial,DETAILS.appName,DETAILS.appType,DETAILS.appVersion,DETAILS.guid,SERIAL.flightController,SERIAL.camera,SERIAL.gimbal,SERIAL.rc,SERIAL.battery,APPGPS.latitude,APPGPS.longitude,APPGPS.accuracy,APP.tip,APP.warning
2/27/2024,23:37.9,9m 53.1s,593.1,6.974620194,79.91439705,0,0,,52,0,0,0,0,0,0,0,0,0,4.5,0.7,-157.1,202.9,,Starting Motors,Other,Takeoff (RC Assisted),13,5,TRUE,,Mavic Mini,FALSE,FALSE,,Smart,RC,TRUE,TRUE,FALSE,,,TRUE,,FALSE,FALSE,FALSE,FALSE,FALSE,FALSE,FALSE,FALSE,FALSE,FALSE,0,Follow Yaw,0,0,-158.7,201.3,FALSE,FALSE,FALSE,FALSE,FALSE,FALSE,,TRUE,Normal,,,1024,1024,1024,1024,1,FALSE,FALSE,FALSE,FALSE,FALSE,0,FALSE,FALSE,FALSE,FALSE,57,7.571,1182,2063,7.571,TRUE,3.786,3.786,,FALSE,FALSE,NA,116.1,116,116,,,,,,,,,Idle,,,TRUE,,FALSE,6,Go Home,FALSE,FALSE,FALSE,FALSE,FALSE,FALSE,FALSE,FALSE,FALSE,FALSE,FALSE,FALSE,,,,,,FALSE,,,FALSE,FALSE,FALSE,FALSE,,FALSE,FALSE,FALSE,,,,,Calm,,,1.12.8,Mavic Mini,1SDCH7G0169R0K,1SFLH6Q0AB03DJ,1SRCH7F014TAHX,1U5X071EXP6C9Y,70.4,0.3,6.5,10.048781,3.579104,0,520,Mavic Mini,1SDCH7G0169R0K,1SFLH6Q0AB03DJ,1SRCH7F014TAHX,1U5X071EXP6C9Y,DJI Fly,,1.12.8,96C70EE3-66E3-056D-58D4-4EAFF532057C,1SDCH7G0169R0K,,,,,,,,Flight mode changed to Starting Motors.,
2/27/2024,13:44.9,9m 53.2s,593.2,6.974620193,79.91439707,0,0,,52,0,0,0,0,0,0,0,0,0,4.5,0.7,-157.1,202.9,,Starting Motors,Other,Takeoff (RC Assisted),13,5,TRUE,,Mavic Mini,FALSE,FALSE,,Smart,RC,TRUE,TRUE,FALSE,,,TRUE,,FALSE,FALSE,FALSE,FALSE,FALSE,FALSE,FALSE,FALSE,FALSE,FALSE,0,Follow Yaw,0,0,-158.7,201.3,FALSE,FALSE,FALSE,FALSE,FALSE,FALSE,,TRUE,Normal,,,1024,1024,1024,1024,1,FALSE,FALSE,FALSE,FALSE,FALSE,0,FALSE,FALSE,FALSE,FALSE,57,7.571,1182,2063,7.571,TRUE,3.786,3.786,,FALSE,FALSE,NA,116.1,116,116,,,,,,,,,Idle,,,TRUE,,FALSE,6,Go Home,FALSE,FALSE,FALSE,FALSE,FALSE,FALSE,FALSE,FALSE,FALSE,FALSE,FALSE,FALSE,,,,,,FALSE,,,FALSE,FALSE,FALSE,FALSE,,FALSE,FALSE,FALSE,,,,,Calm,,,1.12.8,Mavic Mini,1SDCH7G0169R0K,1SFLH6Q0AB03DJ,1SRCH7F014TAHX,1U5X071EXP6C9Y,70.4,0.3,6.5,10.048781,3.579104,0,520,Mavic Mini,1SDCH7G0169R0K,1SFLH6Q0AB03DJ,1SRCH7F014TAHX,1U5X071EXP6C9Y,DJI Fly,,1.12.8,96C70EE3-66E3-056D-58D4-4EAFF532057C,1SDCH7G0169R0K,,,,,,,,,
2/27/2024,13:45.1,9m 53.3s,593.3,6.974620188,79.91439712,0,0,0.3,52,0,0,0,0,0,0,0,0,0,4.6,0.7,-157.1,202.9,,Starting Motors,Other,Takeoff (RC Assisted),13,5,TRUE,,Mavic Mini,TRUE,FALSE,,Smart,RC,TRUE,TRUE,FALSE,,,TRUE,,FALSE,FALSE,FALSE,FALSE,FALSE,FALSE,FALSE,FALSE,FALSE,FALSE,0,Follow Yaw,0,0,-158.8,201.2,FALSE,FALSE,FALSE,FALSE,FALSE,FALSE,,TRUE,Normal,,,1024,1024,1024,1024,1,FALSE,FALSE,FALSE,FALSE,FALSE,0,FALSE,FALSE,FALSE,FALSE,57,7.571,1182,2063,7.571,TRUE,3.786,3.786,,FALSE,FALSE,NA,116.1,116,116,,,,,,,,,Idle,,,TRUE,,FALSE,6,Go Home,FALSE,FALSE,FALSE,FALSE,FALSE,FALSE,FALSE,FALSE,FALSE,FALSE,FALSE,FALSE,,,,,,FALSE,,,FALSE,FALSE,FALSE,FALSE,,FALSE,FALSE,FALSE,,,,,Calm,,,1.12.8,Mavic Mini,1SDCH7G0169R0K,1SFLH6Q0AB03DJ,1SRCH7F014TAHX,1U5X071EXP6C9Y,70.4,0.3,6.5,10.048781,3.579104,0,520,Mavic Mini,1SDCH7G0169R0K,1SFLH6Q0AB03DJ,1SRCH7F014TAHX,1U5X071EXP6C9Y,DJI Fly,,1.12.8,96C70EE3-66E3-056D-58D4-4EAFF532057C,1SDCH7G0169R0K,,,,,,,,,
2/27/2024,13:45.2,9m 53.4s,593.4,6.974620133,79.91439717,0,0,0.3,52,0,0,0,0,0,0,0,0,0,4.6,0.7,-157.1,202.9,,Starting Motors,Other,Takeoff (RC Assisted),13,5,TRUE,,Mavic Mini,TRUE,FALSE,,Smart,RC,TRUE,TRUE,FALSE,,,TRUE,,FALSE,FALSE,FALSE,FALSE,FALSE,FALSE,FALSE,FALSE,FALSE,FALSE,0,Follow Yaw,0,0,-158.8,201.2,FALSE,FALSE,FALSE,FALSE,FALSE,FALSE,,TRUE,Normal,,,1024,1024,1024,1024,1,FALSE,FALSE,FALSE,FALSE,FALSE,0,FALSE,FALSE,FALSE,FALSE,57,7.571,1182,2063,7.571,TRUE,3.786,3.786,,FALSE,FALSE,NA,116.1,116,116,,,,,,,,,Idle,,,TRUE,,FALSE,6,Go Home,FALSE,FALSE,FALSE,FALSE,FALSE,FALSE,FALSE,FALSE,FALSE,FALSE,FALSE,FALSE,,,,,,FALSE,,,FALSE,FALSE,FALSE,FALSE,,FALSE,FALSE,FALSE,,,,,Calm,,,1.12.8,Mavic Mini,1SDCH7G0169R0K,1SFLH6Q0AB03DJ,1SRCH7F014TAHX,1U5X071EXP6C9Y,70.4,0.3,6.5,10.048781,3.579104,0,520,Mavic Mini,1SDCH7G0169R0K,1SFLH6Q0AB03DJ,1SRCH7F014TAHX,1U5X071EXP6C9Y,DJI Fly,,1.12.8,96C70EE3-66E3-056D-58D4-4EAFF532057C,1SDCH7G0169R0K,,,,,,,,,
2/27/2024,13:45.3,9m 53.5s,593.5,6.974620129,79.91439718,0,0,0.3,52,0,0,0,0,0,0,0,0,0,4.5,0.7,-157.1,202.9,,Starting Motors,Other,Takeoff (RC Assisted),13,5,TRUE,,Mavic Mini,TRUE,FALSE,,Smart,RC,TRUE,TRUE,FALSE,,,TRUE,,FALSE,FALSE,FALSE,FALSE,FALSE,FALSE,FALSE,FALSE,FALSE,FALSE,0,Follow Yaw,0,0,-158.8,201.2,FALSE,FALSE,FALSE,FALSE,FALSE,FALSE,,TRUE,Normal,,100,1024,1024,1024,1024,1,FALSE,FALSE,FALSE,FALSE,FALSE,0,FALSE,FALSE,FALSE,FALSE,57,7.571,1182,2063,7.559,TRUE,3.78,3.78,,FALSE,FALSE,NA,116.1,116,116,0,0,0,0,5,2483.1,620.79,,Idle,0,20,FALSE,5,TRUE,6,Go Home,FALSE,FALSE,FALSE,FALSE,FALSE,FALSE,FALSE,FALSE,FALSE,FALSE,FALSE,FALSE,6.974621856,79.91439578,0.8,177.7,328,TRUE,1,1,FALSE,FALSE,FALSE,FALSE,,TRUE,FALSE,FALSE,Course Lock,49.2,254.5,16.4,Calm,39,,1.12.8,Mavic Mini,1SDCH7G0169R0K,1SFLH6Q0AB03DJ,1SRCH7F014TAHX,1U5X071EXP6C9Y,70.4,0.3,6.5,10.048781,3.579104,0,520,Mavic Mini,1SDCH7G0169R0K,1SFLH6Q0AB03DJ,1SRCH7F014TAHX,1U5X071EXP6C9Y,DJI Fly,,1.12.8,96C70EE3-66E3-056D-58D4-4EAFF532057C,1SDCH7G0169R0K,,,,,,,,Data Recorder File Index is 39.; Set Return to Home (RTH) altitude to 15 m (49 ft).; Set maximum flight altitude to 100 m (328 ft).,
2/27/2024,13:45.4,9m 53.6s,593.6,6.974620126,79.91439719,0,0,0.3,52,0,0,0,0,0,0,0,0,0,4.5,0.6,-157.1,202.9,,Starting Motors,Other,Takeoff (RC Assisted),13,5,TRUE,,Mavic Mini,TRUE,FALSE,,Smart,RC,TRUE,TRUE,FALSE,,,TRUE,,FALSE,FALSE,FALSE,FALSE,FALSE,FALSE,FALSE,FALSE,FALSE,FALSE,0,Follow Yaw,0,0,-158.8,201.2,FALSE,FALSE,FALSE,FALSE,FALSE,FALSE,,TRUE,Normal,,100,1024,1024,1024,1024,1,FALSE,FALSE,FALSE,FALSE,FALSE,0,FALSE,FALSE,FALSE,FALSE,57,7.571,1182,2063,7.559,TRUE,3.78,3.78,,FALSE,FALSE,NA,116.1,116,116,0,0,0,0,5,2483.1,620.79,,Idle,0,20,FALSE,5,TRUE,6,Go Home,FALSE,FALSE,FALSE,FALSE,FALSE,FALSE,FALSE,FALSE,FALSE,FALSE,FALSE,FALSE,6.974621856,79.91439578,0.8,177.7,328,TRUE,1,1,FALSE,FALSE,FALSE,FALSE,,TRUE,FALSE,FALSE,Course Lock,49.2,254.5,16.4,Calm,39,,1.12.8,Mavic Mini,1SDCH7G0169R0K,1SFLH6Q0AB03DJ,1SRCH7F014TAHX,1U5X071EXP6C9Y,70.4,0.3,6.5,10.048781,3.579104,0,520,Mavic Mini,1SDCH7G0169R0K,1SFLH6Q0AB03DJ,1SRCH7F014TAHX,1U5X071EXP6C9Y,DJI Fly,,1.12.8,96C70EE3-66E3-056D-58D4-4EAFF532057C,1SDCH7G0169R0K,,,,,,,,,
2/27/2024,13:45.5,9m 53.7s,593.7,6.974620125,79.91439719,0,0,0.3,52,0,0,0,0,0,0,0,0,0,4.6,0.7,-157.1,202.9,,Starting Motors,Other,Takeoff (RC Assisted),13,5,TRUE,,Mavic Mini,TRUE,FALSE,,Smart,RC,TRUE,TRUE,FALSE,,,TRUE,,FALSE,FALSE,FALSE,FALSE,FALSE,FALSE,FALSE,FALSE,FALSE,FALSE,0,Follow Yaw,0,0,-158.8,201.2,FALSE,FALSE,FALSE,FALSE,FALSE,FALSE,,TRUE,Normal,,100,1024,1024,1024,1024,1,FALSE,FALSE,FALSE,FALSE,FALSE,0,FALSE,FALSE,FALSE,FALSE,57,7.571,1182,2063,7.559,TRUE,3.78,3.78,,FALSE,FALSE,NA,116.1,116,116,0,0,0,0,5,2483.1,620.79,,Idle,0,20,FALSE,5,TRUE,6,Go Home,FALSE,FALSE,FALSE,FALSE,FALSE,FALSE,FALSE,FALSE,FALSE,FALSE,FALSE,FALSE,6.974621856,79.91439578,0.8,177.7,328,TRUE,1,1,FALSE,FALSE,FALSE,FALSE,,TRUE,FALSE,FALSE,Course Lock,49.2,254.5,16.4,Calm,39,,1.12.8,Mavic Mini,1SDCH7G0169R0K,1SFLH6Q0AB03DJ,1SRCH7F014TAHX,1U5X071EXP6C9Y,70.4,0.3,6.5,10.048781,3.579104,0,520,Mavic Mini,1SDCH7G0169R0K,1SFLH6Q0AB03DJ,1SRCH7F014TAHX,1U5X071EXP6C9Y,DJI Fly,,1.12.8,96C70EE3-66E3-056D-58D4-4EAFF532057C,1SDCH7G0169R0K,,,,,,,,,
2/27/2024,13:45.6,9m 53.8s,593.8,6.974620098,79.9143971,0,0,0.3,52,0,0,0,0,0,0,0,0,0,4.7,0.6,-157.2,202.8,,Starting Motors,Other,Takeoff (RC Assisted),13,5,TRUE,,Mavic Mini,TRUE,FALSE,,Smart,RC,TRUE,TRUE,FALSE,,,TRUE,,FALSE,FALSE,FALSE,FALSE,FALSE,FALSE,FALSE,FALSE,FALSE,FALSE,0,Follow Yaw,0,0,-158.8,201.2,FALSE,FALSE,FALSE,FALSE,FALSE,FALSE,,TRUE,Normal,,100,1024,1024,1024,1024,1,FALSE,FALSE,FALSE,FALSE,FALSE,0,FALSE,FALSE,FALSE,FALSE,57,7.571,1182,2063,7.559,TRUE,3.78,3.78,,FALSE,FALSE,NA,116.1,116,116,0,0,0,0,5,2483.1,620.79,,Idle,0,20,FALSE,5,TRUE,6,Go Home,FALSE,FALSE,FALSE,FALSE,FALSE,FALSE,FALSE,FALSE,FALSE,FALSE,FALSE,FALSE,6.974621856,79.91439578,0.8,177.7,328,TRUE,1,1,FALSE,FALSE,FALSE,FALSE,,TRUE,FALSE,FALSE,Course Lock,49.2,254.5,16.4,Calm,39,,1.12.8,Mavic Mini,1SDCH7G0169R0K,1SFLH6Q0AB03DJ,1SRCH7F014TAHX,1U5X071EXP6C9Y,70.4,0.3,6.5,10.048781,3.579104,0,520,Mavic Mini,1SDCH7G0169R0K,1SFLH6Q0AB03DJ,1SRCH7F014TAHX,1U5X071EXP6C9Y,DJI Fly,,1.12.8,96C70EE3-66E3-056D-58D4-4EAFF532057C,1SDCH7G0169R0K,,,,,,,,,
2/27/2024,13:45.7,9m 53.9s,593.9,6.974620098,79.91439715,0,0,0.3,52,0.1,0,0,0,0,0,0,0,0,4.7,0.5,-157.2,202.8,,Starting Motors,Other,Takeoff (RC Assisted),13,5,TRUE,,Mavic Mini,TRUE,FALSE,,Smart,RC,TRUE,TRUE,FALSE,,,TRUE,,FALSE,FALSE,FALSE,FALSE,FALSE,FALSE,FALSE,FALSE,FALSE,FALSE,0,Follow Yaw,0,0,-158.8,201.2,FALSE,FALSE,FALSE,FALSE,FALSE,FALSE,,TRUE,Normal,,100,1024,1024,1024,1024,1,FALSE,FALSE,FALSE,FALSE,FALSE,0,FALSE,FALSE,FALSE,FALSE,57,7.557,1182,2063,7.559,FALSE,3.78,3.777,0.003,FALSE,FALSE,NA,116.1,116,116,0,0,0,0,5,2483.1,620.79,,Idle,0,20,FALSE,5,TRUE,6,Go Home,FALSE,FALSE,FALSE,FALSE,FALSE,FALSE,FALSE,FALSE,FALSE,FALSE,FALSE,FALSE,6.974621856,79.91439578,0.8,177.7,328,TRUE,1,1,FALSE,FALSE,FALSE,FALSE,,TRUE,FALSE,FALSE,Course Lock,49.2,254.5,16.4,Calm,39,,1.12.8,Mavic Mini,1SDCH7G0169R0K,1SFLH6Q0AB03DJ,1SRCH7F014TAHX,1U5X071EXP6C9Y,70.4,0.3,6.5,10.048781,3.579104,0,520,Mavic Mini,1SDCH7G0169R0K,1SFLH6Q0AB03DJ,1SRCH7F014TAHX,1U5X071EXP6C9Y,DJI Fly,,1.12.8,96C70EE3-66E3-056D-58D4-4EAFF532057C,1SDCH7G0169R0K,,,,,,,,,
2/27/2024,13:45.8,9m 54.0s,594,6.974620099,79.91439719,0,0,0.3,52,0.1,0,0,0,0,0,0,0,0,4.7,0.5,-157.1,202.9,,Starting Motors,Other,Takeoff (RC Assisted),13,5,TRUE,,Mavic Mini,TRUE,FALSE,,Smart,RC,TRUE,TRUE,FALSE,,,TRUE,,FALSE,FALSE,FALSE,FALSE,FALSE,FALSE,FALSE,FALSE,FALSE,FALSE,0,Follow Yaw,0,0,-158.8,201.2,FALSE,FALSE,FALSE,FALSE,FALSE,FALSE,,TRUE,Normal,,100,1024,1024,1024,1024,1,FALSE,FALSE,FALSE,FALSE,FALSE,0,FALSE,FALSE,FALSE,FALSE,57,7.557,1182,2063,7.559,FALSE,3.78,3.777,0.003,FALSE,FALSE,NA,116.1,116,116,0,0,0,0,5,2483.1,620.79,,Idle,0,20,FALSE,5,TRUE,6,Go Home,FALSE,FALSE,FALSE,FALSE,FALSE,FALSE,FALSE,FALSE,FALSE,FALSE,FALSE,FALSE,6.974621856,79.91439578,0.8,177.7,328,TRUE,1,1,FALSE,FALSE,FALSE,FALSE,,TRUE,FALSE,FALSE,Course Lock,49.2,254.5,16.4,Calm,39,,1.12.8,Mavic Mini,1SDCH7G0169R0K,1SFLH6Q0AB03DJ,1SRCH7F014TAHX,1U5X071EXP6C9Y,70.4,0.3,6.5,10.048781,3.579104,0,520,Mavic Mini,1SDCH7G0169R0K,1SFLH6Q0AB03DJ,1SRCH7F014TAHX,1U5X071EXP6C9Y,DJI Fly,,1.12.8,96C70EE3-66E3-056D-58D4-4EAFF532057C,1SDCH7G0169R0K,,,,,,,,,
2/27/2024,13:45.8,9m 54.1s,594.1,6.9746201,79.9143972,0,0,0.3,52,0.1,0,0,0,0,0,0,0,0,4.6,0.6,-157.1,202.9,,Starting Motors,Other,Takeoff (RC Assisted),13,5,TRUE,,Mavic Mini,TRUE,FALSE,,Smart,RC,TRUE,TRUE,FALSE,,,TRUE,,FALSE,FALSE,FALSE,FALSE,FALSE,FALSE,FALSE,FALSE,FALSE,FALSE,0,Follow Yaw,0,0,-158.8,201.2,FALSE,FALSE,FALSE,FALSE,FALSE,FALSE,,TRUE,Normal,,100,1024,1024,1024,1024,1,FALSE,FALSE,FALSE,FALSE,FALSE,0,FALSE,FALSE,FALSE,FALSE,57,7.557,1182,2063,7.559,FALSE,3.78,3.777,0.003,FALSE,FALSE,NA,116.1,116,116,0,0,0,0,5,2483.1,620.79,,Idle,0,20,FALSE,5,TRUE,6,Go Home,FALSE,FALSE,FALSE,FALSE,FALSE,FALSE,FALSE,FALSE,FALSE,FALSE,FALSE,FALSE,6.974621856,79.91439578,0.8,177.7,328,TRUE,1,1,FALSE,FALSE,FALSE,FALSE,,TRUE,FALSE,FALSE,Course Lock,49.2,254.5,16.4,Calm,39,,1.12.8,Mavic Mini,1SDCH7G0169R0K,1SFLH6Q0AB03DJ,1SRCH7F014TAHX,1U5X071EXP6C9Y,70.4,0.3,6.5,10.048781,3.579104,0,520,Mavic Mini,1SDCH7G0169R0K,1SFLH6Q0AB03DJ,1SRCH7F014TAHX,1U5X071EXP6C9Y,DJI Fly,,1.12.8,96C70EE3-66E3-056D-58D4-4EAFF532057C,1SDCH7G0169R0K,,,,,,,,,
2/27/2024,13:46.0,9m 54.2s,594.2,6.974620097,79.91439722,0,0,0.3,52,0.1,0,0,0,0,0,0,0,0,4.6,0.6,-157.1,202.9,,Manual Takeoff,Other,Takeoff (RC Assisted),13,5,TRUE,,Mavic Mini,TRUE,FALSE,,Smart,RC,TRUE,TRUE,FALSE,,,TRUE,,FALSE,FALSE,FALSE,FALSE,FALSE,FALSE,FALSE,FALSE,FALSE,FALSE,0,Follow Yaw,0,0,-158.8,201.2,FALSE,FALSE,FALSE,FALSE,FALSE,FALSE,,TRUE,Normal,,100,1024,1024,1024,1024,1,FALSE,FALSE,FALSE,FALSE,FALSE,0,FALSE,FALSE,FALSE,FALSE,57,7.557,1182,2063,7.559,FALSE,3.78,3.777,0.003,FALSE,FALSE,NA,116.1,116,116,0,0,0,0,5,2483.1,620.79,,Idle,0,20,FALSE,5,TRUE,6,Go Home,FALSE,FALSE,FALSE,FALSE,FALSE,FALSE,FALSE,FALSE,FALSE,FALSE,FALSE,FALSE,6.974621856,79.91439578,0.8,177.7,328,TRUE,1,1,FALSE,FALSE,FALSE,FALSE,,TRUE,FALSE,FALSE,Course Lock,49.2,254.5,16.4,Calm,39,,1.12.8,Mavic Mini,1SDCH7G0169R0K,1SFLH6Q0AB03DJ,1SRCH7F014TAHX,1U5X071EXP6C9Y,70.4,0.3,6.5,10.048781,3.579104,0,520,Mavic Mini,1SDCH7G0169R0K,1SFLH6Q0AB03DJ,1SRCH7F014TAHX,1U5X071EXP6C9Y,DJI Fly,,1.12.8,96C70EE3-66E3-056D-58D4-4EAFF532057C,1SDCH7G0169R0K,,,,,,,,Flight mode changed to Manual Takeoff.,
2/27/2024,13:46.0,9m 54.3s,594.3,6.974620099,79.91439722,0,0,0.3,52,0.1,0,0,0,0,0,0,0,0,4.6,0.6,-157.1,202.9,,Manual Takeoff,Other,Takeoff (RC Assisted),13,5,TRUE,,Mavic Mini,TRUE,FALSE,,Smart,RC,TRUE,TRUE,FALSE,,,TRUE,,FALSE,FALSE,FALSE,FALSE,FALSE,FALSE,FALSE,FALSE,FALSE,FALSE,0,Follow Yaw,0,0,-158.8,201.2,FALSE,FALSE,FALSE,FALSE,FALSE,FALSE,,TRUE,Normal,,100,1024,1024,1024,1024,1,FALSE,FALSE,FALSE,FALSE,FALSE,0,FALSE,FALSE,FALSE,FALSE,57,7.557,1182,2063,7.559,FALSE,3.78,3.777,0.003,FALSE,FALSE,NA,116.1,116,116,0,0,0,0,5,2483.1,620.79,,Idle,0,20,FALSE,5,TRUE,6,Go Home,FALSE,FALSE,FALSE,FALSE,FALSE,FALSE,FALSE,FALSE,FALSE,FALSE,FALSE,FALSE,6.974621856,79.91439578,0.8,177.7,328,TRUE,1,1,FALSE,FALSE,FALSE,FALSE,,TRUE,FALSE,FALSE,Course Lock,49.2,254.5,16.4,Calm,39,,1.12.8,Mavic Mini,1SDCH7G0169R0K,1SFLH6Q0AB03DJ,1SRCH7F014TAHX,1U5X071EXP6C9Y,70.4,0.3,6.5,10.048781,3.579104,0,520,Mavic Mini,1SDCH7G0169R0K,1SFLH6Q0AB03DJ,1SRCH7F014TAHX,1U5X071EXP6C9Y,DJI Fly,,1.12.8,96C70EE3-66E3-056D-58D4-4EAFF532057C,1SDCH7G0169R0K,,,,,,,,,
2/27/2024,13:46.1,9m 54.4s,594.4,6.9746201,79.91439723,0,0,0.3,52,0.1,0,0,0,0,0,0,0,0,4.6,0.6,-157.1,202.9,,Manual Takeoff,Other,Takeoff (RC Assisted),13,5,TRUE,,Mavic Mini,TRUE,FALSE,,Smart,RC,TRUE,TRUE,FALSE,,,TRUE,,FALSE,FALSE,FALSE,FALSE,FALSE,FALSE,FALSE,FALSE,FALSE,FALSE,0,Follow Yaw,0,0,-158.8,201.2,FALSE,FALSE,FALSE,FALSE,FALSE,FALSE,,TRUE,Normal,,100,1024,1024,1024,1024,1,FALSE,FALSE,FALSE,FALSE,FALSE,0,FALSE,FALSE,FALSE,FALSE,57,7.557,1182,2063,7.559,FALSE,3.78,3.777,0.003,FALSE,FALSE,NA,116.1,116,116,0,0,0,0,5,2483.1,620.79,,Idle,0,20,FALSE,5,TRUE,6,Go Home,FALSE,FALSE,FALSE,FALSE,FALSE,FALSE,FALSE,FALSE,FALSE,FALSE,FALSE,FALSE,6.974621856,79.91439578,0.8,177.7,328,TRUE,1,1,FALSE,FALSE,FALSE,FALSE,,TRUE,FALSE,FALSE,Course Lock,49.2,254.5,16.4,Calm,39,,1.12.8,Mavic Mini,1SDCH7G0169R0K,1SFLH6Q0AB03DJ,1SRCH7F014TAHX,1U5X071EXP6C9Y,70.4,0.3,6.5,10.048781,3.579104,0,520,Mavic Mini,1SDCH7G0169R0K,1SFLH6Q0AB03DJ,1SRCH7F014TAHX,1U5X071EXP6C9Y,DJI Fly,,1.12.8,96C70EE3-66E3-056D-58D4-4EAFF532057C,1SDCH7G0169R0K,,,,,,,,,
2/27/2024,13:46.3,9m 54.5s,594.5,6.974620102,79.91439728,0,0,0.3,52,0.1,0,0,0,0,0,0,0,0,4.6,0.6,-157.1,202.9,,Manual Takeoff,Other,Takeoff (RC Assisted),13,5,TRUE,,Mavic Mini,TRUE,FALSE,,Smart,RC,TRUE,TRUE,FALSE,,,TRUE,,FALSE,FALSE,FALSE,FALSE,FALSE,FALSE,FALSE,FALSE,FALSE,FALSE,0,Follow Yaw,0,0,-158.8,201.2,FALSE,FALSE,FALSE,FALSE,FALSE,FALSE,,TRUE,Normal,,100,1024,1024,1024,1024,1,FALSE,FALSE,FALSE,FALSE,FALSE,0,FALSE,FALSE,FALSE,FALSE,57,7.557,1182,2063,7.57,FALSE,3.78,3.777,0.003,FALSE,FALSE,NA,116.1,116,116,0,0,0,0,5,2592,648.02,,Idle,0,20,FALSE,5,TRUE,6,Go Home,FALSE,FALSE,FALSE,FALSE,FALSE,FALSE,FALSE,FALSE,FALSE,FALSE,FALSE,FALSE,6.974621856,79.91439578,0.8,177.7,328,TRUE,1,1,FALSE,FALSE,FALSE,FALSE,,TRUE,FALSE,FALSE,Course Lock,49.2,254.5,16.4,Calm,39,,1.12.8,Mavic Mini,1SDCH7G0169R0K,1SFLH6Q0AB03DJ,1SRCH7F014TAHX,1U5X071EXP6C9Y,70.4,0.3,6.5,10.048781,3.579104,0,520,Mavic Mini,1SDCH7G0169R0K,1SFLH6Q0AB03DJ,1SRCH7F014TAHX,1U5X071EXP6C9Y,DJI Fly,,1.12.8,96C70EE3-66E3-056D-58D4-4EAFF532057C,1SDCH7G0169R0K,,,,,,,,,
2/27/2024,13:46.3,9m 54.6s,594.6,6.974620089,79.91439731,0,0,0.3,52,0.1,0,0,0,0,0,0,0,0,4.6,0.6,-157.1,202.9,,Manual Takeoff,Other,Takeoff (RC Assisted),13,5,TRUE,,Mavic Mini,TRUE,FALSE,,Smart,RC,TRUE,TRUE,FALSE,,,TRUE,,FALSE,FALSE,FALSE,FALSE,FALSE,FALSE,FALSE,FALSE,FALSE,FALSE,0,Follow Yaw,0,0,-158.8,201.2,FALSE,FALSE,FALSE,FALSE,FALSE,FALSE,,TRUE,Normal,,100,1024,1024,1024,1024,1,FALSE,FALSE,FALSE,FALSE,FALSE,0,FALSE,FALSE,FALSE,FALSE,57,7.557,1182,2063,7.57,FALSE,3.78,3.777,0.003,FALSE,FALSE,NA,116.1,116,116,0,0,0,0,5,2592,648.02,,Idle,0,20,FALSE,5,TRUE,6,Go Home,FALSE,FALSE,FALSE,FALSE,FALSE,FALSE,FALSE,FALSE,FALSE,FALSE,FALSE,FALSE,6.974621856,79.91439578,0.8,177.7,328,TRUE,1,1,FALSE,FALSE,FALSE,FALSE,,TRUE,FALSE,FALSE,Course Lock,49.2,254.5,16.4,Calm,39,,1.12.8,Mavic Mini,1SDCH7G0169R0K,1SFLH6Q0AB03DJ,1SRCH7F014TAHX,1U5X071EXP6C9Y,70.4,0.3,6.5,10.048781,3.579104,0,520,Mavic Mini,1SDCH7G0169R0K,1SFLH6Q0AB03DJ,1SRCH7F014TAHX,1U5X071EXP6C9Y,DJI Fly,,1.12.8,96C70EE3-66E3-056D-58D4-4EAFF532057C,1SDCH7G0169R0K,,,,,,,,,
2/27/2024,13:46.4,9m 54.7s,594.7,6.97462009,79.91439733,0,0,0.3,52,0.1,0,0,0,0,0,0,0,0,4.6,0.6,-157.1,202.9,,Manual Takeoff,Other,Takeoff (RC Assisted),13,5,TRUE,,Mavic Mini,TRUE,FALSE,,Smart,RC,TRUE,TRUE,FALSE,,,TRUE,,FALSE,FALSE,FALSE,FALSE,FALSE,FALSE,FALSE,FALSE,FALSE,FALSE,0,Follow Yaw,0,0,-158.8,201.2,FALSE,FALSE,FALSE,FALSE,FALSE,FALSE,,TRUE,Normal,,100,1024,1024,1024,1024,1,FALSE,FALSE,FALSE,FALSE,FALSE,0,FALSE,FALSE,FALSE,FALSE,57,7.557,1182,2063,7.57,FALSE,3.78,3.777,0.003,FALSE,FALSE,NA,116.1,116,116,0,0,0,0,5,2592,648.02,,Idle,0,20,FALSE,5,TRUE,6,Go Home,FALSE,FALSE,FALSE,FALSE,FALSE,FALSE,FALSE,FALSE,FALSE,FALSE,FALSE,FALSE,6.974621856,79.91439578,0.8,177.7,328,TRUE,1,1,FALSE,FALSE,FALSE,FALSE,,TRUE,FALSE,FALSE,Course Lock,49.2,254.5,16.4,Calm,39,,1.12.8,Mavic Mini,1SDCH7G0169R0K,1SFLH6Q0AB03DJ,1SRCH7F014TAHX,1U5X071EXP6C9Y,70.4,0.3,6.5,10.048781,3.579104,0,520,Mavic Mini,1SDCH7G0169R0K,1SFLH6Q0AB03DJ,1SRCH7F014TAHX,1U5X071EXP6C9Y,DJI Fly,,1.12.8,96C70EE3-66E3-056D-58D4-4EAFF532057C,1SDCH7G0169R0K,,,,,,,,,
2/27/2024,13:46.5,9m 54.8s,594.8,6.974620092,79.91439734,0,0,0.3,52,0.1,0,0,0,0,0,0,0,0,4.6,0.6,-157.1,202.9,,Manual Takeoff,Other,Takeoff (RC Assisted),13,5,TRUE,,Mavic Mini,TRUE,FALSE,,Smart,RC,TRUE,TRUE,FALSE,,,TRUE,,FALSE,FALSE,FALSE,FALSE,FALSE,FALSE,FALSE,FALSE,FALSE,FALSE,0,Follow Yaw,0,0,-158.8,201.2,FALSE,FALSE,FALSE,FALSE,FALSE,FALSE,,TRUE,Normal,,100,1024,1024,1024,1024,1,FALSE,FALSE,FALSE,FALSE,FALSE,0,FALSE,FALSE,FALSE,FALSE,57,7.557,1182,2063,7.57,FALSE,3.78,3.777,0.003,FALSE,FALSE,NA,116.1,116,116,0,0,0,0,5,2592,648.02,,Idle,0,20,FALSE,5,TRUE,6,Go Home,FALSE,FALSE,FALSE,FALSE,FALSE,FALSE,FALSE,FALSE,FALSE,FALSE,FALSE,FALSE,6.974621856,79.91439578,0.8,177.7,328,TRUE,1,1,FALSE,FALSE,FALSE,FALSE,,TRUE,FALSE,FALSE,Course Lock,49.2,254.5,16.4,Calm,39,,1.12.8,Mavic Mini,1SDCH7G0169R0K,1SFLH6Q0AB03DJ,1SRCH7F014TAHX,1U5X071EXP6C9Y,70.4,0.3,6.5,10.048781,3.579104,0,520,Mavic Mini,1SDCH7G0169R0K,1SFLH6Q0AB03DJ,1SRCH7F014TAHX,1U5X071EXP6C9Y,DJI Fly,,1.12.8,96C70EE3-66E3-056D-58D4-4EAFF532057C,1SDCH7G0169R0K,,,,,,,,,
2/27/2024,13:46.6,9m 54.9s,594.9,6.974620095,79.91439735,0,0,0.3,52,0.1,0,0,0,0,0,0,0,0,4.6,0.6,-157.1,202.9,,Manual Takeoff,Other,Takeoff (RC Assisted),13,5,TRUE,,Mavic Mini,TRUE,FALSE,,Smart,RC,TRUE,TRUE,FALSE,,,TRUE,,FALSE,FALSE,FALSE,FALSE,FALSE,FALSE,FALSE,FALSE,FALSE,FALSE,0,Follow Yaw,0,0,-158.8,201.2,FALSE,FALSE,FALSE,FALSE,FALSE,FALSE,,TRUE,Normal,,100,1024,1024,1024,1024,1,FALSE,FALSE,FALSE,FALSE,FALSE,0,FALSE,FALSE,FALSE,FALSE,57,7.557,1182,2063,7.57,FALSE,3.78,3.777,0.003,FALSE,FALSE,NA,116.1,116,116,0,0,0,0,5,2592,648.02,,Idle,0,20,FALSE,5,TRUE,6,Go Home,FALSE,FALSE,FALSE,FALSE,FALSE,FALSE,FALSE,FALSE,FALSE,FALSE,FALSE,FALSE,6.974621856,79.91439578,0.8,177.7,328,TRUE,1,1,FALSE,FALSE,FALSE,FALSE,,TRUE,FALSE,FALSE,Course Lock,49.2,254.5,16.4,Calm,39,,1.12.8,Mavic Mini,1SDCH7G0169R0K,1SFLH6Q0AB03DJ,1SRCH7F014TAHX,1U5X071EXP6C9Y,70.4,0.3,6.5,10.048781,3.579104,0,520,Mavic Mini,1SDCH7G0169R0K,1SFLH6Q0AB03DJ,1SRCH7F014TAHX,1U5X071EXP6C9Y,DJI Fly,,1.12.8,96C70EE3-66E3-056D-58D4-4EAFF532057C,1SDCH7G0169R0K,,,,,,,,,
2/27/2024,13:46.7,9m 55.0s,595,6.974620098,79.91439736,0,0,0.3,52,0.1,0,0,0,0,0,0,0,0,4.6,0.6,-157.1,202.9,,Manual Takeoff,Other,Takeoff (RC Assisted),13,5,TRUE,,Mavic Mini,TRUE,FALSE,,Smart,RC,TRUE,TRUE,FALSE,,,TRUE,,FALSE,FALSE,FALSE,FALSE,FALSE,FALSE,FALSE,FALSE,FALSE,FALSE,0,Follow Yaw,0,0,-158.8,201.2,FALSE,FALSE,FALSE,FALSE,FALSE,FALSE,,TRUE,Normal,,100,1024,1024,1024,1024,1,FALSE,FALSE,FALSE,FALSE,FALSE,0,FALSE,FALSE,FALSE,FALSE,57,7.56,1181,2063,7.57,FALSE,3.782,3.778,0.004,FALSE,FALSE,NA,116.1,116,116,0,0,0,0,5,2592,648.02,,Idle,0,20,FALSE,5,TRUE,6,Go Home,FALSE,FALSE,FALSE,FALSE,FALSE,FALSE,FALSE,FALSE,FALSE,FALSE,FALSE,FALSE,6.974621856,79.91439578,0.8,177.7,328,TRUE,1,1,FALSE,FALSE,FALSE,FALSE,,TRUE,FALSE,FALSE,Course Lock,49.2,254.5,16.4,Calm,39,,1.12.8,Mavic Mini,1SDCH7G0169R0K,1SFLH6Q0AB03DJ,1SRCH7F014TAHX,1U5X071EXP6C9Y,70.4,0.3,6.5,10.048781,3.579104,0,520,Mavic Mini,1SDCH7G0169R0K,1SFLH6Q0AB03DJ,1SRCH7F014TAHX,1U5X071EXP6C9Y,DJI Fly,,1.12.8,96C70EE3-66E3-056D-58D4-4EAFF532057C,1SDCH7G0169R0K,,,,,,,,,
2/27/2024,13:46.8,9m 55.1s,595.1,6.97462011,79.91439741,0,0,0.3,52,0.2,0,0,0,0,0,0,0,0,4.6,0.6,-157.1,202.9,,Manual Takeoff,Other,Takeoff (RC Assisted),13,5,TRUE,,Mavic Mini,TRUE,FALSE,,Smart,RC,TRUE,TRUE,FALSE,,,TRUE,,FALSE,FALSE,FALSE,FALSE,FALSE,FALSE,FALSE,FALSE,FALSE,FALSE,0,Follow Yaw,0,0,-158.7,201.3,FALSE,FALSE,FALSE,FALSE,FALSE,FALSE,,TRUE,Normal,,100,1024,1024,1024,1024,1,FALSE,FALSE,FALSE,FALSE,FALSE,0,FALSE,FALSE,FALSE,FALSE,57,7.56,1181,2063,7.57,FALSE,3.782,3.778,0.004,FALSE,FALSE,NA,116.1,116,116,0,0,0,0,5,2592,648.02,,Idle,0,20,FALSE,5,TRUE,6,Go Home,FALSE,FALSE,FALSE,FALSE,FALSE,FALSE,FALSE,FALSE,FALSE,FALSE,FALSE,FALSE,6.974621856,79.91439578,0.8,177.7,328,TRUE,1,1,FALSE,FALSE,FALSE,FALSE,,TRUE,FALSE,FALSE,Course Lock,49.2,254.5,16.4,Calm,39,,1.12.8,Mavic Mini,1SDCH7G0169R0K,1SFLH6Q0AB03DJ,1SRCH7F014TAHX,1U5X071EXP6C9Y,70.4,0.3,6.5,10.048781,3.579104,0,520,Mavic Mini,1SDCH7G0169R0K,1SFLH6Q0AB03DJ,1SRCH7F014TAHX,1U5X071EXP6C9Y,DJI Fly,,1.12.8,96C70EE3-66E3-056D-58D4-4EAFF532057C,1SDCH7G0169R0K,,,,,6.974561219,79.91434869,5,,
2/27/2024,13:46.9,9m 55.2s,595.2,6.974620114,79.91439745,0,0,0.3,52,0.2,0,0,0,0,0,0,0,0,4.6,0.6,-157.1,202.9,,Manual Takeoff,Other,Takeoff (RC Assisted),13,5,TRUE,,Mavic Mini,TRUE,FALSE,,Smart,RC,TRUE,TRUE,FALSE,,,TRUE,,FALSE,FALSE,FALSE,FALSE,FALSE,FALSE,FALSE,FALSE,FALSE,FALSE,0,Follow Yaw,0,0,-158.7,201.3,FALSE,FALSE,FALSE,FALSE,FALSE,FALSE,,TRUE,Normal,,100,1024,1024,1024,1024,1,FALSE,FALSE,FALSE,FALSE,FALSE,0,FALSE,FALSE,FALSE,FALSE,57,7.56,1181,2063,7.57,FALSE,3.782,3.778,0.004,FALSE,FALSE,NA,116.1,116,116,0,0,0,0,5,2592,648.02,,Idle,0,20,FALSE,5,TRUE,6,Go Home,FALSE,FALSE,FALSE,FALSE,FALSE,FALSE,FALSE,FALSE,FALSE,FALSE,FALSE,FALSE,6.974621856,79.91439578,0.8,177.7,328,TRUE,1,1,FALSE,FALSE,FALSE,FALSE,,TRUE,FALSE,FALSE,Course Lock,49.2,254.5,16.4,Calm,39,,1.12.8,Mavic Mini,1SDCH7G0169R0K,1SFLH6Q0AB03DJ,1SRCH7F014TAHX,1U5X071EXP6C9Y,70.4,0.3,6.5,10.048781,3.579104,0,520,Mavic Mini,1SDCH7G0169R0K,1SFLH6Q0AB03DJ,1SRCH7F014TAHX,1U5X071EXP6C9Y,DJI Fly,,1.12.8,96C70EE3-66E3-056D-58D4-4EAFF532057C,1SDCH7G0169R0K,,,,,6.974561219,79.91434869,5,,
2/27/2024,13:47.1,9m 55.3s,595.3,6.974620117,79.91439747,0,0,0.3,52,0.2,0,0,0,0,0,0,0,0,4.6,0.6,-157.1,202.9,,Manual Takeoff,Other,Takeoff (RC Assisted),13,5,TRUE,,Mavic Mini,TRUE,FALSE,,Smart,RC,TRUE,TRUE,FALSE,,,TRUE,,FALSE,FALSE,FALSE,FALSE,FALSE,FALSE,FALSE,FALSE,FALSE,FALSE,0,Follow Yaw,0,0,-158.7,201.3,FALSE,FALSE,FALSE,FALSE,FALSE,FALSE,,TRUE,Normal,,100,1024,1024,1024,1024,1,FALSE,FALSE,FALSE,FALSE,FALSE,0,FALSE,FALSE,FALSE,FALSE,57,7.56,1181,2063,7.57,FALSE,3.782,3.778,0.004,FALSE,FALSE,NA,116.1,116,116,0,0,0,0,5,2592,648.02,,Idle,0,20,FALSE,5,TRUE,6,Go Home,FALSE,FALSE,FALSE,FALSE,FALSE,FALSE,FALSE,FALSE,FALSE,FALSE,FALSE,FALSE,6.974621856,79.91439578,0.8,177.7,328,TRUE,1,1,FALSE,FALSE,FALSE,FALSE,,TRUE,FALSE,FALSE,Course Lock,49.2,254.5,16.4,Calm,39,,1.12.8,Mavic Mini,1SDCH7G0169R0K,1SFLH6Q0AB03DJ,1SRCH7F014TAHX,1U5X071EXP6C9Y,70.4,0.3,6.5,10.048781,3.579104,0,520,Mavic Mini,1SDCH7G0169R0K,1SFLH6Q0AB03DJ,1SRCH7F014TAHX,1U5X071EXP6C9Y,DJI Fly,,1.12.8,96C70EE3-66E3-056D-58D4-4EAFF532057C,1SDCH7G0169R0K,,,,,6.974561219,79.91434869,5,,
2/27/2024,13:47.2,9m 55.4s,595.4,6.97462012,79.91439748,0,0,0.3,52,0.2,0,0,0,0,0,0,0,0,4.6,0.6,-157.1,202.9,,Manual Takeoff,Other,Takeoff (RC Assisted),13,5,TRUE,,Mavic Mini,TRUE,FALSE,,Smart,RC,TRUE,TRUE,FALSE,,,TRUE,,FALSE,FALSE,FALSE,FALSE,FALSE,FALSE,FALSE,FALSE,FALSE,FALSE,0,Follow Yaw,0,0,-158.7,201.3,FALSE,FALSE,FALSE,FALSE,FALSE,FALSE,,TRUE,Normal,,100,1024,1024,1024,1024,1,FALSE,FALSE,FALSE,FALSE,FALSE,0,FALSE,FALSE,FALSE,FALSE,57,7.56,1181,2063,7.57,FALSE,3.782,3.778,0.004,FALSE,FALSE,NA,116.1,116,116,0,0,0,0,5,2592,648.02,,Idle,0,20,FALSE,5,TRUE,6,Go Home,FALSE,FALSE,FALSE,FALSE,FALSE,FALSE,FALSE,FALSE,FALSE,FALSE,FALSE,FALSE,6.974621856,79.91439578,0.8,177.7,328,TRUE,1,1,FALSE,FALSE,FALSE,FALSE,,TRUE,FALSE,FALSE,Course Lock,49.2,254.5,16.4,Calm,39,,1.12.8,Mavic Mini,1SDCH7G0169R0K,1SFLH6Q0AB03DJ,1SRCH7F014TAHX,1U5X071EXP6C9Y,70.4,0.3,6.5,10.048781,3.579104,0,520,Mavic Mini,1SDCH7G0169R0K,1SFLH6Q0AB03DJ,1SRCH7F014TAHX,1U5X071EXP6C9Y,DJI Fly,,1.12.8,96C70EE3-66E3-056D-58D4-4EAFF532057C,1SDCH7G0169R0K,,,,,6.974561219,79.91434869,5,,
2/27/2024,13:47.3,9m 55.5s,595.5,6.974620106,79.9143974,0,0,0.3,52,0.2,0,0,0,0,0,0,0,0,4.6,0.6,-157.1,202.9,,Manual Takeoff,Other,Takeoff (RC Assisted),13,5,TRUE,,Mavic Mini,TRUE,FALSE,,Smart,RC,TRUE,TRUE,FALSE,,,TRUE,,FALSE,FALSE,FALSE,FALSE,FALSE,FALSE,FALSE,FALSE,FALSE,FALSE,0,Follow Yaw,0,0,-158.7,201.3,FALSE,FALSE,FALSE,FALSE,FALSE,FALSE,,TRUE,Normal,,100,1024,1024,1024,1024,1,FALSE,FALSE,FALSE,FALSE,FALSE,0,FALSE,FALSE,FALSE,FALSE,57,7.56,1181,2063,7.56,FALSE,3.782,3.778,0.004,FALSE,FALSE,NA,116.1,116,116,0,0,0,0,5,2748.1,687.04,,Idle,0,20,FALSE,5,TRUE,6,Go Home,FALSE,FALSE,FALSE,FALSE,FALSE,FALSE,FALSE,FALSE,FALSE,FALSE,FALSE,FALSE,6.974621856,79.91439578,0.8,177.7,328,TRUE,1,1,FALSE,FALSE,FALSE,FALSE,,TRUE,FALSE,FALSE,Course Lock,49.2,254.5,16.4,Calm,39,,1.12.8,Mavic Mini,1SDCH7G0169R0K,1SFLH6Q0AB03DJ,1SRCH7F014TAHX,1U5X071EXP6C9Y,70.4,0.3,6.5,10.048781,3.579104,0,520,Mavic Mini,1SDCH7G0169R0K,1SFLH6Q0AB03DJ,1SRCH7F014TAHX,1U5X071EXP6C9Y,DJI Fly,,1.12.8,96C70EE3-66E3-056D-58D4-4EAFF532057C,1SDCH7G0169R0K,,,,,6.974561219,79.91434869,5,,
2/27/2024,13:47.4,9m 55.6s,595.6,6.974620109,79.9143974,0,0,0.3,52,0.2,0,0,0,0,0,0,0,0,4.6,0.6,-157.1,202.9,,Manual Takeoff,Other,Takeoff (RC Assisted),13,5,TRUE,,Mavic Mini,TRUE,FALSE,,Smart,RC,TRUE,TRUE,FALSE,,,TRUE,,FALSE,FALSE,FALSE,FALSE,FALSE,FALSE,FALSE,FALSE,FALSE,FALSE,0,Follow Yaw,0,0,-158.7,201.3,FALSE,FALSE,FALSE,FALSE,FALSE,FALSE,,TRUE,Normal,,100,1024,1024,1024,1024,1,FALSE,FALSE,FALSE,FALSE,FALSE,0,FALSE,FALSE,FALSE,FALSE,57,7.56,1181,2063,7.56,FALSE,3.782,3.778,0.004,FALSE,FALSE,NA,116.1,116,116,0,0,0,0,5,2748.1,687.04,,Idle,0,20,FALSE,5,TRUE,6,Go Home,FALSE,FALSE,FALSE,FALSE,FALSE,FALSE,FALSE,FALSE,FALSE,FALSE,FALSE,FALSE,6.974621856,79.91439578,0.8,177.7,328,TRUE,1,1,FALSE,FALSE,FALSE,FALSE,,TRUE,FALSE,FALSE,Course Lock,49.2,254.5,16.4,Calm,39,,1.12.8,Mavic Mini,1SDCH7G0169R0K,1SFLH6Q0AB03DJ,1SRCH7F014TAHX,1U5X071EXP6C9Y,70.4,0.3,6.5,10.048781,3.579104,0,520,Mavic Mini,1SDCH7G0169R0K,1SFLH6Q0AB03DJ,1SRCH7F014TAHX,1U5X071EXP6C9Y,DJI Fly,,1.12.8,96C70EE3-66E3-056D-58D4-4EAFF532057C,1SDCH7G0169R0K,,,,,6.974561219,79.91434869,5,,
2/27/2024,13:47.4,9m 55.7s,595.7,6.974620112,79.91439739,0,0,0.3,52,0.2,0,0,0,0,0,0,0,0,4.6,0.6,-157.1,202.9,,Manual Takeoff,Other,Takeoff (RC Assisted),13,5,TRUE,,Mavic Mini,TRUE,FALSE,,Smart,RC,TRUE,TRUE,FALSE,,,TRUE,,FALSE,FALSE,FALSE,FALSE,FALSE,FALSE,FALSE,FALSE,FALSE,FALSE,0,Follow Yaw,0,0,-158.7,201.3,FALSE,FALSE,FALSE,FALSE,FALSE,FALSE,,TRUE,Normal,,100,1024,1024,1024,1024,1,FALSE,FALSE,FALSE,FALSE,FALSE,0,FALSE,FALSE,FALSE,FALSE,57,7.56,1181,2063,7.56,FALSE,3.782,3.778,0.004,FALSE,FALSE,NA,116.1,116,116,0,0,0,0,5,2748.1,687.04,,Idle,0,20,FALSE,5,TRUE,6,Go Home,FALSE,FALSE,FALSE,FALSE,FALSE,FALSE,FALSE,FALSE,FALSE,FALSE,FALSE,FALSE,6.974621856,79.91439578,0.8,177.7,328,TRUE,1,1,FALSE,FALSE,FALSE,FALSE,,TRUE,FALSE,FALSE,Course Lock,49.2,254.5,16.4,Calm,39,,1.12.8,Mavic Mini,1SDCH7G0169R0K,1SFLH6Q0AB03DJ,1SRCH7F014TAHX,1U5X071EXP6C9Y,70.4,0.3,6.5,10.048781,3.579104,0,520,Mavic Mini,1SDCH7G0169R0K,1SFLH6Q0AB03DJ,1SRCH7F014TAHX,1U5X071EXP6C9Y,DJI Fly,,1.12.8,96C70EE3-66E3-056D-58D4-4EAFF532057C,1SDCH7G0169R0K,,,,,6.974561219,79.91434869,5,,
2/27/2024,13:47.5,9m 55.8s,595.8,6.974620115,79.91439739,0,0,0.3,52,0.2,0,0,0,0,0,0,0,0,4.6,0.6,-157.1,202.9,,Manual Takeoff,Other,Takeoff (RC Assisted),13,5,TRUE,,Mavic Mini,TRUE,FALSE,,Smart,RC,TRUE,TRUE,FALSE,,,TRUE,,FALSE,FALSE,FALSE,FALSE,FALSE,FALSE,FALSE,FALSE,FALSE,FALSE,0,Follow Yaw,0,0,-158.7,201.3,FALSE,FALSE,FALSE,FALSE,FALSE,FALSE,,TRUE,Normal,,100,1024,1024,1024,1024,1,FALSE,FALSE,FALSE,FALSE,FALSE,0,FALSE,FALSE,FALSE,FALSE,57,7.56,1181,2063,7.56,FALSE,3.782,3.778,0.004,FALSE,FALSE,NA,116.1,116,116,0,0,0,0,5,2748.1,687.04,,Idle,0,20,FALSE,5,TRUE,6,Go Home,FALSE,FALSE,FALSE,FALSE,FALSE,FALSE,FALSE,FALSE,FALSE,FALSE,FALSE,FALSE,6.974621856,79.91439578,0.8,177.7,328,TRUE,1,1,FALSE,FALSE,FALSE,FALSE,,TRUE,FALSE,FALSE,Course Lock,49.2,254.5,16.4,Calm,39,,1.12.8,Mavic Mini,1SDCH7G0169R0K,1SFLH6Q0AB03DJ,1SRCH7F014TAHX,1U5X071EXP6C9Y,70.4,0.3,6.5,10.048781,3.579104,0,520,Mavic Mini,1SDCH7G0169R0K,1SFLH6Q0AB03DJ,1SRCH7F014TAHX,1U5X071EXP6C9Y,DJI Fly,,1.12.8,96C70EE3-66E3-056D-58D4-4EAFF532057C,1SDCH7G0169R0K,,,,,6.974561219,79.91434869,5,,
2/27/2024,13:47.6,9m 55.9s,595.9,6.974620106,79.91439732,0,0,0.3,52,0.2,0,0,0,0,0,0,0,0,4.6,0.6,-157,203,,Manual Takeoff,Other,Takeoff (RC Assisted),13,5,TRUE,,Mavic Mini,TRUE,FALSE,,Smart,RC,TRUE,TRUE,FALSE,,,TRUE,,FALSE,FALSE,FALSE,FALSE,FALSE,FALSE,FALSE,FALSE,FALSE,FALSE,0,Follow Yaw,0,0,-158.7,201.3,FALSE,FALSE,FALSE,FALSE,FALSE,FALSE,,TRUE,Normal,,100,1024,1024,1024,1024,1,FALSE,FALSE,FALSE,FALSE,FALSE,0,FALSE,FALSE,FALSE,FALSE,57,7.56,1181,2063,7.56,FALSE,3.782,3.778,0.004,FALSE,FALSE,NA,116.1,116,116,0,0,0,0,5,2748.1,687.04,,Idle,0,20,FALSE,5,TRUE,6,Go Home,FALSE,FALSE,FALSE,FALSE,FALSE,FALSE,FALSE,FALSE,FALSE,FALSE,FALSE,FALSE,6.974621856,79.91439578,0.8,177.7,328,TRUE,1,1,FALSE,FALSE,FALSE,FALSE,,TRUE,FALSE,FALSE,Course Lock,49.2,254.5,16.4,Calm,39,,1.12.8,Mavic Mini,1SDCH7G0169R0K,1SFLH6Q0AB03DJ,1SRCH7F014TAHX,1U5X071EXP6C9Y,70.4,0.3,6.5,10.048781,3.579104,0,520,Mavic Mini,1SDCH7G0169R0K,1SFLH6Q0AB03DJ,1SRCH7F014TAHX,1U5X071EXP6C9Y,DJI Fly,,1.12.8,96C70EE3-66E3-056D-58D4-4EAFF532057C,1SDCH7G0169R0K,,,,,6.974561219,79.91434869,5,,
2/27/2024,13:47.8,9m 56.0s,596,6.974620108,79.91439732,0,0,0.3,52,0.2,0,0,0,0,0,0,0,0,4.6,0.6,-157.1,202.9,,Manual Takeoff,Other,Takeoff (RC Assisted),13,5,TRUE,,Mavic Mini,TRUE,FALSE,,Smart,RC,TRUE,TRUE,FALSE,,,TRUE,,FALSE,FALSE,FALSE,FALSE,FALSE,FALSE,FALSE,FALSE,FALSE,FALSE,0,Follow Yaw,0,0,-158.7,201.3,FALSE,FALSE,FALSE,FALSE,FALSE,FALSE,,TRUE,Normal,,100,1024,1024,1024,1024,1,FALSE,FALSE,FALSE,FALSE,FALSE,0,FALSE,FALSE,FALSE,FALSE,57,7.56,1181,2063,7.56,FALSE,3.782,3.778,0.004,FALSE,FALSE,NA,116.1,116,116,0,0,0,0,5,2748.1,687.04,,Idle,0,20,FALSE,5,TRUE,6,Go Home,FALSE,FALSE,FALSE,FALSE,FALSE,FALSE,FALSE,FALSE,FALSE,FALSE,FALSE,FALSE,6.974621856,79.91439578,0.8,177.7,328,TRUE,1,1,FALSE,FALSE,FALSE,FALSE,,TRUE,FALSE,FALSE,Course Lock,49.2,254.5,16.4,Calm,39,,1.12.8,Mavic Mini,1SDCH7G0169R0K,1SFLH6Q0AB03DJ,1SRCH7F014TAHX,1U5X071EXP6C9Y,70.4,0.3,6.5,10.048781,3.579104,0,520,Mavic Mini,1SDCH7G0169R0K,1SFLH6Q0AB03DJ,1SRCH7F014TAHX,1U5X071EXP6C9Y,DJI Fly,,1.12.8,96C70EE3-66E3-056D-58D4-4EAFF532057C,1SDCH7G0169R0K,,,,,6.974561219,79.91434869,5,,
2/27/2024,13:47.8,9m 56.1s,596.1,6.97462011,79.91439732,0,0,0.3,52,0.2,0,0,0,0,0,0,0,0,4.6,0.6,-157.1,202.9,,Manual Takeoff,Other,Takeoff (RC Assisted),13,5,TRUE,,Mavic Mini,TRUE,FALSE,,Smart,RC,TRUE,TRUE,FALSE,,,TRUE,,FALSE,FALSE,FALSE,FALSE,FALSE,FALSE,FALSE,FALSE,FALSE,FALSE,0,Follow Yaw,0,0,-158.7,201.3,FALSE,FALSE,FALSE,FALSE,FALSE,FALSE,,TRUE,Normal,,100,1024,1024,1024,1024,1,FALSE,FALSE,FALSE,FALSE,FALSE,0,FALSE,FALSE,FALSE,FALSE,57,7.56,1181,2063,7.56,FALSE,3.782,3.778,0.004,FALSE,FALSE,NA,116.1,116,116,0,0,0,0,5,2748.1,687.04,,Idle,0,20,FALSE,5,TRUE,6,Go Home,FALSE,FALSE,FALSE,FALSE,FALSE,FALSE,FALSE,FALSE,FALSE,FALSE,FALSE,FALSE,6.974621856,79.91439578,0.8,177.7,328,TRUE,1,1,FALSE,FALSE,FALSE,FALSE,,TRUE,FALSE,FALSE,Course Lock,49.2,254.5,16.4,Calm,39,,1.12.8,Mavic Mini,1SDCH7G0169R0K,1SFLH6Q0AB03DJ,1SRCH7F014TAHX,1U5X071EXP6C9Y,70.4,0.3,6.5,10.048781,3.579104,0,520,Mavic Mini,1SDCH7G0169R0K,1SFLH6Q0AB03DJ,1SRCH7F014TAHX,1U5X071EXP6C9Y,DJI Fly,,1.12.8,96C70EE3-66E3-056D-58D4-4EAFF532057C,1SDCH7G0169R0K,,,,,6.974561219,79.91434869,5,,
2/27/2024,13:47.9,9m 56.2s,596.2,6.974620112,79.91439732,0,0,0.3,52,0.2,0,0,0,0,0,0,0,0,4.6,0.6,-157.1,202.9,,Manual Takeoff,Other,Takeoff (RC Assisted),13,5,TRUE,,Mavic Mini,TRUE,FALSE,,Smart,RC,TRUE,TRUE,FALSE,,,TRUE,,FALSE,FALSE,FALSE,FALSE,FALSE,FALSE,FALSE,FALSE,FALSE,FALSE,0,Follow Yaw,0,0,-158.7,201.3,FALSE,FALSE,FALSE,FALSE,FALSE,FALSE,,TRUE,Normal,,100,1024,1024,1024,1024,1,FALSE,FALSE,FALSE,FALSE,FALSE,0,FALSE,FALSE,FALSE,FALSE,57,7.56,1181,2063,7.56,FALSE,3.782,3.778,0.004,FALSE,FALSE,NA,116.1,116,116,0,0,0,0,5,2748.1,687.04,,Idle,0,20,FALSE,5,TRUE,6,Go Home,FALSE,FALSE,FALSE,FALSE,FALSE,FALSE,FALSE,FALSE,FALSE,FALSE,FALSE,FALSE,6.974621856,79.91439578,0.8,177.7,328,TRUE,1,1,FALSE,FALSE,FALSE,FALSE,,TRUE,FALSE,FALSE,Course Lock,49.2,254.5,16.4,Calm,39,,1.12.8,Mavic Mini,1SDCH7G0169R0K,1SFLH6Q0AB03DJ,1SRCH7F014TAHX,1U5X071EXP6C9Y,70.4,0.3,6.5,10.048781,3.579104,0,520,Mavic Mini,1SDCH7G0169R0K,1SFLH6Q0AB03DJ,1SRCH7F014TAHX,1U5X071EXP6C9Y,DJI Fly,,1.12.8,96C70EE3-66E3-056D-58D4-4EAFF532057C,1SDCH7G0169R0K,,,,,6.974561219,79.91434869,5,,
2/27/2024,13:48.1,9m 56.3s,596.3,6.9746201,79.91439731,0,0,0.3,52,0.2,0,0,0,0,0,0,0,0,4.6,0.6,-157,203,,Manual Takeoff,Other,Takeoff (RC Assisted),13,5,TRUE,,Mavic Mini,TRUE,FALSE,,Smart,RC,TRUE,TRUE,FALSE,,,TRUE,,FALSE,FALSE,FALSE,FALSE,FALSE,FALSE,FALSE,FALSE,FALSE,FALSE,0,Follow Yaw,0,0,-158.7,201.3,FALSE,FALSE,FALSE,FALSE,FALSE,FALSE,,TRUE,Normal,,100,1024,1024,1024,1024,1,FALSE,FALSE,FALSE,FALSE,FALSE,0,FALSE,FALSE,FALSE,FALSE,57,7.56,1181,2063,7.56,FALSE,3.782,3.778,0.004,FALSE,FALSE,NA,116.1,116,116,0,0,0,0,5,2748.1,687.04,,Idle,0,20,FALSE,5,TRUE,6,Go Home,FALSE,FALSE,FALSE,FALSE,FALSE,FALSE,FALSE,FALSE,FALSE,FALSE,FALSE,FALSE,6.974621856,79.91439578,0.8,177.7,328,TRUE,1,1,FALSE,FALSE,FALSE,FALSE,,TRUE,FALSE,FALSE,Course Lock,49.2,254.5,16.4,Calm,39,,1.12.8,Mavic Mini,1SDCH7G0169R0K,1SFLH6Q0AB03DJ,1SRCH7F014TAHX,1U5X071EXP6C9Y,70.4,0.3,6.5,10.048781,3.579104,0,520,Mavic Mini,1SDCH7G0169R0K,1SFLH6Q0AB03DJ,1SRCH7F014TAHX,1U5X071EXP6C9Y,DJI Fly,,1.12.8,96C70EE3-66E3-056D-58D4-4EAFF532057C,1SDCH7G0169R0K,,,,,6.974561219,79.91434869,5,,
2/27/2024,13:48.1,9m 56.4s,596.4,6.97462009,79.91439732,0,0,0.3,52,0.3,0,0,0,0,0,0,0,0,4.6,0.6,-157,203,,Manual Takeoff,Other,Takeoff (RC Assisted),13,5,TRUE,,Mavic Mini,TRUE,FALSE,,Smart,RC,TRUE,TRUE,FALSE,,,TRUE,,FALSE,FALSE,FALSE,FALSE,FALSE,FALSE,FALSE,FALSE,FALSE,FALSE,0,Follow Yaw,0,0,-158.7,201.3,FALSE,FALSE,FALSE,FALSE,FALSE,FALSE,,TRUE,Normal,,100,1024,1024,1024,1024,1,FALSE,FALSE,FALSE,FALSE,FALSE,0,FALSE,FALSE,FALSE,FALSE,57,7.56,1181,2063,7.56,FALSE,3.782,3.778,0.004,FALSE,FALSE,NA,116.1,116,116,0,0,0,0,5,2748.1,687.04,,Idle,0,20,FALSE,5,TRUE,6,Go Home,FALSE,FALSE,FALSE,FALSE,FALSE,FALSE,FALSE,FALSE,FALSE,FALSE,FALSE,FALSE,6.974621856,79.91439578,0.8,177.7,328,TRUE,1,1,FALSE,FALSE,FALSE,FALSE,,TRUE,FALSE,FALSE,Course Lock,49.2,254.5,16.4,Calm,39,,1.12.8,Mavic Mini,1SDCH7G0169R0K,1SFLH6Q0AB03DJ,1SRCH7F014TAHX,1U5X071EXP6C9Y,70.4,0.3,6.5,10.048781,3.579104,0,520,Mavic Mini,1SDCH7G0169R0K,1SFLH6Q0AB03DJ,1SRCH7F014TAHX,1U5X071EXP6C9Y,DJI Fly,,1.12.8,96C70EE3-66E3-056D-58D4-4EAFF532057C,1SDCH7G0169R0K,,,,,6.974561219,79.91434869,5,,
2/27/2024,13:48.3,9m 56.5s,596.5,6.974620038,79.91439738,0,0,0.3,52,0.3,0,0,0,0,0,0,0,0,4.6,0.6,-157.1,202.9,,Manual Takeoff,Other,Takeoff (RC Assisted),13,5,TRUE,,Mavic Mini,TRUE,FALSE,,Smart,RC,TRUE,TRUE,FALSE,,,TRUE,,FALSE,FALSE,FALSE,FALSE,FALSE,FALSE,FALSE,FALSE,FALSE,FALSE,0,Follow Yaw,0,0,-158.7,201.3,FALSE,FALSE,FALSE,FALSE,FALSE,FALSE,,TRUE,Normal,,100,1024,1024,1149,1024,1,FALSE,FALSE,FALSE,FALSE,FALSE,0,FALSE,FALSE,FALSE,FALSE,57,7.56,1181,2063,7.559,FALSE,3.782,3.778,0.004,FALSE,FALSE,NA,116.1,116,116,0,0,0,0,5,2950.8,737.72,,Idle,0,20,FALSE,5,TRUE,6,Go Home,FALSE,FALSE,FALSE,FALSE,FALSE,FALSE,FALSE,FALSE,FALSE,FALSE,FALSE,FALSE,6.974621856,79.91439578,0.8,177.7,328,TRUE,1,1,FALSE,FALSE,FALSE,FALSE,,TRUE,FALSE,FALSE,Course Lock,49.2,254.5,16.4,Calm,39,,1.12.8,Mavic Mini,1SDCH7G0169R0K,1SFLH6Q0AB03DJ,1SRCH7F014TAHX,1U5X071EXP6C9Y,70.4,0.3,6.5,10.048781,3.579104,0,520,Mavic Mini,1SDCH7G0169R0K,1SFLH6Q0AB03DJ,1SRCH7F014TAHX,1U5X071EXP6C9Y,DJI Fly,,1.12.8,96C70EE3-66E3-056D-58D4-4EAFF532057C,1SDCH7G0169R0K,,,,,6.974561219,79.91434869,5,,
2/27/2024,13:48.4,9m 56.6s,596.6,6.974619993,79.91439742,0,0,0.3,52,0.3,0,0,0,0,0,0,0,0,4.6,0.6,-157.1,202.9,,Manual Takeoff,Other,Takeoff (RC Assisted),13,5,TRUE,,Mavic Mini,TRUE,FALSE,,Smart,RC,TRUE,TRUE,FALSE,,,TRUE,,FALSE,FALSE,FALSE,FALSE,FALSE,FALSE,FALSE,FALSE,FALSE,FALSE,0,Follow Yaw,0,0,-158.7,201.3,FALSE,FALSE,FALSE,FALSE,FALSE,FALSE,,TRUE,Normal,,100,1024,1024,1478,1024,1,FALSE,FALSE,FALSE,FALSE,FALSE,0,FALSE,FALSE,FALSE,FALSE,57,7.56,1181,2063,7.559,FALSE,3.782,3.778,0.004,FALSE,FALSE,NA,116.1,116,116,0,0,0,0,5,2950.8,737.72,,Idle,0,20,FALSE,5,TRUE,6,Go Home,FALSE,FALSE,FALSE,FALSE,FALSE,FALSE,FALSE,FALSE,FALSE,FALSE,FALSE,FALSE,6.974621856,79.91439578,0.9,177.7,328,TRUE,1,1,FALSE,FALSE,FALSE,FALSE,,TRUE,FALSE,FALSE,Course Lock,49.2,254.5,16.4,Calm,39,,1.12.8,Mavic Mini,1SDCH7G0169R0K,1SFLH6Q0AB03DJ,1SRCH7F014TAHX,1U5X071EXP6C9Y,70.4,0.3,6.5,10.048781,3.579104,0,520,Mavic Mini,1SDCH7G0169R0K,1SFLH6Q0AB03DJ,1SRCH7F014TAHX,1U5X071EXP6C9Y,DJI Fly,,1.12.8,96C70EE3-66E3-056D-58D4-4EAFF532057C,1SDCH7G0169R0K,,,,,6.974561219,79.91434869,5,,
2/27/2024,13:48.5,9m 56.7s,596.7,6.974619976,79.91439745,0,0,0.3,52,0.3,0,0,0,0,0,0,0,0,4.6,0.6,-157.1,202.9,,Manual Takeoff,Other,Takeoff (RC Assisted),13,5,TRUE,,Mavic Mini,TRUE,FALSE,,Smart,RC,TRUE,TRUE,FALSE,,,TRUE,,FALSE,FALSE,FALSE,FALSE,FALSE,FALSE,FALSE,FALSE,FALSE,FALSE,0,Follow Yaw,0,0,-158.7,201.3,FALSE,FALSE,FALSE,FALSE,FALSE,FALSE,,TRUE,Normal,,100,1024,1024,1628,1024,1,FALSE,FALSE,FALSE,FALSE,FALSE,0,FALSE,FALSE,FALSE,FALSE,57,7.56,1181,2063,7.559,FALSE,3.782,3.778,0.004,FALSE,FALSE,NA,116.1,116,116,0,0,0,0,5,2950.8,737.72,,Idle,0,20,FALSE,5,TRUE,6,Go Home,FALSE,FALSE,FALSE,FALSE,FALSE,FALSE,FALSE,FALSE,FALSE,FALSE,FALSE,FALSE,6.974621856,79.91439578,0.9,177.7,328,TRUE,1,1,FALSE,FALSE,FALSE,FALSE,,TRUE,FALSE,FALSE,Course Lock,49.2,254.5,16.4,Calm,39,,1.12.8,Mavic Mini,1SDCH7G0169R0K,1SFLH6Q0AB03DJ,1SRCH7F014TAHX,1U5X071EXP6C9Y,70.4,0.3,6.5,10.048781,3.579104,0,520,Mavic Mini,1SDCH7G0169R0K,1SFLH6Q0AB03DJ,1SRCH7F014TAHX,1U5X071EXP6C9Y,DJI Fly,,1.12.8,96C70EE3-66E3-056D-58D4-4EAFF532057C,1SDCH7G0169R0K,,,,,6.974561219,79.91434869,5,,
2/27/2024,13:48.6,9m 56.8s,596.8,6.974619881,79.91439752,0,0,0.3,52,0.4,0,0,0,0,0,0,0,0,4.6,0.6,-157.1,202.9,,Manual Takeoff,Other,Takeoff (RC Assisted),13,5,TRUE,,Mavic Mini,TRUE,FALSE,,Smart,RC,TRUE,TRUE,FALSE,,,TRUE,,FALSE,FALSE,FALSE,FALSE,FALSE,FALSE,FALSE,FALSE,FALSE,FALSE,0,Follow Yaw,0,0,-158.7,201.3,FALSE,FALSE,FALSE,FALSE,FALSE,FALSE,,TRUE,Normal,,100,1024,1024,1670,1024,1,FALSE,FALSE,FALSE,FALSE,FALSE,0,FALSE,FALSE,FALSE,FALSE,57,7.56,1181,2063,7.559,FALSE,3.782,3.778,0.004,FALSE,FALSE,NA,116.1,116,116,0,0,0,0,5,2950.8,737.72,,Idle,0,20,FALSE,5,TRUE,6,Go Home,FALSE,FALSE,FALSE,FALSE,FALSE,FALSE,FALSE,FALSE,FALSE,FALSE,FALSE,FALSE,6.974621856,79.91439578,0.9,177.7,328,TRUE,1,1,FALSE,FALSE,FALSE,FALSE,,TRUE,FALSE,FALSE,Course Lock,49.2,254.5,16.4,Calm,39,,1.12.8,Mavic Mini,1SDCH7G0169R0K,1SFLH6Q0AB03DJ,1SRCH7F014TAHX,1U5X071EXP6C9Y,70.4,0.3,6.5,10.048781,3.579104,0,520,Mavic Mini,1SDCH7G0169R0K,1SFLH6Q0AB03DJ,1SRCH7F014TAHX,1U5X071EXP6C9Y,DJI Fly,,1.12.8,96C70EE3-66E3-056D-58D4-4EAFF532057C,1SDCH7G0169R0K,,,,,6.974561219,79.91434869,5,,
2/27/2024,13:48.7,9m 56.9s,596.9,6.974619883,79.91439752,0,0,0.3,52,0.4,0,0,0,0,0,0,0,0,4.5,0.6,-157.1,202.9,,Manual Takeoff,Other,Takeoff (RC Assisted),13,5,TRUE,,Mavic Mini,TRUE,FALSE,,Smart,RC,TRUE,TRUE,FALSE,,,TRUE,,FALSE,FALSE,FALSE,FALSE,FALSE,FALSE,FALSE,FALSE,FALSE,FALSE,0,Follow Yaw,0,0,-158.7,201.3,FALSE,FALSE,FALSE,FALSE,FALSE,FALSE,,TRUE,Normal,,100,1024,1024,1684,1024,1,FALSE,FALSE,FALSE,FALSE,FALSE,0,FALSE,FALSE,FALSE,FALSE,57,7.56,1181,2063,7.559,FALSE,3.782,3.778,0.004,FALSE,FALSE,NA,116.1,116,116,0,0,0,0,5,2950.8,737.72,,Idle,0,20,FALSE,5,TRUE,6,Go Home,FALSE,FALSE,FALSE,FALSE,FALSE,FALSE,FALSE,FALSE,FALSE,FALSE,FALSE,FALSE,6.974621856,79.91439578,0.9,177.7,328,TRUE,1,1,FALSE,FALSE,FALSE,FALSE,,TRUE,FALSE,FALSE,Course Lock,49.2,254.5,16.4,Calm,39,,1.12.8,Mavic Mini,1SDCH7G0169R0K,1SFLH6Q0AB03DJ,1SRCH7F014TAHX,1U5X071EXP6C9Y,70.4,0.3,6.5,10.048781,3.579104,0,520,Mavic Mini,1SDCH7G0169R0K,1SFLH6Q0AB03DJ,1SRCH7F014TAHX,1U5X071EXP6C9Y,DJI Fly,,1.12.8,96C70EE3-66E3-056D-58D4-4EAFF532057C,1SDCH7G0169R0K,,,,,6.974561219,79.91434869,5,,
2/27/2024,13:48.8,9m 57.0s,597,6.974619886,79.91439753,0,0,0.3,52,0.4,0,0,0,0,0,0,0,0,4.6,0.5,-157.2,202.8,,Manual Takeoff,Other,Takeoff (RC Assisted),13,5,TRUE,,Mavic Mini,TRUE,FALSE,,Smart,RC,TRUE,TRUE,FALSE,,,TRUE,,FALSE,FALSE,FALSE,FALSE,FALSE,FALSE,FALSE,FALSE,FALSE,FALSE,0,Follow Yaw,0,0,-158.7,201.3,FALSE,FALSE,FALSE,FALSE,FALSE,FALSE,,TRUE,Normal,,100,1024,1024,1684,1024,1,FALSE,FALSE,FALSE,FALSE,FALSE,0,FALSE,FALSE,FALSE,FALSE,57,7.56,1181,2063,7.559,FALSE,3.782,3.778,0.004,FALSE,FALSE,NA,116.1,116,116,0,0,0,0,5,2950.8,737.72,,Idle,0,20,FALSE,5,TRUE,6,Go Home,FALSE,FALSE,FALSE,FALSE,FALSE,FALSE,FALSE,FALSE,FALSE,FALSE,FALSE,FALSE,6.974621856,79.91439578,0.9,177.7,328,TRUE,1,1,FALSE,FALSE,FALSE,FALSE,,TRUE,FALSE,FALSE,Course Lock,49.2,254.5,16.4,Calm,39,,1.12.8,Mavic Mini,1SDCH7G0169R0K,1SFLH6Q0AB03DJ,1SRCH7F014TAHX,1U5X071EXP6C9Y,70.4,0.3,6.5,10.048781,3.579104,0,520,Mavic Mini,1SDCH7G0169R0K,1SFLH6Q0AB03DJ,1SRCH7F014TAHX,1U5X071EXP6C9Y,DJI Fly,,1.12.8,96C70EE3-66E3-056D-58D4-4EAFF532057C,1SDCH7G0169R0K,,,,,6.974561219,79.91434869,5,,
2/27/2024,13:48.8,9m 57.1s,597.1,6.974619894,79.91439753,0,0,0.3,52,0.4,0,0,0,0,0,0,0,0,4,0.7,-157.6,202.4,,Manual Takeoff,Other,Takeoff (RC Assisted),13,5,TRUE,,Mavic Mini,TRUE,FALSE,,Smart,RC,TRUE,TRUE,FALSE,,,TRUE,,FALSE,FALSE,FALSE,FALSE,FALSE,FALSE,FALSE,FALSE,FALSE,FALSE,0,Follow Yaw,0,0,-158.7,201.3,FALSE,FALSE,FALSE,FALSE,FALSE,FALSE,,TRUE,Normal,,100,1024,1024,1684,1024,1,FALSE,FALSE,FALSE,FALSE,FALSE,0,FALSE,FALSE,FALSE,FALSE,57,7.56,1181,2063,7.559,FALSE,3.782,3.778,0.004,FALSE,FALSE,NA,116.1,116,116,0,0,0,0,5,2950.8,737.72,,Idle,0,20,FALSE,5,TRUE,6,Go Home,FALSE,FALSE,FALSE,FALSE,FALSE,FALSE,FALSE,FALSE,FALSE,FALSE,FALSE,FALSE,6.974621856,79.91439578,0.9,177.7,328,TRUE,1,1,FALSE,FALSE,FALSE,FALSE,,TRUE,FALSE,FALSE,Course Lock,49.2,254.5,16.4,Calm,39,,1.12.8,Mavic Mini,1SDCH7G0169R0K,1SFLH6Q0AB03DJ,1SRCH7F014TAHX,1U5X071EXP6C9Y,70.4,0.3,6.5,10.048781,3.579104,0,520,Mavic Mini,1SDCH7G0169R0K,1SFLH6Q0AB03DJ,1SRCH7F014TAHX,1U5X071EXP6C9Y,DJI Fly,,1.12.8,96C70EE3-66E3-056D-58D4-4EAFF532057C,1SDCH7G0169R0K,,,,,6.974561219,79.91434869,5,,
2/27/2024,13:48.9,9m 57.2s,597.2,6.97461995,79.91439744,0,0,0.3,52,0.4,0,0,0,0,0,0,0,0,2.7,1.2,-158.8,201.2,,Manual Takeoff,Other,Takeoff (RC Assisted),13,5,TRUE,,Mavic Mini,TRUE,FALSE,,Smart,RC,TRUE,TRUE,FALSE,,,TRUE,,FALSE,FALSE,FALSE,FALSE,FALSE,FALSE,FALSE,FALSE,FALSE,FALSE,0,Follow Yaw,0,0,-159,201,FALSE,FALSE,FALSE,FALSE,FALSE,FALSE,,TRUE,Normal,,100,1024,1024,1684,1024,1,FALSE,FALSE,FALSE,FALSE,FALSE,0,FALSE,FALSE,FALSE,FALSE,57,7.529,1181,2063,7.559,FALSE,3.767,3.762,0.005,FALSE,FALSE,NA,116.1,116,116,0,0,0,0,5,2950.8,737.72,,Idle,0,20,FALSE,5,TRUE,6,Go Home,FALSE,FALSE,FALSE,FALSE,FALSE,FALSE,FALSE,FALSE,FALSE,FALSE,FALSE,FALSE,6.974621856,79.91439578,0.9,177.7,328,TRUE,1,1,FALSE,FALSE,FALSE,FALSE,,TRUE,FALSE,FALSE,Course Lock,49.2,254.5,16.4,Calm,39,,1.12.8,Mavic Mini,1SDCH7G0169R0K,1SFLH6Q0AB03DJ,1SRCH7F014TAHX,1U5X071EXP6C9Y,70.4,0.3,6.5,10.048781,3.579104,0,520,Mavic Mini,1SDCH7G0169R0K,1SFLH6Q0AB03DJ,1SRCH7F014TAHX,1U5X071EXP6C9Y,DJI Fly,,1.12.8,96C70EE3-66E3-056D-58D4-4EAFF532057C,1SDCH7G0169R0K,,,,,6.974561219,79.91434869,5,,
2/27/2024,13:49.1,9m 57.3s,597.3,6.974619954,79.91439743,0,0,0.3,52,0.4,0,0,0,0,0,0,0,0,2.3,1.2,-159.9,200.1,,Manual Takeoff,Other,Takeoff (RC Assisted),13,5,TRUE,,Mavic Mini,TRUE,FALSE,,Smart,RC,TRUE,TRUE,FALSE,,,TRUE,,FALSE,FALSE,FALSE,FALSE,FALSE,FALSE,FALSE,FALSE,FALSE,FALSE,0,Follow Yaw,0,0,-159.5,200.5,FALSE,FALSE,FALSE,FALSE,FALSE,FALSE,,TRUE,Normal,,100,1024,1024,1684,1024,1,FALSE,FALSE,FALSE,FALSE,FALSE,0,FALSE,FALSE,FALSE,FALSE,57,7.529,1181,2063,7.559,FALSE,3.767,3.762,0.005,FALSE,FALSE,NA,116.1,116,116,0,0,0,0,5,2950.8,737.72,,Idle,0,20,FALSE,5,TRUE,6,Go Home,FALSE,FALSE,FALSE,FALSE,FALSE,FALSE,FALSE,FALSE,FALSE,FALSE,FALSE,FALSE,6.974621856,79.91439578,0.9,177.7,328,TRUE,1,1,FALSE,FALSE,FALSE,FALSE,,TRUE,FALSE,FALSE,Course Lock,49.2,254.5,16.4,Calm,39,,1.12.8,Mavic Mini,1SDCH7G0169R0K,1SFLH6Q0AB03DJ,1SRCH7F014TAHX,1U5X071EXP6C9Y,70.4,0.3,6.5,10.048781,3.579104,0,520,Mavic Mini,1SDCH7G0169R0K,1SFLH6Q0AB03DJ,1SRCH7F014TAHX,1U5X071EXP6C9Y,DJI Fly,,1.12.8,96C70EE3-66E3-056D-58D4-4EAFF532057C,1SDCH7G0169R0K,,,,,6.974561219,79.91434869,5,,
2/27/2024,13:49.1,9m 57.4s,597.4,6.974619957,79.91439741,0,0,0.3,52,0.4,0,0,0,0,0,0,0,0,0.8,0.3,-161.2,198.8,,Manual Takeoff,Other,Takeoff (RC Assisted),13,5,TRUE,,Mavic Mini,TRUE,FALSE,,Smart,RC,TRUE,TRUE,FALSE,,,TRUE,,FALSE,FALSE,FALSE,FALSE,FALSE,FALSE,FALSE,FALSE,FALSE,FALSE,0,Follow Yaw,0,0,-160.3,199.7,FALSE,FALSE,FALSE,FALSE,FALSE,FALSE,,TRUE,Normal,,100,1024,1024,1684,1024,1,FALSE,FALSE,FALSE,FALSE,FALSE,0,FALSE,FALSE,FALSE,FALSE,57,7.529,1181,2063,7.559,FALSE,3.767,3.762,0.005,FALSE,FALSE,NA,116.1,116,116,0,0,0,0,5,2950.8,737.72,,Idle,0,20,FALSE,5,TRUE,6,Go Home,FALSE,FALSE,FALSE,FALSE,FALSE,FALSE,FALSE,FALSE,FALSE,FALSE,FALSE,FALSE,6.974621856,79.91439578,0.9,177.7,328,TRUE,1,1,FALSE,FALSE,FALSE,FALSE,,TRUE,FALSE,FALSE,Course Lock,49.2,254.5,16.4,Calm,39,,1.12.8,Mavic Mini,1SDCH7G0169R0K,1SFLH6Q0AB03DJ,1SRCH7F014TAHX,1U5X071EXP6C9Y,70.4,0.3,6.5,10.048781,3.579104,0,520,Mavic Mini,1SDCH7G0169R0K,1SFLH6Q0AB03DJ,1SRCH7F014TAHX,1U5X071EXP6C9Y,DJI Fly,,1.12.8,96C70EE3-66E3-056D-58D4-4EAFF532057C,1SDCH7G0169R0K,,,,,6.974561219,79.91434869,5,,
2/27/2024,13:49.3,9m 57.5s,597.5,6.974619942,79.91439737,0,0,0.3,52,0.4,0,0,0,0,0,0,-0.223694,0,-1.6,-1.5,-162.9,197.1,,Manual Takeoff,Other,Takeoff (RC Assisted),13,5,TRUE,,Mavic Mini,TRUE,FALSE,,Smart,RC,TRUE,TRUE,FALSE,,,TRUE,,FALSE,FALSE,FALSE,FALSE,FALSE,FALSE,FALSE,FALSE,FALSE,FALSE,0,Follow Yaw,0,0,-161.2,198.8,FALSE,FALSE,FALSE,FALSE,FALSE,FALSE,,TRUE,Normal,,100,1024,1024,1672,1024,1,FALSE,FALSE,FALSE,FALSE,FALSE,0,FALSE,FALSE,FALSE,FALSE,57,7.529,1181,2063,7.514,FALSE,3.767,3.762,0.005,FALSE,FALSE,NA,116.1,116,116,0,0,0,0,5,3203,800.75,,Idle,0,20,FALSE,5,TRUE,6,Go Home,FALSE,FALSE,FALSE,FALSE,FALSE,FALSE,FALSE,FALSE,FALSE,FALSE,FALSE,FALSE,6.974619928,79.91439735,0,177.7,328,TRUE,1,1,FALSE,FALSE,FALSE,FALSE,,TRUE,FALSE,FALSE,Course Lock,49.2,254.5,16.4,Calm,39,,1.12.8,Mavic Mini,1SDCH7G0169R0K,1SFLH6Q0AB03DJ,1SRCH7F014TAHX,1U5X071EXP6C9Y,70.4,0.3,6.5,10.048781,3.579104,0,520,Mavic Mini,1SDCH7G0169R0K,1SFLH6Q0AB03DJ,1SRCH7F014TAHX,1U5X071EXP6C9Y,DJI Fly,,1.12.8,96C70EE3-66E3-056D-58D4-4EAFF532057C,1SDCH7G0169R0K,,,,,6.974561219,79.91434869,5,Home Point updated. RTH altitude adjusted to 15 m![ (Code: 120852).,
2/27/2024,13:49.4,9m 57.6s,597.6,6.974619903,79.91439729,0,0,0.3,52,0.5,0.223694,0.223694,-0.223694,0,0,0,-0.447388,0,-1.5,-1.5,-163.5,196.5,236,P-GPS,Other,,13,5,TRUE,,Mavic Mini,TRUE,FALSE,,Smart,RC,FALSE,TRUE,FALSE,,,TRUE,,FALSE,FALSE,FALSE,FALSE,FALSE,FALSE,FALSE,FALSE,FALSE,FALSE,0,Follow Yaw,0,0,-162.3,197.7,FALSE,FALSE,FALSE,FALSE,FALSE,FALSE,,TRUE,Normal,,100,1024,1024,1658,1024,1,FALSE,FALSE,FALSE,FALSE,FALSE,0,FALSE,FALSE,FALSE,FALSE,57,7.529,1181,2063,7.514,FALSE,3.767,3.762,0.005,FALSE,FALSE,NA,116.1,116,116,0,0,0,0,5,3203,800.75,,Idle,0,20,FALSE,5,TRUE,6,Go Home,FALSE,FALSE,FALSE,FALSE,FALSE,FALSE,FALSE,FALSE,FALSE,FALSE,FALSE,FALSE,6.974619928,79.91439735,0,177.7,328,TRUE,1,1,FALSE,FALSE,FALSE,FALSE,,TRUE,FALSE,FALSE,Course Lock,49.2,254.5,16.4,Calm,39,,1.12.8,Mavic Mini,1SDCH7G0169R0K,1SFLH6Q0AB03DJ,1SRCH7F014TAHX,1U5X071EXP6C9Y,70.4,0.3,6.5,10.048781,3.579104,0,520,Mavic Mini,1SDCH7G0169R0K,1SFLH6Q0AB03DJ,1SRCH7F014TAHX,1U5X071EXP6C9Y,DJI Fly,,1.12.8,96C70EE3-66E3-056D-58D4-4EAFF532057C,1SDCH7G0169R0K,,,,,6.974561219,79.91434869,5,Flight mode changed to P-GPS.,
2/27/2024,13:49.5,9m 57.7s,597.7,6.974619775,79.91439726,0,0,0.6,52,0.5,0.223694,0.223694,-0.223694,0,0,0,-0.894776,0,0.3,-0.1,-163.4,196.6,189.6,P-GPS,Other,,13,5,TRUE,,Mavic Mini,TRUE,FALSE,,Smart,RC,FALSE,TRUE,FALSE,,,TRUE,,FALSE,FALSE,FALSE,FALSE,FALSE,FALSE,FALSE,FALSE,FALSE,FALSE,0,Follow Yaw,0,0,-162.8,197.2,FALSE,FALSE,FALSE,FALSE,FALSE,FALSE,,TRUE,Normal,,100,1024,1024,1656,1024,1,FALSE,FALSE,FALSE,FALSE,FALSE,0,FALSE,FALSE,FALSE,FALSE,57,7.529,1181,2063,7.514,FALSE,3.767,3.762,0.005,FALSE,FALSE,NA,116.1,116,116,0,0,0,0,5,3203,800.75,,Idle,0,20,FALSE,5,TRUE,6,Go Home,FALSE,FALSE,FALSE,FALSE,FALSE,FALSE,FALSE,FALSE,FALSE,FALSE,FALSE,FALSE,6.974619928,79.91439735,0,177.7,328,TRUE,1,1,FALSE,FALSE,FALSE,FALSE,,TRUE,FALSE,FALSE,Course Lock,49.2,254.5,16.4,Calm,39,,1.12.8,Mavic Mini,1SDCH7G0169R0K,1SFLH6Q0AB03DJ,1SRCH7F014TAHX,1U5X071EXP6C9Y,70.4,0.3,6.5,10.048781,3.579104,0,520,Mavic Mini,1SDCH7G0169R0K,1SFLH6Q0AB03DJ,1SRCH7F014TAHX,1U5X071EXP6C9Y,DJI Fly,,1.12.8,96C70EE3-66E3-056D-58D4-4EAFF532057C,1SDCH7G0169R0K,,,,,6.974561219,79.91434869,5,,
2/27/2024,13:49.6,9m 57.8s,597.8,6.974619611,79.91439723,0,0,0.6,52,0.6,0.447388,0.447388,-0.447388,0,0,0,-1.342164,0,2.5,0.1,-163.5,196.5,189.1,P-GPS,Other,,13,5,TRUE,,Mavic Mini,TRUE,FALSE,,Smart,RC,FALSE,TRUE,FALSE,,,TRUE,,FALSE,FALSE,FALSE,FALSE,FALSE,FALSE,FALSE,FALSE,FALSE,FALSE,0,Follow Yaw,0,0,-163,197,FALSE,FALSE,FALSE,FALSE,FALSE,FALSE,,TRUE,Normal,,100,1024,1024,1636,1024,1,FALSE,FALSE,FALSE,FALSE,FALSE,0,FALSE,FALSE,FALSE,FALSE,57,7.529,1181,2063,7.514,FALSE,3.767,3.762,0.005,FALSE,FALSE,NA,116.1,116,116,0,0,0,0,5,3203,800.75,,Idle,0,20,FALSE,5,TRUE,6,Go Home,FALSE,FALSE,FALSE,FALSE,FALSE,FALSE,FALSE,FALSE,FALSE,FALSE,FALSE,FALSE,6.974619928,79.91439735,0.1,177.7,328,TRUE,1,1,FALSE,FALSE,FALSE,FALSE,,TRUE,FALSE,FALSE,Course Lock,49.2,254.5,16.4,Calm,39,,1.12.8,Mavic Mini,1SDCH7G0169R0K,1SFLH6Q0AB03DJ,1SRCH7F014TAHX,1U5X071EXP6C9Y,70.4,0.3,6.5,10.048781,3.579104,0,520,Mavic Mini,1SDCH7G0169R0K,1SFLH6Q0AB03DJ,1SRCH7F014TAHX,1U5X071EXP6C9Y,DJI Fly,,1.12.8,96C70EE3-66E3-056D-58D4-4EAFF532057C,1SDCH7G0169R0K,,,,,6.974561219,79.91434869,5,,
2/27/2024,13:49.7,9m 57.9s,597.9,6.974619425,79.91439718,0.3,0.3,0.9,52,0.6,0.447388,0.447388,-0.447388,0,0,0,-1.789552,0,3.2,0,-163.4,196.6,191.3,P-GPS,Other,,13,5,TRUE,,Mavic Mini,TRUE,FALSE,,Smart,RC,FALSE,TRUE,FALSE,,,TRUE,,FALSE,FALSE,FALSE,FALSE,FALSE,FALSE,FALSE,FALSE,FALSE,FALSE,0,Follow Yaw,0,0,-163.2,196.8,FALSE,FALSE,FALSE,FALSE,FALSE,FALSE,,TRUE,Normal,,100,1024,1024,1604,1024,1,FALSE,FALSE,FALSE,FALSE,FALSE,0,FALSE,FALSE,FALSE,FALSE,57,7.529,1181,2063,7.514,FALSE,3.767,3.762,0.005,FALSE,FALSE,NA,116.1,116,116,0,0,0,0,5,3203,800.75,,Idle,0,20,FALSE,5,TRUE,6,Go Home,FALSE,FALSE,FALSE,FALSE,FALSE,FALSE,FALSE,FALSE,FALSE,FALSE,FALSE,FALSE,6.974619928,79.91439735,0.1,177.7,328,TRUE,1,1,FALSE,FALSE,FALSE,FALSE,,TRUE,FALSE,FALSE,Course Lock,49.2,254.5,16.4,Calm,39,,1.12.8,Mavic Mini,1SDCH7G0169R0K,1SFLH6Q0AB03DJ,1SRCH7F014TAHX,1U5X071EXP6C9Y,70.4,0.3,6.5,10.048781,3.579104,0,520,Mavic Mini,1SDCH7G0169R0K,1SFLH6Q0AB03DJ,1SRCH7F014TAHX,1U5X071EXP6C9Y,DJI Fly,,1.12.8,96C70EE3-66E3-056D-58D4-4EAFF532057C,1SDCH7G0169R0K,,,,,6.974561219,79.91434869,5,,
2/27/2024,13:49.8,9m 58.0s,598,6.974619229,79.91439717,0.6,0.6,1.3,52,0.7,0.223694,0.447388,-0.223694,0,0,0,-2.460634,0,3.3,0,-163.3,196.7,183.1,P-GPS,Other,,13,5,TRUE,,Mavic Mini,TRUE,FALSE,,Smart,RC,FALSE,TRUE,FALSE,,,TRUE,,FALSE,FALSE,FALSE,FALSE,FALSE,FALSE,FALSE,FALSE,FALSE,FALSE,0,Follow Yaw,0,0,-163.3,196.7,FALSE,FALSE,FALSE,FALSE,FALSE,FALSE,,TRUE,Normal,,100,1024,1024,1492,1024,1,FALSE,FALSE,FALSE,FALSE,FALSE,0,FALSE,FALSE,FALSE,FALSE,57,7.529,1181,2063,7.514,FALSE,3.767,3.762,0.005,FALSE,FALSE,NA,116.1,116,116,0,0,0,0,5,3203,800.75,,Idle,0,20,FALSE,5,TRUE,6,Go Home,FALSE,FALSE,FALSE,FALSE,FALSE,FALSE,FALSE,FALSE,FALSE,FALSE,FALSE,FALSE,6.974619928,79.91439735,0.2,177.7,328,TRUE,1,1,FALSE,FALSE,FALSE,FALSE,,TRUE,FALSE,FALSE,Course Lock,49.2,254.5,16.4,Calm,39,,1.12.8,Mavic Mini,1SDCH7G0169R0K,1SFLH6Q0AB03DJ,1SRCH7F014TAHX,1U5X071EXP6C9Y,70.4,0.3,6.5,10.048781,3.579104,0,520,Mavic Mini,1SDCH7G0169R0K,1SFLH6Q0AB03DJ,1SRCH7F014TAHX,1U5X071EXP6C9Y,DJI Fly,,1.12.8,96C70EE3-66E3-056D-58D4-4EAFF532057C,1SDCH7G0169R0K,,,,,6.974561219,79.91434869,5,,
2/27/2024,13:49.8,9m 58.1s,598.1,6.974619041,79.91439711,0.9,0.9,1.6,53,0.8,0.316351,0.447388,-0.223694,0,-0.223694,0,-3.131716,0,3.4,-0.6,-163.2,196.8,193.1,P-GPS,Other,,13,5,TRUE,,Mavic Mini,TRUE,FALSE,,Smart,RC,FALSE,TRUE,FALSE,,,TRUE,,FALSE,FALSE,FALSE,FALSE,FALSE,FALSE,FALSE,FALSE,FALSE,FALSE,0,Follow Yaw,0,0,-163.3,196.7,FALSE,FALSE,FALSE,FALSE,FALSE,FALSE,,TRUE,Normal,,100,1024,1024,1492,1024,1,FALSE,FALSE,FALSE,FALSE,FALSE,0,FALSE,FALSE,FALSE,FALSE,57,7.529,1181,2063,7.514,FALSE,3.767,3.762,0.005,FALSE,FALSE,NA,116.1,116,116,0,0,0,0,5,3203,800.75,,Idle,0,20,FALSE,5,TRUE,6,Go Home,FALSE,FALSE,FALSE,FALSE,FALSE,FALSE,FALSE,FALSE,FALSE,FALSE,FALSE,FALSE,6.974619928,79.91439735,0.3,177.7,328,TRUE,1,1,FALSE,FALSE,FALSE,FALSE,,TRUE,FALSE,FALSE,Course Lock,49.2,254.5,16.4,Calm,39,,1.12.8,Mavic Mini,1SDCH7G0169R0K,1SFLH6Q0AB03DJ,1SRCH7F014TAHX,1U5X071EXP6C9Y,70.4,0.3,6.5,10.048781,3.579104,0,520,Mavic Mini,1SDCH7G0169R0K,1SFLH6Q0AB03DJ,1SRCH7F014TAHX,1U5X071EXP6C9Y,DJI Fly,,1.12.8,96C70EE3-66E3-056D-58D4-4EAFF532057C,1SDCH7G0169R0K,,,,,6.974561219,79.91434869,5,,
2/27/2024,13:49.9,9m 58.2s,598.2,6.974618854,79.91439704,1.6,1.6,1.9,53,0.9,0.316351,0.447388,-0.223694,0,-0.223694,0,-3.35541,0,4,-1.2,-163.2,196.8,195.3,P-GPS,Other,,14,5,TRUE,,Mavic Mini,TRUE,FALSE,,Smart,RC,FALSE,TRUE,FALSE,,,TRUE,,FALSE,FALSE,FALSE,FALSE,FALSE,FALSE,FALSE,FALSE,FALSE,FALSE,0,Follow Yaw,0,0,-163.4,196.6,FALSE,FALSE,FALSE,FALSE,FALSE,FALSE,,TRUE,Normal,,100,1024,1024,1429,1024,1,FALSE,FALSE,FALSE,FALSE,FALSE,0,FALSE,FALSE,FALSE,FALSE,57,7.529,1181,2063,7.514,FALSE,3.767,3.762,0.005,FALSE,FALSE,NA,116.1,116,116,0,0,0,0,5,3203,800.75,,Idle,0,20,FALSE,5,TRUE,6,Go Home,FALSE,FALSE,FALSE,FALSE,FALSE,FALSE,FALSE,FALSE,FALSE,FALSE,FALSE,FALSE,6.974619928,79.91439735,0.4,177.7,328,TRUE,1,1,FALSE,FALSE,FALSE,FALSE,,TRUE,FALSE,FALSE,Course Lock,49.2,254.5,16.4,Calm,39,,1.12.8,Mavic Mini,1SDCH7G0169R0K,1SFLH6Q0AB03DJ,1SRCH7F014TAHX,1U5X071EXP6C9Y,70.4,0.3,6.5,10.048781,3.579104,0,520,Mavic Mini,1SDCH7G0169R0K,1SFLH6Q0AB03DJ,1SRCH7F014TAHX,1U5X071EXP6C9Y,DJI Fly,,1.12.8,96C70EE3-66E3-056D-58D4-4EAFF532057C,1SDCH7G0169R0K,,,,,6.974561219,79.91434869,5,,
2/27/2024,13:50.1,9m 58.3s,598.3,6.974618618,79.91439695,1.9,1.9,2.6,54,0.9,0.223694,0.447388,-0.223694,0,0,0,-3.579104,0,4.7,-1.4,-163.3,196.7,197.2,P-GPS,Other,,14,5,TRUE,,Mavic Mini,TRUE,FALSE,,Smart,RC,FALSE,TRUE,FALSE,,,TRUE,,FALSE,FALSE,FALSE,FALSE,FALSE,FALSE,FALSE,FALSE,FALSE,FALSE,0,Follow Yaw,0,0,-163.4,196.6,FALSE,FALSE,FALSE,FALSE,FALSE,FALSE,,TRUE,Normal,,100,1024,1024,1225,1024,1,FALSE,FALSE,FALSE,FALSE,FALSE,0,FALSE,FALSE,FALSE,FALSE,57,7.529,1181,2063,7.514,FALSE,3.767,3.762,0.005,FALSE,FALSE,NA,116.1,116,116,0,0,0,0,5,3203,800.75,,Idle,0,20,FALSE,5,TRUE,6,Go Home,FALSE,FALSE,FALSE,FALSE,FALSE,FALSE,FALSE,FALSE,FALSE,FALSE,FALSE,FALSE,6.974619928,79.91439735,0.4,177.7,328,TRUE,1,1,FALSE,FALSE,FALSE,FALSE,,TRUE,FALSE,FALSE,Course Lock,49.2,254.5,16.4,Calm,39,,1.12.8,Mavic Mini,1SDCH7G0169R0K,1SFLH6Q0AB03DJ,1SRCH7F014TAHX,1U5X071EXP6C9Y,70.4,0.3,6.5,10.048781,3.579104,0,520,Mavic Mini,1SDCH7G0169R0K,1SFLH6Q0AB03DJ,1SRCH7F014TAHX,1U5X071EXP6C9Y,DJI Fly,,1.12.8,96C70EE3-66E3-056D-58D4-4EAFF532057C,1SDCH7G0169R0K,,,,,6.974561219,79.91434869,5,,
