CUSTOM.date [local],CUSTOM.updateTime [local],OSD.flyTime,OSD.flyTime [s],OSD.latitude,OSD.longitude,OSD.height [ft],OSD.heightMax [ft],OSD.vpsHeight [ft],OSD.altitude [ft],OSD.mileage [ft],OSD.hSpeed [MPH],OSD.hSpeedMax [MPH],OSD.xSpeed [MPH],OSD.xSpeedMax [MPH],OSD.ySpeed [MPH],OSD.ySpeedMax [MPH],OSD.zSpeed [MPH],OSD.zSpeedMax [MPH],OSD.pitch,OSD.roll,OSD.yaw,OSD.yaw [360],OSD.directionOfTravel,OSD.flycState,OSD.flycCommand,OSD.flightAction,OSD.gpsNum,OSD.gpsLevel,OSD.isGPSUsed,OSD.nonGPSCause,OSD.droneType,OSD.isSwaveWork,OSD.waveError,OSD.goHomeStatus,OSD.batteryType,OSD.ctrlDevice,OSD.isOnGround,OSD.isMotorOn,OSD.isMotorBlocked,OSD.motorStartFailedCause,OSD.motorFailReason,OSD.isImuPreheated,OSD.imuInitFailReason,OSD.isAcceletorOverRange,OSD.isBarometerDeadInAir,OSD.isCompassError,OSD.isGoHomeHeightModified,OSD.canIOCWork,OSD.isNotEnoughForce,OSD.isOutOfLimit,OSD.isPropellerCatapult,OSD.isVibrating,OSD.isVisionUsed,OSD.voltageWarning,GIMBAL.mode,GIMBAL.pitch,GIMBAL.roll,GIMBAL.yaw,GIMBAL.yaw [360],GIMBAL.isPitchAtLimit,GIMBAL.isRollAtLimit,GIMBAL.isYawAtLimit,GIMBAL.isStuck,CAMERA.isPhoto,CAMERA.isVideo,CAMERA.filename,CAMERA.sdCardIsInserted,CAMERA.sdCardState,RC.downlinkSignal,RC.uplinkSignal,RC.aileron,RC.elevator,RC.throttle,RC.rudder,RC.mode,RC.goHomeDepressed,RC.recordDepressed,RC.shutterDepressed,RC.playbackDepressed,RC.wheelDepressed,RC.wheelOffset,RC.custom1Depressed,RC.custom2Depressed,RC.custom3Depressed,RC.custom4Depressed,BATTERY.chargeLevel,BATTERY.currentPV [V],BATTERY.currentCapacity [mAh],BATTERY.fullCapacity [mAh],BATTERY.voltage [V],BATTERY.isCellVoltageEstimated,BATTERY.cellVoltage1 [V],BATTERY.cellVoltage2 [V],BATTERY.maxCellVoltageDeviation,BATTERY.isCellVoltageDeviationHigh,BATTERY.isVoltageLow,BATTERY.current [A],BATTERY.temperature [F],BATTERY.minTemperature [F],BATTERY.maxTemperature [F],BATTERY.usefulTime [s],BATTERY.goHomeTime [s],BATTERY.landTime [s],BATTERY.goHomeBattery,BATTERY.landBattery,BATTERY.safeFlyRadius,BATTERY.volumeConsume,BATTERY.status,BATTERY.goHomeStatus,BATTERY.goHomeCountdown,BATTERY.lowWarning,BATTERY.lowWarningGoHome,BATTERY.seriousLowWarning,BATTERY.seriousLowWarningLanding,BATTERY.timesCharged,MC.failSafeAction,MC.isObstacleAvoidanceEnabled,MC.isCollisionAvoidanceEnabled,MC.isRthObstacleAvoidanceEnabled,MC.isBraking,MC.isAvoidingObstacle,MC.isAvoidingActiveObstacle,MC.isAscentLimitedByObstacle,MC.isLandingConfirmationNeeded,MC.atLowAltitudeLimit,MC.atDistanceLimit,MC.atAirportAltitudeLimit,MC.atAirportBoundary,HOME.latitude,HOME.longitude,HOME.distance [ft],HOME.height [ft],HOME.heightLimit [ft],HOME.isHomeRecord,HOME.goHomeMode,HOME.aircraftHeadDirection,HOME.isDynamicHomePointEnabled,HOME.isReachedLimitDistance,HOME.isReachedLimitHeight,HOME.isCompassCalibrating,HOME.compassCalibrationState,HOME.isMultipleFlightModeEnabled,HOME.isBeginnerMode,HOME.isIOCEnabled,HOME.iocMode,HOME.goHomeHeight [ft],HOME.courseLockAngle,HOME.forceLandingHeight [ft],HOME.wind,HOME.dataRecorderFileIndex,RECOVER.appType,RECOVER.appVersion,RECOVER.aircraftName,RECOVER.aircraftSerial,RECOVER.cameraSerial,RECOVER.rcSerial,RECOVER.batterySerial,DETAILS.totalTime [s],DETAILS.totalDistance [ft],DETAILS.maxHeight [ft],DETAILS.maxHorizontalSpeed [MPH],DETAILS.maxVerticalSpeed [MPH],DETAILS.photoNum,DETAILS.videoTime [s],DETAILS.aircraftName,DETAILS.aircraftSerial,DETAILS.cameraSerial,DETAILS.rcSerial,DETAILS.batterySerial,DETAILS.appName,DETAILS.appType,DETAILS.appVersion,DETAILS.guid,SERIAL.flightController,SERIAL.camera,SERIAL.gimbal,SERIAL.rc,SERIAL.battery,APPGPS.latitude,APPGPS.longitude,APPGPS.accuracy,APP.tip,APP.warning
2/15/2024,28:41.5,1m 53.2s,113.2,6.974498356,79.91427081,0,0,,49,0,0,0,0,0,0,0,0,0,4.4,0.2,-159.2,200.8,,Tripod,Drop Calibration,Takeoff (RC Assisted),15,5,TRUE,,Mavic Mini,FALSE,FALSE,,Smart,RC,TRUE,TRUE,FALSE,,,TRUE,,FALSE,FALSE,FALSE,FALSE,FALSE,FALSE,FALSE,FALSE,FALSE,FALSE,0,Follow Yaw,-25.7,0,-132.7,227.3,FALSE,FALSE,FALSE,FALSE,FALSE,FALSE,,TRUE,Normal,,,364,364,364,1684,2,FALSE,FALSE,FALSE,FALSE,FALSE,0,FALSE,FALSE,FALSE,FALSE,90,7.993,1906,2113,7.993,TRUE,3.997,3.997,,FALSE,FALSE,NA,91,91,91,,,,,,,,,Idle,,,TRUE,,FALSE,9,Go Home,FALSE,FALSE,FALSE,FALSE,FALSE,FALSE,FALSE,FALSE,FALSE,FALSE,FALSE,FALSE,,,,,,FALSE,,,FALSE,FALSE,FALSE,FALSE,,FALSE,FALSE,FALSE,,,,,Calm,,,1.12.8,Mavic Mini,1SDCH7G0169R0K,1SFLH6Q0AB03DJ,1SRCH7F014TAHX,1U5X071EXP5ZJG,99.8,0.2,3.2,4.740075,1.342164,0,0,Mavic Mini,1SDCH7G0169R0K,1SFLH6Q0AB03DJ,1SRCH7F014TAHX,1U5X071EXP5ZJG,DJI Fly,,1.12.8,43DBD83D-B860-D827-82B2-A3DB54DAAF0A,1SDCH7G0169R0K,,,,,,,,Flight mode changed to Tripod.,
2/15/2024,26:48.4,1m 53.3s,113.3,6.974498416,79.91427081,0,0,,49,0,0,0,0,0,0,0,0,0,4.4,0.2,-159.2,200.8,,Starting Motors,Drop Calibration,Takeoff (RC Assisted),15,5,TRUE,,Mavic Mini,FALSE,FALSE,,Smart,RC,TRUE,TRUE,FALSE,,,TRUE,,FALSE,FALSE,FALSE,FALSE,FALSE,FALSE,FALSE,FALSE,FALSE,FALSE,0,Follow Yaw,-25.7,0,-132.8,227.2,FALSE,FALSE,FALSE,FALSE,FALSE,FALSE,,TRUE,Normal,,,364,364,364,1684,2,FALSE,FALSE,FALSE,FALSE,FALSE,0,FALSE,FALSE,FALSE,FALSE,90,7.993,1906,2113,7.993,TRUE,3.997,3.997,,FALSE,FALSE,NA,91,91,91,0,0,0,0,5,2508.5,627.12,,Idle,0,20,FALSE,5,TRUE,9,Go Home,FALSE,FALSE,FALSE,FALSE,FALSE,FALSE,FALSE,FALSE,FALSE,FALSE,FALSE,FALSE,6.974496947,79.91426519,2.1,127.2,328,TRUE,1,1,FALSE,FALSE,FALSE,FALSE,,TRUE,FALSE,FALSE,Course Lock,65.6,41.9,16.4,Calm,27,,1.12.8,Mavic Mini,1SDCH7G0169R0K,1SFLH6Q0AB03DJ,1SRCH7F014TAHX,1U5X071EXP5ZJG,99.8,0.2,3.2,4.740075,1.342164,0,0,Mavic Mini,1SDCH7G0169R0K,1SFLH6Q0AB03DJ,1SRCH7F014TAHX,1U5X071EXP5ZJG,DJI Fly,,1.12.8,43DBD83D-B860-D827-82B2-A3DB54DAAF0A,1SDCH7G0169R0K,,,,,,,,Data Recorder File Index is 27.; Set Return to Home (RTH) altitude to 20 m (66 ft).; Set maximum flight altitude to 100 m (328 ft).; Flight mode changed to Starting Motors.,
2/15/2024,26:48.5,1m 53.4s,113.4,6.974498473,79.91427082,0,0,0.3,49,0,0,0,0,0,0,0,0,0,4.4,0.2,-159.2,200.8,,Starting Motors,Drop Calibration,Takeoff (RC Assisted),15,5,TRUE,,Mavic Mini,TRUE,FALSE,,Smart,RC,TRUE,TRUE,FALSE,,,TRUE,,FALSE,FALSE,FALSE,FALSE,FALSE,FALSE,FALSE,FALSE,FALSE,FALSE,0,Follow Yaw,-25.7,0,-132.8,227.2,FALSE,FALSE,FALSE,FALSE,FALSE,FALSE,,TRUE,Normal,,,1024,1024,1024,1024,2,FALSE,FALSE,FALSE,FALSE,FALSE,0,FALSE,FALSE,FALSE,FALSE,90,7.993,1906,2113,7.993,TRUE,3.997,3.997,,FALSE,FALSE,NA,91,91,91,0,0,0,0,5,2508.5,627.12,,Idle,0,20,FALSE,5,TRUE,9,Go Home,FALSE,FALSE,FALSE,FALSE,FALSE,FALSE,FALSE,FALSE,FALSE,FALSE,FALSE,FALSE,6.974496947,79.91426519,2.1,127.2,328,TRUE,1,1,FALSE,FALSE,FALSE,FALSE,,TRUE,FALSE,FALSE,Course Lock,65.6,41.9,16.4,Calm,27,,1.12.8,Mavic Mini,1SDCH7G0169R0K,1SFLH6Q0AB03DJ,1SRCH7F014TAHX,1U5X071EXP5ZJG,99.8,0.2,3.2,4.740075,1.342164,0,0,Mavic Mini,1SDCH7G0169R0K,1SFLH6Q0AB03DJ,1SRCH7F014TAHX,1U5X071EXP5ZJG,DJI Fly,,1.12.8,43DBD83D-B860-D827-82B2-A3DB54DAAF0A,1SDCH7G0169R0K,,,,,,,,,
2/15/2024,26:48.6,1m 53.5s,113.5,6.974498554,79.91427075,0,0,0.3,49,0,0,0,0,0,0,0,0,0,4.4,0.2,-159.2,200.8,,Starting Motors,Drop Calibration,Takeoff (RC Assisted),15,5,TRUE,,Mavic Mini,TRUE,FALSE,,Smart,RC,TRUE,TRUE,FALSE,,,TRUE,,FALSE,FALSE,FALSE,FALSE,FALSE,FALSE,FALSE,FALSE,FALSE,FALSE,0,Follow Yaw,-25.7,0,-132.8,227.2,FALSE,FALSE,FALSE,FALSE,FALSE,FALSE,,TRUE,Normal,,,1024,1024,1024,1024,2,FALSE,FALSE,FALSE,FALSE,FALSE,0,FALSE,FALSE,FALSE,FALSE,90,7.993,1906,2113,7.993,TRUE,3.997,3.997,,FALSE,FALSE,NA,91,91,91,0,0,0,0,5,2508.5,627.12,,Idle,0,20,FALSE,5,TRUE,9,Go Home,FALSE,FALSE,FALSE,FALSE,FALSE,FALSE,FALSE,FALSE,FALSE,FALSE,FALSE,FALSE,6.974496947,79.91426519,2,127.2,328,TRUE,1,1,FALSE,FALSE,FALSE,FALSE,,TRUE,FALSE,FALSE,Course Lock,65.6,41.9,16.4,Calm,27,,1.12.8,Mavic Mini,1SDCH7G0169R0K,1SFLH6Q0AB03DJ,1SRCH7F014TAHX,1U5X071EXP5ZJG,99.8,0.2,3.2,4.740075,1.342164,0,0,Mavic Mini,1SDCH7G0169R0K,1SFLH6Q0AB03DJ,1SRCH7F014TAHX,1U5X071EXP5ZJG,DJI Fly,,1.12.8,43DBD83D-B860-D827-82B2-A3DB54DAAF0A,1SDCH7G0169R0K,,,,,,,,,
2/15/2024,26:48.7,1m 53.6s,113.6,6.974498603,79.91427075,0,0,0.3,49,0,0,0,0,0,0,0,0,0,4.4,0.2,-159.2,200.8,,Starting Motors,Drop Calibration,Takeoff (RC Assisted),15,5,TRUE,,Mavic Mini,TRUE,FALSE,,Smart,RC,TRUE,TRUE,FALSE,,,TRUE,,FALSE,FALSE,FALSE,FALSE,FALSE,FALSE,FALSE,FALSE,FALSE,FALSE,0,Follow Yaw,-25.7,0,-132.8,227.2,FALSE,FALSE,FALSE,FALSE,FALSE,FALSE,,TRUE,Normal,,100,1024,1024,1024,1024,2,FALSE,FALSE,FALSE,FALSE,FALSE,0,FALSE,FALSE,FALSE,FALSE,90,7.993,1906,2113,7.993,TRUE,3.997,3.997,,FALSE,FALSE,NA,91,91,91,0,0,0,0,5,2508.5,627.12,,Idle,0,20,FALSE,5,TRUE,9,Go Home,FALSE,FALSE,FALSE,FALSE,FALSE,FALSE,FALSE,FALSE,FALSE,FALSE,FALSE,FALSE,6.974496947,79.91426519,2.1,127.2,328,TRUE,1,1,FALSE,FALSE,FALSE,FALSE,,TRUE,FALSE,FALSE,Course Lock,65.6,41.9,16.4,Calm,27,,1.12.8,Mavic Mini,1SDCH7G0169R0K,1SFLH6Q0AB03DJ,1SRCH7F014TAHX,1U5X071EXP5ZJG,99.8,0.2,3.2,4.740075,1.342164,0,0,Mavic Mini,1SDCH7G0169R0K,1SFLH6Q0AB03DJ,1SRCH7F014TAHX,1U5X071EXP5ZJG,DJI Fly,,1.12.8,43DBD83D-B860-D827-82B2-A3DB54DAAF0A,1SDCH7G0169R0K,,,,,,,,,
2/15/2024,26:48.8,1m 53.7s,113.7,6.974498651,79.9142708,0,0,0.3,49,0.1,0,0,0,0,0,0,0,0,4.4,0.2,-159.2,200.8,,Starting Motors,Drop Calibration,Takeoff (RC Assisted),15,5,TRUE,,Mavic Mini,TRUE,FALSE,,Smart,RC,TRUE,TRUE,FALSE,,,TRUE,,FALSE,FALSE,FALSE,FALSE,FALSE,FALSE,FALSE,FALSE,FALSE,FALSE,0,Follow Yaw,-25.7,0,-132.8,227.2,FALSE,FALSE,FALSE,FALSE,FALSE,FALSE,,TRUE,Normal,,100,1024,1024,1024,1024,2,FALSE,FALSE,FALSE,FALSE,FALSE,0,FALSE,FALSE,FALSE,FALSE,90,7.993,1906,2113,7.993,TRUE,3.997,3.997,,FALSE,FALSE,NA,91,91,91,0,0,0,0,5,2508.5,627.12,,Idle,0,20,FALSE,5,TRUE,9,Go Home,FALSE,FALSE,FALSE,FALSE,FALSE,FALSE,FALSE,FALSE,FALSE,FALSE,FALSE,FALSE,6.974496947,79.91426519,2.1,127.2,328,TRUE,1,1,FALSE,FALSE,FALSE,FALSE,,TRUE,FALSE,FALSE,Course Lock,65.6,41.9,16.4,Calm,27,,1.12.8,Mavic Mini,1SDCH7G0169R0K,1SFLH6Q0AB03DJ,1SRCH7F014TAHX,1U5X071EXP5ZJG,99.8,0.2,3.2,4.740075,1.342164,0,0,Mavic Mini,1SDCH7G0169R0K,1SFLH6Q0AB03DJ,1SRCH7F014TAHX,1U5X071EXP5ZJG,DJI Fly,,1.12.8,43DBD83D-B860-D827-82B2-A3DB54DAAF0A,1SDCH7G0169R0K,,,,,,,,,
2/15/2024,26:48.9,1m 53.8s,113.8,6.974498692,79.91427084,0,0,0.3,49,0.1,0,0,0,0,0,0,0,0,4.3,0.4,-159.1,200.9,,Starting Motors,Drop Calibration,Takeoff (RC Assisted),15,5,TRUE,,Mavic Mini,TRUE,FALSE,,Smart,RC,TRUE,TRUE,FALSE,,,TRUE,,FALSE,FALSE,FALSE,FALSE,FALSE,FALSE,FALSE,FALSE,FALSE,FALSE,0,Follow Yaw,-25.7,0,-132.7,227.3,FALSE,FALSE,FALSE,FALSE,FALSE,FALSE,,TRUE,Normal,,100,1024,1024,1024,1024,2,FALSE,FALSE,FALSE,FALSE,FALSE,0,FALSE,FALSE,FALSE,FALSE,90,7.978,1906,2113,7.993,FALSE,3.989,3.989,,FALSE,FALSE,NA,91,91,91,0,0,0,0,5,2508.5,627.12,,Idle,0,20,FALSE,5,TRUE,9,Go Home,FALSE,FALSE,FALSE,FALSE,FALSE,FALSE,FALSE,FALSE,FALSE,FALSE,FALSE,FALSE,6.974496947,79.91426519,2.1,127.2,328,TRUE,1,1,FALSE,FALSE,FALSE,FALSE,,TRUE,FALSE,FALSE,Course Lock,65.6,41.9,16.4,Calm,27,,1.12.8,Mavic Mini,1SDCH7G0169R0K,1SFLH6Q0AB03DJ,1SRCH7F014TAHX,1U5X071EXP5ZJG,99.8,0.2,3.2,4.740075,1.342164,0,0,Mavic Mini,1SDCH7G0169R0K,1SFLH6Q0AB03DJ,1SRCH7F014TAHX,1U5X071EXP5ZJG,DJI Fly,,1.12.8,43DBD83D-B860-D827-82B2-A3DB54DAAF0A,1SDCH7G0169R0K,,,,,,,,,
2/15/2024,26:49.1,1m 53.9s,113.9,6.974498689,79.91427081,0,0,0.3,49,0.1,0,0,0,0,0,0,0,0,4.4,0.3,-159,201,,Starting Motors,Drop Calibration,Takeoff (RC Assisted),15,5,TRUE,,Mavic Mini,TRUE,FALSE,,Smart,RC,TRUE,TRUE,FALSE,,,TRUE,,FALSE,FALSE,FALSE,FALSE,FALSE,FALSE,FALSE,FALSE,FALSE,FALSE,0,Follow Yaw,-25.7,0,-132.7,227.3,FALSE,FALSE,FALSE,FALSE,FALSE,FALSE,,TRUE,Normal,,100,1024,1024,1024,1024,2,FALSE,FALSE,FALSE,FALSE,FALSE,0,FALSE,FALSE,FALSE,FALSE,90,7.978,1906,2113,7.993,FALSE,3.989,3.989,,FALSE,FALSE,NA,91,91,91,0,0,0,0,5,2508.5,627.12,,Idle,0,20,FALSE,5,TRUE,9,Go Home,FALSE,FALSE,FALSE,FALSE,FALSE,FALSE,FALSE,FALSE,FALSE,FALSE,FALSE,FALSE,6.974496947,79.91426519,2.1,127.2,328,TRUE,1,1,FALSE,FALSE,FALSE,FALSE,,TRUE,FALSE,FALSE,Course Lock,65.6,41.9,16.4,Calm,27,,1.12.8,Mavic Mini,1SDCH7G0169R0K,1SFLH6Q0AB03DJ,1SRCH7F014TAHX,1U5X071EXP5ZJG,99.8,0.2,3.2,4.740075,1.342164,0,0,Mavic Mini,1SDCH7G0169R0K,1SFLH6Q0AB03DJ,1SRCH7F014TAHX,1U5X071EXP5ZJG,DJI Fly,,1.12.8,43DBD83D-B860-D827-82B2-A3DB54DAAF0A,1SDCH7G0169R0K,,,,,,,,,
2/15/2024,26:49.1,1m 54.0s,114,6.97449862,79.91427074,0,0,0.3,49,0.1,0,0,0,0,0,0,0,0,4.4,0.3,-159.1,200.9,,Starting Motors,Drop Calibration,Takeoff (RC Assisted),15,5,TRUE,,Mavic Mini,TRUE,FALSE,,Smart,RC,TRUE,TRUE,FALSE,,,TRUE,,FALSE,FALSE,FALSE,FALSE,FALSE,FALSE,FALSE,FALSE,FALSE,FALSE,0,Follow Yaw,-25.7,0,-132.7,227.3,FALSE,FALSE,FALSE,FALSE,FALSE,FALSE,,TRUE,Normal,,100,1024,1024,1024,1024,2,FALSE,FALSE,FALSE,FALSE,FALSE,0,FALSE,FALSE,FALSE,FALSE,90,7.978,1906,2113,7.993,FALSE,3.989,3.989,,FALSE,FALSE,NA,91,91,91,0,0,0,0,5,2508.5,627.12,,Idle,0,20,FALSE,5,TRUE,9,Go Home,FALSE,FALSE,FALSE,FALSE,FALSE,FALSE,FALSE,FALSE,FALSE,FALSE,FALSE,FALSE,6.974496947,79.91426519,2,127.2,328,TRUE,1,1,FALSE,FALSE,FALSE,FALSE,,TRUE,FALSE,FALSE,Course Lock,65.6,41.9,16.4,Calm,27,,1.12.8,Mavic Mini,1SDCH7G0169R0K,1SFLH6Q0AB03DJ,1SRCH7F014TAHX,1U5X071EXP5ZJG,99.8,0.2,3.2,4.740075,1.342164,0,0,Mavic Mini,1SDCH7G0169R0K,1SFLH6Q0AB03DJ,1SRCH7F014TAHX,1U5X071EXP5ZJG,DJI Fly,,1.12.8,43DBD83D-B860-D827-82B2-A3DB54DAAF0A,1SDCH7G0169R0K,,,,,,,,,
2/15/2024,26:49.3,1m 54.1s,114.1,6.974498702,79.91427078,0,0,0.3,49,0.2,0,0,0,0,0,0,0,0,4.4,0.3,-159.1,200.9,,Starting Motors,Drop Calibration,Takeoff (RC Assisted),15,5,TRUE,,Mavic Mini,TRUE,FALSE,,Smart,RC,TRUE,TRUE,FALSE,,,TRUE,,FALSE,FALSE,FALSE,FALSE,FALSE,FALSE,FALSE,FALSE,FALSE,FALSE,0,Follow Yaw,-25.7,0,-132.7,227.3,FALSE,FALSE,FALSE,FALSE,FALSE,FALSE,,TRUE,Normal,,100,1024,1024,1024,1024,2,FALSE,FALSE,FALSE,FALSE,FALSE,0,FALSE,FALSE,FALSE,FALSE,90,7.978,1906,2113,7.993,FALSE,3.989,3.989,,FALSE,FALSE,NA,91,91,91,0,0,0,0,5,2508.5,627.12,,Idle,0,20,FALSE,5,TRUE,9,Go Home,FALSE,FALSE,FALSE,FALSE,FALSE,FALSE,FALSE,FALSE,FALSE,FALSE,FALSE,FALSE,6.974496947,79.91426519,2.1,127.2,328,TRUE,1,1,FALSE,FALSE,FALSE,FALSE,,TRUE,FALSE,FALSE,Course Lock,65.6,41.9,16.4,Calm,27,,1.12.8,Mavic Mini,1SDCH7G0169R0K,1SFLH6Q0AB03DJ,1SRCH7F014TAHX,1U5X071EXP5ZJG,99.8,0.2,3.2,4.740075,1.342164,0,0,Mavic Mini,1SDCH7G0169R0K,1SFLH6Q0AB03DJ,1SRCH7F014TAHX,1U5X071EXP5ZJG,DJI Fly,,1.12.8,43DBD83D-B860-D827-82B2-A3DB54DAAF0A,1SDCH7G0169R0K,,,,,,,,,
2/15/2024,26:49.3,1m 54.2s,114.2,6.974498775,79.91427082,0,0,0.3,49,0.2,0,0,0,0,0,0,0,0,4.3,0.3,-159.1,200.9,,Starting Motors,Drop Calibration,Takeoff (RC Assisted),15,5,TRUE,,Mavic Mini,TRUE,FALSE,,Smart,RC,TRUE,TRUE,FALSE,,,TRUE,,FALSE,FALSE,FALSE,FALSE,FALSE,FALSE,FALSE,FALSE,FALSE,FALSE,0,Follow Yaw,-25.7,0,-132.6,227.4,FALSE,FALSE,FALSE,FALSE,FALSE,FALSE,,TRUE,Normal,,100,1024,1024,1024,1024,2,FALSE,FALSE,FALSE,FALSE,FALSE,0,FALSE,FALSE,FALSE,FALSE,90,7.978,1906,2113,7.993,FALSE,3.989,3.989,,FALSE,FALSE,NA,91,91,91,0,0,0,0,5,2508.5,627.12,,Idle,0,20,FALSE,5,TRUE,9,Go Home,FALSE,FALSE,FALSE,FALSE,FALSE,FALSE,FALSE,FALSE,FALSE,FALSE,FALSE,FALSE,6.974496947,79.91426519,2.1,127.2,328,TRUE,1,1,FALSE,FALSE,FALSE,FALSE,,TRUE,FALSE,FALSE,Course Lock,65.6,41.9,16.4,Calm,27,,1.12.8,Mavic Mini,1SDCH7G0169R0K,1SFLH6Q0AB03DJ,1SRCH7F014TAHX,1U5X071EXP5ZJG,99.8,0.2,3.2,4.740075,1.342164,0,0,Mavic Mini,1SDCH7G0169R0K,1SFLH6Q0AB03DJ,1SRCH7F014TAHX,1U5X071EXP5ZJG,DJI Fly,,1.12.8,43DBD83D-B860-D827-82B2-A3DB54DAAF0A,1SDCH7G0169R0K,,,,,,,,,
2/15/2024,26:49.4,1m 54.3s,114.3,6.974498789,79.91427083,0,0,0.3,49,0.2,0,0,0,0,0,0,0,0,4.4,0.3,-159.1,200.9,,Starting Motors,Drop Calibration,Takeoff (RC Assisted),15,5,TRUE,,Mavic Mini,TRUE,FALSE,,Smart,RC,TRUE,TRUE,FALSE,,,TRUE,,FALSE,FALSE,FALSE,FALSE,FALSE,FALSE,FALSE,FALSE,FALSE,FALSE,0,Follow Yaw,-25.7,0,-132.6,227.4,FALSE,FALSE,FALSE,FALSE,FALSE,FALSE,,TRUE,Normal,,100,1024,1024,1024,1024,2,FALSE,FALSE,FALSE,FALSE,FALSE,0,FALSE,FALSE,FALSE,FALSE,90,7.978,1906,2113,7.978,FALSE,3.989,3.989,,FALSE,FALSE,NA,91,91,91,0,0,0,0,5,2520.1,630.03,,Idle,0,20,FALSE,5,TRUE,9,Go Home,FALSE,FALSE,FALSE,FALSE,FALSE,FALSE,FALSE,FALSE,FALSE,FALSE,FALSE,FALSE,6.974496947,79.91426519,2.1,127.2,328,TRUE,1,1,FALSE,FALSE,FALSE,FALSE,,TRUE,FALSE,FALSE,Course Lock,65.6,41.9,16.4,Calm,27,,1.12.8,Mavic Mini,1SDCH7G0169R0K,1SFLH6Q0AB03DJ,1SRCH7F014TAHX,1U5X071EXP5ZJG,99.8,0.2,3.2,4.740075,1.342164,0,0,Mavic Mini,1SDCH7G0169R0K,1SFLH6Q0AB03DJ,1SRCH7F014TAHX,1U5X071EXP5ZJG,DJI Fly,,1.12.8,43DBD83D-B860-D827-82B2-A3DB54DAAF0A,1SDCH7G0169R0K,,,,,,,,,
2/15/2024,26:49.5,1m 54.4s,114.4,6.974498824,79.91427088,0,0,0.3,49,0.2,0,0,0,0,0,0,0,0,4.4,0.3,-159.1,200.9,,Manual Takeoff,Drop Calibration,Takeoff (RC Assisted),15,5,TRUE,,Mavic Mini,TRUE,FALSE,,Smart,RC,TRUE,TRUE,FALSE,,,TRUE,,FALSE,FALSE,FALSE,FALSE,FALSE,FALSE,FALSE,FALSE,FALSE,FALSE,0,Follow Yaw,-25.7,0,-132.6,227.4,FALSE,FALSE,FALSE,FALSE,FALSE,FALSE,,TRUE,Normal,,100,1024,1024,1024,1024,2,FALSE,FALSE,FALSE,FALSE,FALSE,0,FALSE,FALSE,FALSE,FALSE,90,7.978,1906,2113,7.978,FALSE,3.989,3.989,,FALSE,FALSE,NA,91,91,91,0,0,0,0,5,2520.1,630.03,,Idle,0,20,FALSE,5,TRUE,9,Go Home,FALSE,FALSE,FALSE,FALSE,FALSE,FALSE,FALSE,FALSE,FALSE,FALSE,FALSE,FALSE,6.974496947,79.91426519,2.1,127.2,328,TRUE,1,1,FALSE,FALSE,FALSE,FALSE,,TRUE,FALSE,FALSE,Course Lock,65.6,41.9,16.4,Calm,27,,1.12.8,Mavic Mini,1SDCH7G0169R0K,1SFLH6Q0AB03DJ,1SRCH7F014TAHX,1U5X071EXP5ZJG,99.8,0.2,3.2,4.740075,1.342164,0,0,Mavic Mini,1SDCH7G0169R0K,1SFLH6Q0AB03DJ,1SRCH7F014TAHX,1U5X071EXP5ZJG,DJI Fly,,1.12.8,43DBD83D-B860-D827-82B2-A3DB54DAAF0A,1SDCH7G0169R0K,,,,,,,,Flight mode changed to Manual Takeoff.,
2/15/2024,26:49.6,1m 54.5s,114.5,6.974498859,79.91427089,0,0,0.3,49,0.2,0,0,0,0,0,0,0,0,4.4,0.3,-159.1,200.9,,Manual Takeoff,Drop Calibration,Takeoff (RC Assisted),15,5,TRUE,,Mavic Mini,TRUE,FALSE,,Smart,RC,TRUE,TRUE,FALSE,,,TRUE,,FALSE,FALSE,FALSE,FALSE,FALSE,FALSE,FALSE,FALSE,FALSE,FALSE,0,Follow Yaw,-25.7,0,-132.6,227.4,FALSE,FALSE,FALSE,FALSE,FALSE,FALSE,,TRUE,Normal,,100,1024,1024,1024,1024,2,FALSE,FALSE,FALSE,FALSE,FALSE,0,FALSE,FALSE,FALSE,FALSE,90,7.978,1906,2113,7.978,FALSE,3.989,3.989,,FALSE,FALSE,NA,91,91,91,0,0,0,0,5,2520.1,630.03,,Idle,0,20,FALSE,5,TRUE,9,Go Home,FALSE,FALSE,FALSE,FALSE,FALSE,FALSE,FALSE,FALSE,FALSE,FALSE,FALSE,FALSE,6.974496947,79.91426519,2.1,127.2,328,TRUE,1,1,FALSE,FALSE,FALSE,FALSE,,TRUE,FALSE,FALSE,Course Lock,65.6,41.9,16.4,Calm,27,,1.12.8,Mavic Mini,1SDCH7G0169R0K,1SFLH6Q0AB03DJ,1SRCH7F014TAHX,1U5X071EXP5ZJG,99.8,0.2,3.2,4.740075,1.342164,0,0,Mavic Mini,1SDCH7G0169R0K,1SFLH6Q0AB03DJ,1SRCH7F014TAHX,1U5X071EXP5ZJG,DJI Fly,,1.12.8,43DBD83D-B860-D827-82B2-A3DB54DAAF0A,1SDCH7G0169R0K,,,,,,,,,
2/15/2024,26:49.7,1m 54.6s,114.6,6.974498894,79.91427089,0,0,0.3,49,0.2,0,0,0,0,0,0,0,0,4.4,0.3,-159.1,200.9,,Manual Takeoff,Drop Calibration,Takeoff (RC Assisted),15,5,TRUE,,Mavic Mini,TRUE,FALSE,,Smart,RC,TRUE,TRUE,FALSE,,,TRUE,,FALSE,FALSE,FALSE,FALSE,FALSE,FALSE,FALSE,FALSE,FALSE,FALSE,0,Follow Yaw,-25.7,0,-132.6,227.4,FALSE,FALSE,FALSE,FALSE,FALSE,FALSE,,TRUE,Normal,,100,1024,1024,1024,1024,2,FALSE,FALSE,FALSE,FALSE,FALSE,0,FALSE,FALSE,FALSE,FALSE,90,7.978,1906,2113,7.978,FALSE,3.989,3.989,,FALSE,FALSE,NA,91,91,91,0,0,0,0,5,2520.1,630.03,,Idle,0,20,FALSE,5,TRUE,9,Go Home,FALSE,FALSE,FALSE,FALSE,FALSE,FALSE,FALSE,FALSE,FALSE,FALSE,FALSE,FALSE,6.974496947,79.91426519,2.1,127.2,328,TRUE,1,1,FALSE,FALSE,FALSE,FALSE,,TRUE,FALSE,FALSE,Course Lock,65.6,41.9,16.4,Calm,27,,1.12.8,Mavic Mini,1SDCH7G0169R0K,1SFLH6Q0AB03DJ,1SRCH7F014TAHX,1U5X071EXP5ZJG,99.8,0.2,3.2,4.740075,1.342164,0,0,Mavic Mini,1SDCH7G0169R0K,1SFLH6Q0AB03DJ,1SRCH7F014TAHX,1U5X071EXP5ZJG,DJI Fly,,1.12.8,43DBD83D-B860-D827-82B2-A3DB54DAAF0A,1SDCH7G0169R0K,,,,,,,,,
2/15/2024,26:49.8,1m 54.7s,114.7,6.974498944,79.91427088,0,0,0.3,49,0.3,0,0,0,0,0,0,0,0,4.4,0.3,-159.1,200.9,,Manual Takeoff,Drop Calibration,Takeoff (RC Assisted),15,5,TRUE,,Mavic Mini,TRUE,FALSE,,Smart,RC,TRUE,TRUE,FALSE,,,TRUE,,FALSE,FALSE,FALSE,FALSE,FALSE,FALSE,FALSE,FALSE,FALSE,FALSE,0,Follow Yaw,-25.7,0,-132.6,227.4,FALSE,FALSE,FALSE,FALSE,FALSE,FALSE,,TRUE,Normal,,100,1024,1024,1024,1024,2,FALSE,FALSE,FALSE,FALSE,FALSE,0,FALSE,FALSE,FALSE,FALSE,90,7.978,1906,2113,7.978,FALSE,3.989,3.989,,FALSE,FALSE,NA,91,91,91,0,0,0,0,5,2520.1,630.03,,Idle,0,20,FALSE,5,TRUE,9,Go Home,FALSE,FALSE,FALSE,FALSE,FALSE,FALSE,FALSE,FALSE,FALSE,FALSE,FALSE,FALSE,6.974496947,79.91426519,2.1,127.2,328,TRUE,1,1,FALSE,FALSE,FALSE,FALSE,,TRUE,FALSE,FALSE,Course Lock,65.6,41.9,16.4,Calm,27,,1.12.8,Mavic Mini,1SDCH7G0169R0K,1SFLH6Q0AB03DJ,1SRCH7F014TAHX,1U5X071EXP5ZJG,99.8,0.2,3.2,4.740075,1.342164,0,0,Mavic Mini,1SDCH7G0169R0K,1SFLH6Q0AB03DJ,1SRCH7F014TAHX,1U5X071EXP5ZJG,DJI Fly,,1.12.8,43DBD83D-B860-D827-82B2-A3DB54DAAF0A,1SDCH7G0169R0K,,,,,,,,,
2/15/2024,26:49.9,1m 54.8s,114.8,6.974499029,79.91427083,0,0,0.3,49,0.3,0,0,0,0,0,0,0,0,4.4,0.3,-159.1,200.9,,Manual Takeoff,Drop Calibration,Takeoff (RC Assisted),15,5,TRUE,,Mavic Mini,TRUE,FALSE,,Smart,RC,TRUE,TRUE,FALSE,,,TRUE,,FALSE,FALSE,FALSE,FALSE,FALSE,FALSE,FALSE,FALSE,FALSE,FALSE,0,Follow Yaw,-25.7,0,-132.6,227.4,FALSE,FALSE,FALSE,FALSE,FALSE,FALSE,,TRUE,Normal,,100,1024,1024,1024,1024,2,FALSE,FALSE,FALSE,FALSE,FALSE,0,FALSE,FALSE,FALSE,FALSE,90,7.978,1906,2113,7.978,FALSE,3.989,3.989,,FALSE,FALSE,NA,91,91,91,0,0,0,0,5,2520.1,630.03,,Idle,0,20,FALSE,5,TRUE,9,Go Home,FALSE,FALSE,FALSE,FALSE,FALSE,FALSE,FALSE,FALSE,FALSE,FALSE,FALSE,FALSE,6.974496947,79.91426519,2.1,127.2,328,TRUE,1,1,FALSE,FALSE,FALSE,FALSE,,TRUE,FALSE,FALSE,Course Lock,65.6,41.9,16.4,Calm,27,,1.12.8,Mavic Mini,1SDCH7G0169R0K,1SFLH6Q0AB03DJ,1SRCH7F014TAHX,1U5X071EXP5ZJG,99.8,0.2,3.2,4.740075,1.342164,0,0,Mavic Mini,1SDCH7G0169R0K,1SFLH6Q0AB03DJ,1SRCH7F014TAHX,1U5X071EXP5ZJG,DJI Fly,,1.12.8,43DBD83D-B860-D827-82B2-A3DB54DAAF0A,1SDCH7G0169R0K,,,,,,,,,
2/15/2024,26:50.0,1m 54.9s,114.9,6.974499086,79.91427083,0,0,0.3,49,0.3,0,0,0,0,0,0,0,0,4.4,0.3,-159.1,200.9,,Manual Takeoff,Drop Calibration,Takeoff (RC Assisted),15,5,TRUE,,Mavic Mini,TRUE,FALSE,,Smart,RC,TRUE,TRUE,FALSE,,,TRUE,,FALSE,FALSE,FALSE,FALSE,FALSE,FALSE,FALSE,FALSE,FALSE,FALSE,0,Follow Yaw,-25.7,0,-132.6,227.4,FALSE,FALSE,FALSE,FALSE,FALSE,FALSE,,TRUE,Normal,,100,1024,1024,1024,1024,2,FALSE,FALSE,FALSE,FALSE,FALSE,0,FALSE,FALSE,FALSE,FALSE,90,7.976,1905,2113,7.978,FALSE,3.986,3.99,0.004,FALSE,FALSE,NA,91,91,91,0,0,0,0,5,2520.1,630.03,,Idle,0,20,FALSE,5,TRUE,9,Go Home,FALSE,FALSE,FALSE,FALSE,FALSE,FALSE,FALSE,FALSE,FALSE,FALSE,FALSE,FALSE,6.974496947,79.91426519,2.1,127.2,328,TRUE,1,1,FALSE,FALSE,FALSE,FALSE,,TRUE,FALSE,FALSE,Course Lock,65.6,41.9,16.4,Calm,27,,1.12.8,Mavic Mini,1SDCH7G0169R0K,1SFLH6Q0AB03DJ,1SRCH7F014TAHX,1U5X071EXP5ZJG,99.8,0.2,3.2,4.740075,1.342164,0,0,Mavic Mini,1SDCH7G0169R0K,1SFLH6Q0AB03DJ,1SRCH7F014TAHX,1U5X071EXP5ZJG,DJI Fly,,1.12.8,43DBD83D-B860-D827-82B2-A3DB54DAAF0A,1SDCH7G0169R0K,,,,,,,,,
2/15/2024,26:50.1,1m 55.0s,115,6.974499141,79.91427083,0,0,0.3,49,0.3,0,0,0,0,0,0,0,0,4.4,0.3,-159.1,200.9,,Manual Takeoff,Drop Calibration,Takeoff (RC Assisted),15,5,TRUE,,Mavic Mini,TRUE,FALSE,,Smart,RC,TRUE,TRUE,FALSE,,,TRUE,,FALSE,FALSE,FALSE,FALSE,FALSE,FALSE,FALSE,FALSE,FALSE,FALSE,0,Follow Yaw,-25.7,0,-132.6,227.4,FALSE,FALSE,FALSE,FALSE,FALSE,FALSE,,TRUE,Normal,,100,1024,1024,1024,1024,2,FALSE,FALSE,FALSE,FALSE,FALSE,0,FALSE,FALSE,FALSE,FALSE,90,7.976,1905,2113,7.978,FALSE,3.986,3.99,0.004,FALSE,FALSE,NA,91,91,91,0,0,0,0,5,2520.1,630.03,,Idle,0,20,FALSE,5,TRUE,9,Go Home,FALSE,FALSE,FALSE,FALSE,FALSE,FALSE,FALSE,FALSE,FALSE,FALSE,FALSE,FALSE,6.974496947,79.91426519,2.1,127.2,328,TRUE,1,1,FALSE,FALSE,FALSE,FALSE,,TRUE,FALSE,FALSE,Course Lock,65.6,41.9,16.4,Calm,27,,1.12.8,Mavic Mini,1SDCH7G0169R0K,1SFLH6Q0AB03DJ,1SRCH7F014TAHX,1U5X071EXP5ZJG,99.8,0.2,3.2,4.740075,1.342164,0,0,Mavic Mini,1SDCH7G0169R0K,1SFLH6Q0AB03DJ,1SRCH7F014TAHX,1U5X071EXP5ZJG,DJI Fly,,1.12.8,43DBD83D-B860-D827-82B2-A3DB54DAAF0A,1SDCH7G0169R0K,,,,,,,,,
2/15/2024,26:50.2,1m 55.1s,115.1,6.974499198,79.91427082,0,0,0.3,49,0.4,0,0,0,0,0,0,0,0,4.4,0.3,-159.1,200.9,,Manual Takeoff,Drop Calibration,Takeoff (RC Assisted),15,5,TRUE,,Mavic Mini,TRUE,FALSE,,Smart,RC,TRUE,TRUE,FALSE,,,TRUE,,FALSE,FALSE,FALSE,FALSE,FALSE,FALSE,FALSE,FALSE,FALSE,FALSE,0,Follow Yaw,-25.7,0,-132.6,227.4,FALSE,FALSE,FALSE,FALSE,FALSE,FALSE,,TRUE,Normal,,100,1024,1024,1024,1024,2,FALSE,FALSE,FALSE,FALSE,FALSE,0,FALSE,FALSE,FALSE,FALSE,90,7.976,1905,2113,7.978,FALSE,3.986,3.99,0.004,FALSE,FALSE,NA,91,91,91,0,0,0,0,5,2520.1,630.03,,Idle,0,20,FALSE,5,TRUE,9,Go Home,FALSE,FALSE,FALSE,FALSE,FALSE,FALSE,FALSE,FALSE,FALSE,FALSE,FALSE,FALSE,6.974496947,79.91426519,2.1,127.2,328,TRUE,1,1,FALSE,FALSE,FALSE,FALSE,,TRUE,FALSE,FALSE,Course Lock,65.6,41.9,16.4,Calm,27,,1.12.8,Mavic Mini,1SDCH7G0169R0K,1SFLH6Q0AB03DJ,1SRCH7F014TAHX,1U5X071EXP5ZJG,99.8,0.2,3.2,4.740075,1.342164,0,0,Mavic Mini,1SDCH7G0169R0K,1SFLH6Q0AB03DJ,1SRCH7F014TAHX,1U5X071EXP5ZJG,DJI Fly,,1.12.8,43DBD83D-B860-D827-82B2-A3DB54DAAF0A,1SDCH7G0169R0K,,,,,,,,,
2/15/2024,26:50.3,1m 55.2s,115.2,6.974499214,79.91427078,0,0,0.3,49,0.4,0,0,0,0,0,0,0,0,4.4,0.3,-159.1,200.9,,Manual Takeoff,Drop Calibration,Takeoff (RC Assisted),15,5,TRUE,,Mavic Mini,TRUE,FALSE,,Smart,RC,TRUE,TRUE,FALSE,,,TRUE,,FALSE,FALSE,FALSE,FALSE,FALSE,FALSE,FALSE,FALSE,FALSE,FALSE,0,Follow Yaw,-25.7,0,-132.6,227.4,FALSE,FALSE,FALSE,FALSE,FALSE,FALSE,,TRUE,Normal,,100,1024,1024,1024,1024,2,FALSE,FALSE,FALSE,FALSE,FALSE,0,FALSE,FALSE,FALSE,FALSE,90,7.976,1905,2113,7.978,FALSE,3.986,3.99,0.004,FALSE,FALSE,NA,91,91,91,0,0,0,0,5,2520.1,630.03,,Idle,0,20,FALSE,5,TRUE,9,Go Home,FALSE,FALSE,FALSE,FALSE,FALSE,FALSE,FALSE,FALSE,FALSE,FALSE,FALSE,FALSE,6.974496947,79.91426519,2.1,127.2,328,TRUE,1,1,FALSE,FALSE,FALSE,FALSE,,TRUE,FALSE,FALSE,Course Lock,65.6,41.9,16.4,Calm,27,,1.12.8,Mavic Mini,1SDCH7G0169R0K,1SFLH6Q0AB03DJ,1SRCH7F014TAHX,1U5X071EXP5ZJG,99.8,0.2,3.2,4.740075,1.342164,0,0,Mavic Mini,1SDCH7G0169R0K,1SFLH6Q0AB03DJ,1SRCH7F014TAHX,1U5X071EXP5ZJG,DJI Fly,,1.12.8,43DBD83D-B860-D827-82B2-A3DB54DAAF0A,1SDCH7G0169R0K,,,,,6.974483435,79.91426144,5,,
2/15/2024,26:50.4,1m 55.3s,115.3,6.974499216,79.91427078,0,0,0.3,49,0.4,0,0,0,0,0,0,0,0,4.4,0.3,-159.1,200.9,,Manual Takeoff,Drop Calibration,Takeoff (RC Assisted),15,5,TRUE,,Mavic Mini,TRUE,FALSE,,Smart,RC,TRUE,TRUE,FALSE,,,TRUE,,FALSE,FALSE,FALSE,FALSE,FALSE,FALSE,FALSE,FALSE,FALSE,FALSE,0,Follow Yaw,-25.7,0,-132.6,227.4,FALSE,FALSE,FALSE,FALSE,FALSE,FALSE,,TRUE,Normal,,100,1024,1024,1024,1024,2,FALSE,FALSE,FALSE,FALSE,FALSE,0,FALSE,FALSE,FALSE,FALSE,90,7.976,1905,2113,7.978,FALSE,3.986,3.99,0.004,FALSE,FALSE,NA,91,91,91,0,0,0,0,5,2596.2,649.06,,Idle,0,20,FALSE,5,TRUE,9,Go Home,FALSE,FALSE,FALSE,FALSE,FALSE,FALSE,FALSE,FALSE,FALSE,FALSE,FALSE,FALSE,6.974496947,79.91426519,2.1,127.2,328,TRUE,1,1,FALSE,FALSE,FALSE,FALSE,,TRUE,FALSE,FALSE,Course Lock,65.6,41.9,16.4,Calm,27,,1.12.8,Mavic Mini,1SDCH7G0169R0K,1SFLH6Q0AB03DJ,1SRCH7F014TAHX,1U5X071EXP5ZJG,99.8,0.2,3.2,4.740075,1.342164,0,0,Mavic Mini,1SDCH7G0169R0K,1SFLH6Q0AB03DJ,1SRCH7F014TAHX,1U5X071EXP5ZJG,DJI Fly,,1.12.8,43DBD83D-B860-D827-82B2-A3DB54DAAF0A,1SDCH7G0169R0K,,,,,6.974483435,79.91426144,5,,
2/15/2024,26:50.4,1m 55.4s,115.4,6.974499219,79.91427078,0,0,0.3,49,0.4,0,0,0,0,0,0,0,0,4.4,0.3,-159.1,200.9,,Manual Takeoff,Drop Calibration,Takeoff (RC Assisted),15,5,TRUE,,Mavic Mini,TRUE,FALSE,,Smart,RC,TRUE,TRUE,FALSE,,,TRUE,,FALSE,FALSE,FALSE,FALSE,FALSE,FALSE,FALSE,FALSE,FALSE,FALSE,0,Follow Yaw,-25.7,0,-132.6,227.4,FALSE,FALSE,FALSE,FALSE,FALSE,FALSE,,TRUE,Normal,,100,1024,1024,1024,1024,2,FALSE,FALSE,FALSE,FALSE,FALSE,0,FALSE,FALSE,FALSE,FALSE,90,7.976,1905,2113,7.978,FALSE,3.986,3.99,0.004,FALSE,FALSE,NA,91,91,91,0,0,0,0,5,2596.2,649.06,,Idle,0,20,FALSE,5,TRUE,9,Go Home,FALSE,FALSE,FALSE,FALSE,FALSE,FALSE,FALSE,FALSE,FALSE,FALSE,FALSE,FALSE,6.974496947,79.91426519,2.1,127.2,328,TRUE,1,1,FALSE,FALSE,FALSE,FALSE,,TRUE,FALSE,FALSE,Course Lock,65.6,41.9,16.4,Calm,27,,1.12.8,Mavic Mini,1SDCH7G0169R0K,1SFLH6Q0AB03DJ,1SRCH7F014TAHX,1U5X071EXP5ZJG,99.8,0.2,3.2,4.740075,1.342164,0,0,Mavic Mini,1SDCH7G0169R0K,1SFLH6Q0AB03DJ,1SRCH7F014TAHX,1U5X071EXP5ZJG,DJI Fly,,1.12.8,43DBD83D-B860-D827-82B2-A3DB54DAAF0A,1SDCH7G0169R0K,,,,,6.974483435,79.91426144,5,,
2/15/2024,26:50.5,1m 55.5s,115.5,6.974499253,79.91427078,0,0,0.3,49,0.4,0,0,0,0,0,0,0,0,4.4,0.3,-159.1,200.9,,Manual Takeoff,Drop Calibration,Takeoff (RC Assisted),15,5,TRUE,,Mavic Mini,TRUE,FALSE,,Smart,RC,TRUE,TRUE,FALSE,,,TRUE,,FALSE,FALSE,FALSE,FALSE,FALSE,FALSE,FALSE,FALSE,FALSE,FALSE,0,Follow Yaw,-25.7,0,-132.6,227.4,FALSE,FALSE,FALSE,FALSE,FALSE,FALSE,,TRUE,Normal,,100,1024,1024,1024,1024,2,FALSE,FALSE,FALSE,FALSE,FALSE,0,FALSE,FALSE,FALSE,FALSE,90,7.976,1905,2113,7.978,FALSE,3.986,3.99,0.004,FALSE,FALSE,NA,91,91,91,0,0,0,0,5,2596.2,649.06,,Idle,0,20,FALSE,5,TRUE,9,Go Home,FALSE,FALSE,FALSE,FALSE,FALSE,FALSE,FALSE,FALSE,FALSE,FALSE,FALSE,FALSE,6.974496947,79.91426519,2.1,127.2,328,TRUE,1,1,FALSE,FALSE,FALSE,FALSE,,TRUE,FALSE,FALSE,Course Lock,65.6,41.9,16.4,Calm,27,,1.12.8,Mavic Mini,1SDCH7G0169R0K,1SFLH6Q0AB03DJ,1SRCH7F014TAHX,1U5X071EXP5ZJG,99.8,0.2,3.2,4.740075,1.342164,0,0,Mavic Mini,1SDCH7G0169R0K,1SFLH6Q0AB03DJ,1SRCH7F014TAHX,1U5X071EXP5ZJG,DJI Fly,,1.12.8,43DBD83D-B860-D827-82B2-A3DB54DAAF0A,1SDCH7G0169R0K,,,,,6.974483435,79.91426144,5,,
2/15/2024,26:50.6,1m 55.6s,115.6,6.974499286,79.91427078,0,0,0.3,49,0.4,0,0,0,0,0,0,0,0,4.4,0.3,-159.1,200.9,,Manual Takeoff,Drop Calibration,Takeoff (RC Assisted),15,5,TRUE,,Mavic Mini,TRUE,FALSE,,Smart,RC,TRUE,TRUE,FALSE,,,TRUE,,FALSE,FALSE,FALSE,FALSE,FALSE,FALSE,FALSE,FALSE,FALSE,FALSE,0,Follow Yaw,-25.7,0,-132.6,227.4,FALSE,FALSE,FALSE,FALSE,FALSE,FALSE,,TRUE,Normal,,100,1024,1024,1024,1024,2,FALSE,FALSE,FALSE,FALSE,FALSE,0,FALSE,FALSE,FALSE,FALSE,90,7.976,1905,2113,7.978,FALSE,3.986,3.99,0.004,FALSE,FALSE,NA,91,91,91,0,0,0,0,5,2596.2,649.06,,Idle,0,20,FALSE,5,TRUE,9,Go Home,FALSE,FALSE,FALSE,FALSE,FALSE,FALSE,FALSE,FALSE,FALSE,FALSE,FALSE,FALSE,6.974496947,79.91426519,2.1,127.2,328,TRUE,1,1,FALSE,FALSE,FALSE,FALSE,,TRUE,FALSE,FALSE,Course Lock,65.6,41.9,16.4,Calm,27,,1.12.8,Mavic Mini,1SDCH7G0169R0K,1SFLH6Q0AB03DJ,1SRCH7F014TAHX,1U5X071EXP5ZJG,99.8,0.2,3.2,4.740075,1.342164,0,0,Mavic Mini,1SDCH7G0169R0K,1SFLH6Q0AB03DJ,1SRCH7F014TAHX,1U5X071EXP5ZJG,DJI Fly,,1.12.8,43DBD83D-B860-D827-82B2-A3DB54DAAF0A,1SDCH7G0169R0K,,,,,6.974483435,79.91426144,5,,
2/15/2024,26:50.8,1m 55.7s,115.7,6.974499374,79.91427079,0,0,0.3,49,0.4,0,0,0,0,0,0,0,0,4.4,0.3,-159.1,200.9,,Manual Takeoff,Drop Calibration,Takeoff (RC Assisted),15,5,TRUE,,Mavic Mini,TRUE,FALSE,,Smart,RC,TRUE,TRUE,FALSE,,,TRUE,,FALSE,FALSE,FALSE,FALSE,FALSE,FALSE,FALSE,FALSE,FALSE,FALSE,0,Follow Yaw,-25.7,0,-132.6,227.4,FALSE,FALSE,FALSE,FALSE,FALSE,FALSE,,TRUE,Normal,,100,1024,1024,1024,1024,2,FALSE,FALSE,FALSE,FALSE,FALSE,0,FALSE,FALSE,FALSE,FALSE,90,7.976,1905,2113,7.978,FALSE,3.986,3.99,0.004,FALSE,FALSE,NA,91,91,91,0,0,0,0,5,2596.2,649.06,,Idle,0,20,FALSE,5,TRUE,9,Go Home,FALSE,FALSE,FALSE,FALSE,FALSE,FALSE,FALSE,FALSE,FALSE,FALSE,FALSE,FALSE,6.974496947,79.91426519,2.2,127.2,328,TRUE,1,1,FALSE,FALSE,FALSE,FALSE,,TRUE,FALSE,FALSE,Course Lock,65.6,41.9,16.4,Calm,27,,1.12.8,Mavic Mini,1SDCH7G0169R0K,1SFLH6Q0AB03DJ,1SRCH7F014TAHX,1U5X071EXP5ZJG,99.8,0.2,3.2,4.740075,1.342164,0,0,Mavic Mini,1SDCH7G0169R0K,1SFLH6Q0AB03DJ,1SRCH7F014TAHX,1U5X071EXP5ZJG,DJI Fly,,1.12.8,43DBD83D-B860-D827-82B2-A3DB54DAAF0A,1SDCH7G0169R0K,,,,,6.974483435,79.91426144,5,,
2/15/2024,26:50.9,1m 55.8s,115.8,6.974499422,79.9142708,0,0,0.3,49,0.4,0,0,0,0,0,0,0,0,4.4,0.3,-159.1,200.9,,Manual Takeoff,Drop Calibration,Takeoff (RC Assisted),15,5,TRUE,,Mavic Mini,TRUE,FALSE,,Smart,RC,TRUE,TRUE,FALSE,,,TRUE,,FALSE,FALSE,FALSE,FALSE,FALSE,FALSE,FALSE,FALSE,FALSE,FALSE,0,Follow Yaw,-25.7,0,-132.6,227.4,FALSE,FALSE,FALSE,FALSE,FALSE,FALSE,,TRUE,Normal,,100,1024,1024,1024,1024,2,FALSE,FALSE,FALSE,FALSE,FALSE,0,FALSE,FALSE,FALSE,FALSE,90,7.976,1905,2113,7.978,FALSE,3.986,3.99,0.004,FALSE,FALSE,NA,91,91,91,0,0,0,0,5,2596.2,649.06,,Idle,0,20,FALSE,5,TRUE,9,Go Home,FALSE,FALSE,FALSE,FALSE,FALSE,FALSE,FALSE,FALSE,FALSE,FALSE,FALSE,FALSE,6.974496947,79.91426519,2.2,127.2,328,TRUE,1,1,FALSE,FALSE,FALSE,FALSE,,TRUE,FALSE,FALSE,Course Lock,65.6,41.9,16.4,Calm,27,,1.12.8,Mavic Mini,1SDCH7G0169R0K,1SFLH6Q0AB03DJ,1SRCH7F014TAHX,1U5X071EXP5ZJG,99.8,0.2,3.2,4.740075,1.342164,0,0,Mavic Mini,1SDCH7G0169R0K,1SFLH6Q0AB03DJ,1SRCH7F014TAHX,1U5X071EXP5ZJG,DJI Fly,,1.12.8,43DBD83D-B860-D827-82B2-A3DB54DAAF0A,1SDCH7G0169R0K,,,,,6.974483435,79.91426144,5,,
2/15/2024,26:51.0,1m 55.9s,115.9,6.974499426,79.91427085,0,0,0.3,49,0.5,0,0,0,0,0,0,0,0,4.4,0.3,-159.1,200.9,,Manual Takeoff,Drop Calibration,Takeoff (RC Assisted),15,5,TRUE,,Mavic Mini,TRUE,FALSE,,Smart,RC,TRUE,TRUE,FALSE,,,TRUE,,FALSE,FALSE,FALSE,FALSE,FALSE,FALSE,FALSE,FALSE,FALSE,FALSE,0,Follow Yaw,-25.7,0,-132.6,227.4,FALSE,FALSE,FALSE,FALSE,FALSE,FALSE,,TRUE,Normal,,100,1024,1024,1068,1024,2,FALSE,FALSE,FALSE,FALSE,FALSE,0,FALSE,FALSE,FALSE,FALSE,90,7.976,1905,2113,7.978,FALSE,3.986,3.99,0.004,FALSE,FALSE,NA,91,91,91,0,0,0,0,5,2596.2,649.06,,Idle,0,20,FALSE,5,TRUE,9,Go Home,FALSE,FALSE,FALSE,FALSE,FALSE,FALSE,FALSE,FALSE,FALSE,FALSE,FALSE,FALSE,6.974496947,79.91426519,2.2,127.2,328,TRUE,1,1,FALSE,FALSE,FALSE,FALSE,,TRUE,FALSE,FALSE,Course Lock,65.6,41.9,16.4,Calm,27,,1.12.8,Mavic Mini,1SDCH7G0169R0K,1SFLH6Q0AB03DJ,1SRCH7F014TAHX,1U5X071EXP5ZJG,99.8,0.2,3.2,4.740075,1.342164,0,0,Mavic Mini,1SDCH7G0169R0K,1SFLH6Q0AB03DJ,1SRCH7F014TAHX,1U5X071EXP5ZJG,DJI Fly,,1.12.8,43DBD83D-B860-D827-82B2-A3DB54DAAF0A,1SDCH7G0169R0K,,,,,6.974483435,79.91426144,5,,
2/15/2024,26:51.2,1m 56.0s,116,6.974499431,79.9142709,0,0,0.3,49,0.5,0,0,0,0,0,0,0,0,4.4,0.3,-159.1,200.9,,Manual Takeoff,Drop Calibration,Takeoff (RC Assisted),15,5,TRUE,,Mavic Mini,TRUE,FALSE,,Smart,RC,TRUE,TRUE,FALSE,,,TRUE,,FALSE,FALSE,FALSE,FALSE,FALSE,FALSE,FALSE,FALSE,FALSE,FALSE,0,Follow Yaw,-25.7,0,-132.6,227.4,FALSE,FALSE,FALSE,FALSE,FALSE,FALSE,,TRUE,Normal,,100,1024,1024,1160,1024,2,FALSE,FALSE,FALSE,FALSE,FALSE,0,FALSE,FALSE,FALSE,FALSE,90,7.978,1905,2113,7.978,FALSE,3.988,3.99,0.004,FALSE,FALSE,NA,91,91,91,0,0,0,0,5,2596.2,649.06,,Idle,0,20,FALSE,5,TRUE,9,Go Home,FALSE,FALSE,FALSE,FALSE,FALSE,FALSE,FALSE,FALSE,FALSE,FALSE,FALSE,FALSE,6.974496947,79.91426519,2.2,127.2,328,TRUE,1,1,FALSE,FALSE,FALSE,FALSE,,TRUE,FALSE,FALSE,Course Lock,65.6,41.9,16.4,Calm,27,,1.12.8,Mavic Mini,1SDCH7G0169R0K,1SFLH6Q0AB03DJ,1SRCH7F014TAHX,1U5X071EXP5ZJG,99.8,0.2,3.2,4.740075,1.342164,0,0,Mavic Mini,1SDCH7G0169R0K,1SFLH6Q0AB03DJ,1SRCH7F014TAHX,1U5X071EXP5ZJG,DJI Fly,,1.12.8,43DBD83D-B860-D827-82B2-A3DB54DAAF0A,1SDCH7G0169R0K,,,,,6.974483435,79.91426144,5,,
2/15/2024,26:51.2,1m 56.1s,116.1,6.974499433,79.91427098,0,0,0.3,49,0.5,0,0,0,0,0,0,0,0,4.4,0.3,-159.1,200.9,,Manual Takeoff,Drop Calibration,Takeoff (RC Assisted),15,5,TRUE,,Mavic Mini,TRUE,FALSE,,Smart,RC,TRUE,TRUE,FALSE,,,TRUE,,FALSE,FALSE,FALSE,FALSE,FALSE,FALSE,FALSE,FALSE,FALSE,FALSE,0,Follow Yaw,-25.7,0,-132.6,227.4,FALSE,FALSE,FALSE,FALSE,FALSE,FALSE,,TRUE,Normal,,100,1024,1024,1160,1024,2,FALSE,FALSE,FALSE,FALSE,FALSE,0,FALSE,FALSE,FALSE,FALSE,90,7.978,1905,2113,7.978,FALSE,3.988,3.99,0.004,FALSE,FALSE,NA,91,91,91,0,0,0,0,5,2596.2,649.06,,Idle,0,20,FALSE,5,TRUE,9,Go Home,FALSE,FALSE,FALSE,FALSE,FALSE,FALSE,FALSE,FALSE,FALSE,FALSE,FALSE,FALSE,6.974496947,79.91426519,2.2,127.2,328,TRUE,1,1,FALSE,FALSE,FALSE,FALSE,,TRUE,FALSE,FALSE,Course Lock,65.6,41.9,16.4,Calm,27,,1.12.8,Mavic Mini,1SDCH7G0169R0K,1SFLH6Q0AB03DJ,1SRCH7F014TAHX,1U5X071EXP5ZJG,99.8,0.2,3.2,4.740075,1.342164,0,0,Mavic Mini,1SDCH7G0169R0K,1SFLH6Q0AB03DJ,1SRCH7F014TAHX,1U5X071EXP5ZJG,DJI Fly,,1.12.8,43DBD83D-B860-D827-82B2-A3DB54DAAF0A,1SDCH7G0169R0K,,,,,6.974483435,79.91426144,5,,
2/15/2024,26:51.3,1m 56.2s,116.2,6.974499471,79.914271,0,0,0.3,49,0.5,0,0,0,0,0,0,0,0,4.4,0.3,-159,201,,Manual Takeoff,Drop Calibration,Takeoff (RC Assisted),15,5,TRUE,,Mavic Mini,TRUE,FALSE,,Smart,RC,TRUE,TRUE,FALSE,,,TRUE,,FALSE,FALSE,FALSE,FALSE,FALSE,FALSE,FALSE,FALSE,FALSE,FALSE,0,Follow Yaw,-25.7,0,-132.6,227.4,FALSE,FALSE,FALSE,FALSE,FALSE,FALSE,,TRUE,Normal,,100,1024,1024,1231,1024,2,FALSE,FALSE,FALSE,FALSE,FALSE,0,FALSE,FALSE,FALSE,FALSE,90,7.978,1905,2113,7.978,FALSE,3.988,3.99,0.004,FALSE,FALSE,NA,91,91,91,0,0,0,0,5,2596.2,649.06,,Idle,0,20,FALSE,5,TRUE,9,Go Home,FALSE,FALSE,FALSE,FALSE,FALSE,FALSE,FALSE,FALSE,FALSE,FALSE,FALSE,FALSE,6.974496947,79.91426519,2.2,127.2,328,TRUE,1,1,FALSE,FALSE,FALSE,FALSE,,TRUE,FALSE,FALSE,Course Lock,65.6,41.9,16.4,Calm,27,,1.12.8,Mavic Mini,1SDCH7G0169R0K,1SFLH6Q0AB03DJ,1SRCH7F014TAHX,1U5X071EXP5ZJG,99.8,0.2,3.2,4.740075,1.342164,0,0,Mavic Mini,1SDCH7G0169R0K,1SFLH6Q0AB03DJ,1SRCH7F014TAHX,1U5X071EXP5ZJG,DJI Fly,,1.12.8,43DBD83D-B860-D827-82B2-A3DB54DAAF0A,1SDCH7G0169R0K,,,,,6.974483435,79.91426144,5,,
2/15/2024,26:51.4,1m 56.3s,116.3,6.974499525,79.91427106,0,0,0.3,49,0.6,0,0,0,0,0,0,0,0,4.3,0.3,-159,201,,Manual Takeoff,Drop Calibration,Takeoff (RC Assisted),15,5,TRUE,,Mavic Mini,TRUE,FALSE,,Smart,RC,TRUE,TRUE,FALSE,,,TRUE,,FALSE,FALSE,FALSE,FALSE,FALSE,FALSE,FALSE,FALSE,FALSE,FALSE,0,Follow Yaw,-25.7,0,-132.6,227.4,FALSE,FALSE,FALSE,FALSE,FALSE,FALSE,,TRUE,Normal,,100,1024,1024,1231,1024,2,FALSE,FALSE,FALSE,FALSE,FALSE,0,FALSE,FALSE,FALSE,FALSE,90,7.978,1905,2113,7.976,FALSE,3.988,3.99,0.004,FALSE,FALSE,NA,91,91,91,0,1,0,0,5,2760.8,690.2,,Idle,0,20,FALSE,5,TRUE,9,Go Home,FALSE,FALSE,FALSE,FALSE,FALSE,FALSE,FALSE,FALSE,FALSE,FALSE,FALSE,FALSE,6.974496947,79.91426519,2.3,127.2,328,TRUE,1,1,FALSE,FALSE,FALSE,FALSE,,TRUE,FALSE,FALSE,Course Lock,65.6,41.9,16.4,Calm,27,,1.12.8,Mavic Mini,1SDCH7G0169R0K,1SFLH6Q0AB03DJ,1SRCH7F014TAHX,1U5X071EXP5ZJG,99.8,0.2,3.2,4.740075,1.342164,0,0,Mavic Mini,1SDCH7G0169R0K,1SFLH6Q0AB03DJ,1SRCH7F014TAHX,1U5X071EXP5ZJG,DJI Fly,,1.12.8,43DBD83D-B860-D827-82B2-A3DB54DAAF0A,1SDCH7G0169R0K,,,,,6.974483435,79.91426144,5,,
2/15/2024,26:51.5,1m 56.4s,116.4,6.974499577,79.91427111,0,0,0.3,49,0.6,0,0,0,0,0,0,0,0,4.3,0.3,-159.1,200.9,,Manual Takeoff,Drop Calibration,Takeoff (RC Assisted),15,5,TRUE,,Mavic Mini,TRUE,FALSE,,Smart,RC,TRUE,TRUE,FALSE,,,TRUE,,FALSE,FALSE,FALSE,FALSE,FALSE,FALSE,FALSE,FALSE,FALSE,FALSE,0,Follow Yaw,-25.7,0,-132.6,227.4,FALSE,FALSE,FALSE,FALSE,FALSE,FALSE,,TRUE,Normal,,100,1024,1024,1228,1024,2,FALSE,FALSE,FALSE,FALSE,FALSE,0,FALSE,FALSE,FALSE,FALSE,90,7.978,1905,2113,7.976,FALSE,3.988,3.99,0.004,FALSE,FALSE,NA,91,91,91,0,1,0,0,5,2760.8,690.2,,Idle,0,20,FALSE,5,TRUE,9,Go Home,FALSE,FALSE,FALSE,FALSE,FALSE,FALSE,FALSE,FALSE,FALSE,FALSE,FALSE,FALSE,6.974496947,79.91426519,2.3,127.2,328,TRUE,1,1,FALSE,FALSE,FALSE,FALSE,,TRUE,FALSE,FALSE,Course Lock,65.6,41.9,16.4,Calm,27,,1.12.8,Mavic Mini,1SDCH7G0169R0K,1SFLH6Q0AB03DJ,1SRCH7F014TAHX,1U5X071EXP5ZJG,99.8,0.2,3.2,4.740075,1.342164,0,0,Mavic Mini,1SDCH7G0169R0K,1SFLH6Q0AB03DJ,1SRCH7F014TAHX,1U5X071EXP5ZJG,DJI Fly,,1.12.8,43DBD83D-B860-D827-82B2-A3DB54DAAF0A,1SDCH7G0169R0K,,,,,6.974483435,79.91426144,5,,
2/15/2024,26:51.6,1m 56.5s,116.5,6.974499698,79.91427113,0,0,0.3,49,0.6,0,0,0,0,0,0,0,0,4.2,0.3,-159.2,200.8,,Manual Takeoff,Drop Calibration,Takeoff (RC Assisted),15,5,TRUE,,Mavic Mini,TRUE,FALSE,,Smart,RC,TRUE,TRUE,FALSE,,,TRUE,,FALSE,FALSE,FALSE,FALSE,FALSE,FALSE,FALSE,FALSE,FALSE,FALSE,0,Follow Yaw,-25.7,0,-132.6,227.4,FALSE,FALSE,FALSE,FALSE,FALSE,FALSE,,TRUE,Normal,,100,1024,1024,1227,1024,2,FALSE,FALSE,FALSE,FALSE,FALSE,0,FALSE,FALSE,FALSE,FALSE,90,7.978,1905,2113,7.976,FALSE,3.988,3.99,0.004,FALSE,FALSE,NA,91,91,91,0,1,0,0,5,2760.8,690.2,,Idle,0,20,FALSE,5,TRUE,9,Go Home,FALSE,FALSE,FALSE,FALSE,FALSE,FALSE,FALSE,FALSE,FALSE,FALSE,FALSE,FALSE,6.974496947,79.91426519,2.3,127.2,328,TRUE,1,1,FALSE,FALSE,FALSE,FALSE,,TRUE,FALSE,FALSE,Course Lock,65.6,41.9,16.4,Calm,27,,1.12.8,Mavic Mini,1SDCH7G0169R0K,1SFLH6Q0AB03DJ,1SRCH7F014TAHX,1U5X071EXP5ZJG,99.8,0.2,3.2,4.740075,1.342164,0,0,Mavic Mini,1SDCH7G0169R0K,1SFLH6Q0AB03DJ,1SRCH7F014TAHX,1U5X071EXP5ZJG,DJI Fly,,1.12.8,43DBD83D-B860-D827-82B2-A3DB54DAAF0A,1SDCH7G0169R0K,,,,,6.974483435,79.91426144,5,,
2/15/2024,26:51.7,1m 56.6s,116.6,6.974499749,79.91427113,0,0,0.3,49,0.6,0,0,0,0,0,0,0,0,4.1,0.4,-159.6,200.4,,Manual Takeoff,Drop Calibration,Takeoff (RC Assisted),15,5,TRUE,,Mavic Mini,TRUE,FALSE,,Smart,RC,TRUE,TRUE,FALSE,,,TRUE,,FALSE,FALSE,FALSE,FALSE,FALSE,FALSE,FALSE,FALSE,FALSE,FALSE,0,Follow Yaw,-25.7,0,-132.7,227.3,FALSE,FALSE,FALSE,FALSE,FALSE,FALSE,,TRUE,Normal,,100,1024,1024,1227,1024,2,FALSE,FALSE,FALSE,FALSE,FALSE,0,FALSE,FALSE,FALSE,FALSE,90,7.978,1905,2113,7.976,FALSE,3.988,3.99,0.004,FALSE,FALSE,NA,91,91,91,0,1,0,0,5,2760.8,690.2,,Idle,0,20,FALSE,5,TRUE,9,Go Home,FALSE,FALSE,FALSE,FALSE,FALSE,FALSE,FALSE,FALSE,FALSE,FALSE,FALSE,FALSE,6.974496947,79.91426519,2.3,127.2,328,TRUE,1,1,FALSE,FALSE,FALSE,FALSE,,TRUE,FALSE,FALSE,Course Lock,65.6,41.9,16.4,Calm,27,,1.12.8,Mavic Mini,1SDCH7G0169R0K,1SFLH6Q0AB03DJ,1SRCH7F014TAHX,1U5X071EXP5ZJG,99.8,0.2,3.2,4.740075,1.342164,0,0,Mavic Mini,1SDCH7G0169R0K,1SFLH6Q0AB03DJ,1SRCH7F014TAHX,1U5X071EXP5ZJG,DJI Fly,,1.12.8,43DBD83D-B860-D827-82B2-A3DB54DAAF0A,1SDCH7G0169R0K,,,,,6.974483435,79.91426144,5,,
2/15/2024,26:51.8,1m 56.7s,116.7,6.974499747,79.91427112,0,0,0.3,49,0.7,0,0,0,0,0,0,0,0,3.7,0.4,-160.6,199.4,,Manual Takeoff,Drop Calibration,Takeoff (RC Assisted),15,5,TRUE,,Mavic Mini,TRUE,FALSE,,Smart,RC,TRUE,TRUE,FALSE,,,TRUE,,FALSE,FALSE,FALSE,FALSE,FALSE,FALSE,FALSE,FALSE,FALSE,FALSE,0,Follow Yaw,-25.7,0,-133.1,226.9,FALSE,FALSE,FALSE,FALSE,FALSE,FALSE,,TRUE,Normal,,100,1024,1024,1229,1024,2,FALSE,FALSE,FALSE,FALSE,FALSE,0,FALSE,FALSE,FALSE,FALSE,90,7.978,1905,2113,7.976,FALSE,3.988,3.99,0.004,FALSE,FALSE,NA,91,91,91,0,1,0,0,5,2760.8,690.2,,Idle,0,20,FALSE,5,TRUE,9,Go Home,FALSE,FALSE,FALSE,FALSE,FALSE,FALSE,FALSE,FALSE,FALSE,FALSE,FALSE,FALSE,6.974496947,79.91426519,2.3,127.2,328,TRUE,1,1,FALSE,FALSE,FALSE,FALSE,,TRUE,FALSE,FALSE,Course Lock,65.6,41.9,16.4,Calm,27,,1.12.8,Mavic Mini,1SDCH7G0169R0K,1SFLH6Q0AB03DJ,1SRCH7F014TAHX,1U5X071EXP5ZJG,99.8,0.2,3.2,4.740075,1.342164,0,0,Mavic Mini,1SDCH7G0169R0K,1SFLH6Q0AB03DJ,1SRCH7F014TAHX,1U5X071EXP5ZJG,DJI Fly,,1.12.8,43DBD83D-B860-D827-82B2-A3DB54DAAF0A,1SDCH7G0169R0K,,,,,6.974483435,79.91426144,5,,
2/15/2024,26:51.9,1m 56.8s,116.8,6.974499731,79.91427109,0,0,0.3,49,0.7,0,0,0,0,0,0,0,0,1.8,0.6,-162.9,197.1,,Manual Takeoff,Drop Calibration,Takeoff (RC Assisted),15,5,TRUE,,Mavic Mini,TRUE,FALSE,,Smart,RC,TRUE,TRUE,FALSE,,,TRUE,,FALSE,FALSE,FALSE,FALSE,FALSE,FALSE,FALSE,FALSE,FALSE,FALSE,0,Follow Yaw,-25.7,0,-134.5,225.5,FALSE,FALSE,FALSE,FALSE,FALSE,FALSE,,TRUE,Normal,,100,1024,1024,1229,1024,2,FALSE,FALSE,FALSE,FALSE,FALSE,0,FALSE,FALSE,FALSE,FALSE,90,7.978,1905,2113,7.976,FALSE,3.988,3.99,0.004,FALSE,FALSE,NA,91,91,91,0,1,0,0,5,2760.8,690.2,,Idle,0,20,FALSE,5,TRUE,9,Go Home,FALSE,FALSE,FALSE,FALSE,FALSE,FALSE,FALSE,FALSE,FALSE,FALSE,FALSE,FALSE,6.974496947,79.91426519,2.3,127.2,328,TRUE,1,1,FALSE,FALSE,FALSE,FALSE,,TRUE,FALSE,FALSE,Course Lock,65.6,41.9,16.4,Calm,27,,1.12.8,Mavic Mini,1SDCH7G0169R0K,1SFLH6Q0AB03DJ,1SRCH7F014TAHX,1U5X071EXP5ZJG,99.8,0.2,3.2,4.740075,1.342164,0,0,Mavic Mini,1SDCH7G0169R0K,1SFLH6Q0AB03DJ,1SRCH7F014TAHX,1U5X071EXP5ZJG,DJI Fly,,1.12.8,43DBD83D-B860-D827-82B2-A3DB54DAAF0A,1SDCH7G0169R0K,,,,,6.974483435,79.91426144,5,,
2/15/2024,26:52.0,1m 56.9s,116.9,6.974499663,79.91427106,0,0,0.3,49,0.7,0,0,0,0,0,0,0,0,-2,0.1,-164.6,195.4,,Manual Takeoff,Drop Calibration,Takeoff (RC Assisted),15,5,TRUE,,Mavic Mini,TRUE,FALSE,,Smart,RC,TRUE,TRUE,FALSE,,,TRUE,,FALSE,FALSE,FALSE,FALSE,FALSE,FALSE,FALSE,FALSE,FALSE,FALSE,0,Follow Yaw,-25.7,0,-136.4,223.6,FALSE,FALSE,FALSE,FALSE,FALSE,FALSE,,TRUE,Normal,,100,1024,1024,1229,1024,2,FALSE,FALSE,FALSE,FALSE,FALSE,0,FALSE,FALSE,FALSE,FALSE,90,7.978,1905,2113,7.976,FALSE,3.988,3.99,0.004,FALSE,FALSE,NA,91,91,91,0,1,0,0,5,2760.8,690.2,,Idle,0,20,FALSE,5,TRUE,9,Go Home,FALSE,FALSE,FALSE,FALSE,FALSE,FALSE,FALSE,FALSE,FALSE,FALSE,FALSE,FALSE,6.974496947,79.91426519,2.3,127.2,328,TRUE,1,1,FALSE,FALSE,FALSE,FALSE,,TRUE,FALSE,FALSE,Course Lock,65.6,41.9,16.4,Calm,27,,1.12.8,Mavic Mini,1SDCH7G0169R0K,1SFLH6Q0AB03DJ,1SRCH7F014TAHX,1U5X071EXP5ZJG,99.8,0.2,3.2,4.740075,1.342164,0,0,Mavic Mini,1SDCH7G0169R0K,1SFLH6Q0AB03DJ,1SRCH7F014TAHX,1U5X071EXP5ZJG,DJI Fly,,1.12.8,43DBD83D-B860-D827-82B2-A3DB54DAAF0A,1SDCH7G0169R0K,,,,,6.974483435,79.91426144,5,,
2/15/2024,26:52.1,1m 57.0s,117,6.974499589,79.91427101,0,0,0.3,49,0.7,0.316351,0.316351,-0.223694,0,-0.223694,0,0,0,-3.3,-0.1,-164.5,195.5,210.5,Manual Takeoff,Drop Calibration,Takeoff (RC Assisted),15,5,TRUE,,Mavic Mini,TRUE,FALSE,,Smart,RC,TRUE,TRUE,FALSE,,,TRUE,,FALSE,FALSE,FALSE,FALSE,FALSE,FALSE,FALSE,FALSE,FALSE,FALSE,0,Follow Yaw,-25.7,0,-137.1,222.9,FALSE,FALSE,FALSE,FALSE,FALSE,FALSE,,TRUE,Normal,,100,1024,1024,1229,1024,2,FALSE,FALSE,FALSE,FALSE,FALSE,0,FALSE,FALSE,FALSE,FALSE,90,7.978,1905,2113,7.976,FALSE,3.988,3.99,0.004,FALSE,FALSE,NA,91,91,91,0,1,0,0,5,2760.8,690.2,,Idle,0,20,FALSE,5,TRUE,9,Go Home,FALSE,FALSE,FALSE,FALSE,FALSE,FALSE,FALSE,FALSE,FALSE,FALSE,FALSE,FALSE,6.974496947,79.91426519,2.3,127.2,328,TRUE,1,1,FALSE,FALSE,FALSE,FALSE,,TRUE,FALSE,FALSE,Course Lock,65.6,41.9,16.4,Calm,27,,1.12.8,Mavic Mini,1SDCH7G0169R0K,1SFLH6Q0AB03DJ,1SRCH7F014TAHX,1U5X071EXP5ZJG,99.8,0.2,3.2,4.740075,1.342164,0,0,Mavic Mini,1SDCH7G0169R0K,1SFLH6Q0AB03DJ,1SRCH7F014TAHX,1U5X071EXP5ZJG,DJI Fly,,1.12.8,43DBD83D-B860-D827-82B2-A3DB54DAAF0A,1SDCH7G0169R0K,,,,,6.974483435,79.91426144,5,,
2/15/2024,26:52.2,1m 57.1s,117.1,6.974499396,79.91427086,0.3,0.3,0.3,49,0.8,0.500194,0.500194,-0.447388,0,-0.223694,0,-0.223694,0,-4.8,0.1,-164.8,195.2,209.7,Manual Takeoff,Drop Calibration,,15,5,TRUE,,Mavic Mini,TRUE,FALSE,,Smart,RC,FALSE,TRUE,FALSE,,,TRUE,,FALSE,FALSE,FALSE,FALSE,FALSE,FALSE,FALSE,FALSE,FALSE,FALSE,0,Follow Yaw,-25.7,0,-137.4,222.6,FALSE,FALSE,FALSE,FALSE,FALSE,FALSE,,TRUE,Normal,,100,1024,1024,1229,1024,2,FALSE,FALSE,FALSE,FALSE,FALSE,0,FALSE,FALSE,FALSE,FALSE,90,7.865,1905,2113,7.976,FALSE,3.933,3.932,0.004,FALSE,FALSE,NA,91,91,91,0,1,0,0,5,2760.8,690.2,,Idle,0,20,FALSE,5,TRUE,9,Go Home,FALSE,FALSE,FALSE,FALSE,FALSE,FALSE,FALSE,FALSE,FALSE,FALSE,FALSE,FALSE,6.974496947,79.91426519,2.2,127.2,328,TRUE,1,1,FALSE,FALSE,FALSE,FALSE,,TRUE,FALSE,FALSE,Course Lock,65.6,41.9,16.4,Calm,27,,1.12.8,Mavic Mini,1SDCH7G0169R0K,1SFLH6Q0AB03DJ,1SRCH7F014TAHX,1U5X071EXP5ZJG,99.8,0.2,3.2,4.740075,1.342164,0,0,Mavic Mini,1SDCH7G0169R0K,1SFLH6Q0AB03DJ,1SRCH7F014TAHX,1U5X071EXP5ZJG,DJI Fly,,1.12.8,43DBD83D-B860-D827-82B2-A3DB54DAAF0A,1SDCH7G0169R0K,,,,,6.974483435,79.91426144,5,,
2/15/2024,26:52.2,1m 57.2s,117.2,6.974499123,79.91427067,0.3,0.3,0.3,49,0.9,0.80654,0.80654,-0.671082,0,-0.447388,0,-0.671082,0,-1,0,-164.9,195.1,209,Tripod,Drop Calibration,,15,5,TRUE,,Mavic Mini,TRUE,FALSE,,Smart,RC,FALSE,TRUE,FALSE,,,TRUE,,FALSE,FALSE,FALSE,FALSE,FALSE,FALSE,FALSE,FALSE,FALSE,FALSE,0,Follow Yaw,-25.7,0,-137.5,222.5,FALSE,FALSE,FALSE,FALSE,FALSE,FALSE,,TRUE,Normal,,100,1024,1024,1229,1024,2,FALSE,FALSE,FALSE,FALSE,FALSE,0,FALSE,FALSE,FALSE,FALSE,90,7.865,1905,2113,7.976,FALSE,3.933,3.932,0.004,FALSE,FALSE,NA,91,91,91,0,1,0,0,5,2760.8,690.2,,Idle,0,20,FALSE,5,TRUE,9,Go Home,FALSE,FALSE,FALSE,FALSE,FALSE,FALSE,FALSE,FALSE,FALSE,FALSE,FALSE,FALSE,6.974496947,79.91426519,2.1,127.2,328,TRUE,1,1,FALSE,FALSE,FALSE,FALSE,,TRUE,FALSE,FALSE,Course Lock,65.6,41.9,16.4,Calm,27,,1.12.8,Mavic Mini,1SDCH7G0169R0K,1SFLH6Q0AB03DJ,1SRCH7F014TAHX,1U5X071EXP5ZJG,99.8,0.2,3.2,4.740075,1.342164,0,0,Mavic Mini,1SDCH7G0169R0K,1SFLH6Q0AB03DJ,1SRCH7F014TAHX,1U5X071EXP5ZJG,DJI Fly,,1.12.8,43DBD83D-B860-D827-82B2-A3DB54DAAF0A,1SDCH7G0169R0K,,,,,6.974483435,79.91426144,5,Flight mode changed to Tripod.,
2/15/2024,26:52.5,1m 57.3s,117.3,6.974498797,79.9142704,0.3,0.3,0.6,49,1.1,1.11847,1.11847,-0.894776,0,-0.671082,0,-0.894776,0,4.3,-1.9,-164.5,195.5,212.3,Tripod,Drop Calibration,,15,5,TRUE,,Mavic Mini,TRUE,FALSE,,Smart,RC,FALSE,TRUE,FALSE,,,TRUE,,FALSE,FALSE,FALSE,FALSE,FALSE,FALSE,FALSE,FALSE,FALSE,FALSE,0,Follow Yaw,-25.7,0,-137.5,222.5,FALSE,FALSE,FALSE,FALSE,FALSE,FALSE,,TRUE,Normal,,100,1024,1024,1229,1024,2,FALSE,FALSE,FALSE,FALSE,FALSE,0,FALSE,FALSE,FALSE,FALSE,90,7.865,1905,2113,7.909,FALSE,3.933,3.932,0.004,FALSE,FALSE,NA,91,91,91,0,0,0,0,5,3089.4,772.36,,Idle,0,20,FALSE,5,TRUE,9,Go Home,FALSE,FALSE,FALSE,FALSE,FALSE,FALSE,FALSE,FALSE,FALSE,FALSE,FALSE,FALSE,6.974499346,79.91427083,0.2,127.2,328,TRUE,1,1,FALSE,FALSE,FALSE,FALSE,,TRUE,FALSE,FALSE,Course Lock,65.6,41.9,16.4,Calm,27,,1.12.8,Mavic Mini,1SDCH7G0169R0K,1SFLH6Q0AB03DJ,1SRCH7F014TAHX,1U5X071EXP5ZJG,99.8,0.2,3.2,4.740075,1.342164,0,0,Mavic Mini,1SDCH7G0169R0K,1SFLH6Q0AB03DJ,1SRCH7F014TAHX,1U5X071EXP5ZJG,DJI Fly,,1.12.8,43DBD83D-B860-D827-82B2-A3DB54DAAF0A,1SDCH7G0169R0K,,,,,6.974483435,79.91426144,5,Home Point Updated.,
2/15/2024,26:52.6,1m 57.4s,117.4,6.974498464,79.91427007,0.6,0.6,0.6,49,1.3,1.11847,1.11847,-0.894776,0,-0.671082,0,-1.11847,0,5.6,-2.5,-164.3,195.7,217.3,Tripod,Drop Calibration,,15,5,TRUE,,Mavic Mini,TRUE,FALSE,,Smart,RC,FALSE,TRUE,FALSE,,,TRUE,,FALSE,FALSE,FALSE,FALSE,FALSE,FALSE,FALSE,FALSE,FALSE,FALSE,0,Follow Yaw,-25.7,0,-137.5,222.5,FALSE,FALSE,FALSE,FALSE,FALSE,FALSE,,TRUE,Normal,,100,1024,1024,1228,1024,2,FALSE,FALSE,FALSE,FALSE,FALSE,0,FALSE,FALSE,FALSE,FALSE,90,7.865,1905,2113,7.909,FALSE,3.933,3.932,0.004,FALSE,FALSE,NA,91,91,91,0,0,0,0,5,3089.4,772.36,,Idle,0,20,FALSE,5,TRUE,9,Go Home,FALSE,FALSE,FALSE,FALSE,FALSE,FALSE,FALSE,FALSE,FALSE,FALSE,FALSE,FALSE,6.974499346,79.91427083,0.4,127.2,328,TRUE,1,1,FALSE,FALSE,FALSE,FALSE,,TRUE,FALSE,FALSE,Course Lock,65.6,41.9,16.4,Calm,27,,1.12.8,Mavic Mini,1SDCH7G0169R0K,1SFLH6Q0AB03DJ,1SRCH7F014TAHX,1U5X071EXP5ZJG,99.8,0.2,3.2,4.740075,1.342164,0,0,Mavic Mini,1SDCH7G0169R0K,1SFLH6Q0AB03DJ,1SRCH7F014TAHX,1U5X071EXP5ZJG,DJI Fly,,1.12.8,43DBD83D-B860-D827-82B2-A3DB54DAAF0A,1SDCH7G0169R0K,,,,,6.974483435,79.91426144,5,Home Point updated. RTH altitude adjusted to 20 m! (Code: 120852).,
2/15/2024,26:52.6,1m 57.5s,117.5,6.974498018,79.91426976,0.6,0.6,0.9,49,1.5,1.11847,1.11847,-0.894776,0,-0.671082,0,-1.342164,0,6.6,-2.7,-164.4,195.6,208.5,Tripod,Drop Calibration,,15,5,TRUE,,Mavic Mini,TRUE,FALSE,,Smart,RC,FALSE,TRUE,FALSE,,,TRUE,,FALSE,FALSE,FALSE,FALSE,FALSE,FALSE,FALSE,FALSE,FALSE,FALSE,0,Follow Yaw,-25.7,0,-137.5,222.5,FALSE,FALSE,FALSE,FALSE,FALSE,FALSE,,TRUE,Normal,,100,1024,1024,1228,1024,2,FALSE,FALSE,FALSE,FALSE,FALSE,0,FALSE,FALSE,FALSE,FALSE,90,7.865,1905,2113,7.909,FALSE,3.933,3.932,0.004,FALSE,FALSE,NA,91,91,91,0,0,0,0,5,3089.4,772.36,,Idle,0,20,FALSE,5,TRUE,9,Go Home,FALSE,FALSE,FALSE,FALSE,FALSE,FALSE,FALSE,FALSE,FALSE,FALSE,FALSE,FALSE,6.974499346,79.91427083,0.6,127.2,328,TRUE,1,1,FALSE,FALSE,FALSE,FALSE,,TRUE,FALSE,FALSE,Course Lock,65.6,41.9,16.4,Calm,27,,1.12.8,Mavic Mini,1SDCH7G0169R0K,1SFLH6Q0AB03DJ,1SRCH7F014TAHX,1U5X071EXP5ZJG,99.8,0.2,3.2,4.740075,1.342164,0,0,Mavic Mini,1SDCH7G0169R0K,1SFLH6Q0AB03DJ,1SRCH7F014TAHX,1U5X071EXP5ZJG,DJI Fly,,1.12.8,43DBD83D-B860-D827-82B2-A3DB54DAAF0A,1SDCH7G0169R0K,,,,,6.974483435,79.91426144,5,,
2/15/2024,26:52.7,1m 57.6s,117.6,6.974497617,79.91426947,0.9,0.9,1.3,50,1.6,0.80654,1.11847,-0.671082,0,-0.447388,0,-1.342164,0,6.4,-3.1,-164,196,208.8,Tripod,Drop Calibration,,15,5,TRUE,,Mavic Mini,TRUE,FALSE,,Smart,RC,FALSE,TRUE,FALSE,,,TRUE,,FALSE,FALSE,FALSE,FALSE,FALSE,FALSE,FALSE,FALSE,FALSE,FALSE,0,Follow Yaw,-25.7,0,-137.5,222.5,FALSE,FALSE,FALSE,FALSE,FALSE,FALSE,,TRUE,Normal,,100,1024,1024,1228,1024,2,FALSE,FALSE,FALSE,FALSE,FALSE,0,FALSE,FALSE,FALSE,FALSE,90,7.865,1905,2113,7.909,FALSE,3.933,3.932,0.004,FALSE,FALSE,NA,91,91,91,0,0,0,0,5,3089.4,772.36,,Idle,0,20,FALSE,5,TRUE,9,Go Home,FALSE,FALSE,FALSE,FALSE,FALSE,FALSE,FALSE,FALSE,FALSE,FALSE,FALSE,FALSE,6.974499346,79.91427083,0.8,127.2,328,TRUE,1,1,FALSE,FALSE,FALSE,FALSE,,TRUE,FALSE,FALSE,Course Lock,65.6,41.9,16.4,Calm,27,,1.12.8,Mavic Mini,1SDCH7G0169R0K,1SFLH6Q0AB03DJ,1SRCH7F014TAHX,1U5X071EXP5ZJG,99.8,0.2,3.2,4.740075,1.342164,0,0,Mavic Mini,1SDCH7G0169R0K,1SFLH6Q0AB03DJ,1SRCH7F014TAHX,1U5X071EXP5ZJG,DJI Fly,,1.12.8,43DBD83D-B860-D827-82B2-A3DB54DAAF0A,1SDCH7G0169R0K,,,,,6.974483435,79.91426144,5,,
2/15/2024,26:52.8,1m 57.7s,117.7,6.974497216,79.91426917,0.9,0.9,1.3,50,1.8,0.80654,1.11847,-0.671082,0,-0.447388,0,-1.342164,0,6,-2.8,-163.9,196.1,209.7,Tripod,Drop Calibration,,15,5,TRUE,,Mavic Mini,TRUE,FALSE,,Smart,RC,FALSE,TRUE,FALSE,,,TRUE,,FALSE,FALSE,FALSE,FALSE,FALSE,FALSE,FALSE,FALSE,FALSE,FALSE,0,Follow Yaw,-25.7,0,-137.5,222.5,FALSE,FALSE,FALSE,FALSE,FALSE,FALSE,,TRUE,Normal,,100,1024,1024,1229,1024,2,FALSE,FALSE,FALSE,FALSE,FALSE,0,FALSE,FALSE,FALSE,FALSE,90,7.865,1905,2113,7.909,FALSE,3.933,3.932,0.004,FALSE,FALSE,NA,91,91,91,0,0,0,0,5,3089.4,772.36,,Idle,0,20,FALSE,5,TRUE,9,Go Home,FALSE,FALSE,FALSE,FALSE,FALSE,FALSE,FALSE,FALSE,FALSE,FALSE,FALSE,FALSE,6.974499346,79.91427083,0.9,127.2,328,TRUE,1,1,FALSE,FALSE,FALSE,FALSE,,TRUE,FALSE,FALSE,Course Lock,65.6,41.9,16.4,Calm,27,,1.12.8,Mavic Mini,1SDCH7G0169R0K,1SFLH6Q0AB03DJ,1SRCH7F014TAHX,1U5X071EXP5ZJG,99.8,0.2,3.2,4.740075,1.342164,0,0,Mavic Mini,1SDCH7G0169R0K,1SFLH6Q0AB03DJ,1SRCH7F014TAHX,1U5X071EXP5ZJG,DJI Fly,,1.12.8,43DBD83D-B860-D827-82B2-A3DB54DAAF0A,1SDCH7G0169R0K,,,,,6.974483435,79.91426144,5,,
2/15/2024,26:52.9,1m 57.8s,117.8,6.974496553,79.91426872,0.9,0.9,1.6,50,2.1,0.80654,1.11847,-0.671082,0,-0.447388,0,-1.11847,0,6.9,-3.5,-164.1,195.9,207.7,Tripod,Drop Calibration,,15,5,TRUE,,Mavic Mini,TRUE,FALSE,,Smart,RC,FALSE,TRUE,FALSE,,,TRUE,,FALSE,FALSE,FALSE,FALSE,FALSE,FALSE,FALSE,FALSE,FALSE,FALSE,0,Follow Yaw,-25.7,0,-137.5,222.5,FALSE,FALSE,FALSE,FALSE,FALSE,FALSE,,TRUE,Normal,,100,1024,1024,1234,1024,2,FALSE,FALSE,FALSE,FALSE,FALSE,0,FALSE,FALSE,FALSE,FALSE,90,7.865,1905,2113,7.909,FALSE,3.933,3.932,0.004,FALSE,FALSE,NA,91,91,91,0,0,0,0,5,3089.4,772.36,,Idle,0,20,FALSE,5,TRUE,9,Go Home,FALSE,FALSE,FALSE,FALSE,FALSE,FALSE,FALSE,FALSE,FALSE,FALSE,FALSE,FALSE,6.974499346,79.91427083,1.2,127.2,328,TRUE,1,1,FALSE,FALSE,FALSE,FALSE,,TRUE,FALSE,FALSE,Course Lock,65.6,41.9,16.4,Calm,27,,1.12.8,Mavic Mini,1SDCH7G0169R0K,1SFLH6Q0AB03DJ,1SRCH7F014TAHX,1U5X071EXP5ZJG,99.8,0.2,3.2,4.740075,1.342164,0,0,Mavic Mini,1SDCH7G0169R0K,1SFLH6Q0AB03DJ,1SRCH7F014TAHX,1U5X071EXP5ZJG,DJI Fly,,1.12.8,43DBD83D-B860-D827-82B2-A3DB54DAAF0A,1SDCH7G0169R0K,,,,,6.974483435,79.91426144,5,,
2/15/2024,26:53.0,1m 57.9s,117.9,6.974496115,79.91426838,1.3,1.3,1.6,50,2.3,0.80654,1.11847,-0.671082,0,-0.447388,0,-0.671082,0,8.1,-3.2,-164.4,195.6,210.9,Tripod,Drop Calibration,,15,5,TRUE,,Mavic Mini,TRUE,FALSE,,Smart,RC,FALSE,TRUE,FALSE,,,TRUE,,FALSE,FALSE,FALSE,FALSE,FALSE,FALSE,FALSE,FALSE,FALSE,FALSE,0,Follow Yaw,-25.7,0,-137.5,222.5,FALSE,FALSE,FALSE,FALSE,FALSE,FALSE,,TRUE,Normal,,100,1024,1024,1234,1024,2,FALSE,FALSE,FALSE,FALSE,FALSE,0,FALSE,FALSE,FALSE,FALSE,90,7.865,1905,2113,7.909,FALSE,3.933,3.932,0.004,FALSE,FALSE,NA,91,91,91,0,0,0,0,5,3089.4,772.36,,Idle,0,20,FALSE,5,TRUE,9,Go Home,FALSE,FALSE,FALSE,FALSE,FALSE,FALSE,FALSE,FALSE,FALSE,FALSE,FALSE,FALSE,6.974499346,79.91427083,1.4,127.2,328,TRUE,1,1,FALSE,FALSE,FALSE,FALSE,,TRUE,FALSE,FALSE,Course Lock,65.6,41.9,16.4,Calm,27,,1.12.8,Mavic Mini,1SDCH7G0169R0K,1SFLH6Q0AB03DJ,1SRCH7F014TAHX,1U5X071EXP5ZJG,99.8,0.2,3.2,4.740075,1.342164,0,0,Mavic Mini,1SDCH7G0169R0K,1SFLH6Q0AB03DJ,1SRCH7F014TAHX,1U5X071EXP5ZJG,DJI Fly,,1.12.8,43DBD83D-B860-D827-82B2-A3DB54DAAF0A,1SDCH7G0169R0K,,,,,6.974483435,79.91426144,5,,
2/15/2024,26:53.1,1m 58.0s,118,6.974495732,79.91426808,1.3,1.3,1.9,50,2.5,0.80654,1.11847,-0.671082,0,-0.447388,0,-0.447388,0,8.1,-4.3,-164.5,195.5,210.7,Tripod,Drop Calibration,,15,5,TRUE,,Mavic Mini,TRUE,FALSE,,Smart,RC,FALSE,TRUE,FALSE,,,TRUE,,FALSE,FALSE,FALSE,FALSE,FALSE,FALSE,FALSE,FALSE,FALSE,FALSE,0,Follow Yaw,-25.7,0,-137.5,222.5,FALSE,FALSE,FALSE,FALSE,FALSE,FALSE,,TRUE,Normal,,100,1024,1024,1245,1024,2,FALSE,FALSE,FALSE,FALSE,FALSE,0,FALSE,FALSE,FALSE,FALSE,90,7.865,1905,2113,7.909,FALSE,3.933,3.932,0.004,FALSE,FALSE,NA,91,91,91,0,0,0,0,5,3089.4,772.36,,Idle,0,20,FALSE,5,TRUE,9,Go Home,FALSE,FALSE,FALSE,FALSE,FALSE,FALSE,FALSE,FALSE,FALSE,FALSE,FALSE,FALSE,6.974499346,79.91427083,1.6,127.2,328,TRUE,1,1,FALSE,FALSE,FALSE,FALSE,,TRUE,FALSE,FALSE,Course Lock,65.6,41.9,16.4,Calm,27,,1.12.8,Mavic Mini,1SDCH7G0169R0K,1SFLH6Q0AB03DJ,1SRCH7F014TAHX,1U5X071EXP5ZJG,99.8,0.2,3.2,4.740075,1.342164,0,0,Mavic Mini,1SDCH7G0169R0K,1SFLH6Q0AB03DJ,1SRCH7F014TAHX,1U5X071EXP5ZJG,DJI Fly,,1.12.8,43DBD83D-B860-D827-82B2-A3DB54DAAF0A,1SDCH7G0169R0K,,,,,6.974483435,79.91426144,5,,
2/15/2024,26:53.2,1m 58.1s,118.1,6.974495503,79.91426795,1.3,1.3,1.9,50,2.6,0.500194,1.11847,-0.447388,0,-0.223694,0,-0.223694,0,7.8,-3,-164.4,195.6,203.8,Tripod,Drop Calibration,,15,5,TRUE,,Mavic Mini,TRUE,FALSE,,Smart,RC,FALSE,TRUE,FALSE,,,TRUE,,FALSE,FALSE,FALSE,FALSE,FALSE,FALSE,FALSE,FALSE,FALSE,FALSE,0,Follow Yaw,-25.7,0,-137.5,222.5,FALSE,FALSE,FALSE,FALSE,FALSE,FALSE,,TRUE,Normal,,100,1024,1024,1246,1024,2,FALSE,FALSE,FALSE,FALSE,FALSE,0,FALSE,FALSE,FALSE,FALSE,90,7.865,1905,2113,7.909,FALSE,3.933,3.932,0.004,FALSE,FALSE,NA,91,91,91,0,0,0,0,5,3089.4,772.36,,Idle,0,20,FALSE,5,TRUE,9,Go Home,FALSE,FALSE,FALSE,FALSE,FALSE,FALSE,FALSE,FALSE,FALSE,FALSE,FALSE,FALSE,6.974499346,79.91427083,1.7,127.2,328,TRUE,1,1,FALSE,FALSE,FALSE,FALSE,,TRUE,FALSE,FALSE,Course Lock,65.6,41.9,16.4,Calm,27,,1.12.8,Mavic Mini,1SDCH7G0169R0K,1SFLH6Q0AB03DJ,1SRCH7F014TAHX,1U5X071EXP5ZJG,99.8,0.2,3.2,4.740075,1.342164,0,0,Mavic Mini,1SDCH7G0169R0K,1SFLH6Q0AB03DJ,1SRCH7F014TAHX,1U5X071EXP5ZJG,DJI Fly,,1.12.8,43DBD83D-B860-D827-82B2-A3DB54DAAF0A,1SDCH7G0169R0K,,,,,6.974483435,79.91426144,5,,
2/15/2024,26:53.3,1m 58.2s,118.2,6.974495351,79.91426788,1.3,1.3,1.9,50,2.6,0.316351,1.11847,-0.223694,0,-0.223694,0,-0.223694,0,6.4,-2,-164.1,195.9,198.2,Tripod,Drop Calibration,,15,5,TRUE,,Mavic Mini,TRUE,FALSE,,Smart,RC,FALSE,TRUE,FALSE,,,TRUE,,FALSE,FALSE,FALSE,FALSE,FALSE,FALSE,FALSE,FALSE,FALSE,FALSE,0,Follow Yaw,-25.7,0,-137.5,222.5,FALSE,FALSE,FALSE,FALSE,FALSE,FALSE,,TRUE,Normal,,100,1024,1024,1250,1024,2,FALSE,FALSE,FALSE,FALSE,FALSE,0,FALSE,FALSE,FALSE,FALSE,90,7.865,1905,2113,7.909,FALSE,3.933,3.932,0.004,FALSE,FALSE,NA,91,91,91,0,0,0,0,5,3089.4,772.36,,Idle,0,20,FALSE,5,TRUE,9,Go Home,FALSE,FALSE,FALSE,FALSE,FALSE,FALSE,FALSE,FALSE,FALSE,FALSE,FALSE,FALSE,6.974499346,79.91427083,1.8,127.2,328,TRUE,1,1,FALSE,FALSE,FALSE,FALSE,,TRUE,FALSE,FALSE,Course Lock,65.6,41.9,16.4,Calm,27,,1.12.8,Mavic Mini,1SDCH7G0169R0K,1SFLH6Q0AB03DJ,1SRCH7F014TAHX,1U5X071EXP5ZJG,99.8,0.2,3.2,4.740075,1.342164,0,0,Mavic Mini,1SDCH7G0169R0K,1SFLH6Q0AB03DJ,1SRCH7F014TAHX,1U5X071EXP5ZJG,DJI Fly,,1.12.8,43DBD83D-B860-D827-82B2-A3DB54DAAF0A,1SDCH7G0169R0K,,,,,6.974483435,79.91426144,5,,
2/15/2024,26:53.4,1m 58.3s,118.3,6.974495171,79.91426775,1.3,1.3,1.9,50,2.7,0.223694,1.11847,-0.223694,0,0,0,-0.223694,0,4.8,-1.6,-164.1,195.9,210.4,Tripod,Drop Calibration,,15,5,TRUE,,Mavic Mini,TRUE,FALSE,,Smart,RC,FALSE,TRUE,FALSE,,,TRUE,,FALSE,FALSE,FALSE,FALSE,FALSE,FALSE,FALSE,FALSE,FALSE,FALSE,0,Follow Yaw,-25.7,0,-137.5,222.5,FALSE,FALSE,FALSE,FALSE,FALSE,FALSE,,TRUE,Normal,,100,1024,1024,1280,1024,2,FALSE,FALSE,FALSE,FALSE,FALSE,0,FALSE,FALSE,FALSE,FALSE,90,7.788,1903,2113,7.843,FALSE,3.894,3.894,0.004,FALSE,FALSE,NA,91.2,91,91.2,0,0,0,0,5,3089.4,772.36,,Idle,0,20,FALSE,5,TRUE,9,Go Home,FALSE,FALSE,FALSE,FALSE,FALSE,FALSE,FALSE,FALSE,FALSE,FALSE,FALSE,FALSE,6.974499346,79.91427083,1.8,127.2,328,TRUE,1,1,FALSE,FALSE,FALSE,FALSE,,TRUE,FALSE,FALSE,Course Lock,65.6,41.9,16.4,Calm,27,,1.12.8,Mavic Mini,1SDCH7G0169R0K,1SFLH6Q0AB03DJ,1SRCH7F014TAHX,1U5X071EXP5ZJG,99.8,0.2,3.2,4.740075,1.342164,0,0,Mavic Mini,1SDCH7G0169R0K,1SFLH6Q0AB03DJ,1SRCH7F014TAHX,1U5X071EXP5ZJG,DJI Fly,,1.12.8,43DBD83D-B860-D827-82B2-A3DB54DAAF0A,1SDCH7G0169R0K,,,,,6.974483435,79.91426144,5,,
