CUSTOM.date [local],CUSTOM.updateTime [local],OSD.flyTime,OSD.flyTime [s],OSD.latitude,OSD.longitude,OSD.height [ft],OSD.heightMax [ft],OSD.vpsHeight [ft],OSD.altitude [ft],OSD.mileage [ft],OSD.hSpeed [MPH],OSD.hSpeedMax [MPH],OSD.xSpeed [MPH],OSD.xSpeedMax [MPH],OSD.ySpeed [MPH],OSD.ySpeedMax [MPH],OSD.zSpeed [MPH],OSD.zSpeedMax [MPH],OSD.pitch,OSD.roll,OSD.yaw,OSD.yaw [360],OSD.directionOfTravel,OSD.flycState,OSD.flycCommand,OSD.flightAction,OSD.gpsNum,OSD.gpsLevel,OSD.isGPSUsed,OSD.nonGPSCause,OSD.droneType,OSD.isSwaveWork,OSD.waveError,OSD.goHomeStatus,OSD.batteryType,OSD.ctrlDevice,OSD.isOnGround,OSD.isMotorOn,OSD.isMotorBlocked,OSD.motorStartFailedCause,OSD.motorFailReason,OSD.isImuPreheated,OSD.imuInitFailReason,OSD.isAcceletorOverRange,OSD.isBarometerDeadInAir,OSD.isCompassError,OSD.isGoHomeHeightModified,OSD.canIOCWork,OSD.isNotEnoughForce,OSD.isOutOfLimit,OSD.isPropellerCatapult,OSD.isVibrating,OSD.isVisionUsed,OSD.voltageWarning,GIMBAL.mode,GIMBAL.pitch,GIMBAL.roll,GIMBAL.yaw,GIMBAL.yaw [360],GIMBAL.isPitchAtLimit,GIMBAL.isRollAtLimit,GIMBAL.isYawAtLimit,GIMBAL.isStuck,CAMERA.isPhoto,CAMERA.isVideo,CAMERA.filename,CAMERA.sdCardIsInserted,CAMERA.sdCardState,RC.downlinkSignal,RC.uplinkSignal,RC.aileron,RC.elevator,RC.throttle,RC.rudder,RC.mode,RC.goHomeDepressed,RC.recordDepressed,RC.shutterDepressed,RC.playbackDepressed,RC.wheelDepressed,RC.wheelOffset,RC.custom1Depressed,RC.custom2Depressed,RC.custom3Depressed,RC.custom4Depressed,BATTERY.chargeLevel,BATTERY.currentPV [V],BATTERY.currentCapacity [mAh],BATTERY.fullCapacity [mAh],BATTERY.voltage [V],BATTERY.isCellVoltageEstimated,BATTERY.cellVoltage1 [V],BATTERY.cellVoltage2 [V],BATTERY.maxCellVoltageDeviation,BATTERY.isCellVoltageDeviationHigh,BATTERY.isVoltageLow,BATTERY.current [A],BATTERY.temperature [F],BATTERY.minTemperature [F],BATTERY.maxTemperature [F],BATTERY.usefulTime [s],BATTERY.goHomeTime [s],BATTERY.landTime [s],BATTERY.goHomeBattery,BATTERY.landBattery,BATTERY.safeFlyRadius,BATTERY.volumeConsume,BATTERY.status,BATTERY.goHomeStatus,BATTERY.goHomeCountdown,BATTERY.lowWarning,BATTERY.lowWarningGoHome,BATTERY.seriousLowWarning,BATTERY.seriousLowWarningLanding,BATTERY.timesCharged,MC.failSafeAction,MC.isObstacleAvoidanceEnabled,MC.isCollisionAvoidanceEnabled,MC.isRthObstacleAvoidanceEnabled,MC.isBraking,MC.isAvoidingObstacle,MC.isAvoidingActiveObstacle,MC.isAscentLimitedByObstacle,MC.isLandingConfirmationNeeded,MC.atLowAltitudeLimit,MC.atDistanceLimit,MC.atAirportAltitudeLimit,MC.atAirportBoundary,HOME.latitude,HOME.longitude,HOME.distance [ft],HOME.height [ft],HOME.heightLimit [ft],HOME.isHomeRecord,HOME.goHomeMode,HOME.aircraftHeadDirection,HOME.isDynamicHomePointEnabled,HOME.isReachedLimitDistance,HOME.isReachedLimitHeight,HOME.isCompassCalibrating,HOME.compassCalibrationState,HOME.isMultipleFlightModeEnabled,HOME.isBeginnerMode,HOME.isIOCEnabled,HOME.iocMode,HOME.goHomeHeight [ft],HOME.courseLockAngle,HOME.forceLandingHeight [ft],HOME.wind,HOME.dataRecorderFileIndex,RECOVER.appType,RECOVER.appVersion,RECOVER.aircraftName,RECOVER.aircraftSerial,RECOVER.cameraSerial,RECOVER.rcSerial,RECOVER.batterySerial,DETAILS.totalTime [s],DETAILS.totalDistance [ft],DETAILS.maxHeight [ft],DETAILS.maxHorizontalSpeed [MPH],DETAILS.maxVerticalSpeed [MPH],DETAILS.photoNum,DETAILS.videoTime [s],DETAILS.aircraftName,DETAILS.aircraftSerial,DETAILS.cameraSerial,DETAILS.rcSerial,DETAILS.batterySerial,DETAILS.appName,DETAILS.appType,DETAILS.appVersion,DETAILS.guid,SERIAL.flightController,SERIAL.camera,SERIAL.gimbal,SERIAL.rc,SERIAL.battery,APPGPS.latitude,APPGPS.longitude,APPGPS.accuracy,APP.tip,APP.warning
2/21/2024,32:37.1,5m 20.3s,320.3,6.974143411,79.91427335,0,0,0.6,52,0,0,0,0,0,0,0,0,0,2.6,0.6,-53.2,306.8,,Starting Motors,Other,Takeoff (RC Assisted),13,4,TRUE,,Mavic Mini,FALSE,FALSE,,Smart,RC,TRUE,TRUE,FALSE,,,TRUE,,FALSE,FALSE,FALSE,FALSE,FALSE,FALSE,FALSE,FALSE,FALSE,FALSE,0,Follow Yaw,0,0,-41.6,318.4,FALSE,FALSE,FALSE,FALSE,FALSE,FALSE,,TRUE,Normal,,,1024,1024,1024,1024,2,FALSE,FALSE,FALSE,FALSE,FALSE,0,FALSE,FALSE,FALSE,FALSE,54,7.453,1100,2051,7.45,TRUE,3.725,3.725,,FALSE,FALSE,NA,102.6,102.5,102.5,0,0,0,0,5,3646.3,911.58,,Idle,0,20,FALSE,5,TRUE,10,Go Home,FALSE,FALSE,FALSE,FALSE,FALSE,FALSE,FALSE,FALSE,FALSE,FALSE,FALSE,FALSE,6.974144533,79.91427169,0.7,141.8,328,TRUE,1,1,FALSE,FALSE,FALSE,FALSE,,TRUE,FALSE,FALSE,Course Lock,65.6,,16.4,Calm,29,,1.12.8,Mavic Mini,1SDCH7G0169R0K,1SFLH6Q0AB03DJ,1SRCH7F014TAHX,1U5X071EXP5ZJG,69.6,0.4,32.8,8.547347,3.802798,0,0,Mavic Mini,1SDCH7G0169R0K,1SFLH6Q0AB03DJ,1SRCH7F014TAHX,1U5X071EXP5ZJG,DJI Fly,,1.12.8,6092850D-450A-3C84-E99F-FA9CB092D05D,1SDCH7G0169R0K,,,,,,,,Data Recorder File Index is 29.; Set Return to Home (RTH) altitude to 20 m (66 ft).; Set maximum flight altitude to 100 m (328 ft).; Flight mode changed to Starting Motors.,
2/21/2024,27:17.0,5m 20.4s,320.4,6.974143577,79.91427363,0,0,0.6,52,0,0,0,0,0,0,0,0,0,2.6,0.6,-53.2,306.8,,Starting Motors,Other,Takeoff (RC Assisted),13,4,TRUE,,Mavic Mini,FALSE,FALSE,,Smart,RC,TRUE,TRUE,FALSE,,,TRUE,,FALSE,FALSE,FALSE,FALSE,FALSE,FALSE,FALSE,FALSE,FALSE,FALSE,0,Follow Yaw,0,0,-41.6,318.4,FALSE,FALSE,FALSE,FALSE,FALSE,FALSE,,TRUE,Normal,,,1024,1024,1024,1024,2,FALSE,FALSE,FALSE,FALSE,FALSE,0,FALSE,FALSE,FALSE,FALSE,54,7.457,1100,2051,7.45,FALSE,3.729,3.728,0.001,FALSE,FALSE,NA,102.6,102.5,102.5,0,0,0,0,5,3646.3,911.58,,Idle,0,20,FALSE,5,TRUE,10,Go Home,FALSE,FALSE,FALSE,FALSE,FALSE,FALSE,FALSE,FALSE,FALSE,FALSE,FALSE,FALSE,6.974144533,79.91427169,0.7,141.8,328,TRUE,1,1,FALSE,FALSE,FALSE,FALSE,,TRUE,FALSE,FALSE,Course Lock,65.6,,16.4,Calm,29,,1.12.8,Mavic Mini,1SDCH7G0169R0K,1SFLH6Q0AB03DJ,1SRCH7F014TAHX,1U5X071EXP5ZJG,69.6,0.4,32.8,8.547347,3.802798,0,0,Mavic Mini,1SDCH7G0169R0K,1SFLH6Q0AB03DJ,1SRCH7F014TAHX,1U5X071EXP5ZJG,DJI Fly,,1.12.8,6092850D-450A-3C84-E99F-FA9CB092D05D,1SDCH7G0169R0K,,,,,,,,,
2/21/2024,27:17.1,5m 20.5s,320.5,6.974143576,79.91427374,0,0,0.3,52,0,0,0,0,0,0,0,0,0,2.6,0.6,-53.2,306.8,,Starting Motors,Other,Takeoff (RC Assisted),13,4,TRUE,,Mavic Mini,TRUE,FALSE,,Smart,RC,TRUE,TRUE,FALSE,,,TRUE,,FALSE,FALSE,FALSE,FALSE,FALSE,FALSE,FALSE,FALSE,FALSE,FALSE,0,Follow Yaw,0,0,-41.6,318.4,FALSE,FALSE,FALSE,FALSE,FALSE,FALSE,,TRUE,Normal,,,1024,1024,1024,1024,2,FALSE,FALSE,FALSE,FALSE,FALSE,0,FALSE,FALSE,FALSE,FALSE,54,7.457,1100,2051,7.45,FALSE,3.729,3.728,0.001,FALSE,FALSE,NA,102.6,102.5,102.5,0,0,0,0,5,3646.3,911.58,,Idle,0,20,FALSE,5,TRUE,10,Go Home,FALSE,FALSE,FALSE,FALSE,FALSE,FALSE,FALSE,FALSE,FALSE,FALSE,FALSE,FALSE,6.974144533,79.91427169,0.8,141.8,328,TRUE,1,1,FALSE,FALSE,FALSE,FALSE,,TRUE,FALSE,FALSE,Course Lock,65.6,,16.4,Calm,29,,1.12.8,Mavic Mini,1SDCH7G0169R0K,1SFLH6Q0AB03DJ,1SRCH7F014TAHX,1U5X071EXP5ZJG,69.6,0.4,32.8,8.547347,3.802798,0,0,Mavic Mini,1SDCH7G0169R0K,1SFLH6Q0AB03DJ,1SRCH7F014TAHX,1U5X071EXP5ZJG,DJI Fly,,1.12.8,6092850D-450A-3C84-E99F-FA9CB092D05D,1SDCH7G0169R0K,,,,,,,,,
2/21/2024,27:17.2,5m 20.6s,320.6,6.974143588,79.91427382,0,0,0.3,52,0,0,0,0,0,0,0,0,0,2.7,0.7,-53.2,306.8,,Starting Motors,Other,Takeoff (RC Assisted),13,4,TRUE,,Mavic Mini,TRUE,FALSE,,Smart,RC,TRUE,TRUE,FALSE,,,TRUE,,FALSE,FALSE,FALSE,FALSE,FALSE,FALSE,FALSE,FALSE,FALSE,FALSE,0,Follow Yaw,0,0,-41.6,318.4,FALSE,FALSE,FALSE,FALSE,FALSE,FALSE,,TRUE,Normal,,,1024,1024,1024,1024,2,FALSE,FALSE,FALSE,FALSE,FALSE,0,FALSE,FALSE,FALSE,FALSE,54,7.457,1100,2051,7.45,FALSE,3.729,3.728,0.001,FALSE,FALSE,NA,102.6,102.5,102.5,0,0,0,0,5,3646.3,911.58,,Idle,0,20,FALSE,5,TRUE,10,Go Home,FALSE,FALSE,FALSE,FALSE,FALSE,FALSE,FALSE,FALSE,FALSE,FALSE,FALSE,FALSE,6.974144533,79.91427169,0.8,141.8,328,TRUE,1,1,FALSE,FALSE,FALSE,FALSE,,TRUE,FALSE,FALSE,Course Lock,65.6,,16.4,Calm,29,,1.12.8,Mavic Mini,1SDCH7G0169R0K,1SFLH6Q0AB03DJ,1SRCH7F014TAHX,1U5X071EXP5ZJG,69.6,0.4,32.8,8.547347,3.802798,0,0,Mavic Mini,1SDCH7G0169R0K,1SFLH6Q0AB03DJ,1SRCH7F014TAHX,1U5X071EXP5ZJG,DJI Fly,,1.12.8,6092850D-450A-3C84-E99F-FA9CB092D05D,1SDCH7G0169R0K,,,,,,,,,
2/21/2024,27:17.3,5m 20.7s,320.7,6.974143603,79.91427389,0,0,0.3,52,0,0,0,0,0,0,0,0,0,2.6,0.7,-53.2,306.8,,Starting Motors,Other,Takeoff (RC Assisted),13,4,TRUE,,Mavic Mini,TRUE,FALSE,,Smart,RC,TRUE,TRUE,FALSE,,,TRUE,,FALSE,FALSE,FALSE,FALSE,FALSE,FALSE,FALSE,FALSE,FALSE,FALSE,0,Follow Yaw,0,0,-41.6,318.4,FALSE,FALSE,FALSE,FALSE,FALSE,FALSE,,TRUE,Normal,,100,1024,1024,1024,1024,2,FALSE,FALSE,FALSE,FALSE,FALSE,0,FALSE,FALSE,FALSE,FALSE,54,7.457,1100,2051,7.45,FALSE,3.729,3.728,0.001,FALSE,FALSE,NA,102.6,102.5,102.5,0,0,0,0,5,3646.3,911.58,,Idle,0,20,FALSE,5,TRUE,10,Go Home,FALSE,FALSE,FALSE,FALSE,FALSE,FALSE,FALSE,FALSE,FALSE,FALSE,FALSE,FALSE,6.974144533,79.91427169,0.8,141.8,328,TRUE,1,1,FALSE,FALSE,FALSE,FALSE,,TRUE,FALSE,FALSE,Course Lock,65.6,,16.4,Calm,29,,1.12.8,Mavic Mini,1SDCH7G0169R0K,1SFLH6Q0AB03DJ,1SRCH7F014TAHX,1U5X071EXP5ZJG,69.6,0.4,32.8,8.547347,3.802798,0,0,Mavic Mini,1SDCH7G0169R0K,1SFLH6Q0AB03DJ,1SRCH7F014TAHX,1U5X071EXP5ZJG,DJI Fly,,1.12.8,6092850D-450A-3C84-E99F-FA9CB092D05D,1SDCH7G0169R0K,,,,,,,,,
2/21/2024,27:17.4,5m 20.8s,320.8,6.974143665,79.91427402,0,0,0.3,52,0.1,0,0,0,0,0,0,0,0,2.7,0.7,-53.2,306.8,,Starting Motors,Other,Takeoff (RC Assisted),13,4,TRUE,,Mavic Mini,TRUE,FALSE,,Smart,RC,TRUE,TRUE,FALSE,,,TRUE,,FALSE,FALSE,FALSE,FALSE,FALSE,FALSE,FALSE,FALSE,FALSE,FALSE,0,Follow Yaw,0,0,-41.6,318.4,FALSE,FALSE,FALSE,FALSE,FALSE,FALSE,,TRUE,Normal,,100,1024,1024,1024,1024,2,FALSE,FALSE,FALSE,FALSE,FALSE,0,FALSE,FALSE,FALSE,FALSE,54,7.457,1100,2051,7.45,FALSE,3.729,3.728,0.001,FALSE,FALSE,NA,102.6,102.5,102.5,0,0,0,0,5,3646.3,911.58,,Idle,0,20,FALSE,5,TRUE,10,Go Home,FALSE,FALSE,FALSE,FALSE,FALSE,FALSE,FALSE,FALSE,FALSE,FALSE,FALSE,FALSE,6.974144533,79.91427169,0.8,141.8,328,TRUE,1,1,FALSE,FALSE,FALSE,FALSE,,TRUE,FALSE,FALSE,Course Lock,65.6,,16.4,Calm,29,,1.12.8,Mavic Mini,1SDCH7G0169R0K,1SFLH6Q0AB03DJ,1SRCH7F014TAHX,1U5X071EXP5ZJG,69.6,0.4,32.8,8.547347,3.802798,0,0,Mavic Mini,1SDCH7G0169R0K,1SFLH6Q0AB03DJ,1SRCH7F014TAHX,1U5X071EXP5ZJG,DJI Fly,,1.12.8,6092850D-450A-3C84-E99F-FA9CB092D05D,1SDCH7G0169R0K,,,,,,,,,
2/21/2024,27:17.4,5m 20.9s,320.9,6.974143629,79.91427412,0,0,0.3,52,0.1,0,0,0,0,0,0,0,0,2.7,0.7,-53.2,306.8,,Starting Motors,Other,Takeoff (RC Assisted),13,4,TRUE,,Mavic Mini,TRUE,FALSE,,Smart,RC,TRUE,TRUE,FALSE,,,TRUE,,FALSE,FALSE,FALSE,FALSE,FALSE,FALSE,FALSE,FALSE,FALSE,FALSE,0,Follow Yaw,0,0,-41.6,318.4,FALSE,FALSE,FALSE,FALSE,FALSE,FALSE,,TRUE,Normal,,100,1024,1024,1024,1024,2,FALSE,FALSE,FALSE,FALSE,FALSE,0,FALSE,FALSE,FALSE,FALSE,54,7.457,1100,2051,7.45,FALSE,3.729,3.728,0.001,FALSE,FALSE,NA,102.6,102.5,102.5,0,0,0,0,5,3646.3,911.58,,Idle,0,20,FALSE,5,TRUE,10,Go Home,FALSE,FALSE,FALSE,FALSE,FALSE,FALSE,FALSE,FALSE,FALSE,FALSE,FALSE,FALSE,6.974144533,79.91427169,0.9,141.8,328,TRUE,1,1,FALSE,FALSE,FALSE,FALSE,,TRUE,FALSE,FALSE,Course Lock,65.6,,16.4,Calm,29,,1.12.8,Mavic Mini,1SDCH7G0169R0K,1SFLH6Q0AB03DJ,1SRCH7F014TAHX,1U5X071EXP5ZJG,69.6,0.4,32.8,8.547347,3.802798,0,0,Mavic Mini,1SDCH7G0169R0K,1SFLH6Q0AB03DJ,1SRCH7F014TAHX,1U5X071EXP5ZJG,DJI Fly,,1.12.8,6092850D-450A-3C84-E99F-FA9CB092D05D,1SDCH7G0169R0K,,,,,,,,,
2/21/2024,27:17.5,5m 21.0s,321,6.974143579,79.91427422,0,0,0.3,52,0.2,0,0,0,0,0,0,0,0,2.7,0.7,-53.2,306.8,,Starting Motors,Other,Takeoff (RC Assisted),13,4,TRUE,,Mavic Mini,TRUE,FALSE,,Smart,RC,TRUE,TRUE,FALSE,,,TRUE,,FALSE,FALSE,FALSE,FALSE,FALSE,FALSE,FALSE,FALSE,FALSE,FALSE,0,Follow Yaw,0,0,-41.6,318.4,FALSE,FALSE,FALSE,FALSE,FALSE,FALSE,,TRUE,Normal,,100,1024,1024,1024,1024,2,FALSE,FALSE,FALSE,FALSE,FALSE,0,FALSE,FALSE,FALSE,FALSE,54,7.457,1100,2051,7.45,FALSE,3.729,3.728,0.001,FALSE,FALSE,NA,102.6,102.5,102.5,0,0,0,0,5,3646.3,911.58,,Idle,0,20,FALSE,5,TRUE,10,Go Home,FALSE,FALSE,FALSE,FALSE,FALSE,FALSE,FALSE,FALSE,FALSE,FALSE,FALSE,FALSE,6.974144533,79.91427169,0.9,141.8,328,TRUE,1,1,FALSE,FALSE,FALSE,FALSE,,TRUE,FALSE,FALSE,Course Lock,65.6,,16.4,Calm,29,,1.12.8,Mavic Mini,1SDCH7G0169R0K,1SFLH6Q0AB03DJ,1SRCH7F014TAHX,1U5X071EXP5ZJG,69.6,0.4,32.8,8.547347,3.802798,0,0,Mavic Mini,1SDCH7G0169R0K,1SFLH6Q0AB03DJ,1SRCH7F014TAHX,1U5X071EXP5ZJG,DJI Fly,,1.12.8,6092850D-450A-3C84-E99F-FA9CB092D05D,1SDCH7G0169R0K,,,,,,,,,
2/21/2024,27:17.6,5m 21.1s,321.1,6.974143515,79.91427435,0,0,0.3,52,0.2,0,0,0,0,0,0,0,0,2.7,0.7,-53.3,306.7,,Starting Motors,Other,Takeoff (RC Assisted),13,4,TRUE,,Mavic Mini,TRUE,FALSE,,Smart,RC,TRUE,TRUE,FALSE,,,TRUE,,FALSE,FALSE,FALSE,FALSE,FALSE,FALSE,FALSE,FALSE,FALSE,FALSE,0,Follow Yaw,0,0,-41.6,318.4,FALSE,FALSE,FALSE,FALSE,FALSE,FALSE,,TRUE,Normal,,100,1024,1024,1024,1024,2,FALSE,FALSE,FALSE,FALSE,FALSE,0,FALSE,FALSE,FALSE,FALSE,54,7.457,1100,2051,7.45,FALSE,3.729,3.728,0.001,FALSE,FALSE,NA,102.6,102.5,102.5,0,0,0,0,5,3646.3,911.58,,Idle,0,20,FALSE,5,TRUE,10,Go Home,FALSE,FALSE,FALSE,FALSE,FALSE,FALSE,FALSE,FALSE,FALSE,FALSE,FALSE,FALSE,6.974144533,79.91427169,1,141.8,328,TRUE,1,1,FALSE,FALSE,FALSE,FALSE,,TRUE,FALSE,FALSE,Course Lock,65.6,,16.4,Calm,29,,1.12.8,Mavic Mini,1SDCH7G0169R0K,1SFLH6Q0AB03DJ,1SRCH7F014TAHX,1U5X071EXP5ZJG,69.6,0.4,32.8,8.547347,3.802798,0,0,Mavic Mini,1SDCH7G0169R0K,1SFLH6Q0AB03DJ,1SRCH7F014TAHX,1U5X071EXP5ZJG,DJI Fly,,1.12.8,6092850D-450A-3C84-E99F-FA9CB092D05D,1SDCH7G0169R0K,,,,,,,,,
2/21/2024,27:17.8,5m 21.2s,321.2,6.974143708,79.91427419,0,0,0.3,52,0.3,0,0,0,0,0,0,0,0,2.7,0.8,-53.3,306.7,,Starting Motors,Other,Takeoff (RC Assisted),13,4,TRUE,,Mavic Mini,TRUE,FALSE,,Smart,RC,TRUE,TRUE,FALSE,,,TRUE,,FALSE,FALSE,FALSE,FALSE,FALSE,FALSE,FALSE,FALSE,FALSE,FALSE,0,Follow Yaw,0,0,-41.6,318.4,FALSE,FALSE,FALSE,FALSE,FALSE,FALSE,,TRUE,Normal,,100,1024,1024,1024,1024,2,FALSE,FALSE,FALSE,FALSE,FALSE,0,FALSE,FALSE,FALSE,FALSE,54,7.457,1100,2051,7.45,FALSE,3.729,3.728,0.001,FALSE,FALSE,NA,102.6,102.5,102.5,0,0,0,0,5,3646.3,911.58,,Idle,0,20,FALSE,5,TRUE,10,Go Home,FALSE,FALSE,FALSE,FALSE,FALSE,FALSE,FALSE,FALSE,FALSE,FALSE,FALSE,FALSE,6.974144533,79.91427169,0.9,141.8,328,TRUE,1,1,FALSE,FALSE,FALSE,FALSE,,TRUE,FALSE,FALSE,Course Lock,65.6,,16.4,Calm,29,,1.12.8,Mavic Mini,1SDCH7G0169R0K,1SFLH6Q0AB03DJ,1SRCH7F014TAHX,1U5X071EXP5ZJG,69.6,0.4,32.8,8.547347,3.802798,0,0,Mavic Mini,1SDCH7G0169R0K,1SFLH6Q0AB03DJ,1SRCH7F014TAHX,1U5X071EXP5ZJG,DJI Fly,,1.12.8,6092850D-450A-3C84-E99F-FA9CB092D05D,1SDCH7G0169R0K,,,,,,,,,
2/21/2024,27:18.0,5m 21.3s,321.3,6.974143799,79.91427415,0,0,0.3,52,0.4,0,0,0,0,0,0,0,0,2.7,0.8,-53.4,306.6,,Starting Motors,Other,Takeoff (RC Assisted),13,4,TRUE,,Mavic Mini,TRUE,FALSE,,Smart,RC,TRUE,TRUE,FALSE,,,TRUE,,FALSE,FALSE,FALSE,FALSE,FALSE,FALSE,FALSE,FALSE,FALSE,FALSE,0,Follow Yaw,0,0,-41.7,318.3,FALSE,FALSE,FALSE,FALSE,FALSE,FALSE,,TRUE,Normal,,100,1024,1024,1024,1024,2,FALSE,FALSE,FALSE,FALSE,FALSE,0,FALSE,FALSE,FALSE,FALSE,54,7.457,1100,2051,7.449,FALSE,3.729,3.728,0.001,FALSE,FALSE,NA,102.6,102.5,102.5,0,0,0,0,5,2991.5,747.89,,Idle,0,20,FALSE,5,TRUE,10,Go Home,FALSE,FALSE,FALSE,FALSE,FALSE,FALSE,FALSE,FALSE,FALSE,FALSE,FALSE,FALSE,6.974144533,79.91427169,0.9,141.8,328,TRUE,1,1,FALSE,FALSE,FALSE,FALSE,,TRUE,FALSE,FALSE,Course Lock,65.6,,16.4,Calm,29,,1.12.8,Mavic Mini,1SDCH7G0169R0K,1SFLH6Q0AB03DJ,1SRCH7F014TAHX,1U5X071EXP5ZJG,69.6,0.4,32.8,8.547347,3.802798,0,0,Mavic Mini,1SDCH7G0169R0K,1SFLH6Q0AB03DJ,1SRCH7F014TAHX,1U5X071EXP5ZJG,DJI Fly,,1.12.8,6092850D-450A-3C84-E99F-FA9CB092D05D,1SDCH7G0169R0K,,,,,,,,,
2/21/2024,27:18.0,5m 21.4s,321.4,6.974143862,79.91427414,0,0,0.3,52,0.4,0,0,0,0,0,0,0,0,2.7,0.8,-53.4,306.6,,Manual Takeoff,Other,Takeoff (RC Assisted),13,4,TRUE,,Mavic Mini,TRUE,FALSE,,Smart,RC,TRUE,TRUE,FALSE,,,TRUE,,FALSE,FALSE,FALSE,FALSE,FALSE,FALSE,FALSE,FALSE,FALSE,FALSE,0,Follow Yaw,0,0,-41.7,318.3,FALSE,FALSE,FALSE,FALSE,FALSE,FALSE,,TRUE,Normal,,100,1024,1024,1024,1024,2,FALSE,FALSE,FALSE,FALSE,FALSE,0,FALSE,FALSE,FALSE,FALSE,54,7.457,1100,2051,7.449,FALSE,3.729,3.728,0.001,FALSE,FALSE,NA,102.6,102.5,102.5,0,0,0,0,5,2991.5,747.89,,Idle,0,20,FALSE,5,TRUE,10,Go Home,FALSE,FALSE,FALSE,FALSE,FALSE,FALSE,FALSE,FALSE,FALSE,FALSE,FALSE,FALSE,6.974144533,79.91427169,0.9,141.8,328,TRUE,1,1,FALSE,FALSE,FALSE,FALSE,,TRUE,FALSE,FALSE,Course Lock,65.6,,16.4,Calm,29,,1.12.8,Mavic Mini,1SDCH7G0169R0K,1SFLH6Q0AB03DJ,1SRCH7F014TAHX,1U5X071EXP5ZJG,69.6,0.4,32.8,8.547347,3.802798,0,0,Mavic Mini,1SDCH7G0169R0K,1SFLH6Q0AB03DJ,1SRCH7F014TAHX,1U5X071EXP5ZJG,DJI Fly,,1.12.8,6092850D-450A-3C84-E99F-FA9CB092D05D,1SDCH7G0169R0K,,,,,,,,Flight mode changed to Manual Takeoff.,
2/21/2024,27:18.1,5m 21.5s,321.5,6.974143899,79.91427414,0,0,0.3,52,0.4,0,0,0,0,0,0,0,0,2.7,0.8,-53.4,306.6,,Manual Takeoff,Other,Takeoff (RC Assisted),13,4,TRUE,,Mavic Mini,TRUE,FALSE,,Smart,RC,TRUE,TRUE,FALSE,,,TRUE,,FALSE,FALSE,FALSE,FALSE,FALSE,FALSE,FALSE,FALSE,FALSE,FALSE,0,Follow Yaw,0,0,-41.7,318.3,FALSE,FALSE,FALSE,FALSE,FALSE,FALSE,,TRUE,Normal,,100,1024,1024,1024,1024,2,FALSE,FALSE,FALSE,FALSE,FALSE,0,FALSE,FALSE,FALSE,FALSE,54,7.457,1100,2051,7.449,FALSE,3.729,3.728,0.001,FALSE,FALSE,NA,102.6,102.5,102.5,0,0,0,0,5,2991.5,747.89,,Idle,0,20,FALSE,5,TRUE,10,Go Home,FALSE,FALSE,FALSE,FALSE,FALSE,FALSE,FALSE,FALSE,FALSE,FALSE,FALSE,FALSE,6.974144533,79.91427169,0.9,141.8,328,TRUE,1,1,FALSE,FALSE,FALSE,FALSE,,TRUE,FALSE,FALSE,Course Lock,65.6,,16.4,Calm,29,,1.12.8,Mavic Mini,1SDCH7G0169R0K,1SFLH6Q0AB03DJ,1SRCH7F014TAHX,1U5X071EXP5ZJG,69.6,0.4,32.8,8.547347,3.802798,0,0,Mavic Mini,1SDCH7G0169R0K,1SFLH6Q0AB03DJ,1SRCH7F014TAHX,1U5X071EXP5ZJG,DJI Fly,,1.12.8,6092850D-450A-3C84-E99F-FA9CB092D05D,1SDCH7G0169R0K,,,,,,,,,
2/21/2024,27:18.2,5m 21.6s,321.6,6.974143919,79.91427417,0,0,0.3,52,0.4,0,0,0,0,0,0,0,0,2.6,0.8,-53.4,306.6,,Manual Takeoff,Other,Takeoff (RC Assisted),13,4,TRUE,,Mavic Mini,TRUE,FALSE,,Smart,RC,TRUE,TRUE,FALSE,,,TRUE,,FALSE,FALSE,FALSE,FALSE,FALSE,FALSE,FALSE,FALSE,FALSE,FALSE,0,Follow Yaw,0,0,-41.7,318.3,FALSE,FALSE,FALSE,FALSE,FALSE,FALSE,,TRUE,Normal,,100,1024,1024,1024,1024,2,FALSE,FALSE,FALSE,FALSE,FALSE,0,FALSE,FALSE,FALSE,FALSE,54,7.447,1100,2051,7.449,FALSE,3.723,3.724,0.001,FALSE,FALSE,NA,102.6,102.5,102.5,0,0,0,0,5,2991.5,747.89,,Idle,0,20,FALSE,5,TRUE,10,Go Home,FALSE,FALSE,FALSE,FALSE,FALSE,FALSE,FALSE,FALSE,FALSE,FALSE,FALSE,FALSE,6.974144533,79.91427169,0.9,141.8,328,TRUE,1,1,FALSE,FALSE,FALSE,FALSE,,TRUE,FALSE,FALSE,Course Lock,65.6,,16.4,Calm,29,,1.12.8,Mavic Mini,1SDCH7G0169R0K,1SFLH6Q0AB03DJ,1SRCH7F014TAHX,1U5X071EXP5ZJG,69.6,0.4,32.8,8.547347,3.802798,0,0,Mavic Mini,1SDCH7G0169R0K,1SFLH6Q0AB03DJ,1SRCH7F014TAHX,1U5X071EXP5ZJG,DJI Fly,,1.12.8,6092850D-450A-3C84-E99F-FA9CB092D05D,1SDCH7G0169R0K,,,,,,,,,
2/21/2024,27:18.3,5m 21.7s,321.7,6.974143966,79.91427416,0,0,0.3,52,0.4,0,0,0,0,0,0,0,0,2.6,0.8,-53.4,306.6,,Manual Takeoff,Other,Takeoff (RC Assisted),13,4,TRUE,,Mavic Mini,TRUE,FALSE,,Smart,RC,TRUE,TRUE,FALSE,,,TRUE,,FALSE,FALSE,FALSE,FALSE,FALSE,FALSE,FALSE,FALSE,FALSE,FALSE,0,Follow Yaw,0,0,-41.7,318.3,FALSE,FALSE,FALSE,FALSE,FALSE,FALSE,,TRUE,Normal,,100,1024,1024,1024,1024,2,FALSE,FALSE,FALSE,FALSE,FALSE,0,FALSE,FALSE,FALSE,FALSE,54,7.447,1100,2051,7.449,FALSE,3.723,3.724,0.001,FALSE,FALSE,NA,102.6,102.5,102.5,0,0,0,0,5,2991.5,747.89,,Idle,0,20,FALSE,5,TRUE,10,Go Home,FALSE,FALSE,FALSE,FALSE,FALSE,FALSE,FALSE,FALSE,FALSE,FALSE,FALSE,FALSE,6.974144533,79.91427169,0.9,141.8,328,TRUE,1,1,FALSE,FALSE,FALSE,FALSE,,TRUE,FALSE,FALSE,Course Lock,65.6,,16.4,Calm,29,,1.12.8,Mavic Mini,1SDCH7G0169R0K,1SFLH6Q0AB03DJ,1SRCH7F014TAHX,1U5X071EXP5ZJG,69.6,0.4,32.8,8.547347,3.802798,0,0,Mavic Mini,1SDCH7G0169R0K,1SFLH6Q0AB03DJ,1SRCH7F014TAHX,1U5X071EXP5ZJG,DJI Fly,,1.12.8,6092850D-450A-3C84-E99F-FA9CB092D05D,1SDCH7G0169R0K,,,,,,,,,
2/21/2024,27:18.4,5m 21.8s,321.8,6.974143997,79.91427414,0,0,0.3,52,0.4,0,0,0,0,0,0,0,0,2.7,0.7,-53.4,306.6,,Manual Takeoff,Other,Takeoff (RC Assisted),13,4,TRUE,,Mavic Mini,TRUE,FALSE,,Smart,RC,TRUE,TRUE,FALSE,,,TRUE,,FALSE,FALSE,FALSE,FALSE,FALSE,FALSE,FALSE,FALSE,FALSE,FALSE,0,Follow Yaw,0,0,-41.8,318.2,FALSE,FALSE,FALSE,FALSE,FALSE,FALSE,,TRUE,Normal,,100,1024,1024,1024,1024,2,FALSE,FALSE,FALSE,FALSE,FALSE,0,FALSE,FALSE,FALSE,FALSE,54,7.447,1100,2051,7.449,FALSE,3.723,3.724,0.001,FALSE,FALSE,NA,102.6,102.5,102.5,0,0,0,0,5,2991.5,747.89,,Idle,0,20,FALSE,5,TRUE,10,Go Home,FALSE,FALSE,FALSE,FALSE,FALSE,FALSE,FALSE,FALSE,FALSE,FALSE,FALSE,FALSE,6.974144533,79.91427169,0.9,141.8,328,TRUE,1,1,FALSE,FALSE,FALSE,FALSE,,TRUE,FALSE,FALSE,Course Lock,65.6,,16.4,Calm,29,,1.12.8,Mavic Mini,1SDCH7G0169R0K,1SFLH6Q0AB03DJ,1SRCH7F014TAHX,1U5X071EXP5ZJG,69.6,0.4,32.8,8.547347,3.802798,0,0,Mavic Mini,1SDCH7G0169R0K,1SFLH6Q0AB03DJ,1SRCH7F014TAHX,1U5X071EXP5ZJG,DJI Fly,,1.12.8,6092850D-450A-3C84-E99F-FA9CB092D05D,1SDCH7G0169R0K,,,,,,,,,
2/21/2024,27:18.5,5m 21.9s,321.9,6.974144044,79.91427409,0,0,0.3,52,0.5,0,0,0,0,0,0,0,0,2.7,0.7,-53.4,306.6,,Manual Takeoff,Other,Takeoff (RC Assisted),13,4,TRUE,,Mavic Mini,TRUE,FALSE,,Smart,RC,TRUE,TRUE,FALSE,,,TRUE,,FALSE,FALSE,FALSE,FALSE,FALSE,FALSE,FALSE,FALSE,FALSE,FALSE,0,Follow Yaw,0,0,-41.8,318.2,FALSE,FALSE,FALSE,FALSE,FALSE,FALSE,,TRUE,Normal,,100,1024,1024,1097,1024,2,FALSE,FALSE,FALSE,FALSE,FALSE,0,FALSE,FALSE,FALSE,FALSE,54,7.447,1100,2051,7.449,FALSE,3.723,3.724,0.001,FALSE,FALSE,NA,102.6,102.5,102.5,0,0,0,0,5,2991.5,747.89,,Idle,0,20,FALSE,5,TRUE,10,Go Home,FALSE,FALSE,FALSE,FALSE,FALSE,FALSE,FALSE,FALSE,FALSE,FALSE,FALSE,FALSE,6.974144533,79.91427169,0.8,141.8,328,TRUE,1,1,FALSE,FALSE,FALSE,FALSE,,TRUE,FALSE,FALSE,Course Lock,65.6,,16.4,Calm,29,,1.12.8,Mavic Mini,1SDCH7G0169R0K,1SFLH6Q0AB03DJ,1SRCH7F014TAHX,1U5X071EXP5ZJG,69.6,0.4,32.8,8.547347,3.802798,0,0,Mavic Mini,1SDCH7G0169R0K,1SFLH6Q0AB03DJ,1SRCH7F014TAHX,1U5X071EXP5ZJG,DJI Fly,,1.12.8,6092850D-450A-3C84-E99F-FA9CB092D05D,1SDCH7G0169R0K,,,,,,,,,
2/21/2024,27:18.5,5m 22.0s,322,6.974144067,79.91427405,0,0,0.3,52,0.5,0,0,0,0,0,0,0,0,2.7,0.8,-53.4,306.6,,Manual Takeoff,Other,Takeoff (RC Assisted),13,4,TRUE,,Mavic Mini,TRUE,FALSE,,Smart,RC,TRUE,TRUE,FALSE,,,TRUE,,FALSE,FALSE,FALSE,FALSE,FALSE,FALSE,FALSE,FALSE,FALSE,FALSE,0,Follow Yaw,0,0,-41.8,318.2,FALSE,FALSE,FALSE,FALSE,FALSE,FALSE,,TRUE,Normal,,100,1024,1024,1303,1024,2,FALSE,FALSE,FALSE,FALSE,FALSE,0,FALSE,FALSE,FALSE,FALSE,54,7.447,1100,2051,7.449,FALSE,3.723,3.724,0.001,FALSE,FALSE,NA,102.6,102.5,102.5,0,0,0,0,5,2991.5,747.89,,Idle,0,20,FALSE,5,TRUE,10,Go Home,FALSE,FALSE,FALSE,FALSE,FALSE,FALSE,FALSE,FALSE,FALSE,FALSE,FALSE,FALSE,6.974144533,79.91427169,0.8,141.8,328,TRUE,1,1,FALSE,FALSE,FALSE,FALSE,,TRUE,FALSE,FALSE,Course Lock,65.6,,16.4,Calm,29,,1.12.8,Mavic Mini,1SDCH7G0169R0K,1SFLH6Q0AB03DJ,1SRCH7F014TAHX,1U5X071EXP5ZJG,69.6,0.4,32.8,8.547347,3.802798,0,0,Mavic Mini,1SDCH7G0169R0K,1SFLH6Q0AB03DJ,1SRCH7F014TAHX,1U5X071EXP5ZJG,DJI Fly,,1.12.8,6092850D-450A-3C84-E99F-FA9CB092D05D,1SDCH7G0169R0K,,,,,,,,,
2/21/2024,27:18.7,5m 22.1s,322.1,6.974144089,79.91427386,0,0,0.3,52,0.5,0,0,0,0,0,0,0,0,2.7,0.8,-53.4,306.6,,Manual Takeoff,Other,Takeoff (RC Assisted),13,4,TRUE,,Mavic Mini,TRUE,FALSE,,Smart,RC,TRUE,TRUE,FALSE,,,TRUE,,FALSE,FALSE,FALSE,FALSE,FALSE,FALSE,FALSE,FALSE,FALSE,FALSE,0,Follow Yaw,0,0,-41.8,318.2,FALSE,FALSE,FALSE,FALSE,FALSE,FALSE,,TRUE,Normal,,100,1024,1024,1466,1024,2,FALSE,FALSE,FALSE,FALSE,FALSE,0,FALSE,FALSE,FALSE,FALSE,54,7.447,1100,2051,7.449,FALSE,3.723,3.724,0.001,FALSE,FALSE,NA,102.6,102.5,102.5,0,0,0,0,5,2991.5,747.89,,Idle,0,20,FALSE,5,TRUE,10,Go Home,FALSE,FALSE,FALSE,FALSE,FALSE,FALSE,FALSE,FALSE,FALSE,FALSE,FALSE,FALSE,6.974144533,79.91427169,0.8,141.8,328,TRUE,1,1,FALSE,FALSE,FALSE,FALSE,,TRUE,FALSE,FALSE,Course Lock,65.6,,16.4,Calm,29,,1.12.8,Mavic Mini,1SDCH7G0169R0K,1SFLH6Q0AB03DJ,1SRCH7F014TAHX,1U5X071EXP5ZJG,69.6,0.4,32.8,8.547347,3.802798,0,0,Mavic Mini,1SDCH7G0169R0K,1SFLH6Q0AB03DJ,1SRCH7F014TAHX,1U5X071EXP5ZJG,DJI Fly,,1.12.8,6092850D-450A-3C84-E99F-FA9CB092D05D,1SDCH7G0169R0K,,,,,,,,,
2/21/2024,27:18.8,5m 22.2s,322.2,6.974144116,79.91427385,0,0,0.3,52,0.6,0,0,0,0,0,0,0,0,2.6,0.8,-53.4,306.6,,Manual Takeoff,Other,Takeoff (RC Assisted),13,4,TRUE,,Mavic Mini,TRUE,FALSE,,Smart,RC,TRUE,TRUE,FALSE,,,TRUE,,FALSE,FALSE,FALSE,FALSE,FALSE,FALSE,FALSE,FALSE,FALSE,FALSE,0,Follow Yaw,0,0,-41.8,318.2,FALSE,FALSE,FALSE,FALSE,FALSE,FALSE,,TRUE,Normal,,100,1024,1024,1589,1024,2,FALSE,FALSE,FALSE,FALSE,FALSE,0,FALSE,FALSE,FALSE,FALSE,54,7.447,1100,2051,7.449,FALSE,3.723,3.724,0.001,FALSE,FALSE,NA,102.6,102.5,102.5,0,0,0,0,5,2991.5,747.89,,Idle,0,20,FALSE,5,TRUE,10,Go Home,FALSE,FALSE,FALSE,FALSE,FALSE,FALSE,FALSE,FALSE,FALSE,FALSE,FALSE,FALSE,6.974144533,79.91427169,0.7,141.8,328,TRUE,1,1,FALSE,FALSE,FALSE,FALSE,,TRUE,FALSE,FALSE,Course Lock,65.6,,16.4,Calm,29,,1.12.8,Mavic Mini,1SDCH7G0169R0K,1SFLH6Q0AB03DJ,1SRCH7F014TAHX,1U5X071EXP5ZJG,69.6,0.4,32.8,8.547347,3.802798,0,0,Mavic Mini,1SDCH7G0169R0K,1SFLH6Q0AB03DJ,1SRCH7F014TAHX,1U5X071EXP5ZJG,DJI Fly,,1.12.8,6092850D-450A-3C84-E99F-FA9CB092D05D,1SDCH7G0169R0K,,,,,,,,,
2/21/2024,27:18.9,5m 22.3s,322.3,6.974144161,79.91427385,0,0,0.3,52,0.6,0,0,0,0,0,0,0,0,2.6,0.8,-53.4,306.6,,Manual Takeoff,Other,Takeoff (RC Assisted),13,4,TRUE,,Mavic Mini,TRUE,FALSE,,Smart,RC,TRUE,TRUE,FALSE,,,TRUE,,FALSE,FALSE,FALSE,FALSE,FALSE,FALSE,FALSE,FALSE,FALSE,FALSE,0,Follow Yaw,0,0,-41.8,318.2,FALSE,FALSE,FALSE,FALSE,FALSE,FALSE,,TRUE,Normal,,100,1024,1024,1684,1024,2,FALSE,FALSE,FALSE,FALSE,FALSE,0,FALSE,FALSE,FALSE,FALSE,54,7.447,1100,2051,7.432,FALSE,3.723,3.724,0.001,FALSE,FALSE,NA,102.6,102.5,102.5,0,0,0,0,5,2592.8,648.2,,Idle,0,20,FALSE,5,TRUE,10,Go Home,FALSE,FALSE,FALSE,FALSE,FALSE,FALSE,FALSE,FALSE,FALSE,FALSE,FALSE,FALSE,6.974144533,79.91427169,0.7,141.8,328,TRUE,1,1,FALSE,FALSE,FALSE,FALSE,,TRUE,FALSE,FALSE,Course Lock,65.6,,16.4,Calm,29,,1.12.8,Mavic Mini,1SDCH7G0169R0K,1SFLH6Q0AB03DJ,1SRCH7F014TAHX,1U5X071EXP5ZJG,69.6,0.4,32.8,8.547347,3.802798,0,0,Mavic Mini,1SDCH7G0169R0K,1SFLH6Q0AB03DJ,1SRCH7F014TAHX,1U5X071EXP5ZJG,DJI Fly,,1.12.8,6092850D-450A-3C84-E99F-FA9CB092D05D,1SDCH7G0169R0K,,,,,6.974130725,79.91426613,10,,
2/21/2024,27:19.0,5m 22.4s,322.4,6.974144181,79.91427385,0,0,0.3,52,0.6,0,0,0,0,0,0,0,0,2.6,0.6,-53.6,306.4,,Manual Takeoff,Other,Takeoff (RC Assisted),13,4,TRUE,,Mavic Mini,TRUE,FALSE,,Smart,RC,TRUE,TRUE,FALSE,,,TRUE,,FALSE,FALSE,FALSE,FALSE,FALSE,FALSE,FALSE,FALSE,FALSE,FALSE,0,Follow Yaw,0,0,-41.8,318.2,FALSE,FALSE,FALSE,FALSE,FALSE,FALSE,,TRUE,Normal,,100,1024,1024,1684,1024,2,FALSE,FALSE,FALSE,FALSE,FALSE,0,FALSE,FALSE,FALSE,FALSE,54,7.447,1100,2051,7.432,FALSE,3.723,3.724,0.001,FALSE,FALSE,NA,102.6,102.5,102.5,0,0,0,0,5,2592.8,648.2,,Idle,0,20,FALSE,5,TRUE,10,Go Home,FALSE,FALSE,FALSE,FALSE,FALSE,FALSE,FALSE,FALSE,FALSE,FALSE,FALSE,FALSE,6.974144533,79.91427169,0.7,141.8,328,TRUE,1,1,FALSE,FALSE,FALSE,FALSE,,TRUE,FALSE,FALSE,Course Lock,65.6,,16.4,Calm,29,,1.12.8,Mavic Mini,1SDCH7G0169R0K,1SFLH6Q0AB03DJ,1SRCH7F014TAHX,1U5X071EXP5ZJG,69.6,0.4,32.8,8.547347,3.802798,0,0,Mavic Mini,1SDCH7G0169R0K,1SFLH6Q0AB03DJ,1SRCH7F014TAHX,1U5X071EXP5ZJG,DJI Fly,,1.12.8,6092850D-450A-3C84-E99F-FA9CB092D05D,1SDCH7G0169R0K,,,,,6.974130725,79.91426613,10,,
2/21/2024,27:19.1,5m 22.5s,322.5,6.974144205,79.91427384,0,0,0.3,52,0.6,0,0,0,0,0,0,0,0,2.7,0.5,-53.9,306.1,,Manual Takeoff,Other,Takeoff (RC Assisted),13,4,TRUE,,Mavic Mini,TRUE,FALSE,,Smart,RC,TRUE,TRUE,FALSE,,,TRUE,,FALSE,FALSE,FALSE,FALSE,FALSE,FALSE,FALSE,FALSE,FALSE,FALSE,0,Follow Yaw,0,0,-41.9,318.1,FALSE,FALSE,FALSE,FALSE,FALSE,FALSE,,TRUE,Normal,,100,1024,1024,1684,1024,2,FALSE,FALSE,FALSE,FALSE,FALSE,0,FALSE,FALSE,FALSE,FALSE,54,7.447,1100,2051,7.432,FALSE,3.723,3.724,0.001,FALSE,FALSE,NA,102.6,102.5,102.5,0,0,0,0,5,2592.8,648.2,,Idle,0,20,FALSE,5,TRUE,10,Go Home,FALSE,FALSE,FALSE,FALSE,FALSE,FALSE,FALSE,FALSE,FALSE,FALSE,FALSE,FALSE,6.974144533,79.91427169,0.7,141.8,328,TRUE,1,1,FALSE,FALSE,FALSE,FALSE,,TRUE,FALSE,FALSE,Course Lock,65.6,,16.4,Calm,29,,1.12.8,Mavic Mini,1SDCH7G0169R0K,1SFLH6Q0AB03DJ,1SRCH7F014TAHX,1U5X071EXP5ZJG,69.6,0.4,32.8,8.547347,3.802798,0,0,Mavic Mini,1SDCH7G0169R0K,1SFLH6Q0AB03DJ,1SRCH7F014TAHX,1U5X071EXP5ZJG,DJI Fly,,1.12.8,6092850D-450A-3C84-E99F-FA9CB092D05D,1SDCH7G0169R0K,,,,,6.974130725,79.91426613,10,,
2/21/2024,27:19.1,5m 22.6s,322.6,6.974144205,79.91427385,0,0,0.3,52,0.6,0,0,0,0,0,0,0,0,2.6,0.5,-55.4,304.6,,Manual Takeoff,Other,Takeoff (RC Assisted),13,4,TRUE,,Mavic Mini,TRUE,FALSE,,Smart,RC,TRUE,TRUE,FALSE,,,TRUE,,FALSE,FALSE,FALSE,FALSE,FALSE,FALSE,FALSE,FALSE,FALSE,FALSE,0,Follow Yaw,0,0,-42.7,317.3,FALSE,FALSE,FALSE,FALSE,FALSE,FALSE,,TRUE,Normal,,100,1024,1024,1684,1024,2,FALSE,FALSE,FALSE,FALSE,FALSE,0,FALSE,FALSE,FALSE,FALSE,54,7.447,1100,2051,7.432,FALSE,3.723,3.724,0.001,FALSE,FALSE,NA,102.6,102.5,102.5,0,0,0,0,5,2592.8,648.2,,Idle,0,20,FALSE,5,TRUE,10,Go Home,FALSE,FALSE,FALSE,FALSE,FALSE,FALSE,FALSE,FALSE,FALSE,FALSE,FALSE,FALSE,6.974144533,79.91427169,0.7,141.8,328,TRUE,1,1,FALSE,FALSE,FALSE,FALSE,,TRUE,FALSE,FALSE,Course Lock,65.6,,16.4,Calm,29,,1.12.8,Mavic Mini,1SDCH7G0169R0K,1SFLH6Q0AB03DJ,1SRCH7F014TAHX,1U5X071EXP5ZJG,69.6,0.4,32.8,8.547347,3.802798,0,0,Mavic Mini,1SDCH7G0169R0K,1SFLH6Q0AB03DJ,1SRCH7F014TAHX,1U5X071EXP5ZJG,DJI Fly,,1.12.8,6092850D-450A-3C84-E99F-FA9CB092D05D,1SDCH7G0169R0K,,,,,6.974130725,79.91426613,10,,
2/21/2024,27:19.4,5m 22.7s,322.7,6.9741442,79.91427386,0,0,0.3,52,0.6,0,0,0,0,0,0,0,0,2,0.4,-57.1,302.9,,Manual Takeoff,Other,Takeoff (RC Assisted),13,4,TRUE,,Mavic Mini,TRUE,FALSE,,Smart,RC,TRUE,TRUE,FALSE,,,TRUE,,FALSE,FALSE,FALSE,FALSE,FALSE,FALSE,FALSE,FALSE,FALSE,FALSE,0,Follow Yaw,0,0,-44.2,315.8,FALSE,FALSE,FALSE,FALSE,FALSE,FALSE,,TRUE,Normal,,100,1024,1024,1684,1024,2,FALSE,FALSE,FALSE,FALSE,FALSE,0,FALSE,FALSE,FALSE,FALSE,54,7.412,1100,2051,7.432,FALSE,3.707,3.705,0.002,FALSE,FALSE,NA,102.6,102.5,102.5,0,0,0,0,5,2592.8,648.2,,Idle,0,20,FALSE,5,TRUE,10,Go Home,FALSE,FALSE,FALSE,FALSE,FALSE,FALSE,FALSE,FALSE,FALSE,FALSE,FALSE,FALSE,6.974144533,79.91427169,0.7,141.8,328,TRUE,1,1,FALSE,FALSE,FALSE,FALSE,,TRUE,FALSE,FALSE,Course Lock,65.6,,16.4,Calm,29,,1.12.8,Mavic Mini,1SDCH7G0169R0K,1SFLH6Q0AB03DJ,1SRCH7F014TAHX,1U5X071EXP5ZJG,69.6,0.4,32.8,8.547347,3.802798,0,0,Mavic Mini,1SDCH7G0169R0K,1SFLH6Q0AB03DJ,1SRCH7F014TAHX,1U5X071EXP5ZJG,DJI Fly,,1.12.8,6092850D-450A-3C84-E99F-FA9CB092D05D,1SDCH7G0169R0K,,,,,6.974130725,79.91426613,10,,
2/21/2024,27:19.4,5m 22.8s,322.8,6.974144206,79.91427384,0,0,0.3,52,0.6,0,0,0,0,0,0,0,0,-0.5,0.8,-58.2,301.8,,Manual Takeoff,Other,Takeoff (RC Assisted),13,4,TRUE,,Mavic Mini,TRUE,FALSE,,Smart,RC,TRUE,TRUE,FALSE,,,TRUE,,FALSE,FALSE,FALSE,FALSE,FALSE,FALSE,FALSE,FALSE,FALSE,FALSE,0,Follow Yaw,0,0,-45.6,314.4,FALSE,FALSE,FALSE,FALSE,FALSE,FALSE,,TRUE,Normal,,100,1024,1024,1684,1024,2,FALSE,FALSE,FALSE,FALSE,FALSE,0,FALSE,FALSE,FALSE,FALSE,54,7.412,1100,2051,7.432,FALSE,3.707,3.705,0.002,FALSE,FALSE,NA,102.6,102.5,102.5,0,0,0,0,5,2592.8,648.2,,Idle,0,20,FALSE,5,TRUE,10,Go Home,FALSE,FALSE,FALSE,FALSE,FALSE,FALSE,FALSE,FALSE,FALSE,FALSE,FALSE,FALSE,6.974144533,79.91427169,0.7,141.8,328,TRUE,1,1,FALSE,FALSE,FALSE,FALSE,,TRUE,FALSE,FALSE,Course Lock,65.6,,16.4,Calm,29,,1.12.8,Mavic Mini,1SDCH7G0169R0K,1SFLH6Q0AB03DJ,1SRCH7F014TAHX,1U5X071EXP5ZJG,69.6,0.4,32.8,8.547347,3.802798,0,0,Mavic Mini,1SDCH7G0169R0K,1SFLH6Q0AB03DJ,1SRCH7F014TAHX,1U5X071EXP5ZJG,DJI Fly,,1.12.8,6092850D-450A-3C84-E99F-FA9CB092D05D,1SDCH7G0169R0K,,,,,6.974130725,79.91426613,10,,
2/21/2024,27:19.5,5m 22.9s,322.9,6.974144202,79.91427373,0,0,0.3,52,0.6,0.223694,0.223694,0.223694,0.223694,0,0,0,0,-1.7,-0.1,-59.1,300.9,267.3,Manual Takeoff,Other,Takeoff (RC Assisted),13,4,TRUE,,Mavic Mini,TRUE,FALSE,,Smart,RC,TRUE,TRUE,FALSE,,,TRUE,,FALSE,FALSE,FALSE,FALSE,FALSE,FALSE,FALSE,FALSE,FALSE,FALSE,0,Follow Yaw,0,0,-46.5,313.5,FALSE,FALSE,FALSE,FALSE,FALSE,FALSE,,TRUE,Normal,,100,1024,1024,1684,1024,2,FALSE,FALSE,FALSE,FALSE,FALSE,0,FALSE,FALSE,FALSE,FALSE,54,7.412,1100,2051,7.432,FALSE,3.707,3.705,0.002,FALSE,FALSE,NA,102.6,102.5,102.5,0,0,0,0,5,2592.8,648.2,,Idle,0,20,FALSE,5,TRUE,10,Go Home,FALSE,FALSE,FALSE,FALSE,FALSE,FALSE,FALSE,FALSE,FALSE,FALSE,FALSE,FALSE,6.974144533,79.91427169,0.7,141.8,328,TRUE,1,1,FALSE,FALSE,FALSE,FALSE,,TRUE,FALSE,FALSE,Course Lock,65.6,,16.4,Calm,29,,1.12.8,Mavic Mini,1SDCH7G0169R0K,1SFLH6Q0AB03DJ,1SRCH7F014TAHX,1U5X071EXP5ZJG,69.6,0.4,32.8,8.547347,3.802798,0,0,Mavic Mini,1SDCH7G0169R0K,1SFLH6Q0AB03DJ,1SRCH7F014TAHX,1U5X071EXP5ZJG,DJI Fly,,1.12.8,6092850D-450A-3C84-E99F-FA9CB092D05D,1SDCH7G0169R0K,,,,,6.974130725,79.91426613,10,,
2/21/2024,27:19.6,5m 23.0s,323,6.974144311,79.91427369,0,0,0.3,52,0.7,0.223694,0.223694,0.223694,0.223694,0,0,-0.447388,0,-1.4,0.8,-60.3,299.7,343.9,Manual Takeoff,Other,,13,5,TRUE,,Mavic Mini,TRUE,FALSE,,Smart,RC,FALSE,TRUE,FALSE,,,TRUE,,FALSE,FALSE,FALSE,FALSE,FALSE,FALSE,FALSE,FALSE,FALSE,FALSE,0,Follow Yaw,0,0,-47.6,312.4,FALSE,FALSE,FALSE,FALSE,FALSE,FALSE,,TRUE,Normal,,100,1024,1024,1684,1024,2,FALSE,FALSE,FALSE,FALSE,FALSE,0,FALSE,FALSE,FALSE,FALSE,54,7.412,1100,2051,7.432,FALSE,3.707,3.705,0.002,FALSE,FALSE,NA,102.6,102.5,102.5,0,0,0,0,5,2592.8,648.2,,Idle,0,20,FALSE,5,TRUE,10,Go Home,FALSE,FALSE,FALSE,FALSE,FALSE,FALSE,FALSE,FALSE,FALSE,FALSE,FALSE,FALSE,6.974144533,79.91427169,0.7,141.8,328,TRUE,1,1,FALSE,FALSE,FALSE,FALSE,,TRUE,FALSE,FALSE,Course Lock,65.6,,16.4,Calm,29,,1.12.8,Mavic Mini,1SDCH7G0169R0K,1SFLH6Q0AB03DJ,1SRCH7F014TAHX,1U5X071EXP5ZJG,69.6,0.4,32.8,8.547347,3.802798,0,0,Mavic Mini,1SDCH7G0169R0K,1SFLH6Q0AB03DJ,1SRCH7F014TAHX,1U5X071EXP5ZJG,DJI Fly,,1.12.8,6092850D-450A-3C84-E99F-FA9CB092D05D,1SDCH7G0169R0K,,,,,6.974130725,79.91426613,10,,
2/21/2024,27:19.7,5m 23.1s,323.1,6.9741445,79.91427364,0.3,0.3,0.3,52,0.8,0.447388,0.447388,0.447388,0.447388,0,0,-0.671082,0,0.2,-0.7,-60.4,299.6,349,Tripod,Other,,13,5,TRUE,,Mavic Mini,TRUE,FALSE,,Smart,RC,FALSE,TRUE,FALSE,,,TRUE,,FALSE,FALSE,FALSE,FALSE,FALSE,FALSE,FALSE,FALSE,FALSE,FALSE,0,Follow Yaw,0,0,-47.9,312.1,FALSE,FALSE,FALSE,FALSE,FALSE,FALSE,,TRUE,Normal,,100,1024,1024,1684,1024,2,FALSE,FALSE,FALSE,FALSE,FALSE,0,FALSE,FALSE,FALSE,FALSE,54,7.412,1100,2051,7.432,FALSE,3.707,3.705,0.002,FALSE,FALSE,NA,102.6,102.5,102.5,0,0,0,0,5,2592.8,648.2,,Idle,0,20,FALSE,5,TRUE,10,Go Home,FALSE,FALSE,FALSE,FALSE,FALSE,FALSE,FALSE,FALSE,FALSE,FALSE,FALSE,FALSE,6.974144533,79.91427169,0.7,141.8,328,TRUE,1,1,FALSE,FALSE,FALSE,FALSE,,TRUE,FALSE,FALSE,Course Lock,65.6,,16.4,Calm,29,,1.12.8,Mavic Mini,1SDCH7G0169R0K,1SFLH6Q0AB03DJ,1SRCH7F014TAHX,1U5X071EXP5ZJG,69.6,0.4,32.8,8.547347,3.802798,0,0,Mavic Mini,1SDCH7G0169R0K,1SFLH6Q0AB03DJ,1SRCH7F014TAHX,1U5X071EXP5ZJG,DJI Fly,,1.12.8,6092850D-450A-3C84-E99F-FA9CB092D05D,1SDCH7G0169R0K,,,,,6.974130725,79.91426613,10,Flight mode changed to Tripod.,
2/21/2024,27:19.8,5m 23.2s,323.2,6.974144742,79.91427358,0.3,0.3,0.6,52,0.8,0.671082,0.671082,0.671082,0.671082,0,0,-1.342164,0,1.7,-1.5,-60.4,299.6,350.1,Tripod,Other,,13,5,TRUE,,Mavic Mini,TRUE,FALSE,,Smart,RC,FALSE,TRUE,FALSE,,,TRUE,,FALSE,FALSE,FALSE,FALSE,FALSE,FALSE,FALSE,FALSE,FALSE,FALSE,0,Follow Yaw,0,0,-47.9,312.1,FALSE,FALSE,FALSE,FALSE,FALSE,FALSE,,TRUE,Normal,,100,1024,1024,1684,1024,2,FALSE,FALSE,FALSE,FALSE,FALSE,0,FALSE,FALSE,FALSE,FALSE,54,7.412,1100,2051,7.432,FALSE,3.707,3.705,0.002,FALSE,FALSE,NA,102.6,102.5,102.5,0,0,0,0,5,2592.8,648.2,,Idle,0,20,FALSE,5,TRUE,10,Go Home,FALSE,FALSE,FALSE,FALSE,FALSE,FALSE,FALSE,FALSE,FALSE,FALSE,FALSE,FALSE,6.974144533,79.91427169,0.6,141.8,328,TRUE,1,1,FALSE,FALSE,FALSE,FALSE,,TRUE,FALSE,FALSE,Course Lock,65.6,,16.4,Calm,29,,1.12.8,Mavic Mini,1SDCH7G0169R0K,1SFLH6Q0AB03DJ,1SRCH7F014TAHX,1U5X071EXP5ZJG,69.6,0.4,32.8,8.547347,3.802798,0,0,Mavic Mini,1SDCH7G0169R0K,1SFLH6Q0AB03DJ,1SRCH7F014TAHX,1U5X071EXP5ZJG,DJI Fly,,1.12.8,6092850D-450A-3C84-E99F-FA9CB092D05D,1SDCH7G0169R0K,,,,,6.974130725,79.91426613,10,,
2/21/2024,27:19.9,5m 23.3s,323.3,6.974145,79.91427354,0.6,0.6,0.6,52,0.9,0.671082,0.671082,0.671082,0.671082,0,0,-1.789552,0,3.3,-3.2,-60.2,299.8,353.1,Tripod,Other,,13,5,TRUE,,Mavic Mini,TRUE,FALSE,,Smart,RC,FALSE,TRUE,FALSE,,,TRUE,,FALSE,FALSE,FALSE,FALSE,FALSE,FALSE,FALSE,FALSE,FALSE,FALSE,0,Follow Yaw,0,0,-47.9,312.1,FALSE,FALSE,FALSE,FALSE,FALSE,FALSE,,TRUE,Normal,,100,1024,1024,1684,1024,2,FALSE,FALSE,FALSE,FALSE,FALSE,0,FALSE,FALSE,FALSE,FALSE,54,7.412,1100,2051,7.358,FALSE,3.707,3.705,0.002,FALSE,FALSE,NA,102.6,102.5,102.5,0,0,2,0,5,2494.7,623.69,,Idle,0,20,FALSE,5,TRUE,10,Go Home,FALSE,FALSE,FALSE,FALSE,FALSE,FALSE,FALSE,FALSE,FALSE,FALSE,FALSE,FALSE,6.974144311,79.91427369,0.2,141.8,328,TRUE,1,1,FALSE,FALSE,FALSE,FALSE,,TRUE,FALSE,FALSE,Course Lock,65.6,,16.4,Calm,29,,1.12.8,Mavic Mini,1SDCH7G0169R0K,1SFLH6Q0AB03DJ,1SRCH7F014TAHX,1U5X071EXP5ZJG,69.6,0.4,32.8,8.547347,3.802798,0,0,Mavic Mini,1SDCH7G0169R0K,1SFLH6Q0AB03DJ,1SRCH7F014TAHX,1U5X071EXP5ZJG,DJI Fly,,1.12.8,6092850D-450A-3C84-E99F-FA9CB092D05D,1SDCH7G0169R0K,,,,,6.974130725,79.91426613,10,Home Point Updated.,
2/21/2024,27:20.0,5m 23.4s,323.4,6.974145293,79.91427358,0.9,0.9,0.9,53,1,0.447388,0.671082,0.447388,0.671082,0,0,-2.23694,0,2.8,-4.5,-59.8,300.2,4.7,Tripod,Other,,13,5,TRUE,,Mavic Mini,TRUE,FALSE,,Smart,RC,FALSE,TRUE,FALSE,,,TRUE,,FALSE,FALSE,FALSE,FALSE,FALSE,FALSE,FALSE,FALSE,FALSE,FALSE,0,Follow Yaw,0,0,-47.9,312.1,FALSE,FALSE,FALSE,FALSE,FALSE,FALSE,,TRUE,Normal,,100,1024,1024,1684,1024,2,FALSE,FALSE,FALSE,FALSE,FALSE,0,FALSE,FALSE,FALSE,FALSE,54,7.412,1100,2051,7.358,FALSE,3.707,3.705,0.002,FALSE,FALSE,NA,102.6,102.5,102.5,0,0,2,0,5,2494.7,623.69,,Idle,0,20,FALSE,5,TRUE,10,Go Home,FALSE,FALSE,FALSE,FALSE,FALSE,FALSE,FALSE,FALSE,FALSE,FALSE,FALSE,FALSE,6.974144311,79.91427369,0.3,141.8,328,TRUE,1,1,FALSE,FALSE,FALSE,FALSE,,TRUE,FALSE,FALSE,Course Lock,65.6,,16.4,Calm,29,,1.12.8,Mavic Mini,1SDCH7G0169R0K,1SFLH6Q0AB03DJ,1SRCH7F014TAHX,1U5X071EXP5ZJG,69.6,0.4,32.8,8.547347,3.802798,0,0,Mavic Mini,1SDCH7G0169R0K,1SFLH6Q0AB03DJ,1SRCH7F014TAHX,1U5X071EXP5ZJG,DJI Fly,,1.12.8,6092850D-450A-3C84-E99F-FA9CB092D05D,1SDCH7G0169R0K,,,,,6.974130725,79.91426613,10,,
2/21/2024,27:20.1,5m 23.5s,323.5,6.974145576,79.9142736,1.3,1.3,1.3,53,1.2,0.447388,0.671082,0.447388,0.671082,0,0,-2.684328,0,1.2,-4.5,-59.7,300.3,4.1,Tripod,Other,,13,5,TRUE,,Mavic Mini,TRUE,FALSE,,Smart,RC,FALSE,TRUE,FALSE,,,TRUE,,FALSE,FALSE,FALSE,FALSE,FALSE,FALSE,FALSE,FALSE,FALSE,FALSE,0,Follow Yaw,0,0,-47.9,312.1,FALSE,FALSE,FALSE,FALSE,FALSE,FALSE,,TRUE,Normal,,100,1024,1024,1684,1024,2,FALSE,FALSE,FALSE,FALSE,FALSE,0,FALSE,FALSE,FALSE,FALSE,54,7.412,1100,2051,7.358,FALSE,3.707,3.705,0.002,FALSE,FALSE,NA,102.6,102.5,102.5,0,0,2,0,5,2494.7,623.69,,Idle,0,20,FALSE,5,TRUE,10,Go Home,FALSE,FALSE,FALSE,FALSE,FALSE,FALSE,FALSE,FALSE,FALSE,FALSE,FALSE,FALSE,6.974144311,79.91427369,0.4,141.8,328,TRUE,1,1,FALSE,FALSE,FALSE,FALSE,,TRUE,FALSE,FALSE,Course Lock,65.6,,16.4,Calm,29,,1.12.8,Mavic Mini,1SDCH7G0169R0K,1SFLH6Q0AB03DJ,1SRCH7F014TAHX,1U5X071EXP5ZJG,69.6,0.4,32.8,8.547347,3.802798,0,0,Mavic Mini,1SDCH7G0169R0K,1SFLH6Q0AB03DJ,1SRCH7F014TAHX,1U5X071EXP5ZJG,DJI Fly,,1.12.8,6092850D-450A-3C84-E99F-FA9CB092D05D,1SDCH7G0169R0K,,,,,6.974130725,79.91426613,10,,
2/21/2024,27:20.2,5m 23.6s,323.6,6.97414581,79.91427364,1.6,1.6,1.9,53,1.2,0.223694,0.671082,0.223694,0.671082,0,0,-2.908022,0,0.5,-3.7,-59.8,300.2,7.1,Tripod,Other,,13,5,TRUE,,Mavic Mini,TRUE,FALSE,,Smart,RC,FALSE,TRUE,FALSE,,,TRUE,,FALSE,FALSE,FALSE,FALSE,FALSE,FALSE,FALSE,FALSE,FALSE,FALSE,0,Follow Yaw,0,0,-47.9,312.1,FALSE,FALSE,FALSE,FALSE,FALSE,FALSE,,TRUE,Normal,,100,1024,1024,1684,1024,2,FALSE,FALSE,FALSE,FALSE,FALSE,0,FALSE,FALSE,FALSE,FALSE,54,7.412,1100,2051,7.358,FALSE,3.707,3.705,0.002,FALSE,FALSE,NA,102.6,102.5,102.5,0,0,2,0,5,2494.7,623.69,,Idle,0,20,FALSE,5,TRUE,10,Go Home,FALSE,FALSE,FALSE,FALSE,FALSE,FALSE,FALSE,FALSE,FALSE,FALSE,FALSE,FALSE,6.974144311,79.91427369,0.5,141.8,328,TRUE,1,1,FALSE,FALSE,FALSE,FALSE,,TRUE,FALSE,FALSE,Course Lock,65.6,,16.4,Calm,29,,1.12.8,Mavic Mini,1SDCH7G0169R0K,1SFLH6Q0AB03DJ,1SRCH7F014TAHX,1U5X071EXP5ZJG,69.6,0.4,32.8,8.547347,3.802798,0,0,Mavic Mini,1SDCH7G0169R0K,1SFLH6Q0AB03DJ,1SRCH7F014TAHX,1U5X071EXP5ZJG,DJI Fly,,1.12.8,6092850D-450A-3C84-E99F-FA9CB092D05D,1SDCH7G0169R0K,,,,,6.974130725,79.91426613,10,Home Point updated. RTH altitude adjusted to 20 m!b (Code: 120852).,
2/21/2024,27:20.2,5m 23.7s,323.7,6.974146045,79.91427367,1.9,1.9,2.2,54,1.3,0.223694,0.671082,0.223694,0.671082,0,0,-3.131716,0,1.1,-3.4,-59.8,300.2,5,Tripod,Other,,13,5,TRUE,,Mavic Mini,TRUE,FALSE,,Smart,RC,FALSE,TRUE,FALSE,,,TRUE,,FALSE,FALSE,FALSE,FALSE,FALSE,FALSE,FALSE,FALSE,FALSE,FALSE,0,Follow Yaw,0,0,-47.9,312.1,FALSE,FALSE,FALSE,FALSE,FALSE,FALSE,,TRUE,Normal,,100,1024,1024,1684,1024,2,FALSE,FALSE,FALSE,FALSE,FALSE,0,FALSE,FALSE,FALSE,FALSE,54,7.412,1100,2051,7.358,FALSE,3.707,3.705,0.002,FALSE,FALSE,NA,102.6,102.5,102.5,0,0,2,0,5,2494.7,623.69,,Idle,0,20,FALSE,5,TRUE,10,Go Home,FALSE,FALSE,FALSE,FALSE,FALSE,FALSE,FALSE,FALSE,FALSE,FALSE,FALSE,FALSE,6.974144311,79.91427369,0.6,141.8,328,TRUE,1,1,FALSE,FALSE,FALSE,FALSE,,TRUE,FALSE,FALSE,Course Lock,65.6,,16.4,Calm,29,,1.12.8,Mavic Mini,1SDCH7G0169R0K,1SFLH6Q0AB03DJ,1SRCH7F014TAHX,1U5X071EXP5ZJG,69.6,0.4,32.8,8.547347,3.802798,0,0,Mavic Mini,1SDCH7G0169R0K,1SFLH6Q0AB03DJ,1SRCH7F014TAHX,1U5X071EXP5ZJG,DJI Fly,,1.12.8,6092850D-450A-3C84-E99F-FA9CB092D05D,1SDCH7G0169R0K,,,,,6.974130725,79.91426613,10,,
2/21/2024,27:20.3,5m 23.8s,323.8,6.974146329,79.91427372,2.6,2.6,2.9,54,1.4,0.223694,0.671082,0.223694,0.671082,0,0,-3.35541,0,1.7,-3.4,-60,300,8.4,Tripod,Other,,13,5,TRUE,,Mavic Mini,TRUE,FALSE,,Smart,RC,FALSE,TRUE,FALSE,,,TRUE,,FALSE,FALSE,FALSE,FALSE,FALSE,FALSE,FALSE,FALSE,FALSE,FALSE,0,Follow Yaw,0,0,-47.9,312.1,FALSE,FALSE,FALSE,FALSE,FALSE,FALSE,,TRUE,Normal,,100,1024,1024,1684,1024,2,FALSE,FALSE,FALSE,FALSE,FALSE,0,FALSE,FALSE,FALSE,FALSE,54,7.206,1098,2051,7.358,FALSE,3.603,3.603,0.002,FALSE,FALSE,NA,102.7,102.5,102.7,0,0,2,0,5,2494.7,623.69,,Idle,0,20,FALSE,5,TRUE,10,Go Home,FALSE,FALSE,FALSE,FALSE,FALSE,FALSE,FALSE,FALSE,FALSE,FALSE,FALSE,FALSE,6.974144311,79.91427369,0.7,141.8,328,TRUE,1,1,FALSE,FALSE,FALSE,FALSE,,TRUE,FALSE,FALSE,Course Lock,65.6,,16.4,Calm,29,,1.12.8,Mavic Mini,1SDCH7G0169R0K,1SFLH6Q0AB03DJ,1SRCH7F014TAHX,1U5X071EXP5ZJG,69.6,0.4,32.8,8.547347,3.802798,0,0,Mavic Mini,1SDCH7G0169R0K,1SFLH6Q0AB03DJ,1SRCH7F014TAHX,1U5X071EXP5ZJG,DJI Fly,,1.12.8,6092850D-450A-3C84-E99F-FA9CB092D05D,1SDCH7G0169R0K,,,,,6.974130725,79.91426613,10,,
2/21/2024,27:20.5,5m 23.9s,323.9,6.97414647,79.9142737,2.9,2.9,3.2,55,1.5,0.223694,0.671082,0.223694,0.671082,0,0,-3.579104,0,2,-3.4,-59.9,300.1,352.1,Tripod,Other,,13,5,TRUE,,Mavic Mini,TRUE,FALSE,,Smart,RC,FALSE,TRUE,FALSE,,,TRUE,,FALSE,FALSE,FALSE,FALSE,FALSE,FALSE,FALSE,FALSE,FALSE,FALSE,0,Follow Yaw,0,0,-47.9,312.1,FALSE,FALSE,FALSE,FALSE,FALSE,FALSE,,TRUE,Normal,,100,1024,1024,1684,1024,2,FALSE,FALSE,FALSE,FALSE,FALSE,0,FALSE,FALSE,FALSE,FALSE,54,7.206,1098,2051,7.358,FALSE,3.603,3.603,0.002,FALSE,FALSE,NA,102.7,102.5,102.7,0,0,2,0,5,2494.7,623.69,,Idle,0,20,FALSE,5,TRUE,10,Go Home,FALSE,FALSE,FALSE,FALSE,FALSE,FALSE,FALSE,FALSE,FALSE,FALSE,FALSE,FALSE,6.974144311,79.91427369,0.7,141.8,328,TRUE,1,1,FALSE,FALSE,FALSE,FALSE,,TRUE,FALSE,FALSE,Course Lock,65.6,,16.4,Calm,29,,1.12.8,Mavic Mini,1SDCH7G0169R0K,1SFLH6Q0AB03DJ,1SRCH7F014TAHX,1U5X071EXP5ZJG,69.6,0.4,32.8,8.547347,3.802798,0,0,Mavic Mini,1SDCH7G0169R0K,1SFLH6Q0AB03DJ,1SRCH7F014TAHX,1U5X071EXP5ZJG,DJI Fly,,1.12.8,6092850D-450A-3C84-E99F-FA9CB092D05D,1SDCH7G0169R0K,,,,,6.974130725,79.91426613,10,,
2/21/2024,27:20.5,5m 24.0s,324,6.974146472,79.91427367,3.6,3.6,3.9,55,1.5,0.223694,0.671082,0.223694,0.671082,0,0,-3.35541,0,2.5,-3.6,-59.9,300.1,273.9,Tripod,Other,,13,5,TRUE,,Mavic Mini,TRUE,FALSE,,Smart,RC,FALSE,TRUE,FALSE,,,TRUE,,FALSE,FALSE,FALSE,FALSE,FALSE,FALSE,FALSE,FALSE,FALSE,FALSE,0,Follow Yaw,0,0,-47.9,312.1,FALSE,FALSE,FALSE,FALSE,FALSE,FALSE,,TRUE,Normal,,100,1024,1024,1684,1024,2,FALSE,FALSE,FALSE,FALSE,FALSE,0,FALSE,FALSE,FALSE,FALSE,54,7.206,1098,2051,7.358,FALSE,3.603,3.603,0.002,FALSE,FALSE,NA,102.7,102.5,102.7,0,0,2,0,5,2494.7,623.69,,Idle,0,20,FALSE,5,TRUE,10,Go Home,FALSE,FALSE,FALSE,FALSE,FALSE,FALSE,FALSE,FALSE,FALSE,FALSE,FALSE,FALSE,6.974144311,79.91427369,0.7,141.8,328,TRUE,1,1,FALSE,FALSE,FALSE,FALSE,,TRUE,FALSE,FALSE,Course Lock,65.6,,16.4,Calm,29,,1.12.8,Mavic Mini,1SDCH7G0169R0K,1SFLH6Q0AB03DJ,1SRCH7F014TAHX,1U5X071EXP5ZJG,69.6,0.4,32.8,8.547347,3.802798,0,0,Mavic Mini,1SDCH7G0169R0K,1SFLH6Q0AB03DJ,1SRCH7F014TAHX,1U5X071EXP5ZJG,DJI Fly,,1.12.8,6092850D-450A-3C84-E99F-FA9CB092D05D,1SDCH7G0169R0K,,,,,6.974130725,79.91426613,10,,
2/21/2024,27:20.6,5m 24.1s,324.1,6.974146374,79.91427363,3.9,3.9,4.2,56,1.5,0,0.671082,0,0.671082,0,0,-3.35541,0,2.4,-2.7,-59.8,300.2,,Tripod,Other,,13,5,TRUE,,Mavic Mini,TRUE,FALSE,,Smart,RC,FALSE,TRUE,FALSE,,,TRUE,,FALSE,FALSE,FALSE,FALSE,FALSE,FALSE,FALSE,FALSE,FALSE,FALSE,0,Follow Yaw,0,0,-47.9,312.1,FALSE,FALSE,FALSE,FALSE,FALSE,FALSE,,TRUE,Normal,,100,1024,1024,1684,1024,2,FALSE,FALSE,FALSE,FALSE,FALSE,0,FALSE,FALSE,FALSE,FALSE,54,7.206,1098,2051,7.358,FALSE,3.603,3.603,0.002,FALSE,FALSE,NA,102.7,102.5,102.7,0,0,2,0,5,2494.7,623.69,,Idle,0,20,FALSE,5,TRUE,10,Go Home,FALSE,FALSE,FALSE,FALSE,FALSE,FALSE,FALSE,FALSE,FALSE,FALSE,FALSE,FALSE,6.974144311,79.91427369,0.7,141.8,328,TRUE,1,1,FALSE,FALSE,FALSE,FALSE,,TRUE,FALSE,FALSE,Course Lock,65.6,,16.4,Calm,29,,1.12.8,Mavic Mini,1SDCH7G0169R0K,1SFLH6Q0AB03DJ,1SRCH7F014TAHX,1U5X071EXP5ZJG,69.6,0.4,32.8,8.547347,3.802798,0,0,Mavic Mini,1SDCH7G0169R0K,1SFLH6Q0AB03DJ,1SRCH7F014TAHX,1U5X071EXP5ZJG,DJI Fly,,1.12.8,6092850D-450A-3C84-E99F-FA9CB092D05D,1SDCH7G0169R0K,,,,,6.974130725,79.91426613,10,,
2/21/2024,27:20.7,5m 24.2s,324.2,6.974145903,79.91427347,4.5,4.5,4.9,56,1.7,0,0.671082,0,0.671082,0,0,-3.35541,0,2.2,-2.5,-59.7,300.3,,Tripod,Other,,13,5,TRUE,,Mavic Mini,TRUE,FALSE,,Smart,RC,FALSE,TRUE,FALSE,,,TRUE,,FALSE,FALSE,FALSE,FALSE,FALSE,FALSE,FALSE,FALSE,FALSE,FALSE,0,Follow Yaw,0,0,-47.9,312.1,FALSE,FALSE,FALSE,FALSE,FALSE,FALSE,,TRUE,Normal,,100,1024,1024,1684,1024,2,FALSE,FALSE,FALSE,FALSE,FALSE,0,FALSE,FALSE,FALSE,FALSE,54,7.206,1098,2051,7.358,FALSE,3.603,3.603,0.002,FALSE,FALSE,NA,102.7,102.5,102.7,0,0,2,0,5,2494.7,623.69,,Idle,0,20,FALSE,5,TRUE,10,Go Home,FALSE,FALSE,FALSE,FALSE,FALSE,FALSE,FALSE,FALSE,FALSE,FALSE,FALSE,FALSE,6.974144311,79.91427369,0.5,141.8,328,TRUE,1,1,FALSE,FALSE,FALSE,FALSE,,TRUE,FALSE,FALSE,Course Lock,65.6,,16.4,Calm,29,,1.12.8,Mavic Mini,1SDCH7G0169R0K,1SFLH6Q0AB03DJ,1SRCH7F014TAHX,1U5X071EXP5ZJG,69.6,0.4,32.8,8.547347,3.802798,0,0,Mavic Mini,1SDCH7G0169R0K,1SFLH6Q0AB03DJ,1SRCH7F014TAHX,1U5X071EXP5ZJG,DJI Fly,,1.12.8,6092850D-450A-3C84-E99F-FA9CB092D05D,1SDCH7G0169R0K,,,,,6.974130725,79.91426613,10,,
2/21/2024,27:20.9,5m 24.3s,324.3,6.974145886,79.91427342,4.9,4.9,5.2,57,1.7,0,0.671082,0,0.671082,0,0,-3.35541,0,1.8,-2.8,-59.8,300.2,,Tripod,Other,,13,5,TRUE,,Mavic Mini,TRUE,FALSE,,Smart,RC,FALSE,TRUE,FALSE,,,TRUE,,FALSE,FALSE,FALSE,FALSE,FALSE,FALSE,FALSE,FALSE,FALSE,FALSE,0,Follow Yaw,0,0,-47.9,312.1,FALSE,FALSE,FALSE,FALSE,FALSE,FALSE,,TRUE,Normal,,100,1024,1024,1628,1024,2,FALSE,FALSE,FALSE,FALSE,FALSE,0,FALSE,FALSE,FALSE,FALSE,54,7.206,1098,2051,7.264,FALSE,3.603,3.603,0.002,FALSE,FALSE,NA,102.7,102.5,102.7,0,0,3,0,5,3029.5,757.39,,Idle,0,20,FALSE,5,TRUE,10,Go Home,FALSE,FALSE,FALSE,FALSE,FALSE,FALSE,FALSE,FALSE,FALSE,FALSE,FALSE,FALSE,6.974144311,79.91427369,0.5,141.8,328,TRUE,1,1,FALSE,FALSE,FALSE,FALSE,,TRUE,FALSE,FALSE,Course Lock,65.6,,16.4,Calm,29,,1.12.8,Mavic Mini,1SDCH7G0169R0K,1SFLH6Q0AB03DJ,1SRCH7F014TAHX,1U5X071EXP5ZJG,69.6,0.4,32.8,8.547347,3.802798,0,0,Mavic Mini,1SDCH7G0169R0K,1SFLH6Q0AB03DJ,1SRCH7F014TAHX,1U5X071EXP5ZJG,DJI Fly,,1.12.8,6092850D-450A-3C84-E99F-FA9CB092D05D,1SDCH7G0169R0K,,,,,6.974130725,79.91426613,10,,
2/21/2024,27:21.0,5m 24.4s,324.4,6.974145966,79.91427338,5.5,5.5,5.9,57,1.8,0,0.671082,0,0.671082,0,0,-3.131716,0,1.6,-3.1,-59.8,300.2,,Tripod,Other,,13,5,TRUE,,Mavic Mini,TRUE,FALSE,,Smart,RC,FALSE,TRUE,FALSE,,,TRUE,,FALSE,FALSE,FALSE,FALSE,FALSE,FALSE,FALSE,FALSE,FALSE,FALSE,0,Follow Yaw,0,0,-47.9,312.1,FALSE,FALSE,FALSE,FALSE,FALSE,FALSE,,TRUE,Normal,,100,1024,1024,1628,1024,2,FALSE,FALSE,FALSE,FALSE,FALSE,0,FALSE,FALSE,FALSE,FALSE,54,7.206,1098,2051,7.264,FALSE,3.603,3.603,0.002,FALSE,FALSE,NA,102.7,102.5,102.7,0,0,3,0,5,3029.5,757.39,,Idle,0,20,FALSE,5,TRUE,10,Go Home,FALSE,FALSE,FALSE,FALSE,FALSE,FALSE,FALSE,FALSE,FALSE,FALSE,FALSE,FALSE,6.974144311,79.91427369,0.6,141.8,328,TRUE,1,1,FALSE,FALSE,FALSE,FALSE,,TRUE,FALSE,FALSE,Course Lock,65.6,,16.4,Calm,29,,1.12.8,Mavic Mini,1SDCH7G0169R0K,1SFLH6Q0AB03DJ,1SRCH7F014TAHX,1U5X071EXP5ZJG,69.6,0.4,32.8,8.547347,3.802798,0,0,Mavic Mini,1SDCH7G0169R0K,1SFLH6Q0AB03DJ,1SRCH7F014TAHX,1U5X071EXP5ZJG,DJI Fly,,1.12.8,6092850D-450A-3C84-E99F-FA9CB092D05D,1SDCH7G0169R0K,,,,,6.974130725,79.91426613,10,,
2/21/2024,27:21.1,5m 24.5s,324.5,6.974146098,79.91427337,5.9,5.9,6.2,58,1.8,0,0.671082,0,0.671082,0,0,-3.131716,0,1.5,-2.6,-59.7,300.3,,Tripod,Other,,13,5,TRUE,,Mavic Mini,TRUE,FALSE,,Smart,RC,FALSE,TRUE,FALSE,,,TRUE,,FALSE,FALSE,FALSE,FALSE,FALSE,FALSE,FALSE,FALSE,FALSE,FALSE,0,Follow Yaw,0,0,-47.9,312.1,FALSE,FALSE,FALSE,FALSE,FALSE,FALSE,,TRUE,Normal,,100,1024,1024,1362,1024,2,FALSE,FALSE,FALSE,FALSE,FALSE,0,FALSE,FALSE,FALSE,FALSE,54,7.206,1098,2051,7.264,FALSE,3.603,3.603,0.002,FALSE,FALSE,NA,102.7,102.5,102.7,0,0,3,0,5,3029.5,757.39,,Idle,0,20,FALSE,5,TRUE,10,Go Home,FALSE,FALSE,FALSE,FALSE,FALSE,FALSE,FALSE,FALSE,FALSE,FALSE,FALSE,FALSE,6.974144311,79.91427369,0.6,141.8,328,TRUE,1,1,FALSE,FALSE,FALSE,FALSE,,TRUE,FALSE,FALSE,Course Lock,65.6,,16.4,Calm,29,,1.12.8,Mavic Mini,1SDCH7G0169R0K,1SFLH6Q0AB03DJ,1SRCH7F014TAHX,1U5X071EXP5ZJG,69.6,0.4,32.8,8.547347,3.802798,0,0,Mavic Mini,1SDCH7G0169R0K,1SFLH6Q0AB03DJ,1SRCH7F014TAHX,1U5X071EXP5ZJG,DJI Fly,,1.12.8,6092850D-450A-3C84-E99F-FA9CB092D05D,1SDCH7G0169R0K,,,,,6.974130725,79.91426613,10,,
2/21/2024,27:21.2,5m 24.6s,324.6,6.97414649,79.91427343,6.5,6.5,6.8,58,2,0,0.671082,0,0.671082,0,0,-3.131716,0,1.1,-2.7,-59.6,300.4,,Tripod,Other,,13,5,TRUE,,Mavic Mini,TRUE,FALSE,,Smart,RC,FALSE,TRUE,FALSE,,,TRUE,,FALSE,FALSE,FALSE,FALSE,FALSE,FALSE,FALSE,FALSE,FALSE,FALSE,0,Follow Yaw,0,0,-47.9,312.1,FALSE,FALSE,FALSE,FALSE,FALSE,FALSE,,TRUE,Normal,,100,1024,1024,1290,1024,2,FALSE,FALSE,FALSE,FALSE,FALSE,0,FALSE,FALSE,FALSE,FALSE,54,7.206,1098,2051,7.264,FALSE,3.603,3.603,0.002,FALSE,FALSE,NA,102.7,102.5,102.7,0,0,3,0,5,3029.5,757.39,,Idle,0,20,FALSE,5,TRUE,10,Go Home,FALSE,FALSE,FALSE,FALSE,FALSE,FALSE,FALSE,FALSE,FALSE,FALSE,FALSE,FALSE,6.974144311,79.91427369,0.8,141.8,328,TRUE,1,1,FALSE,FALSE,FALSE,FALSE,,TRUE,FALSE,FALSE,Course Lock,65.6,,16.4,Calm,29,,1.12.8,Mavic Mini,1SDCH7G0169R0K,1SFLH6Q0AB03DJ,1SRCH7F014TAHX,1U5X071EXP5ZJG,69.6,0.4,32.8,8.547347,3.802798,0,0,Mavic Mini,1SDCH7G0169R0K,1SFLH6Q0AB03DJ,1SRCH7F014TAHX,1U5X071EXP5ZJG,DJI Fly,,1.12.8,6092850D-450A-3C84-E99F-FA9CB092D05D,1SDCH7G0169R0K,,,,,6.974130725,79.91426613,10,,
2/21/2024,27:21.3,5m 24.7s,324.7,6.974146649,79.91427351,6.8,6.8,7.2,59,2,0,0.671082,0,0.671082,0,0,-2.908022,0,0.5,-3.5,-59.6,300.4,,Tripod,Other,,13,5,TRUE,,Mavic Mini,TRUE,FALSE,,Smart,RC,FALSE,TRUE,FALSE,,,TRUE,,FALSE,FALSE,FALSE,FALSE,FALSE,FALSE,FALSE,FALSE,FALSE,FALSE,0,Follow Yaw,0,0,-47.9,312.1,FALSE,FALSE,FALSE,FALSE,FALSE,FALSE,,TRUE,Normal,,100,1024,1024,1301,1024,2,FALSE,FALSE,FALSE,FALSE,FALSE,0,FALSE,FALSE,FALSE,FALSE,54,7.206,1098,2051,7.264,FALSE,3.603,3.603,0.002,FALSE,FALSE,NA,102.7,102.5,102.7,0,0,3,0,5,3029.5,757.39,,Idle,0,20,FALSE,5,TRUE,10,Go Home,FALSE,FALSE,FALSE,FALSE,FALSE,FALSE,FALSE,FALSE,FALSE,FALSE,FALSE,FALSE,6.974144311,79.91427369,0.8,141.8,328,TRUE,1,1,FALSE,FALSE,FALSE,FALSE,,TRUE,FALSE,FALSE,Course Lock,65.6,,16.4,Calm,29,,1.12.8,Mavic Mini,1SDCH7G0169R0K,1SFLH6Q0AB03DJ,1SRCH7F014TAHX,1U5X071EXP5ZJG,69.6,0.4,32.8,8.547347,3.802798,0,0,Mavic Mini,1SDCH7G0169R0K,1SFLH6Q0AB03DJ,1SRCH7F014TAHX,1U5X071EXP5ZJG,DJI Fly,,1.12.8,6092850D-450A-3C84-E99F-FA9CB092D05D,1SDCH7G0169R0K,,,,,6.974130725,79.91426613,10,,
2/21/2024,27:21.4,5m 24.8s,324.8,6.974146772,79.91427359,7.5,7.5,7.5,59,2.1,0.223694,0.671082,0.223694,0.671082,0,0,-2.460634,0,0.7,-5.2,-59.7,300.3,27.5,Tripod,Other,,13,5,TRUE,,Mavic Mini,TRUE,FALSE,,Smart,RC,FALSE,TRUE,FALSE,,,TRUE,,FALSE,FALSE,FALSE,FALSE,FALSE,FALSE,FALSE,FALSE,FALSE,FALSE,0,Follow Yaw,0,0,-47.9,312.1,FALSE,FALSE,FALSE,FALSE,FALSE,FALSE,,TRUE,Normal,,100,1024,1024,1329,1024,2,FALSE,FALSE,FALSE,FALSE,FALSE,0,FALSE,FALSE,FALSE,FALSE,54,7.206,1098,2051,7.264,FALSE,3.603,3.603,0.002,FALSE,FALSE,NA,102.7,102.5,102.7,0,0,3,0,5,3029.5,757.39,,Idle,0,20,FALSE,5,TRUE,10,Go Home,FALSE,FALSE,FALSE,FALSE,FALSE,FALSE,FALSE,FALSE,FALSE,FALSE,FALSE,FALSE,6.974144311,79.91427369,0.8,141.8,328,TRUE,1,1,FALSE,FALSE,FALSE,FALSE,,TRUE,FALSE,FALSE,Course Lock,65.6,,16.4,Calm,29,,1.12.8,Mavic Mini,1SDCH7G0169R0K,1SFLH6Q0AB03DJ,1SRCH7F014TAHX,1U5X071EXP5ZJG,69.6,0.4,32.8,8.547347,3.802798,0,0,Mavic Mini,1SDCH7G0169R0K,1SFLH6Q0AB03DJ,1SRCH7F014TAHX,1U5X071EXP5ZJG,DJI Fly,,1.12.8,6092850D-450A-3C84-E99F-FA9CB092D05D,1SDCH7G0169R0K,,,,,6.974130725,79.91426613,10,,
2/21/2024,27:21.4,5m 24.9s,324.9,6.974146872,79.91427369,7.8,7.8,7.8,59,2.1,0.316351,0.671082,0.223694,0.671082,0.223694,0.223694,-1.789552,0,0.9,-5,-59.8,300.2,37.3,Tripod,Other,,13,5,TRUE,,Mavic Mini,TRUE,FALSE,,Smart,RC,FALSE,TRUE,FALSE,,,TRUE,,FALSE,FALSE,FALSE,FALSE,FALSE,FALSE,FALSE,FALSE,FALSE,FALSE,0,Follow Yaw,0,0,-47.9,312.1,FALSE,FALSE,FALSE,FALSE,FALSE,FALSE,,TRUE,Normal,,100,1024,1024,1300,1024,2,FALSE,FALSE,FALSE,FALSE,FALSE,0,FALSE,FALSE,FALSE,FALSE,54,7.276,1097,2051,7.264,FALSE,3.638,3.638,0.002,FALSE,FALSE,NA,102.7,102.5,102.7,0,0,3,0,5,3029.5,757.39,,Idle,0,20,FALSE,5,TRUE,10,Go Home,FALSE,FALSE,FALSE,FALSE,FALSE,FALSE,FALSE,FALSE,FALSE,FALSE,FALSE,FALSE,6.974144311,79.91427369,0.9,141.8,328,TRUE,1,1,FALSE,FALSE,FALSE,FALSE,,TRUE,FALSE,FALSE,Course Lock,65.6,,16.4,Calm,29,,1.12.8,Mavic Mini,1SDCH7G0169R0K,1SFLH6Q0AB03DJ,1SRCH7F014TAHX,1U5X071EXP5ZJG,69.6,0.4,32.8,8.547347,3.802798,0,0,Mavic Mini,1SDCH7G0169R0K,1SFLH6Q0AB03DJ,1SRCH7F014TAHX,1U5X071EXP5ZJG,DJI Fly,,1.12.8,6092850D-450A-3C84-E99F-FA9CB092D05D,1SDCH7G0169R0K,,,,,6.974130725,79.91426613,10,,
2/21/2024,27:21.5,5m 25.0s,325,6.974146994,79.91427378,7.8,7.8,8.2,59,2.2,0.316351,0.671082,0.223694,0.671082,0.223694,0.223694,-1.342164,0,0.4,-4.9,-59.8,300.2,30.2,Tripod,Other,,13,5,TRUE,,Mavic Mini,TRUE,FALSE,,Smart,RC,FALSE,TRUE,FALSE,,,TRUE,,FALSE,FALSE,FALSE,FALSE,FALSE,FALSE,FALSE,FALSE,FALSE,FALSE,0,Follow Yaw,0,0,-47.9,312.1,FALSE,FALSE,FALSE,FALSE,FALSE,FALSE,,TRUE,Normal,,100,1024,1024,1096,1024,2,FALSE,FALSE,FALSE,FALSE,FALSE,0,FALSE,FALSE,FALSE,FALSE,54,7.276,1097,2051,7.264,FALSE,3.638,3.638,0.002,FALSE,FALSE,NA,102.7,102.5,102.7,0,0,3,0,5,3029.5,757.39,,Idle,0,20,FALSE,5,TRUE,10,Go Home,FALSE,FALSE,FALSE,FALSE,FALSE,FALSE,FALSE,FALSE,FALSE,FALSE,FALSE,FALSE,6.974144311,79.91427369,0.9,141.8,328,TRUE,1,1,FALSE,FALSE,FALSE,FALSE,,TRUE,FALSE,FALSE,Course Lock,65.6,,16.4,Calm,29,,1.12.8,Mavic Mini,1SDCH7G0169R0K,1SFLH6Q0AB03DJ,1SRCH7F014TAHX,1U5X071EXP5ZJG,69.6,0.4,32.8,8.547347,3.802798,0,0,Mavic Mini,1SDCH7G0169R0K,1SFLH6Q0AB03DJ,1SRCH7F014TAHX,1U5X071EXP5ZJG,DJI Fly,,1.12.8,6092850D-450A-3C84-E99F-FA9CB092D05D,1SDCH7G0169R0K,,,,,6.974130725,79.91426613,10,,
2/21/2024,27:21.6,5m 25.1s,325.1,6.974147097,79.91427389,8.2,8.2,8.2,60,2.2,0.316351,0.671082,0.223694,0.671082,0.223694,0.223694,-1.11847,0,-0.3,-5,-59.8,300.2,39.5,Tripod,Other,,13,5,TRUE,,Mavic Mini,TRUE,FALSE,,Smart,RC,FALSE,TRUE,FALSE,,,TRUE,,FALSE,FALSE,FALSE,FALSE,FALSE,FALSE,FALSE,FALSE,FALSE,FALSE,0,Follow Yaw,0,0,-47.9,312.1,FALSE,FALSE,FALSE,FALSE,FALSE,FALSE,,TRUE,Normal,,100,1024,1024,1024,1024,2,FALSE,FALSE,FALSE,FALSE,FALSE,0,FALSE,FALSE,FALSE,FALSE,54,7.276,1097,2051,7.264,FALSE,3.638,3.638,0.002,FALSE,FALSE,NA,102.7,102.5,102.7,0,0,3,0,5,3029.5,757.39,,Idle,0,20,FALSE,5,TRUE,10,Go Home,FALSE,FALSE,FALSE,FALSE,FALSE,FALSE,FALSE,FALSE,FALSE,FALSE,FALSE,FALSE,6.974144311,79.91427369,1,141.8,328,TRUE,1,1,FALSE,FALSE,FALSE,FALSE,,TRUE,FALSE,FALSE,Course Lock,65.6,,16.4,Calm,29,,1.12.8,Mavic Mini,1SDCH7G0169R0K,1SFLH6Q0AB03DJ,1SRCH7F014TAHX,1U5X071EXP5ZJG,69.6,0.4,32.8,8.547347,3.802798,0,0,Mavic Mini,1SDCH7G0169R0K,1SFLH6Q0AB03DJ,1SRCH7F014TAHX,1U5X071EXP5ZJG,DJI Fly,,1.12.8,6092850D-450A-3C84-E99F-FA9CB092D05D,1SDCH7G0169R0K,,,,,6.974130725,79.91426613,10,,
2/21/2024,27:21.8,5m 25.2s,325.2,6.974147331,79.91427399,8.2,8.2,8.5,60,2.3,0.316351,0.671082,0.223694,0.671082,0.223694,0.223694,-0.894776,0,-0.2,-6.2,-59.8,300.2,17.5,Tripod,Other,,13,5,TRUE,,Mavic Mini,TRUE,FALSE,,Smart,RC,FALSE,TRUE,FALSE,,,TRUE,,FALSE,FALSE,FALSE,FALSE,FALSE,FALSE,FALSE,FALSE,FALSE,FALSE,0,Follow Yaw,0,0,-47.9,312.1,FALSE,FALSE,FALSE,FALSE,FALSE,FALSE,,TRUE,Normal,,100,1024,1024,1024,731,2,FALSE,FALSE,FALSE,FALSE,FALSE,0,FALSE,FALSE,FALSE,FALSE,54,7.276,1097,2051,7.264,FALSE,3.638,3.638,0.002,FALSE,FALSE,NA,102.7,102.5,102.7,0,0,3,0,5,3029.5,757.39,,Idle,0,20,FALSE,5,TRUE,10,Go Home,FALSE,FALSE,FALSE,FALSE,FALSE,FALSE,FALSE,FALSE,FALSE,FALSE,FALSE,FALSE,6.974144311,79.91427369,1.1,141.8,328,TRUE,1,1,FALSE,FALSE,FALSE,FALSE,,TRUE,FALSE,FALSE,Course Lock,65.6,,16.4,Calm,29,,1.12.8,Mavic Mini,1SDCH7G0169R0K,1SFLH6Q0AB03DJ,1SRCH7F014TAHX,1U5X071EXP5ZJG,69.6,0.4,32.8,8.547347,3.802798,0,0,Mavic Mini,1SDCH7G0169R0K,1SFLH6Q0AB03DJ,1SRCH7F014TAHX,1U5X071EXP5ZJG,DJI Fly,,1.12.8,6092850D-450A-3C84-E99F-FA9CB092D05D,1SDCH7G0169R0K,,,,,6.974130725,79.91426613,10,,
2/21/2024,27:21.9,5m 25.3s,325.3,6.974147624,79.91427409,8.5,8.5,8.5,60,2.4,0.223694,0.671082,0.223694,0.671082,0,0.223694,-0.447388,0,0,-6.3,-59.6,300.4,14.7,Tripod,Other,,13,5,TRUE,,Mavic Mini,TRUE,FALSE,,Smart,RC,FALSE,TRUE,FALSE,,,TRUE,,FALSE,FALSE,FALSE,FALSE,FALSE,FALSE,FALSE,FALSE,FALSE,FALSE,0,Follow Yaw,0,0,-47.9,312.1,FALSE,FALSE,FALSE,FALSE,FALSE,FALSE,,TRUE,Normal,,100,1024,1024,1024,364,2,FALSE,FALSE,FALSE,FALSE,FALSE,0,FALSE,FALSE,FALSE,FALSE,54,7.276,1097,2051,7.253,FALSE,3.638,3.638,0.002,FALSE,FALSE,NA,102.7,102.5,102.7,0,0,3,0,5,4605.9,1151.47,,Idle,0,20,FALSE,5,TRUE,10,Go Home,FALSE,FALSE,FALSE,FALSE,FALSE,FALSE,FALSE,FALSE,FALSE,FALSE,FALSE,FALSE,6.974144311,79.91427369,1.2,141.8,328,TRUE,1,1,FALSE,FALSE,FALSE,FALSE,,TRUE,FALSE,FALSE,Course Lock,65.6,,16.4,Calm,29,,1.12.8,Mavic Mini,1SDCH7G0169R0K,1SFLH6Q0AB03DJ,1SRCH7F014TAHX,1U5X071EXP5ZJG,69.6,0.4,32.8,8.547347,3.802798,0,0,Mavic Mini,1SDCH7G0169R0K,1SFLH6Q0AB03DJ,1SRCH7F014TAHX,1U5X071EXP5ZJG,DJI Fly,,1.12.8,6092850D-450A-3C84-E99F-FA9CB092D05D,1SDCH7G0169R0K,,,,,6.974130725,79.91426613,10,,
2/21/2024,27:22.1,5m 25.4s,325.4,6.974147839,79.9142741,8.5,8.5,8.5,60,2.5,0.223694,0.671082,0.223694,0.671082,0,0.223694,-0.223694,0,0,-6.4,-59.6,300.4,2.2,Tripod,Other,,13,5,TRUE,,Mavic Mini,TRUE,FALSE,,Smart,RC,FALSE,TRUE,FALSE,,,TRUE,,FALSE,FALSE,FALSE,FALSE,FALSE,FALSE,FALSE,FALSE,FALSE,FALSE,0,Follow Yaw,0,0,-48,312,FALSE,FALSE,FALSE,FALSE,FALSE,FALSE,,TRUE,Normal,,100,1024,1024,1024,364,2,FALSE,FALSE,FALSE,FALSE,FALSE,0,FALSE,FALSE,FALSE,FALSE,54,7.276,1097,2051,7.253,FALSE,3.638,3.638,0.002,FALSE,FALSE,NA,102.7,102.5,102.7,0,0,3,0,5,4605.9,1151.47,,Idle,0,20,FALSE,5,TRUE,10,Go Home,FALSE,FALSE,FALSE,FALSE,FALSE,FALSE,FALSE,FALSE,FALSE,FALSE,FALSE,FALSE,6.974144311,79.91427369,1.2,141.8,328,TRUE,1,1,FALSE,FALSE,FALSE,FALSE,,TRUE,FALSE,FALSE,Course Lock,65.6,,16.4,Calm,29,,1.12.8,Mavic Mini,1SDCH7G0169R0K,1SFLH6Q0AB03DJ,1SRCH7F014TAHX,1U5X071EXP5ZJG,69.6,0.4,32.8,8.547347,3.802798,0,0,Mavic Mini,1SDCH7G0169R0K,1SFLH6Q0AB03DJ,1SRCH7F014TAHX,1U5X071EXP5ZJG,DJI Fly,,1.12.8,6092850D-450A-3C84-E99F-FA9CB092D05D,1SDCH7G0169R0K,,,,,6.974130725,79.91426613,10,,
2/21/2024,27:22.1,5m 25.5s,325.5,6.974148279,79.91427388,8.5,8.5,8.8,60,2.7,0.223694,0.671082,0.223694,0.671082,0,0.223694,0,0,0.1,-6.7,-59.6,300.4,338.7,Tripod,Other,,13,5,TRUE,,Mavic Mini,TRUE,FALSE,,Smart,RC,FALSE,TRUE,FALSE,,,TRUE,,FALSE,FALSE,FALSE,FALSE,FALSE,FALSE,FALSE,FALSE,FALSE,FALSE,0,Follow Yaw,0,0,-48.2,311.8,FALSE,FALSE,FALSE,FALSE,FALSE,FALSE,,TRUE,Normal,,100,1024,1024,1024,364,2,FALSE,FALSE,FALSE,FALSE,FALSE,0,FALSE,FALSE,FALSE,FALSE,54,7.276,1097,2051,7.253,FALSE,3.638,3.638,0.002,FALSE,FALSE,NA,102.7,102.5,102.7,0,0,3,0,5,4605.9,1151.47,,Idle,0,20,FALSE,5,TRUE,10,Go Home,FALSE,FALSE,FALSE,FALSE,FALSE,FALSE,FALSE,FALSE,FALSE,FALSE,FALSE,FALSE,6.974144311,79.91427369,1.4,141.8,328,TRUE,1,1,FALSE,FALSE,FALSE,FALSE,,TRUE,FALSE,FALSE,Course Lock,65.6,,16.4,Calm,29,,1.12.8,Mavic Mini,1SDCH7G0169R0K,1SFLH6Q0AB03DJ,1SRCH7F014TAHX,1U5X071EXP5ZJG,69.6,0.4,32.8,8.547347,3.802798,0,0,Mavic Mini,1SDCH7G0169R0K,1SFLH6Q0AB03DJ,1SRCH7F014TAHX,1U5X071EXP5ZJG,DJI Fly,,1.12.8,6092850D-450A-3C84-E99F-FA9CB092D05D,1SDCH7G0169R0K,,,,,6.974130725,79.91426613,10,,
