CUSTOM.date [local],CUSTOM.updateTime [local],OSD.flyTime,OSD.flyTime [s],OSD.latitude,OSD.longitude,OSD.height [ft],OSD.heightMax [ft],OSD.vpsHeight [ft],OSD.altitude [ft],OSD.mileage [ft],OSD.hSpeed [MPH],OSD.hSpeedMax [MPH],OSD.xSpeed [MPH],OSD.xSpeedMax [MPH],OSD.ySpeed [MPH],OSD.ySpeedMax [MPH],OSD.zSpeed [MPH],OSD.zSpeedMax [MPH],OSD.pitch,OSD.roll,OSD.yaw,OSD.yaw [360],OSD.directionOfTravel,OSD.flycState,OSD.flycCommand,OSD.flightAction,OSD.gpsNum,OSD.gpsLevel,OSD.isGPSUsed,OSD.nonGPSCause,OSD.droneType,OSD.isSwaveWork,OSD.waveError,OSD.goHomeStatus,OSD.batteryType,OSD.ctrlDevice,OSD.isOnGround,OSD.isMotorOn,OSD.isMotorBlocked,OSD.motorStartFailedCause,OSD.motorFailReason,OSD.isImuPreheated,OSD.imuInitFailReason,OSD.isAcceletorOverRange,OSD.isBarometerDeadInAir,OSD.isCompassError,OSD.isGoHomeHeightModified,OSD.canIOCWork,OSD.isNotEnoughForce,OSD.isOutOfLimit,OSD.isPropellerCatapult,OSD.isVibrating,OSD.isVisionUsed,OSD.voltageWarning,GIMBAL.mode,GIMBAL.pitch,GIMBAL.roll,GIMBAL.yaw,GIMBAL.yaw [360],GIMBAL.isPitchAtLimit,GIMBAL.isRollAtLimit,GIMBAL.isYawAtLimit,GIMBAL.isStuck,CAMERA.isPhoto,CAMERA.isVideo,CAMERA.filename,CAMERA.sdCardIsInserted,CAMERA.sdCardState,RC.downlinkSignal,RC.uplinkSignal,RC.aileron,RC.elevator,RC.throttle,RC.rudder,RC.mode,RC.goHomeDepressed,RC.recordDepressed,RC.shutterDepressed,RC.playbackDepressed,RC.wheelDepressed,RC.wheelOffset,RC.custom1Depressed,RC.custom2Depressed,RC.custom3Depressed,RC.custom4Depressed,BATTERY.chargeLevel,BATTERY.currentPV [V],BATTERY.currentCapacity [mAh],BATTERY.fullCapacity [mAh],BATTERY.voltage [V],BATTERY.isCellVoltageEstimated,BATTERY.cellVoltage1 [V],BATTERY.cellVoltage2 [V],BATTERY.maxCellVoltageDeviation,BATTERY.isCellVoltageDeviationHigh,BATTERY.isVoltageLow,BATTERY.current [A],BATTERY.temperature [F],BATTERY.minTemperature [F],BATTERY.maxTemperature [F],BATTERY.usefulTime [s],BATTERY.goHomeTime [s],BATTERY.landTime [s],BATTERY.goHomeBattery,BATTERY.landBattery,BATTERY.safeFlyRadius,BATTERY.volumeConsume,BATTERY.status,BATTERY.goHomeStatus,BATTERY.goHomeCountdown,BATTERY.lowWarning,BATTERY.lowWarningGoHome,BATTERY.seriousLowWarning,BATTERY.seriousLowWarningLanding,BATTERY.timesCharged,MC.failSafeAction,MC.isObstacleAvoidanceEnabled,MC.isCollisionAvoidanceEnabled,MC.isRthObstacleAvoidanceEnabled,MC.isBraking,MC.isAvoidingObstacle,MC.isAvoidingActiveObstacle,MC.isAscentLimitedByObstacle,MC.isLandingConfirmationNeeded,MC.atLowAltitudeLimit,MC.atDistanceLimit,MC.atAirportAltitudeLimit,MC.atAirportBoundary,HOME.latitude,HOME.longitude,HOME.distance [ft],HOME.height [ft],HOME.heightLimit [ft],HOME.isHomeRecord,HOME.goHomeMode,HOME.aircraftHeadDirection,HOME.isDynamicHomePointEnabled,HOME.isReachedLimitDistance,HOME.isReachedLimitHeight,HOME.isCompassCalibrating,HOME.compassCalibrationState,HOME.isMultipleFlightModeEnabled,HOME.isBeginnerMode,HOME.isIOCEnabled,HOME.iocMode,HOME.goHomeHeight [ft],HOME.courseLockAngle,HOME.forceLandingHeight [ft],HOME.wind,HOME.dataRecorderFileIndex,RECOVER.appType,RECOVER.appVersion,RECOVER.aircraftName,RECOVER.aircraftSerial,RECOVER.cameraSerial,RECOVER.rcSerial,RECOVER.batterySerial,DETAILS.totalTime [s],DETAILS.totalDistance [ft],DETAILS.maxHeight [ft],DETAILS.maxHorizontalSpeed [MPH],DETAILS.maxVerticalSpeed [MPH],DETAILS.photoNum,DETAILS.videoTime [s],DETAILS.aircraftName,DETAILS.aircraftSerial,DETAILS.cameraSerial,DETAILS.rcSerial,DETAILS.batterySerial,DETAILS.appName,DETAILS.appType,DETAILS.appVersion,DETAILS.guid,SERIAL.flightController,SERIAL.camera,SERIAL.gimbal,SERIAL.rc,SERIAL.battery,APPGPS.latitude,APPGPS.longitude,APPGPS.accuracy,APP.tip,APP.warning
2/22/2024,24:59.7,5m 21.5s,321.5,6.974225705,79.91415668,0,0,,50,0,0,0,0,0,0,0,0,0,6.2,2.1,-60.2,299.8,,Tripod,Drop Calibration,Takeoff (RC Assisted),15,5,TRUE,,Mavic Mini,FALSE,FALSE,,Smart,RC,TRUE,TRUE,FALSE,,,TRUE,,FALSE,FALSE,FALSE,FALSE,FALSE,FALSE,FALSE,FALSE,FALSE,FALSE,0,Follow Yaw,0,0,-43.7,316.3,FALSE,FALSE,FALSE,FALSE,FALSE,TRUE,,TRUE,Normal,,,1024,1024,1024,1024,2,FALSE,FALSE,FALSE,FALSE,FALSE,0,FALSE,FALSE,FALSE,FALSE,78,7.821,1590,2056,7.821,TRUE,3.911,3.911,,FALSE,FALSE,NA,102.2,102.2,102.2,,,,,,,,,Idle,,,TRUE,,FALSE,6,Go Home,FALSE,FALSE,FALSE,FALSE,FALSE,FALSE,FALSE,FALSE,FALSE,FALSE,FALSE,FALSE,,,,,,FALSE,,,FALSE,FALSE,FALSE,FALSE,,FALSE,FALSE,FALSE,,,,,Calm,,,1.12.8,Mavic Mini,1SDCH7G0169R0K,1SFLH6Q0AB03DJ,1SRCH7F014TAHX,1U5X071EXP6C9Y,94.2,0.3,3.2,5.909995,2.23694,0,10313,Mavic Mini,1SDCH7G0169R0K,1SFLH6Q0AB03DJ,1SRCH7F014TAHX,1U5X071EXP6C9Y,DJI Fly,,1.12.8,D5009EE1-E7AA-7B1F-115F-9C83F747C552,1SDCH7G0169R0K,,,,,,,,Flight mode changed to Tripod.,
2/22/2024,19:38.3,5m 21.6s,321.6,6.974225716,79.9141567,0,0,,50,0,0,0,0,0,0,0,0,0,6.2,2.1,-60.2,299.8,,Starting Motors,Drop Calibration,Takeoff (RC Assisted),15,5,TRUE,,Mavic Mini,FALSE,FALSE,,Smart,RC,TRUE,TRUE,FALSE,,,TRUE,,FALSE,FALSE,FALSE,FALSE,FALSE,FALSE,FALSE,FALSE,FALSE,FALSE,0,Follow Yaw,0,0,-43.7,316.3,FALSE,FALSE,FALSE,FALSE,FALSE,TRUE,,TRUE,Normal,,,1024,1024,1024,1024,2,FALSE,FALSE,FALSE,FALSE,FALSE,0,FALSE,FALSE,FALSE,FALSE,78,7.822,1590,2056,7.822,FALSE,3.916,3.906,0.01,FALSE,FALSE,NA,102.2,102.2,102.2,,,,,,,,,Idle,,,TRUE,,FALSE,6,Go Home,FALSE,FALSE,FALSE,FALSE,FALSE,FALSE,FALSE,FALSE,FALSE,FALSE,FALSE,FALSE,,,,,,FALSE,,,FALSE,FALSE,FALSE,FALSE,,FALSE,FALSE,FALSE,,,,,Calm,,,1.12.8,Mavic Mini,1SDCH7G0169R0K,1SFLH6Q0AB03DJ,1SRCH7F014TAHX,1U5X071EXP6C9Y,94.2,0.3,3.2,5.909995,2.23694,0,10313,Mavic Mini,1SDCH7G0169R0K,1SFLH6Q0AB03DJ,1SRCH7F014TAHX,1U5X071EXP6C9Y,DJI Fly,,1.12.8,D5009EE1-E7AA-7B1F-115F-9C83F747C552,1SDCH7G0169R0K,,,,,,,,Flight mode changed to Starting Motors.,
2/22/2024,19:38.5,5m 21.7s,321.7,6.974225785,79.91415669,0,0,0.3,50,0,0,0,0,0,0,0,0,0,6.2,2.1,-60.2,299.8,,Starting Motors,Drop Calibration,Takeoff (RC Assisted),15,5,TRUE,,Mavic Mini,TRUE,FALSE,,Smart,RC,TRUE,TRUE,FALSE,,,TRUE,,FALSE,FALSE,FALSE,FALSE,FALSE,FALSE,FALSE,FALSE,FALSE,FALSE,0,Follow Yaw,0,0,-43.7,316.3,FALSE,FALSE,FALSE,FALSE,FALSE,TRUE,,TRUE,Normal,,,1024,1024,1024,1024,2,FALSE,FALSE,FALSE,FALSE,FALSE,0,FALSE,FALSE,FALSE,FALSE,78,7.822,1590,2056,7.814,FALSE,3.916,3.906,0.01,FALSE,FALSE,NA,102.2,102.2,102.2,0,0,0,0,5,2710.7,677.69,,Idle,0,20,FALSE,5,TRUE,6,Go Home,FALSE,FALSE,FALSE,FALSE,FALSE,FALSE,FALSE,FALSE,FALSE,FALSE,FALSE,FALSE,6.974221567,79.91415096,2.5,97.6,328,TRUE,1,1,FALSE,FALSE,FALSE,FALSE,,TRUE,FALSE,FALSE,Course Lock,49.2,,16.4,Calm,33,,1.12.8,Mavic Mini,1SDCH7G0169R0K,1SFLH6Q0AB03DJ,1SRCH7F014TAHX,1U5X071EXP6C9Y,94.2,0.3,3.2,5.909995,2.23694,0,10313,Mavic Mini,1SDCH7G0169R0K,1SFLH6Q0AB03DJ,1SRCH7F014TAHX,1U5X071EXP6C9Y,DJI Fly,,1.12.8,D5009EE1-E7AA-7B1F-115F-9C83F747C552,1SDCH7G0169R0K,,,,,,,,Data Recorder File Index is 33.; Set Return to Home (RTH) altitude to 15 m (49 ft).; Set maximum flight altitude to 100 m (328 ft).,
2/22/2024,19:38.6,5m 21.8s,321.8,6.974225811,79.91415667,0,0,0.3,50,0,0,0,0,0,0,0,0,0,6.2,2.1,-60.2,299.8,,Starting Motors,Drop Calibration,Takeoff (RC Assisted),14,5,TRUE,,Mavic Mini,TRUE,FALSE,,Smart,RC,TRUE,TRUE,FALSE,,,TRUE,,FALSE,FALSE,FALSE,FALSE,FALSE,FALSE,FALSE,FALSE,FALSE,FALSE,0,Follow Yaw,0,0,-43.7,316.3,FALSE,FALSE,FALSE,FALSE,FALSE,TRUE,,TRUE,Normal,,100,1024,1024,1024,1024,2,FALSE,FALSE,FALSE,FALSE,FALSE,0,FALSE,FALSE,FALSE,FALSE,78,7.822,1590,2056,7.814,FALSE,3.916,3.906,0.01,FALSE,FALSE,NA,102.2,102.2,102.2,0,0,0,0,5,2710.7,677.69,,Idle,0,20,FALSE,5,TRUE,6,Go Home,FALSE,FALSE,FALSE,FALSE,FALSE,FALSE,FALSE,FALSE,FALSE,FALSE,FALSE,FALSE,6.974221567,79.91415096,2.5,97.6,328,TRUE,1,1,FALSE,FALSE,FALSE,FALSE,,TRUE,FALSE,FALSE,Course Lock,49.2,,16.4,Calm,33,,1.12.8,Mavic Mini,1SDCH7G0169R0K,1SFLH6Q0AB03DJ,1SRCH7F014TAHX,1U5X071EXP6C9Y,94.2,0.3,3.2,5.909995,2.23694,0,10313,Mavic Mini,1SDCH7G0169R0K,1SFLH6Q0AB03DJ,1SRCH7F014TAHX,1U5X071EXP6C9Y,DJI Fly,,1.12.8,D5009EE1-E7AA-7B1F-115F-9C83F747C552,1SDCH7G0169R0K,,,,,,,,,
2/22/2024,19:38.6,5m 21.9s,321.9,6.974225811,79.91415667,0,0,0.3,50,0,0,0,0,0,0,0,0,0,6.2,2.2,-60.2,299.8,,Starting Motors,Drop Calibration,Takeoff (RC Assisted),14,5,TRUE,,Mavic Mini,TRUE,FALSE,,Smart,RC,TRUE,TRUE,FALSE,,,TRUE,,FALSE,FALSE,FALSE,FALSE,FALSE,FALSE,FALSE,FALSE,FALSE,FALSE,0,Follow Yaw,0,0,-43.7,316.3,FALSE,FALSE,FALSE,FALSE,FALSE,TRUE,,TRUE,Normal,,100,1024,1024,1024,1024,2,FALSE,FALSE,FALSE,FALSE,FALSE,0,FALSE,FALSE,FALSE,FALSE,78,7.822,1590,2056,7.814,FALSE,3.916,3.906,0.01,FALSE,FALSE,NA,102.2,102.2,102.2,0,0,0,0,5,2710.7,677.69,,Idle,0,20,FALSE,5,TRUE,6,Go Home,FALSE,FALSE,FALSE,FALSE,FALSE,FALSE,FALSE,FALSE,FALSE,FALSE,FALSE,FALSE,6.974221567,79.91415096,2.5,97.6,328,TRUE,1,1,FALSE,FALSE,FALSE,FALSE,,TRUE,FALSE,FALSE,Course Lock,49.2,,16.4,Calm,33,,1.12.8,Mavic Mini,1SDCH7G0169R0K,1SFLH6Q0AB03DJ,1SRCH7F014TAHX,1U5X071EXP6C9Y,94.2,0.3,3.2,5.909995,2.23694,0,10313,Mavic Mini,1SDCH7G0169R0K,1SFLH6Q0AB03DJ,1SRCH7F014TAHX,1U5X071EXP6C9Y,DJI Fly,,1.12.8,D5009EE1-E7AA-7B1F-115F-9C83F747C552,1SDCH7G0169R0K,,,,,,,,,
2/22/2024,19:38.7,5m 22.0s,322,6.974225806,79.91415666,0,0,0.3,50,0,0,0,0,0,0,0,0,0,6.2,2.1,-60.2,299.8,,Starting Motors,Drop Calibration,Takeoff (RC Assisted),14,5,TRUE,,Mavic Mini,TRUE,FALSE,,Smart,RC,TRUE,TRUE,FALSE,,,TRUE,,FALSE,FALSE,FALSE,FALSE,FALSE,FALSE,FALSE,FALSE,FALSE,FALSE,0,Follow Yaw,0,0,-43.7,316.3,FALSE,FALSE,FALSE,FALSE,FALSE,TRUE,,TRUE,Normal,,100,1024,1024,1024,1024,2,FALSE,FALSE,FALSE,FALSE,FALSE,0,FALSE,FALSE,FALSE,FALSE,78,7.822,1590,2056,7.814,FALSE,3.916,3.906,0.01,FALSE,FALSE,NA,102.2,102.2,102.2,0,0,0,0,5,2710.7,677.69,,Idle,0,20,FALSE,5,TRUE,6,Go Home,FALSE,FALSE,FALSE,FALSE,FALSE,FALSE,FALSE,FALSE,FALSE,FALSE,FALSE,FALSE,6.974221567,79.91415096,2.5,97.6,328,TRUE,1,1,FALSE,FALSE,FALSE,FALSE,,TRUE,FALSE,FALSE,Course Lock,49.2,,16.4,Calm,33,,1.12.8,Mavic Mini,1SDCH7G0169R0K,1SFLH6Q0AB03DJ,1SRCH7F014TAHX,1U5X071EXP6C9Y,94.2,0.3,3.2,5.909995,2.23694,0,10313,Mavic Mini,1SDCH7G0169R0K,1SFLH6Q0AB03DJ,1SRCH7F014TAHX,1U5X071EXP6C9Y,DJI Fly,,1.12.8,D5009EE1-E7AA-7B1F-115F-9C83F747C552,1SDCH7G0169R0K,,,,,,,,,
2/22/2024,19:38.8,5m 22.1s,322.1,6.974225735,79.91415666,0,0,0.3,50,0,0,0,0,0,0,0,0,0,6.3,2.2,-60.2,299.8,,Starting Motors,Drop Calibration,Takeoff (RC Assisted),14,5,TRUE,,Mavic Mini,TRUE,FALSE,,Smart,RC,TRUE,TRUE,FALSE,,,TRUE,,FALSE,FALSE,FALSE,FALSE,FALSE,FALSE,FALSE,FALSE,FALSE,FALSE,0,Follow Yaw,0,0,-43.7,316.3,FALSE,FALSE,FALSE,FALSE,FALSE,TRUE,,TRUE,Normal,,100,1024,1024,1024,1024,2,FALSE,FALSE,FALSE,FALSE,FALSE,0,FALSE,FALSE,FALSE,FALSE,78,7.822,1590,2056,7.814,FALSE,3.916,3.906,0.01,FALSE,FALSE,NA,102.2,102.2,102.2,0,0,0,0,5,2710.7,677.69,,Idle,0,20,FALSE,5,TRUE,6,Go Home,FALSE,FALSE,FALSE,FALSE,FALSE,FALSE,FALSE,FALSE,FALSE,FALSE,FALSE,FALSE,6.974221567,79.91415096,2.5,97.6,328,TRUE,1,1,FALSE,FALSE,FALSE,FALSE,,TRUE,FALSE,FALSE,Course Lock,49.2,,16.4,Calm,33,,1.12.8,Mavic Mini,1SDCH7G0169R0K,1SFLH6Q0AB03DJ,1SRCH7F014TAHX,1U5X071EXP6C9Y,94.2,0.3,3.2,5.909995,2.23694,0,10313,Mavic Mini,1SDCH7G0169R0K,1SFLH6Q0AB03DJ,1SRCH7F014TAHX,1U5X071EXP6C9Y,DJI Fly,,1.12.8,D5009EE1-E7AA-7B1F-115F-9C83F747C552,1SDCH7G0169R0K,,,,,,,,,
2/22/2024,19:39.0,5m 22.2s,322.2,6.974225735,79.91415665,0,0,0.3,50,0,0,0,0,0,0,0,0,0,6.2,2.1,-60.2,299.8,,Starting Motors,Drop Calibration,Takeoff (RC Assisted),14,5,TRUE,,Mavic Mini,TRUE,FALSE,,Smart,RC,TRUE,TRUE,FALSE,,,TRUE,,FALSE,FALSE,FALSE,FALSE,FALSE,FALSE,FALSE,FALSE,FALSE,FALSE,0,Follow Yaw,0,0,-43.7,316.3,FALSE,FALSE,FALSE,FALSE,FALSE,TRUE,,TRUE,Normal,,100,1024,1024,1024,1024,2,FALSE,FALSE,FALSE,FALSE,FALSE,0,FALSE,FALSE,FALSE,FALSE,78,7.822,1590,2056,7.814,FALSE,3.916,3.906,0.01,FALSE,FALSE,NA,102.2,102.2,102.2,0,0,0,0,5,2710.7,677.69,,Idle,0,20,FALSE,5,TRUE,6,Go Home,FALSE,FALSE,FALSE,FALSE,FALSE,FALSE,FALSE,FALSE,FALSE,FALSE,FALSE,FALSE,6.974221567,79.91415096,2.5,97.6,328,TRUE,1,1,FALSE,FALSE,FALSE,FALSE,,TRUE,FALSE,FALSE,Course Lock,49.2,,16.4,Calm,33,,1.12.8,Mavic Mini,1SDCH7G0169R0K,1SFLH6Q0AB03DJ,1SRCH7F014TAHX,1U5X071EXP6C9Y,94.2,0.3,3.2,5.909995,2.23694,0,10313,Mavic Mini,1SDCH7G0169R0K,1SFLH6Q0AB03DJ,1SRCH7F014TAHX,1U5X071EXP6C9Y,DJI Fly,,1.12.8,D5009EE1-E7AA-7B1F-115F-9C83F747C552,1SDCH7G0169R0K,,,,,,,,,
2/22/2024,19:39.1,5m 22.3s,322.3,6.974225768,79.91415661,0,0,0.3,50,0,0,0,0,0,0,0,0,0,6.3,2,-60.2,299.8,,Starting Motors,Drop Calibration,Takeoff (RC Assisted),14,5,TRUE,,Mavic Mini,TRUE,FALSE,,Smart,RC,TRUE,TRUE,FALSE,,,TRUE,,FALSE,FALSE,FALSE,FALSE,FALSE,FALSE,FALSE,FALSE,FALSE,FALSE,0,Follow Yaw,0,0,-43.7,316.3,FALSE,FALSE,FALSE,FALSE,FALSE,TRUE,,TRUE,Normal,,100,1024,1024,1024,1024,2,FALSE,FALSE,FALSE,FALSE,FALSE,0,FALSE,FALSE,FALSE,FALSE,78,7.822,1590,2056,7.814,FALSE,3.916,3.906,0.01,FALSE,FALSE,NA,102.2,102.2,102.2,0,0,0,0,5,2710.7,677.69,,Idle,0,20,FALSE,5,TRUE,6,Go Home,FALSE,FALSE,FALSE,FALSE,FALSE,FALSE,FALSE,FALSE,FALSE,FALSE,FALSE,FALSE,6.974221567,79.91415096,2.5,97.6,328,TRUE,1,1,FALSE,FALSE,FALSE,FALSE,,TRUE,FALSE,FALSE,Course Lock,49.2,,16.4,Calm,33,,1.12.8,Mavic Mini,1SDCH7G0169R0K,1SFLH6Q0AB03DJ,1SRCH7F014TAHX,1U5X071EXP6C9Y,94.2,0.3,3.2,5.909995,2.23694,0,10313,Mavic Mini,1SDCH7G0169R0K,1SFLH6Q0AB03DJ,1SRCH7F014TAHX,1U5X071EXP6C9Y,DJI Fly,,1.12.8,D5009EE1-E7AA-7B1F-115F-9C83F747C552,1SDCH7G0169R0K,,,,,,,,,
2/22/2024,19:39.2,5m 22.4s,322.4,6.974225791,79.91415658,0,0,0.3,50,0.1,0,0,0,0,0,0,0,0,6.2,2.1,-60.2,299.8,,Starting Motors,Drop Calibration,Takeoff (RC Assisted),14,5,TRUE,,Mavic Mini,TRUE,FALSE,,Smart,RC,TRUE,TRUE,FALSE,,,TRUE,,FALSE,FALSE,FALSE,FALSE,FALSE,FALSE,FALSE,FALSE,FALSE,FALSE,0,Follow Yaw,0,0,-43.7,316.3,FALSE,FALSE,FALSE,FALSE,FALSE,TRUE,,TRUE,Normal,,100,1024,1024,1024,1024,2,FALSE,FALSE,FALSE,FALSE,FALSE,0,FALSE,FALSE,FALSE,FALSE,78,7.822,1590,2056,7.814,FALSE,3.916,3.906,0.01,FALSE,FALSE,NA,102.2,102.2,102.2,0,0,0,0,5,2710.7,677.69,,Idle,0,20,FALSE,5,TRUE,6,Go Home,FALSE,FALSE,FALSE,FALSE,FALSE,FALSE,FALSE,FALSE,FALSE,FALSE,FALSE,FALSE,6.974221567,79.91415096,2.5,97.6,328,TRUE,1,1,FALSE,FALSE,FALSE,FALSE,,TRUE,FALSE,FALSE,Course Lock,49.2,,16.4,Calm,33,,1.12.8,Mavic Mini,1SDCH7G0169R0K,1SFLH6Q0AB03DJ,1SRCH7F014TAHX,1U5X071EXP6C9Y,94.2,0.3,3.2,5.909995,2.23694,0,10313,Mavic Mini,1SDCH7G0169R0K,1SFLH6Q0AB03DJ,1SRCH7F014TAHX,1U5X071EXP6C9Y,DJI Fly,,1.12.8,D5009EE1-E7AA-7B1F-115F-9C83F747C552,1SDCH7G0169R0K,,,,,,,,,
2/22/2024,19:39.3,5m 22.5s,322.5,6.974225851,79.91415651,0,0,0.3,50,0.1,0,0,0,0,0,0,0,0,6.2,2,-60.2,299.8,,Starting Motors,Drop Calibration,Takeoff (RC Assisted),14,5,TRUE,,Mavic Mini,TRUE,FALSE,,Smart,RC,TRUE,TRUE,FALSE,,,TRUE,,FALSE,FALSE,FALSE,FALSE,FALSE,FALSE,FALSE,FALSE,FALSE,FALSE,0,Follow Yaw,0,0,-43.7,316.3,FALSE,FALSE,FALSE,FALSE,FALSE,TRUE,,TRUE,Normal,,100,1024,1024,1024,1024,2,FALSE,FALSE,FALSE,FALSE,FALSE,0,FALSE,FALSE,FALSE,FALSE,78,7.784,1590,2056,7.814,FALSE,3.908,3.876,0.032,FALSE,FALSE,NA,102.2,102.2,102.2,0,0,0,0,5,2710.7,677.69,,Idle,0,20,FALSE,5,TRUE,6,Go Home,FALSE,FALSE,FALSE,FALSE,FALSE,FALSE,FALSE,FALSE,FALSE,FALSE,FALSE,FALSE,6.974221567,79.91415096,2.5,97.6,328,TRUE,1,1,FALSE,FALSE,FALSE,FALSE,,TRUE,FALSE,FALSE,Course Lock,49.2,,16.4,Calm,33,,1.12.8,Mavic Mini,1SDCH7G0169R0K,1SFLH6Q0AB03DJ,1SRCH7F014TAHX,1U5X071EXP6C9Y,94.2,0.3,3.2,5.909995,2.23694,0,10313,Mavic Mini,1SDCH7G0169R0K,1SFLH6Q0AB03DJ,1SRCH7F014TAHX,1U5X071EXP6C9Y,DJI Fly,,1.12.8,D5009EE1-E7AA-7B1F-115F-9C83F747C552,1SDCH7G0169R0K,,,,,,,,,
2/22/2024,19:39.4,5m 22.6s,322.6,6.974225864,79.91415651,0,0,0.3,50,0.1,0,0,0,0,0,0,0,0,6.2,2.1,-60.2,299.8,,Starting Motors,Drop Calibration,Takeoff (RC Assisted),14,5,TRUE,,Mavic Mini,TRUE,FALSE,,Smart,RC,TRUE,TRUE,FALSE,,,TRUE,,FALSE,FALSE,FALSE,FALSE,FALSE,FALSE,FALSE,FALSE,FALSE,FALSE,0,Follow Yaw,0,0,-43.7,316.3,FALSE,FALSE,FALSE,FALSE,FALSE,TRUE,,TRUE,Normal,,100,1024,1024,1024,1024,2,FALSE,FALSE,FALSE,FALSE,FALSE,0,FALSE,FALSE,FALSE,FALSE,78,7.784,1590,2056,7.814,FALSE,3.908,3.876,0.032,FALSE,FALSE,NA,102.2,102.2,102.2,0,0,0,0,5,2710.7,677.69,,Idle,0,20,FALSE,5,TRUE,6,Go Home,FALSE,FALSE,FALSE,FALSE,FALSE,FALSE,FALSE,FALSE,FALSE,FALSE,FALSE,FALSE,6.974221567,79.91415096,2.5,97.6,328,TRUE,1,1,FALSE,FALSE,FALSE,FALSE,,TRUE,FALSE,FALSE,Course Lock,49.2,,16.4,Calm,33,,1.12.8,Mavic Mini,1SDCH7G0169R0K,1SFLH6Q0AB03DJ,1SRCH7F014TAHX,1U5X071EXP6C9Y,94.2,0.3,3.2,5.909995,2.23694,0,10313,Mavic Mini,1SDCH7G0169R0K,1SFLH6Q0AB03DJ,1SRCH7F014TAHX,1U5X071EXP6C9Y,DJI Fly,,1.12.8,D5009EE1-E7AA-7B1F-115F-9C83F747C552,1SDCH7G0169R0K,,,,,,,,,
2/22/2024,19:39.5,5m 22.7s,322.7,6.974225906,79.91415652,0,0,0.3,50,0.1,0,0,0,0,0,0,0,0,6.3,2.1,-60.2,299.8,,Manual Takeoff,Drop Calibration,Takeoff (RC Assisted),14,5,TRUE,,Mavic Mini,TRUE,FALSE,,Smart,RC,TRUE,TRUE,FALSE,,,TRUE,,FALSE,FALSE,FALSE,FALSE,FALSE,FALSE,FALSE,FALSE,FALSE,FALSE,0,Follow Yaw,0,0,-43.7,316.3,FALSE,FALSE,FALSE,FALSE,FALSE,TRUE,,TRUE,Normal,,100,1024,1024,1024,1024,2,FALSE,FALSE,FALSE,FALSE,FALSE,0,FALSE,FALSE,FALSE,FALSE,78,7.784,1590,2056,7.81,FALSE,3.908,3.876,0.032,FALSE,FALSE,NA,102.2,102.2,102.2,0,0,0,0,5,2843,710.75,,Idle,0,20,FALSE,5,TRUE,6,Go Home,FALSE,FALSE,FALSE,FALSE,FALSE,FALSE,FALSE,FALSE,FALSE,FALSE,FALSE,FALSE,6.974221567,79.91415096,2.5,97.6,328,TRUE,1,1,FALSE,FALSE,FALSE,FALSE,,TRUE,FALSE,FALSE,Course Lock,49.2,,16.4,Calm,33,,1.12.8,Mavic Mini,1SDCH7G0169R0K,1SFLH6Q0AB03DJ,1SRCH7F014TAHX,1U5X071EXP6C9Y,94.2,0.3,3.2,5.909995,2.23694,0,10313,Mavic Mini,1SDCH7G0169R0K,1SFLH6Q0AB03DJ,1SRCH7F014TAHX,1U5X071EXP6C9Y,DJI Fly,,1.12.8,D5009EE1-E7AA-7B1F-115F-9C83F747C552,1SDCH7G0169R0K,,,,,,,,Flight mode changed to Manual Takeoff.,
2/22/2024,19:39.6,5m 22.8s,322.8,6.974225933,79.91415653,0,0,0.3,50,0.1,0,0,0,0,0,0,0,0,6.2,2.1,-60.3,299.7,,Manual Takeoff,Drop Calibration,Takeoff (RC Assisted),14,5,TRUE,,Mavic Mini,TRUE,FALSE,,Smart,RC,TRUE,TRUE,FALSE,,,TRUE,,FALSE,FALSE,FALSE,FALSE,FALSE,FALSE,FALSE,FALSE,FALSE,FALSE,0,Follow Yaw,0,0,-43.7,316.3,FALSE,FALSE,FALSE,FALSE,FALSE,TRUE,,TRUE,Normal,,100,1024,1024,1024,1024,2,FALSE,FALSE,FALSE,FALSE,FALSE,0,FALSE,FALSE,FALSE,FALSE,78,7.784,1590,2056,7.81,FALSE,3.908,3.876,0.032,FALSE,FALSE,NA,102.2,102.2,102.2,0,0,0,0,5,2843,710.75,,Idle,0,20,FALSE,5,TRUE,6,Go Home,FALSE,FALSE,FALSE,FALSE,FALSE,FALSE,FALSE,FALSE,FALSE,FALSE,FALSE,FALSE,6.974221567,79.91415096,2.5,97.6,328,TRUE,1,1,FALSE,FALSE,FALSE,FALSE,,TRUE,FALSE,FALSE,Course Lock,49.2,,16.4,Calm,33,,1.12.8,Mavic Mini,1SDCH7G0169R0K,1SFLH6Q0AB03DJ,1SRCH7F014TAHX,1U5X071EXP6C9Y,94.2,0.3,3.2,5.909995,2.23694,0,10313,Mavic Mini,1SDCH7G0169R0K,1SFLH6Q0AB03DJ,1SRCH7F014TAHX,1U5X071EXP6C9Y,DJI Fly,,1.12.8,D5009EE1-E7AA-7B1F-115F-9C83F747C552,1SDCH7G0169R0K,,,,,,,,,
2/22/2024,19:39.6,5m 22.9s,322.9,6.974225934,79.91415655,0,0,0.3,50,0.1,0,0,0,0,0,0,0,0,6.2,2.1,-60.3,299.7,,Manual Takeoff,Drop Calibration,Takeoff (RC Assisted),14,5,TRUE,,Mavic Mini,TRUE,FALSE,,Smart,RC,TRUE,TRUE,FALSE,,,TRUE,,FALSE,FALSE,FALSE,FALSE,FALSE,FALSE,FALSE,FALSE,FALSE,FALSE,0,Follow Yaw,0,0,-43.7,316.3,FALSE,FALSE,FALSE,FALSE,FALSE,TRUE,,TRUE,Normal,,100,1024,1024,1169,1024,2,FALSE,FALSE,FALSE,FALSE,FALSE,0,FALSE,FALSE,FALSE,FALSE,78,7.784,1590,2056,7.81,FALSE,3.908,3.876,0.032,FALSE,FALSE,NA,102.2,102.2,102.2,0,0,0,0,5,2843,710.75,,Idle,0,20,FALSE,5,TRUE,6,Go Home,FALSE,FALSE,FALSE,FALSE,FALSE,FALSE,FALSE,FALSE,FALSE,FALSE,FALSE,FALSE,6.974221567,79.91415096,2.5,97.6,328,TRUE,1,1,FALSE,FALSE,FALSE,FALSE,,TRUE,FALSE,FALSE,Course Lock,49.2,,16.4,Calm,33,,1.12.8,Mavic Mini,1SDCH7G0169R0K,1SFLH6Q0AB03DJ,1SRCH7F014TAHX,1U5X071EXP6C9Y,94.2,0.3,3.2,5.909995,2.23694,0,10313,Mavic Mini,1SDCH7G0169R0K,1SFLH6Q0AB03DJ,1SRCH7F014TAHX,1U5X071EXP6C9Y,DJI Fly,,1.12.8,D5009EE1-E7AA-7B1F-115F-9C83F747C552,1SDCH7G0169R0K,,,,,,,,,
2/22/2024,19:39.7,5m 23.0s,323,6.974225984,79.91415657,0,0,0.3,50,0.1,0,0,0,0,0,0,0,0,6.2,2.1,-60.3,299.7,,Manual Takeoff,Drop Calibration,Takeoff (RC Assisted),14,5,TRUE,,Mavic Mini,TRUE,FALSE,,Smart,RC,TRUE,TRUE,FALSE,,,TRUE,,FALSE,FALSE,FALSE,FALSE,FALSE,FALSE,FALSE,FALSE,FALSE,FALSE,0,Follow Yaw,0,0,-43.7,316.3,FALSE,FALSE,FALSE,FALSE,FALSE,TRUE,,TRUE,Normal,,100,1024,1024,1243,1024,2,FALSE,FALSE,FALSE,FALSE,FALSE,0,FALSE,FALSE,FALSE,FALSE,78,7.784,1590,2056,7.81,FALSE,3.908,3.876,0.032,FALSE,FALSE,NA,102.2,102.2,102.2,0,0,0,0,5,2843,710.75,,Idle,0,20,FALSE,5,TRUE,6,Go Home,FALSE,FALSE,FALSE,FALSE,FALSE,FALSE,FALSE,FALSE,FALSE,FALSE,FALSE,FALSE,6.974221567,79.91415096,2.5,97.6,328,TRUE,1,1,FALSE,FALSE,FALSE,FALSE,,TRUE,FALSE,FALSE,Course Lock,49.2,,16.4,Calm,33,,1.12.8,Mavic Mini,1SDCH7G0169R0K,1SFLH6Q0AB03DJ,1SRCH7F014TAHX,1U5X071EXP6C9Y,94.2,0.3,3.2,5.909995,2.23694,0,10313,Mavic Mini,1SDCH7G0169R0K,1SFLH6Q0AB03DJ,1SRCH7F014TAHX,1U5X071EXP6C9Y,DJI Fly,,1.12.8,D5009EE1-E7AA-7B1F-115F-9C83F747C552,1SDCH7G0169R0K,,,,,,,,,
2/22/2024,19:39.9,5m 23.1s,323.1,6.974226021,79.91415653,0,0,0.3,50,0.2,0,0,0,0,0,0,0,0,6.2,2.1,-60.3,299.7,,Manual Takeoff,Drop Calibration,Takeoff (RC Assisted),14,5,TRUE,,Mavic Mini,TRUE,FALSE,,Smart,RC,TRUE,TRUE,FALSE,,,TRUE,,FALSE,FALSE,FALSE,FALSE,FALSE,FALSE,FALSE,FALSE,FALSE,FALSE,0,Follow Yaw,0,0,-43.7,316.3,FALSE,FALSE,FALSE,FALSE,FALSE,TRUE,,TRUE,Normal,,100,1024,1024,1290,1024,2,FALSE,FALSE,FALSE,FALSE,FALSE,0,FALSE,FALSE,FALSE,FALSE,78,7.784,1590,2056,7.81,FALSE,3.908,3.876,0.032,FALSE,FALSE,NA,102.2,102.2,102.2,0,0,0,0,5,2843,710.75,,Idle,0,20,FALSE,5,TRUE,6,Go Home,FALSE,FALSE,FALSE,FALSE,FALSE,FALSE,FALSE,FALSE,FALSE,FALSE,FALSE,FALSE,6.974221567,79.91415096,2.5,97.6,328,TRUE,1,1,FALSE,FALSE,FALSE,FALSE,,TRUE,FALSE,FALSE,Course Lock,49.2,,16.4,Calm,33,,1.12.8,Mavic Mini,1SDCH7G0169R0K,1SFLH6Q0AB03DJ,1SRCH7F014TAHX,1U5X071EXP6C9Y,94.2,0.3,3.2,5.909995,2.23694,0,10313,Mavic Mini,1SDCH7G0169R0K,1SFLH6Q0AB03DJ,1SRCH7F014TAHX,1U5X071EXP6C9Y,DJI Fly,,1.12.8,D5009EE1-E7AA-7B1F-115F-9C83F747C552,1SDCH7G0169R0K,,,,,,,,,
2/22/2024,19:40.0,5m 23.2s,323.2,6.974226061,79.9141565,0,0,0.3,50,0.2,0,0,0,0,0,0,0,0,6.2,2.1,-60.3,299.7,,Manual Takeoff,Drop Calibration,Takeoff (RC Assisted),14,5,TRUE,,Mavic Mini,TRUE,FALSE,,Smart,RC,TRUE,TRUE,FALSE,,,TRUE,,FALSE,FALSE,FALSE,FALSE,FALSE,FALSE,FALSE,FALSE,FALSE,FALSE,0,Follow Yaw,0,0,-43.7,316.3,FALSE,FALSE,FALSE,FALSE,FALSE,TRUE,,TRUE,Normal,,100,1024,1024,1290,1024,2,FALSE,FALSE,FALSE,FALSE,FALSE,0,FALSE,FALSE,FALSE,FALSE,78,7.784,1590,2056,7.81,FALSE,3.908,3.876,0.032,FALSE,FALSE,NA,102.2,102.2,102.2,0,0,0,0,5,2843,710.75,,Idle,0,20,FALSE,5,TRUE,6,Go Home,FALSE,FALSE,FALSE,FALSE,FALSE,FALSE,FALSE,FALSE,FALSE,FALSE,FALSE,FALSE,6.974221567,79.91415096,2.5,97.6,328,TRUE,1,1,FALSE,FALSE,FALSE,FALSE,,TRUE,FALSE,FALSE,Course Lock,49.2,,16.4,Calm,33,,1.12.8,Mavic Mini,1SDCH7G0169R0K,1SFLH6Q0AB03DJ,1SRCH7F014TAHX,1U5X071EXP6C9Y,94.2,0.3,3.2,5.909995,2.23694,0,10313,Mavic Mini,1SDCH7G0169R0K,1SFLH6Q0AB03DJ,1SRCH7F014TAHX,1U5X071EXP6C9Y,DJI Fly,,1.12.8,D5009EE1-E7AA-7B1F-115F-9C83F747C552,1SDCH7G0169R0K,,,,,,,,,
2/22/2024,19:40.1,5m 23.3s,323.3,6.974226113,79.91415649,0,0,0.3,50,0.2,0,0,0,0,0,0,0,0,6.2,2,-60.3,299.7,,Manual Takeoff,Drop Calibration,Takeoff (RC Assisted),14,5,TRUE,,Mavic Mini,TRUE,FALSE,,Smart,RC,TRUE,TRUE,FALSE,,,TRUE,,FALSE,FALSE,FALSE,FALSE,FALSE,FALSE,FALSE,FALSE,FALSE,FALSE,0,Follow Yaw,0,0,-43.7,316.3,FALSE,FALSE,FALSE,FALSE,FALSE,TRUE,,TRUE,Normal,,100,1024,1024,1293,1024,2,FALSE,FALSE,FALSE,FALSE,FALSE,0,FALSE,FALSE,FALSE,FALSE,78,7.784,1590,2056,7.81,FALSE,3.908,3.876,0.032,FALSE,FALSE,NA,102.2,102.2,102.2,0,0,0,0,5,2843,710.75,,Idle,0,20,FALSE,5,TRUE,6,Go Home,FALSE,FALSE,FALSE,FALSE,FALSE,FALSE,FALSE,FALSE,FALSE,FALSE,FALSE,FALSE,6.974221567,79.91415096,2.5,97.6,328,TRUE,1,1,FALSE,FALSE,FALSE,FALSE,,TRUE,FALSE,FALSE,Course Lock,49.2,,16.4,Calm,33,,1.12.8,Mavic Mini,1SDCH7G0169R0K,1SFLH6Q0AB03DJ,1SRCH7F014TAHX,1U5X071EXP6C9Y,94.2,0.3,3.2,5.909995,2.23694,0,10313,Mavic Mini,1SDCH7G0169R0K,1SFLH6Q0AB03DJ,1SRCH7F014TAHX,1U5X071EXP6C9Y,DJI Fly,,1.12.8,D5009EE1-E7AA-7B1F-115F-9C83F747C552,1SDCH7G0169R0K,,,,,,,,,
2/22/2024,19:40.2,5m 23.4s,323.4,6.97422625,79.91415639,0,0,0.3,50,0.3,0,0,0,0,0,0,0,0,6.2,1.9,-60.3,299.7,,Manual Takeoff,Drop Calibration,Takeoff (RC Assisted),14,5,TRUE,,Mavic Mini,TRUE,FALSE,,Smart,RC,TRUE,TRUE,FALSE,,,TRUE,,FALSE,FALSE,FALSE,FALSE,FALSE,FALSE,FALSE,FALSE,FALSE,FALSE,0,Follow Yaw,0,0,-43.7,316.3,FALSE,FALSE,FALSE,FALSE,FALSE,TRUE,,TRUE,Normal,,100,1024,1024,1292,1024,2,FALSE,FALSE,FALSE,FALSE,FALSE,0,FALSE,FALSE,FALSE,FALSE,78,7.784,1590,2056,7.81,FALSE,3.908,3.876,0.032,FALSE,FALSE,NA,102.2,102.2,102.2,0,0,0,0,5,2843,710.75,,Idle,0,20,FALSE,5,TRUE,6,Go Home,FALSE,FALSE,FALSE,FALSE,FALSE,FALSE,FALSE,FALSE,FALSE,FALSE,FALSE,FALSE,6.974221567,79.91415096,2.6,97.6,328,TRUE,1,1,FALSE,FALSE,FALSE,FALSE,,TRUE,FALSE,FALSE,Course Lock,49.2,,16.4,Calm,33,,1.12.8,Mavic Mini,1SDCH7G0169R0K,1SFLH6Q0AB03DJ,1SRCH7F014TAHX,1U5X071EXP6C9Y,94.2,0.3,3.2,5.909995,2.23694,0,10313,Mavic Mini,1SDCH7G0169R0K,1SFLH6Q0AB03DJ,1SRCH7F014TAHX,1U5X071EXP6C9Y,DJI Fly,,1.12.8,D5009EE1-E7AA-7B1F-115F-9C83F747C552,1SDCH7G0169R0K,,,,,6.974208215,79.91416446,5,,
2/22/2024,19:40.2,5m 23.5s,323.5,6.97422625,79.91415635,0,0,0.3,50,0.3,0,0,0,0,0,0,0,0,6.2,1.9,-60.4,299.6,,Manual Takeoff,Drop Calibration,Takeoff (RC Assisted),14,5,TRUE,,Mavic Mini,TRUE,FALSE,,Smart,RC,TRUE,TRUE,FALSE,,,TRUE,,FALSE,FALSE,FALSE,FALSE,FALSE,FALSE,FALSE,FALSE,FALSE,FALSE,0,Follow Yaw,0,0,-43.7,316.3,FALSE,FALSE,FALSE,FALSE,FALSE,TRUE,,TRUE,Normal,,100,1024,1024,1292,1024,2,FALSE,FALSE,FALSE,FALSE,FALSE,0,FALSE,FALSE,FALSE,FALSE,78,7.784,1590,2056,7.81,FALSE,3.908,3.876,0.032,FALSE,FALSE,NA,102.2,102.2,102.2,0,0,0,0,5,2843,710.75,,Idle,0,20,FALSE,5,TRUE,6,Go Home,FALSE,FALSE,FALSE,FALSE,FALSE,FALSE,FALSE,FALSE,FALSE,FALSE,FALSE,FALSE,6.974221567,79.91415096,2.5,97.6,328,TRUE,1,1,FALSE,FALSE,FALSE,FALSE,,TRUE,FALSE,FALSE,Course Lock,49.2,,16.4,Calm,33,,1.12.8,Mavic Mini,1SDCH7G0169R0K,1SFLH6Q0AB03DJ,1SRCH7F014TAHX,1U5X071EXP6C9Y,94.2,0.3,3.2,5.909995,2.23694,0,10313,Mavic Mini,1SDCH7G0169R0K,1SFLH6Q0AB03DJ,1SRCH7F014TAHX,1U5X071EXP6C9Y,DJI Fly,,1.12.8,D5009EE1-E7AA-7B1F-115F-9C83F747C552,1SDCH7G0169R0K,,,,,6.974208215,79.91416446,5,,
2/22/2024,19:40.3,5m 23.6s,323.6,6.97422626,79.91415632,0,0,0.3,50,0.3,0,0,0,0,0,0,0,0,5.6,2,-61.1,298.9,,Manual Takeoff,Drop Calibration,Takeoff (RC Assisted),14,5,TRUE,,Mavic Mini,TRUE,FALSE,,Smart,RC,TRUE,TRUE,FALSE,,,TRUE,,FALSE,FALSE,FALSE,FALSE,FALSE,FALSE,FALSE,FALSE,FALSE,FALSE,0,Follow Yaw,0,0,-43.9,316.1,FALSE,FALSE,FALSE,FALSE,FALSE,TRUE,,TRUE,Normal,,100,1024,1024,1288,1024,2,FALSE,FALSE,FALSE,FALSE,FALSE,0,FALSE,FALSE,FALSE,FALSE,78,7.795,1590,2056,7.81,FALSE,3.904,3.891,0.032,FALSE,FALSE,NA,102.2,102.2,102.2,0,0,0,0,5,2843,710.75,,Idle,0,20,FALSE,5,TRUE,6,Go Home,FALSE,FALSE,FALSE,FALSE,FALSE,FALSE,FALSE,FALSE,FALSE,FALSE,FALSE,FALSE,6.974221567,79.91415096,2.5,97.6,328,TRUE,1,1,FALSE,FALSE,FALSE,FALSE,,TRUE,FALSE,FALSE,Course Lock,49.2,,16.4,Calm,33,,1.12.8,Mavic Mini,1SDCH7G0169R0K,1SFLH6Q0AB03DJ,1SRCH7F014TAHX,1U5X071EXP6C9Y,94.2,0.3,3.2,5.909995,2.23694,0,10313,Mavic Mini,1SDCH7G0169R0K,1SFLH6Q0AB03DJ,1SRCH7F014TAHX,1U5X071EXP6C9Y,DJI Fly,,1.12.8,D5009EE1-E7AA-7B1F-115F-9C83F747C552,1SDCH7G0169R0K,,,,,6.974208215,79.91416446,5,,
2/22/2024,19:40.5,5m 23.7s,323.7,6.974226301,79.91415631,0,0,0.3,50,0.3,0,0,0,0,0,0,0,0,5.3,2.1,-63,297,,Manual Takeoff,Drop Calibration,Takeoff (RC Assisted),14,5,TRUE,,Mavic Mini,TRUE,FALSE,,Smart,RC,TRUE,TRUE,FALSE,,,TRUE,,FALSE,FALSE,FALSE,FALSE,FALSE,FALSE,FALSE,FALSE,FALSE,FALSE,0,Follow Yaw,0,0,-45.2,314.8,FALSE,FALSE,FALSE,FALSE,FALSE,TRUE,,TRUE,Normal,,100,1024,1024,1283,1024,2,FALSE,FALSE,FALSE,FALSE,FALSE,0,FALSE,FALSE,FALSE,FALSE,78,7.795,1590,2056,7.759,FALSE,3.904,3.891,0.032,FALSE,FALSE,NA,102.2,102.2,102.2,0,0,0,0,5,3073.3,768.33,,Idle,0,20,FALSE,5,TRUE,6,Go Home,FALSE,FALSE,FALSE,FALSE,FALSE,FALSE,FALSE,FALSE,FALSE,FALSE,FALSE,FALSE,6.974221567,79.91415096,2.5,97.6,328,TRUE,1,1,FALSE,FALSE,FALSE,FALSE,,TRUE,FALSE,FALSE,Course Lock,49.2,,16.4,Calm,33,,1.12.8,Mavic Mini,1SDCH7G0169R0K,1SFLH6Q0AB03DJ,1SRCH7F014TAHX,1U5X071EXP6C9Y,94.2,0.3,3.2,5.909995,2.23694,0,10313,Mavic Mini,1SDCH7G0169R0K,1SFLH6Q0AB03DJ,1SRCH7F014TAHX,1U5X071EXP6C9Y,DJI Fly,,1.12.8,D5009EE1-E7AA-7B1F-115F-9C83F747C552,1SDCH7G0169R0K,,,,,6.974208215,79.91416446,5,,
2/22/2024,19:40.6,5m 23.8s,323.8,6.974226342,79.91415628,0,0,0.3,50,0.3,0,0,0,0,0,0,0,0,4.8,2,-64.3,295.7,,Manual Takeoff,Drop Calibration,Takeoff (RC Assisted),14,5,TRUE,,Mavic Mini,TRUE,FALSE,,Smart,RC,TRUE,TRUE,FALSE,,,TRUE,,FALSE,FALSE,FALSE,FALSE,FALSE,FALSE,FALSE,FALSE,FALSE,FALSE,0,Follow Yaw,0,0,-46.6,313.4,FALSE,FALSE,FALSE,FALSE,FALSE,TRUE,,TRUE,Normal,,100,1024,1024,1280,1024,2,FALSE,FALSE,FALSE,FALSE,FALSE,0,FALSE,FALSE,FALSE,FALSE,78,7.795,1590,2056,7.759,FALSE,3.904,3.891,0.032,FALSE,FALSE,NA,102.2,102.2,102.2,0,0,0,0,5,3073.3,768.33,,Idle,0,20,FALSE,5,TRUE,6,Go Home,FALSE,FALSE,FALSE,FALSE,FALSE,FALSE,FALSE,FALSE,FALSE,FALSE,FALSE,FALSE,6.974221567,79.91415096,2.5,97.6,328,TRUE,1,1,FALSE,FALSE,FALSE,FALSE,,TRUE,FALSE,FALSE,Course Lock,49.2,,16.4,Calm,33,,1.12.8,Mavic Mini,1SDCH7G0169R0K,1SFLH6Q0AB03DJ,1SRCH7F014TAHX,1U5X071EXP6C9Y,94.2,0.3,3.2,5.909995,2.23694,0,10313,Mavic Mini,1SDCH7G0169R0K,1SFLH6Q0AB03DJ,1SRCH7F014TAHX,1U5X071EXP6C9Y,DJI Fly,,1.12.8,D5009EE1-E7AA-7B1F-115F-9C83F747C552,1SDCH7G0169R0K,,,,,6.974208215,79.91416446,5,,
2/22/2024,19:40.7,5m 23.9s,323.9,6.97422637,79.91415631,0,0,0.3,50,0.3,0,0,0,0,0,0,0,0,2.1,2.2,-65,295,,Manual Takeoff,Drop Calibration,Takeoff (RC Assisted),14,5,TRUE,,Mavic Mini,TRUE,FALSE,,Smart,RC,TRUE,TRUE,FALSE,,,TRUE,,FALSE,FALSE,FALSE,FALSE,FALSE,FALSE,FALSE,FALSE,FALSE,FALSE,0,Follow Yaw,0,0,-47.6,312.4,FALSE,FALSE,FALSE,FALSE,FALSE,TRUE,,TRUE,Normal,,100,1024,1024,1275,1024,2,FALSE,FALSE,FALSE,FALSE,FALSE,0,FALSE,FALSE,FALSE,FALSE,78,7.795,1590,2056,7.759,FALSE,3.904,3.891,0.032,FALSE,FALSE,NA,102.2,102.2,102.2,0,0,0,0,5,3073.3,768.33,,Idle,0,20,FALSE,5,TRUE,6,Go Home,FALSE,FALSE,FALSE,FALSE,FALSE,FALSE,FALSE,FALSE,FALSE,FALSE,FALSE,FALSE,6.974221567,79.91415096,2.6,97.6,328,TRUE,1,1,FALSE,FALSE,FALSE,FALSE,,TRUE,FALSE,FALSE,Course Lock,49.2,,16.4,Calm,33,,1.12.8,Mavic Mini,1SDCH7G0169R0K,1SFLH6Q0AB03DJ,1SRCH7F014TAHX,1U5X071EXP6C9Y,94.2,0.3,3.2,5.909995,2.23694,0,10313,Mavic Mini,1SDCH7G0169R0K,1SFLH6Q0AB03DJ,1SRCH7F014TAHX,1U5X071EXP6C9Y,DJI Fly,,1.12.8,D5009EE1-E7AA-7B1F-115F-9C83F747C552,1SDCH7G0169R0K,,,,,6.974208215,79.91416446,5,,
2/22/2024,19:40.8,5m 24.0s,324,6.974226441,79.91415633,0,0,0.3,50,0.4,0,0,0,0,0,0,0,0,-0.9,0.7,-65.4,294.6,,Manual Takeoff,Drop Calibration,Takeoff (RC Assisted),14,5,TRUE,,Mavic Mini,TRUE,FALSE,,Smart,RC,TRUE,TRUE,FALSE,,,TRUE,,FALSE,FALSE,FALSE,FALSE,FALSE,FALSE,FALSE,FALSE,FALSE,FALSE,0,Follow Yaw,0,0,-48.1,311.9,FALSE,FALSE,FALSE,FALSE,FALSE,TRUE,,TRUE,Normal,,100,1024,1024,1265,1024,2,FALSE,FALSE,FALSE,FALSE,FALSE,0,FALSE,FALSE,FALSE,FALSE,78,7.795,1590,2056,7.759,FALSE,3.904,3.891,0.032,FALSE,FALSE,NA,102.2,102.2,102.2,0,0,0,0,5,3073.3,768.33,,Idle,0,20,FALSE,5,TRUE,6,Go Home,FALSE,FALSE,FALSE,FALSE,FALSE,FALSE,FALSE,FALSE,FALSE,FALSE,FALSE,FALSE,6.974221567,79.91415096,2.6,97.6,328,TRUE,1,1,FALSE,FALSE,FALSE,FALSE,,TRUE,FALSE,FALSE,Course Lock,49.2,,16.4,Calm,33,,1.12.8,Mavic Mini,1SDCH7G0169R0K,1SFLH6Q0AB03DJ,1SRCH7F014TAHX,1U5X071EXP6C9Y,94.2,0.3,3.2,5.909995,2.23694,0,10313,Mavic Mini,1SDCH7G0169R0K,1SFLH6Q0AB03DJ,1SRCH7F014TAHX,1U5X071EXP6C9Y,DJI Fly,,1.12.8,D5009EE1-E7AA-7B1F-115F-9C83F747C552,1SDCH7G0169R0K,,,,,6.974208215,79.91416446,5,,
2/22/2024,19:41.0,5m 24.1s,324.1,6.974226589,79.91415631,0,0,0.3,50,0.4,0.223694,0.223694,0.223694,0.223694,0,0,-0.223694,0,-2,0.1,-66.1,293.9,354.6,Manual Takeoff,Drop Calibration,Takeoff (RC Assisted),14,5,TRUE,,Mavic Mini,TRUE,FALSE,,Smart,RC,TRUE,TRUE,FALSE,,,TRUE,,FALSE,FALSE,FALSE,FALSE,FALSE,FALSE,FALSE,FALSE,FALSE,FALSE,0,Follow Yaw,0,0,-48.5,311.5,FALSE,FALSE,FALSE,FALSE,FALSE,TRUE,,TRUE,Normal,,100,1024,1024,1265,1024,2,FALSE,FALSE,FALSE,FALSE,FALSE,0,FALSE,FALSE,FALSE,FALSE,78,7.795,1590,2056,7.759,FALSE,3.904,3.891,0.032,FALSE,FALSE,NA,102.2,102.2,102.2,0,0,0,0,5,3073.3,768.33,,Idle,0,20,FALSE,5,TRUE,6,Go Home,FALSE,FALSE,FALSE,FALSE,FALSE,FALSE,FALSE,FALSE,FALSE,FALSE,FALSE,FALSE,6.974221567,79.91415096,2.6,97.6,328,TRUE,1,1,FALSE,FALSE,FALSE,FALSE,,TRUE,FALSE,FALSE,Course Lock,49.2,,16.4,Calm,33,,1.12.8,Mavic Mini,1SDCH7G0169R0K,1SFLH6Q0AB03DJ,1SRCH7F014TAHX,1U5X071EXP6C9Y,94.2,0.3,3.2,5.909995,2.23694,0,10313,Mavic Mini,1SDCH7G0169R0K,1SFLH6Q0AB03DJ,1SRCH7F014TAHX,1U5X071EXP6C9Y,DJI Fly,,1.12.8,D5009EE1-E7AA-7B1F-115F-9C83F747C552,1SDCH7G0169R0K,,,,,6.974208215,79.91416446,5,,
2/22/2024,19:41.1,5m 24.2s,324.2,6.974226866,79.91415626,0,0,0.3,50,0.5,0.447388,0.447388,0.447388,0.447388,0,0,-0.447388,0,-0.9,-0.2,-66.9,293.1,351.9,Tripod,Drop Calibration,,14,5,TRUE,,Mavic Mini,TRUE,FALSE,,Smart,RC,FALSE,TRUE,FALSE,,,TRUE,,FALSE,FALSE,FALSE,FALSE,FALSE,FALSE,FALSE,FALSE,FALSE,FALSE,0,Follow Yaw,0,0,-49.3,310.7,FALSE,FALSE,FALSE,FALSE,FALSE,TRUE,,TRUE,Normal,,100,1024,1024,1259,1024,2,FALSE,FALSE,FALSE,FALSE,FALSE,0,FALSE,FALSE,FALSE,FALSE,78,7.795,1590,2056,7.759,FALSE,3.904,3.891,0.032,FALSE,FALSE,NA,102.2,102.2,102.2,0,0,0,0,5,3073.3,768.33,,Idle,0,20,FALSE,5,TRUE,6,Go Home,FALSE,FALSE,FALSE,FALSE,FALSE,FALSE,FALSE,FALSE,FALSE,FALSE,FALSE,FALSE,6.974221567,79.91415096,2.7,97.6,328,TRUE,1,1,FALSE,FALSE,FALSE,FALSE,,TRUE,FALSE,FALSE,Course Lock,49.2,,16.4,Calm,33,,1.12.8,Mavic Mini,1SDCH7G0169R0K,1SFLH6Q0AB03DJ,1SRCH7F014TAHX,1U5X071EXP6C9Y,94.2,0.3,3.2,5.909995,2.23694,0,10313,Mavic Mini,1SDCH7G0169R0K,1SFLH6Q0AB03DJ,1SRCH7F014TAHX,1U5X071EXP6C9Y,DJI Fly,,1.12.8,D5009EE1-E7AA-7B1F-115F-9C83F747C552,1SDCH7G0169R0K,,,,,6.974208215,79.91416446,5,Flight mode changed to Tripod.,
2/22/2024,19:41.1,5m 24.3s,324.3,6.974227115,79.91415622,0,0,0.6,50,0.6,0.447388,0.447388,0.447388,0.447388,0,0,-0.894776,0,0.7,-2.5,-67,293,352.4,Tripod,Drop Calibration,,14,5,TRUE,,Mavic Mini,TRUE,FALSE,,Smart,RC,FALSE,TRUE,FALSE,,,TRUE,,FALSE,FALSE,FALSE,FALSE,FALSE,FALSE,FALSE,FALSE,FALSE,FALSE,0,Follow Yaw,0,0,-49.4,310.6,FALSE,FALSE,FALSE,FALSE,FALSE,TRUE,,TRUE,Normal,,100,1024,1024,1254,1024,2,FALSE,FALSE,FALSE,FALSE,FALSE,0,FALSE,FALSE,FALSE,FALSE,78,7.795,1590,2056,7.759,FALSE,3.904,3.891,0.032,FALSE,FALSE,NA,102.2,102.2,102.2,0,0,0,0,5,3073.3,768.33,,Idle,0,20,FALSE,5,TRUE,6,Go Home,FALSE,FALSE,FALSE,FALSE,FALSE,FALSE,FALSE,FALSE,FALSE,FALSE,FALSE,FALSE,6.974221567,79.91415096,2.7,97.6,328,TRUE,1,1,FALSE,FALSE,FALSE,FALSE,,TRUE,FALSE,FALSE,Course Lock,49.2,,16.4,Calm,33,,1.12.8,Mavic Mini,1SDCH7G0169R0K,1SFLH6Q0AB03DJ,1SRCH7F014TAHX,1U5X071EXP6C9Y,94.2,0.3,3.2,5.909995,2.23694,0,10313,Mavic Mini,1SDCH7G0169R0K,1SFLH6Q0AB03DJ,1SRCH7F014TAHX,1U5X071EXP6C9Y,DJI Fly,,1.12.8,D5009EE1-E7AA-7B1F-115F-9C83F747C552,1SDCH7G0169R0K,,,,,6.974208215,79.91416446,5,,
2/22/2024,19:41.1,5m 24.4s,324.4,6.974227331,79.91415615,0.3,0.3,0.6,50,0.7,0.223694,0.447388,0.223694,0.447388,0,0,-1.11847,0,2.1,-2.9,-67,293,347.3,Tripod,Drop Calibration,,14,5,TRUE,,Mavic Mini,TRUE,FALSE,,Smart,RC,FALSE,TRUE,FALSE,,,TRUE,,FALSE,FALSE,FALSE,FALSE,FALSE,FALSE,FALSE,FALSE,FALSE,FALSE,0,Follow Yaw,0,0,-49.4,310.6,FALSE,FALSE,FALSE,FALSE,FALSE,TRUE,,TRUE,Normal,,100,1024,1024,1230,1024,2,FALSE,FALSE,FALSE,FALSE,FALSE,0,FALSE,FALSE,FALSE,FALSE,78,7.795,1590,2056,7.759,FALSE,3.904,3.891,0.032,FALSE,FALSE,NA,102.2,102.2,102.2,0,0,0,0,5,3073.3,768.33,,Idle,0,20,FALSE,5,TRUE,6,Go Home,FALSE,FALSE,FALSE,FALSE,FALSE,FALSE,FALSE,FALSE,FALSE,FALSE,FALSE,FALSE,6.974221567,79.91415096,2.8,97.6,328,TRUE,1,1,FALSE,FALSE,FALSE,FALSE,,TRUE,FALSE,FALSE,Course Lock,49.2,,16.4,Calm,33,,1.12.8,Mavic Mini,1SDCH7G0169R0K,1SFLH6Q0AB03DJ,1SRCH7F014TAHX,1U5X071EXP6C9Y,94.2,0.3,3.2,5.909995,2.23694,0,10313,Mavic Mini,1SDCH7G0169R0K,1SFLH6Q0AB03DJ,1SRCH7F014TAHX,1U5X071EXP6C9Y,DJI Fly,,1.12.8,D5009EE1-E7AA-7B1F-115F-9C83F747C552,1SDCH7G0169R0K,,,,,6.974208215,79.91416446,5,,
2/22/2024,19:41.2,5m 24.5s,324.5,6.974227497,79.91415608,0.3,0.3,0.6,50,0.8,0.223694,0.447388,0.223694,0.447388,0,0,-1.342164,0,2.5,-2.2,-66.9,293.1,341.3,Tripod,Drop Calibration,,14,5,TRUE,,Mavic Mini,TRUE,FALSE,,Smart,RC,FALSE,TRUE,FALSE,,,TRUE,,FALSE,FALSE,FALSE,FALSE,FALSE,FALSE,FALSE,FALSE,FALSE,FALSE,0,Follow Yaw,0,0,-49.4,310.6,FALSE,FALSE,FALSE,FALSE,FALSE,TRUE,,TRUE,Normal,,100,1024,1024,1227,1024,2,FALSE,FALSE,FALSE,FALSE,FALSE,0,FALSE,FALSE,FALSE,FALSE,78,7.795,1590,2056,7.759,FALSE,3.904,3.891,0.032,FALSE,FALSE,NA,102.2,102.2,102.2,0,0,0,0,5,3073.3,768.33,,Idle,0,20,FALSE,5,TRUE,6,Go Home,FALSE,FALSE,FALSE,FALSE,FALSE,FALSE,FALSE,FALSE,FALSE,FALSE,FALSE,FALSE,6.974221567,79.91415096,2.8,97.6,328,TRUE,1,1,FALSE,FALSE,FALSE,FALSE,,TRUE,FALSE,FALSE,Course Lock,49.2,,16.4,Calm,33,,1.12.8,Mavic Mini,1SDCH7G0169R0K,1SFLH6Q0AB03DJ,1SRCH7F014TAHX,1U5X071EXP6C9Y,94.2,0.3,3.2,5.909995,2.23694,0,10313,Mavic Mini,1SDCH7G0169R0K,1SFLH6Q0AB03DJ,1SRCH7F014TAHX,1U5X071EXP6C9Y,DJI Fly,,1.12.8,D5009EE1-E7AA-7B1F-115F-9C83F747C552,1SDCH7G0169R0K,,,,,6.974208215,79.91416446,5,,
2/22/2024,19:41.3,5m 24.6s,324.6,6.974227637,79.91415604,0.6,0.6,0.9,50,0.8,0,0.447388,0,0.447388,0,0,-1.565858,0,1.8,-1.1,-66.6,293.4,,Tripod,Drop Calibration,,14,5,TRUE,,Mavic Mini,TRUE,FALSE,,Smart,RC,FALSE,TRUE,FALSE,,,TRUE,,FALSE,FALSE,FALSE,FALSE,FALSE,FALSE,FALSE,FALSE,FALSE,FALSE,0,Follow Yaw,0,0,-49.4,310.6,FALSE,FALSE,FALSE,FALSE,FALSE,TRUE,,TRUE,Normal,,100,1024,1024,1226,1024,2,FALSE,FALSE,FALSE,FALSE,FALSE,0,FALSE,FALSE,FALSE,FALSE,78,7.795,1590,2056,7.759,FALSE,3.904,3.891,0.032,FALSE,FALSE,NA,102.2,102.2,102.2,0,0,0,0,5,3073.3,768.33,,Idle,0,20,FALSE,5,TRUE,6,Go Home,FALSE,FALSE,FALSE,FALSE,FALSE,FALSE,FALSE,FALSE,FALSE,FALSE,FALSE,FALSE,6.974221567,79.91415096,2.8,97.6,328,TRUE,1,1,FALSE,FALSE,FALSE,FALSE,,TRUE,FALSE,FALSE,Course Lock,49.2,,16.4,Calm,33,,1.12.8,Mavic Mini,1SDCH7G0169R0K,1SFLH6Q0AB03DJ,1SRCH7F014TAHX,1U5X071EXP6C9Y,94.2,0.3,3.2,5.909995,2.23694,0,10313,Mavic Mini,1SDCH7G0169R0K,1SFLH6Q0AB03DJ,1SRCH7F014TAHX,1U5X071EXP6C9Y,DJI Fly,,1.12.8,D5009EE1-E7AA-7B1F-115F-9C83F747C552,1SDCH7G0169R0K,,,,,6.974208215,79.91416446,5,,
2/22/2024,19:41.4,5m 24.7s,324.7,6.974227895,79.91415613,0.6,0.6,1.3,50,0.9,0,0.447388,0,0.447388,0,0,-1.565858,0,1.5,-0.9,-66.7,293.3,,Tripod,Drop Calibration,,14,5,TRUE,,Mavic Mini,TRUE,FALSE,,Smart,RC,FALSE,TRUE,FALSE,,,TRUE,,FALSE,FALSE,FALSE,FALSE,FALSE,FALSE,FALSE,FALSE,FALSE,FALSE,0,Follow Yaw,0,0,-49.4,310.6,FALSE,FALSE,FALSE,FALSE,FALSE,TRUE,,TRUE,Normal,,100,1024,1024,1224,1024,2,FALSE,FALSE,FALSE,FALSE,FALSE,0,FALSE,FALSE,FALSE,FALSE,78,7.621,1588,2056,7.801,FALSE,3.814,3.807,0.032,FALSE,FALSE,NA,102.2,102.2,102.2,0,0,3,0,5,3073.3,768.33,,Idle,0,20,FALSE,5,TRUE,6,Go Home,FALSE,FALSE,FALSE,FALSE,FALSE,FALSE,FALSE,FALSE,FALSE,FALSE,FALSE,FALSE,6.974226694,79.91415629,0.4,97.6,328,TRUE,1,1,FALSE,FALSE,FALSE,FALSE,,TRUE,FALSE,FALSE,Course Lock,49.2,,16.4,Calm,33,,1.12.8,Mavic Mini,1SDCH7G0169R0K,1SFLH6Q0AB03DJ,1SRCH7F014TAHX,1U5X071EXP6C9Y,94.2,0.3,3.2,5.909995,2.23694,0,10313,Mavic Mini,1SDCH7G0169R0K,1SFLH6Q0AB03DJ,1SRCH7F014TAHX,1U5X071EXP6C9Y,DJI Fly,,1.12.8,D5009EE1-E7AA-7B1F-115F-9C83F747C552,1SDCH7G0169R0K,,,,,6.974208215,79.91416446,5,Home Point Updated.,
2/22/2024,19:41.5,5m 24.8s,324.8,6.974228012,79.91415611,0.9,0.9,1.3,50,1,0,0.447388,0,0.447388,0,0,-1.342164,0,1.7,-0.8,-66.7,293.3,,Tripod,Drop Calibration,,15,5,TRUE,,Mavic Mini,TRUE,FALSE,,Smart,RC,FALSE,TRUE,FALSE,,,TRUE,,FALSE,FALSE,FALSE,FALSE,FALSE,FALSE,FALSE,FALSE,FALSE,FALSE,0,Follow Yaw,0,0,-49.4,310.6,FALSE,FALSE,FALSE,FALSE,FALSE,TRUE,,TRUE,Normal,,100,1024,1024,1223,1024,2,FALSE,FALSE,FALSE,FALSE,FALSE,0,FALSE,FALSE,FALSE,FALSE,78,7.621,1588,2056,7.801,FALSE,3.814,3.807,0.032,FALSE,FALSE,NA,102.2,102.2,102.2,0,0,3,0,5,3073.3,768.33,,Idle,0,20,FALSE,5,TRUE,6,Go Home,FALSE,FALSE,FALSE,FALSE,FALSE,FALSE,FALSE,FALSE,FALSE,FALSE,FALSE,FALSE,6.974226694,79.91415629,0.4,97.6,328,TRUE,1,1,FALSE,FALSE,FALSE,FALSE,,TRUE,FALSE,FALSE,Course Lock,49.2,,16.4,Calm,33,,1.12.8,Mavic Mini,1SDCH7G0169R0K,1SFLH6Q0AB03DJ,1SRCH7F014TAHX,1U5X071EXP6C9Y,94.2,0.3,3.2,5.909995,2.23694,0,10313,Mavic Mini,1SDCH7G0169R0K,1SFLH6Q0AB03DJ,1SRCH7F014TAHX,1U5X071EXP6C9Y,DJI Fly,,1.12.8,D5009EE1-E7AA-7B1F-115F-9C83F747C552,1SDCH7G0169R0K,,,,,6.974208215,79.91416446,5,Home Point updated. RTH altitude adjusted to 15 m! (Code: 120852).,
2/22/2024,19:41.6,5m 24.9s,324.9,6.974228052,79.91415603,1.3,1.3,1.6,51,1,0,0.447388,0,0.447388,0,0,-1.11847,0,1.5,-0.5,-66.5,293.5,,Tripod,Drop Calibration,,15,5,TRUE,,Mavic Mini,TRUE,FALSE,,Smart,RC,FALSE,TRUE,FALSE,,,TRUE,,FALSE,FALSE,FALSE,FALSE,FALSE,FALSE,FALSE,FALSE,FALSE,FALSE,0,Follow Yaw,0,0,-49.4,310.6,FALSE,FALSE,FALSE,FALSE,FALSE,TRUE,,TRUE,Normal,,100,1024,1024,1219,1024,2,FALSE,FALSE,FALSE,FALSE,FALSE,0,FALSE,FALSE,FALSE,FALSE,78,7.621,1588,2056,7.801,FALSE,3.814,3.807,0.032,FALSE,FALSE,NA,102.2,102.2,102.2,0,0,3,0,5,3073.3,768.33,,Idle,0,20,FALSE,5,TRUE,6,Go Home,FALSE,FALSE,FALSE,FALSE,FALSE,FALSE,FALSE,FALSE,FALSE,FALSE,FALSE,FALSE,6.974226694,79.91415629,0.5,97.6,328,TRUE,1,1,FALSE,FALSE,FALSE,FALSE,,TRUE,FALSE,FALSE,Course Lock,49.2,,16.4,Calm,33,,1.12.8,Mavic Mini,1SDCH7G0169R0K,1SFLH6Q0AB03DJ,1SRCH7F014TAHX,1U5X071EXP6C9Y,94.2,0.3,3.2,5.909995,2.23694,0,10313,Mavic Mini,1SDCH7G0169R0K,1SFLH6Q0AB03DJ,1SRCH7F014TAHX,1U5X071EXP6C9Y,DJI Fly,,1.12.8,D5009EE1-E7AA-7B1F-115F-9C83F747C552,1SDCH7G0169R0K,,,,,6.974208215,79.91416446,5,,
2/22/2024,19:41.7,5m 25.0s,325,6.974228087,79.914156,1.3,1.3,1.6,51,1,0,0.447388,0,0.447388,0,0,-0.894776,0,1,-0.5,-66.3,293.7,,Tripod,Drop Calibration,,15,5,TRUE,,Mavic Mini,TRUE,FALSE,,Smart,RC,FALSE,TRUE,FALSE,,,TRUE,,FALSE,FALSE,FALSE,FALSE,FALSE,FALSE,FALSE,FALSE,FALSE,FALSE,0,Follow Yaw,0,0,-49.4,310.6,FALSE,FALSE,FALSE,FALSE,FALSE,TRUE,,TRUE,Normal,,100,1024,1024,1219,1024,2,FALSE,FALSE,FALSE,FALSE,FALSE,0,FALSE,FALSE,FALSE,FALSE,78,7.621,1588,2056,7.801,FALSE,3.814,3.807,0.032,FALSE,FALSE,NA,102.2,102.2,102.2,0,0,3,0,5,3073.3,768.33,,Idle,0,20,FALSE,5,TRUE,6,Go Home,FALSE,FALSE,FALSE,FALSE,FALSE,FALSE,FALSE,FALSE,FALSE,FALSE,FALSE,FALSE,6.974226694,79.91415629,0.5,97.6,328,TRUE,1,1,FALSE,FALSE,FALSE,FALSE,,TRUE,FALSE,FALSE,Course Lock,49.2,,16.4,Calm,33,,1.12.8,Mavic Mini,1SDCH7G0169R0K,1SFLH6Q0AB03DJ,1SRCH7F014TAHX,1U5X071EXP6C9Y,94.2,0.3,3.2,5.909995,2.23694,0,10313,Mavic Mini,1SDCH7G0169R0K,1SFLH6Q0AB03DJ,1SRCH7F014TAHX,1U5X071EXP6C9Y,DJI Fly,,1.12.8,D5009EE1-E7AA-7B1F-115F-9C83F747C552,1SDCH7G0169R0K,,,,,6.974208215,79.91416446,5,,
2/22/2024,19:41.9,5m 25.1s,325.1,6.974227971,79.91415604,1.3,1.3,1.9,51,1.1,0,0.447388,0,0.447388,0,0,-0.671082,0,0.4,-0.6,-66.4,293.6,,Tripod,Drop Calibration,,15,5,TRUE,,Mavic Mini,TRUE,FALSE,,Smart,RC,FALSE,TRUE,FALSE,,,TRUE,,FALSE,FALSE,FALSE,FALSE,FALSE,FALSE,FALSE,FALSE,FALSE,FALSE,0,Follow Yaw,0,0,-49.4,310.6,FALSE,FALSE,FALSE,FALSE,FALSE,TRUE,,TRUE,Normal,,100,1024,1024,1215,1024,2,FALSE,FALSE,FALSE,FALSE,FALSE,0,FALSE,FALSE,FALSE,FALSE,78,7.621,1588,2056,7.801,FALSE,3.814,3.807,0.032,FALSE,FALSE,NA,102.2,102.2,102.2,0,0,3,0,5,3073.3,768.33,,Idle,0,20,FALSE,5,TRUE,6,Go Home,FALSE,FALSE,FALSE,FALSE,FALSE,FALSE,FALSE,FALSE,FALSE,FALSE,FALSE,FALSE,6.974226694,79.91415629,0.4,97.6,328,TRUE,1,1,FALSE,FALSE,FALSE,FALSE,,TRUE,FALSE,FALSE,Course Lock,49.2,,16.4,Calm,33,,1.12.8,Mavic Mini,1SDCH7G0169R0K,1SFLH6Q0AB03DJ,1SRCH7F014TAHX,1U5X071EXP6C9Y,94.2,0.3,3.2,5.909995,2.23694,0,10313,Mavic Mini,1SDCH7G0169R0K,1SFLH6Q0AB03DJ,1SRCH7F014TAHX,1U5X071EXP6C9Y,DJI Fly,,1.12.8,D5009EE1-E7AA-7B1F-115F-9C83F747C552,1SDCH7G0169R0K,,,,,6.974208215,79.91416446,5,,
2/22/2024,19:42.0,5m 25.2s,325.2,6.974228032,79.91415607,1.3,1.3,1.9,51,1.1,0,0.447388,0,0.447388,0,0,-0.447388,0,0.4,-0.8,-66.4,293.6,,Tripod,Drop Calibration,,15,5,TRUE,,Mavic Mini,TRUE,FALSE,,Smart,RC,FALSE,TRUE,FALSE,,,TRUE,,FALSE,FALSE,FALSE,FALSE,FALSE,FALSE,FALSE,FALSE,FALSE,FALSE,0,Follow Yaw,0,0,-49.4,310.6,FALSE,FALSE,FALSE,FALSE,FALSE,TRUE,,TRUE,Normal,,100,1024,1024,1179,1024,2,FALSE,FALSE,FALSE,FALSE,FALSE,0,FALSE,FALSE,FALSE,FALSE,78,7.621,1588,2056,7.801,FALSE,3.814,3.807,0.032,FALSE,FALSE,NA,102.2,102.2,102.2,0,0,3,0,5,3073.3,768.33,,Idle,0,20,FALSE,5,TRUE,6,Go Home,FALSE,FALSE,FALSE,FALSE,FALSE,FALSE,FALSE,FALSE,FALSE,FALSE,FALSE,FALSE,6.974226694,79.91415629,0.4,97.6,328,TRUE,1,1,FALSE,FALSE,FALSE,FALSE,,TRUE,FALSE,FALSE,Course Lock,49.2,,16.4,Calm,33,,1.12.8,Mavic Mini,1SDCH7G0169R0K,1SFLH6Q0AB03DJ,1SRCH7F014TAHX,1U5X071EXP6C9Y,94.2,0.3,3.2,5.909995,2.23694,0,10313,Mavic Mini,1SDCH7G0169R0K,1SFLH6Q0AB03DJ,1SRCH7F014TAHX,1U5X071EXP6C9Y,DJI Fly,,1.12.8,D5009EE1-E7AA-7B1F-115F-9C83F747C552,1SDCH7G0169R0K,,,,,6.974208215,79.91416446,5,,
2/22/2024,19:42.1,5m 25.3s,325.3,6.974228127,79.91415607,1.6,1.6,1.9,51,1.1,0,0.447388,0,0.447388,0,0,-0.447388,0,0.6,-1.3,-66.4,293.6,,Tripod,Drop Calibration,,15,5,TRUE,,Mavic Mini,TRUE,FALSE,,Smart,RC,FALSE,TRUE,FALSE,,,TRUE,,FALSE,FALSE,FALSE,FALSE,FALSE,FALSE,FALSE,FALSE,FALSE,FALSE,0,Follow Yaw,0,0,-49.4,310.6,FALSE,FALSE,FALSE,FALSE,FALSE,TRUE,,TRUE,Normal,,100,1024,1024,1128,1024,2,FALSE,FALSE,FALSE,FALSE,FALSE,0,FALSE,FALSE,FALSE,FALSE,78,7.621,1588,2056,7.801,FALSE,3.814,3.807,0.032,FALSE,FALSE,NA,102.2,102.2,102.2,0,0,3,0,5,3073.3,768.33,,Idle,0,20,FALSE,5,TRUE,6,Go Home,FALSE,FALSE,FALSE,FALSE,FALSE,FALSE,FALSE,FALSE,FALSE,FALSE,FALSE,FALSE,6.974226694,79.91415629,0.5,97.6,328,TRUE,1,1,FALSE,FALSE,FALSE,FALSE,,TRUE,FALSE,FALSE,Course Lock,49.2,,16.4,Calm,33,,1.12.8,Mavic Mini,1SDCH7G0169R0K,1SFLH6Q0AB03DJ,1SRCH7F014TAHX,1U5X071EXP6C9Y,94.2,0.3,3.2,5.909995,2.23694,0,10313,Mavic Mini,1SDCH7G0169R0K,1SFLH6Q0AB03DJ,1SRCH7F014TAHX,1U5X071EXP6C9Y,DJI Fly,,1.12.8,D5009EE1-E7AA-7B1F-115F-9C83F747C552,1SDCH7G0169R0K,,,,,6.974208215,79.91416446,5,,
2/22/2024,19:42.2,5m 25.4s,325.4,6.974228252,79.91415604,1.6,1.6,1.9,51,1.2,0,0.447388,0,0.447388,0,0,-0.223694,0,0.8,-1.6,-66.5,293.5,,Tripod,Drop Calibration,,15,5,TRUE,,Mavic Mini,TRUE,FALSE,,Smart,RC,FALSE,TRUE,FALSE,,,TRUE,,FALSE,FALSE,FALSE,FALSE,FALSE,FALSE,FALSE,FALSE,FALSE,FALSE,0,Follow Yaw,0,0,-49.4,310.6,FALSE,FALSE,FALSE,FALSE,FALSE,TRUE,,TRUE,Normal,,100,1024,1024,1151,1024,2,FALSE,FALSE,FALSE,FALSE,FALSE,0,FALSE,FALSE,FALSE,FALSE,78,7.621,1588,2056,7.801,FALSE,3.814,3.807,0.032,FALSE,FALSE,NA,102.2,102.2,102.2,0,0,3,0,5,3073.3,768.33,,Idle,0,20,FALSE,5,TRUE,6,Go Home,FALSE,FALSE,FALSE,FALSE,FALSE,FALSE,FALSE,FALSE,FALSE,FALSE,FALSE,FALSE,6.974226694,79.91415629,0.5,97.6,328,TRUE,1,1,FALSE,FALSE,FALSE,FALSE,,TRUE,FALSE,FALSE,Course Lock,49.2,,16.4,Calm,33,,1.12.8,Mavic Mini,1SDCH7G0169R0K,1SFLH6Q0AB03DJ,1SRCH7F014TAHX,1U5X071EXP6C9Y,94.2,0.3,3.2,5.909995,2.23694,0,10313,Mavic Mini,1SDCH7G0169R0K,1SFLH6Q0AB03DJ,1SRCH7F014TAHX,1U5X071EXP6C9Y,DJI Fly,,1.12.8,D5009EE1-E7AA-7B1F-115F-9C83F747C552,1SDCH7G0169R0K,,,,,6.974208215,79.91416446,5,,
2/22/2024,19:42.3,5m 25.5s,325.5,6.974228576,79.91415581,1.6,1.6,2.2,51,1.3,0,0.447388,0,0.447388,0,0,-0.223694,0,1.1,-1.8,-66.5,293.5,,Tripod,Drop Calibration,,15,5,TRUE,,Mavic Mini,TRUE,FALSE,,Smart,RC,FALSE,TRUE,FALSE,,,TRUE,,FALSE,FALSE,FALSE,FALSE,FALSE,FALSE,FALSE,FALSE,FALSE,FALSE,0,Follow Yaw,0,0,-49.4,310.6,FALSE,FALSE,FALSE,FALSE,FALSE,TRUE,,TRUE,Normal,,100,1024,1024,1359,1024,2,FALSE,FALSE,FALSE,FALSE,FALSE,0,FALSE,FALSE,FALSE,FALSE,78,7.621,1588,2056,7.801,FALSE,3.814,3.807,0.032,FALSE,FALSE,NA,102.2,102.2,102.2,0,0,3,0,5,3073.3,768.33,,Idle,0,20,FALSE,5,TRUE,6,Go Home,FALSE,FALSE,FALSE,FALSE,FALSE,FALSE,FALSE,FALSE,FALSE,FALSE,FALSE,FALSE,6.974226694,79.91415629,0.7,97.6,328,TRUE,1,1,FALSE,FALSE,FALSE,FALSE,,TRUE,FALSE,FALSE,Course Lock,49.2,,16.4,Calm,33,,1.12.8,Mavic Mini,1SDCH7G0169R0K,1SFLH6Q0AB03DJ,1SRCH7F014TAHX,1U5X071EXP6C9Y,94.2,0.3,3.2,5.909995,2.23694,0,10313,Mavic Mini,1SDCH7G0169R0K,1SFLH6Q0AB03DJ,1SRCH7F014TAHX,1U5X071EXP6C9Y,DJI Fly,,1.12.8,D5009EE1-E7AA-7B1F-115F-9C83F747C552,1SDCH7G0169R0K,,,,,6.974208215,79.91416446,5,,
2/22/2024,19:42.4,5m 25.6s,325.6,6.974228755,79.9141557,1.6,1.6,2.2,51,1.4,0,0.447388,0,0.447388,0,0,-0.223694,0,1.4,-2.1,-66.5,293.5,,Tripod,Drop Calibration,,15,5,TRUE,,Mavic Mini,TRUE,FALSE,,Smart,RC,FALSE,TRUE,FALSE,,,TRUE,,FALSE,FALSE,FALSE,FALSE,FALSE,FALSE,FALSE,FALSE,FALSE,FALSE,0,Follow Yaw,0,0,-49.4,310.6,FALSE,FALSE,FALSE,FALSE,FALSE,TRUE,,TRUE,Normal,,100,1024,1024,1439,1024,2,FALSE,FALSE,FALSE,FALSE,FALSE,0,FALSE,FALSE,FALSE,FALSE,78,7.621,1588,2056,7.801,FALSE,3.814,3.807,0.032,FALSE,FALSE,NA,102.2,102.2,102.2,0,0,3,0,5,3073.3,768.33,,Idle,0,20,FALSE,5,TRUE,6,Go Home,FALSE,FALSE,FALSE,FALSE,FALSE,FALSE,FALSE,FALSE,FALSE,FALSE,FALSE,FALSE,6.974226694,79.91415629,0.7,97.6,328,TRUE,1,1,FALSE,FALSE,FALSE,FALSE,,TRUE,FALSE,FALSE,Course Lock,49.2,,16.4,Calm,33,,1.12.8,Mavic Mini,1SDCH7G0169R0K,1SFLH6Q0AB03DJ,1SRCH7F014TAHX,1U5X071EXP6C9Y,94.2,0.3,3.2,5.909995,2.23694,0,10313,Mavic Mini,1SDCH7G0169R0K,1SFLH6Q0AB03DJ,1SRCH7F014TAHX,1U5X071EXP6C9Y,DJI Fly,,1.12.8,D5009EE1-E7AA-7B1F-115F-9C83F747C552,1SDCH7G0169R0K,,,,,6.974208215,79.91416446,5,,
2/22/2024,19:42.5,5m 25.7s,325.7,6.974228915,79.91415559,1.6,1.6,2.2,51,1.5,0,0.447388,0,0.447388,0,0,-0.223694,0,1.1,-2.1,-66.5,293.5,,Tripod,Drop Calibration,,15,5,TRUE,,Mavic Mini,TRUE,FALSE,,Smart,RC,FALSE,TRUE,FALSE,,,TRUE,,FALSE,FALSE,FALSE,FALSE,FALSE,FALSE,FALSE,FALSE,FALSE,FALSE,0,Follow Yaw,0,0,-49.4,310.6,FALSE,FALSE,FALSE,FALSE,FALSE,TRUE,,TRUE,Normal,,100,1024,1024,1438,1024,2,FALSE,FALSE,FALSE,FALSE,FALSE,0,FALSE,FALSE,FALSE,FALSE,78,7.621,1588,2056,7.619,FALSE,3.814,3.807,0.032,FALSE,FALSE,NA,102.2,102.2,102.2,0,0,3,0,5,3712.9,928.24,,Idle,0,20,FALSE,5,TRUE,6,Go Home,FALSE,FALSE,FALSE,FALSE,FALSE,FALSE,FALSE,FALSE,FALSE,FALSE,FALSE,FALSE,6.974226694,79.91415629,0.8,97.6,328,TRUE,1,1,FALSE,FALSE,FALSE,FALSE,,TRUE,FALSE,FALSE,Course Lock,49.2,,16.4,Calm,33,,1.12.8,Mavic Mini,1SDCH7G0169R0K,1SFLH6Q0AB03DJ,1SRCH7F014TAHX,1U5X071EXP6C9Y,94.2,0.3,3.2,5.909995,2.23694,0,10313,Mavic Mini,1SDCH7G0169R0K,1SFLH6Q0AB03DJ,1SRCH7F014TAHX,1U5X071EXP6C9Y,DJI Fly,,1.12.8,D5009EE1-E7AA-7B1F-115F-9C83F747C552,1SDCH7G0169R0K,,,,,6.974208215,79.91416446,5,,
2/22/2024,19:42.6,5m 25.8s,325.8,6.974229048,79.91415549,1.6,1.6,2.6,51,1.5,0,0.447388,0,0.447388,0,0,-0.447388,0,1.1,-1.9,-66.4,293.6,,Tripod,Drop Calibration,,14,5,TRUE,,Mavic Mini,TRUE,FALSE,,Smart,RC,FALSE,TRUE,FALSE,,,TRUE,,FALSE,FALSE,FALSE,FALSE,FALSE,FALSE,FALSE,FALSE,FALSE,FALSE,0,Follow Yaw,0,0,-49.4,310.6,FALSE,FALSE,FALSE,FALSE,FALSE,TRUE,,TRUE,Normal,,100,1024,1024,1296,1024,2,FALSE,FALSE,FALSE,FALSE,FALSE,0,FALSE,FALSE,FALSE,FALSE,78,7.621,1588,2056,7.619,FALSE,3.814,3.807,0.032,FALSE,FALSE,NA,102.2,102.2,102.2,0,0,3,0,5,3712.9,928.24,,Idle,0,20,FALSE,5,TRUE,6,Go Home,FALSE,FALSE,FALSE,FALSE,FALSE,FALSE,FALSE,FALSE,FALSE,FALSE,FALSE,FALSE,6.974226694,79.91415629,0.9,97.6,328,TRUE,1,1,FALSE,FALSE,FALSE,FALSE,,TRUE,FALSE,FALSE,Course Lock,49.2,,16.4,Calm,33,,1.12.8,Mavic Mini,1SDCH7G0169R0K,1SFLH6Q0AB03DJ,1SRCH7F014TAHX,1U5X071EXP6C9Y,94.2,0.3,3.2,5.909995,2.23694,0,10313,Mavic Mini,1SDCH7G0169R0K,1SFLH6Q0AB03DJ,1SRCH7F014TAHX,1U5X071EXP6C9Y,DJI Fly,,1.12.8,D5009EE1-E7AA-7B1F-115F-9C83F747C552,1SDCH7G0169R0K,,,,,6.974208215,79.91416446,5,,
2/22/2024,19:42.7,5m 25.9s,325.9,6.974229163,79.91415528,1.9,1.9,2.6,51,1.6,0,0.447388,0,0.447388,0,0,-0.894776,0,1.4,-2.1,-66.3,293.7,,Tripod,Drop Calibration,,14,5,TRUE,,Mavic Mini,TRUE,FALSE,,Smart,RC,FALSE,TRUE,FALSE,,,TRUE,,FALSE,FALSE,FALSE,FALSE,FALSE,FALSE,FALSE,FALSE,FALSE,FALSE,0,Follow Yaw,0,0,-49.4,310.6,FALSE,FALSE,FALSE,FALSE,FALSE,TRUE,,TRUE,Normal,,100,1024,1024,1296,1024,2,FALSE,FALSE,FALSE,FALSE,FALSE,0,FALSE,FALSE,FALSE,FALSE,78,7.6,1586,2056,7.619,FALSE,3.808,3.792,0.032,FALSE,FALSE,NA,102.4,102.2,102.3,0,0,3,0,5,3712.9,928.24,,Idle,0,20,FALSE,5,TRUE,6,Go Home,FALSE,FALSE,FALSE,FALSE,FALSE,FALSE,FALSE,FALSE,FALSE,FALSE,FALSE,FALSE,6.974226694,79.91415629,0.9,97.6,328,TRUE,1,1,FALSE,FALSE,FALSE,FALSE,,TRUE,FALSE,FALSE,Course Lock,49.2,,16.4,Calm,33,,1.12.8,Mavic Mini,1SDCH7G0169R0K,1SFLH6Q0AB03DJ,1SRCH7F014TAHX,1U5X071EXP6C9Y,94.2,0.3,3.2,5.909995,2.23694,0,10313,Mavic Mini,1SDCH7G0169R0K,1SFLH6Q0AB03DJ,1SRCH7F014TAHX,1U5X071EXP6C9Y,DJI Fly,,1.12.8,D5009EE1-E7AA-7B1F-115F-9C83F747C552,1SDCH7G0169R0K,,,,,6.974208215,79.91416446,5,,
2/22/2024,19:42.7,5m 26.0s,326,6.974229245,79.9141552,1.9,1.9,2.9,51,1.6,0,0.447388,0,0.447388,0,0,-1.342164,0,1.5,-2.2,-66.3,293.7,,Tripod,Drop Calibration,,14,5,TRUE,,Mavic Mini,TRUE,FALSE,,Smart,RC,FALSE,TRUE,FALSE,,,TRUE,,FALSE,FALSE,FALSE,FALSE,FALSE,FALSE,FALSE,FALSE,FALSE,FALSE,0,Follow Yaw,0,0,-49.4,310.6,FALSE,FALSE,FALSE,FALSE,FALSE,TRUE,,TRUE,Normal,,100,1024,1024,1037,1024,2,FALSE,FALSE,FALSE,FALSE,FALSE,0,FALSE,FALSE,FALSE,FALSE,78,7.6,1586,2056,7.619,FALSE,3.808,3.792,0.032,FALSE,FALSE,NA,102.4,102.2,102.3,0,0,3,0,5,3712.9,928.24,,Idle,0,20,FALSE,5,TRUE,6,Go Home,FALSE,FALSE,FALSE,FALSE,FALSE,FALSE,FALSE,FALSE,FALSE,FALSE,FALSE,FALSE,6.974226694,79.91415629,1,97.6,328,TRUE,1,1,FALSE,FALSE,FALSE,FALSE,,TRUE,FALSE,FALSE,Course Lock,49.2,,16.4,Calm,33,,1.12.8,Mavic Mini,1SDCH7G0169R0K,1SFLH6Q0AB03DJ,1SRCH7F014TAHX,1U5X071EXP6C9Y,94.2,0.3,3.2,5.909995,2.23694,0,10313,Mavic Mini,1SDCH7G0169R0K,1SFLH6Q0AB03DJ,1SRCH7F014TAHX,1U5X071EXP6C9Y,DJI Fly,,1.12.8,D5009EE1-E7AA-7B1F-115F-9C83F747C552,1SDCH7G0169R0K,,,,,6.974208215,79.91416446,5,,
2/22/2024,19:42.9,5m 26.1s,326.1,6.974229299,79.91415518,2.2,2.2,2.9,52,1.7,0,0.447388,0,0.447388,0,0,-1.342164,0,2,-2.5,-66.2,293.8,,Tripod,Drop Calibration,,14,5,TRUE,,Mavic Mini,TRUE,FALSE,,Smart,RC,FALSE,TRUE,FALSE,,,TRUE,,FALSE,FALSE,FALSE,FALSE,FALSE,FALSE,FALSE,FALSE,FALSE,FALSE,0,Follow Yaw,0,0,-49.4,310.6,FALSE,FALSE,FALSE,FALSE,FALSE,TRUE,,TRUE,Normal,,100,1024,1024,1024,1024,2,FALSE,FALSE,FALSE,FALSE,FALSE,0,FALSE,FALSE,FALSE,FALSE,78,7.6,1586,2056,7.619,FALSE,3.808,3.792,0.032,FALSE,FALSE,NA,102.4,102.2,102.3,0,0,3,0,5,3712.9,928.24,,Idle,0,20,FALSE,5,TRUE,6,Go Home,FALSE,FALSE,FALSE,FALSE,FALSE,FALSE,FALSE,FALSE,FALSE,FALSE,FALSE,FALSE,6.974226694,79.91415629,1,97.6,328,TRUE,1,1,FALSE,FALSE,FALSE,FALSE,,TRUE,FALSE,FALSE,Course Lock,49.2,,16.4,Calm,33,,1.12.8,Mavic Mini,1SDCH7G0169R0K,1SFLH6Q0AB03DJ,1SRCH7F014TAHX,1U5X071EXP6C9Y,94.2,0.3,3.2,5.909995,2.23694,0,10313,Mavic Mini,1SDCH7G0169R0K,1SFLH6Q0AB03DJ,1SRCH7F014TAHX,1U5X071EXP6C9Y,DJI Fly,,1.12.8,D5009EE1-E7AA-7B1F-115F-9C83F747C552,1SDCH7G0169R0K,,,,,6.974208215,79.91416446,5,,
2/22/2024,19:43.0,5m 26.2s,326.2,6.974229354,79.91415513,2.2,2.2,3.2,52,1.7,0,0.447388,0,0.447388,0,0,-1.11847,0,2.1,-2.3,-66.2,293.8,,Tripod,Drop Calibration,,15,5,TRUE,,Mavic Mini,TRUE,FALSE,,Smart,RC,FALSE,TRUE,FALSE,,,TRUE,,FALSE,FALSE,FALSE,FALSE,FALSE,FALSE,FALSE,FALSE,FALSE,FALSE,0,Follow Yaw,0,0,-49.4,310.6,FALSE,FALSE,FALSE,FALSE,FALSE,TRUE,,TRUE,Normal,,100,1024,1024,1024,1024,2,FALSE,FALSE,FALSE,FALSE,FALSE,0,FALSE,FALSE,FALSE,FALSE,78,7.6,1586,2056,7.619,FALSE,3.808,3.792,0.032,FALSE,FALSE,NA,102.4,102.2,102.3,0,0,3,0,5,3712.9,928.24,,Idle,0,20,FALSE,5,TRUE,6,Go Home,FALSE,FALSE,FALSE,FALSE,FALSE,FALSE,FALSE,FALSE,FALSE,FALSE,FALSE,FALSE,6.974226694,79.91415629,1,97.6,328,TRUE,1,1,FALSE,FALSE,FALSE,FALSE,,TRUE,FALSE,FALSE,Course Lock,49.2,,16.4,Calm,33,,1.12.8,Mavic Mini,1SDCH7G0169R0K,1SFLH6Q0AB03DJ,1SRCH7F014TAHX,1U5X071EXP6C9Y,94.2,0.3,3.2,5.909995,2.23694,0,10313,Mavic Mini,1SDCH7G0169R0K,1SFLH6Q0AB03DJ,1SRCH7F014TAHX,1U5X071EXP6C9Y,DJI Fly,,1.12.8,D5009EE1-E7AA-7B1F-115F-9C83F747C552,1SDCH7G0169R0K,,,,,6.974208215,79.91416446,5,,
2/22/2024,19:43.1,5m 26.3s,326.3,6.974229439,79.91415503,2.6,2.6,3.2,52,1.7,0,0.447388,0,0.447388,0,0,-0.894776,0,2.2,-2.1,-66.2,293.8,,Tripod,Drop Calibration,,15,5,TRUE,,Mavic Mini,TRUE,FALSE,,Smart,RC,FALSE,TRUE,FALSE,,,TRUE,,FALSE,FALSE,FALSE,FALSE,FALSE,FALSE,FALSE,FALSE,FALSE,FALSE,0,Follow Yaw,0,0,-49.4,310.6,FALSE,FALSE,FALSE,FALSE,FALSE,TRUE,,TRUE,Normal,,100,1024,1024,1024,1024,2,FALSE,FALSE,FALSE,FALSE,FALSE,0,FALSE,FALSE,FALSE,FALSE,78,7.6,1586,2056,7.619,FALSE,3.808,3.792,0.032,FALSE,FALSE,NA,102.4,102.2,102.3,0,0,3,0,5,3712.9,928.24,,Idle,0,20,FALSE,5,TRUE,6,Go Home,FALSE,FALSE,FALSE,FALSE,FALSE,FALSE,FALSE,FALSE,FALSE,FALSE,FALSE,FALSE,6.974226694,79.91415629,1,97.6,328,TRUE,1,1,FALSE,FALSE,FALSE,FALSE,,TRUE,FALSE,FALSE,Course Lock,49.2,,16.4,Calm,33,,1.12.8,Mavic Mini,1SDCH7G0169R0K,1SFLH6Q0AB03DJ,1SRCH7F014TAHX,1U5X071EXP6C9Y,94.2,0.3,3.2,5.909995,2.23694,0,10313,Mavic Mini,1SDCH7G0169R0K,1SFLH6Q0AB03DJ,1SRCH7F014TAHX,1U5X071EXP6C9Y,DJI Fly,,1.12.8,D5009EE1-E7AA-7B1F-115F-9C83F747C552,1SDCH7G0169R0K,,,,,6.974208215,79.91416446,5,,
2/22/2024,19:43.2,5m 26.4s,326.4,6.974229472,79.91415502,2.6,2.6,3.6,52,1.7,0,0.447388,0,0.447388,0,0,-0.447388,0,2.3,-2,-66.3,293.7,,Tripod,Drop Calibration,,15,5,TRUE,,Mavic Mini,TRUE,FALSE,,Smart,RC,FALSE,TRUE,FALSE,,,TRUE,,FALSE,FALSE,FALSE,FALSE,FALSE,FALSE,FALSE,FALSE,FALSE,FALSE,0,Follow Yaw,0,0,-49.4,310.6,FALSE,FALSE,FALSE,FALSE,FALSE,TRUE,,TRUE,Normal,,100,1024,1024,1024,1024,2,FALSE,FALSE,FALSE,FALSE,FALSE,0,FALSE,FALSE,FALSE,FALSE,78,7.6,1586,2056,7.619,FALSE,3.808,3.792,0.032,FALSE,FALSE,NA,102.4,102.2,102.3,0,0,3,0,5,3712.9,928.24,,Idle,0,20,FALSE,5,TRUE,6,Go Home,FALSE,FALSE,FALSE,FALSE,FALSE,FALSE,FALSE,FALSE,FALSE,FALSE,FALSE,FALSE,6.974226694,79.91415629,1.1,97.6,328,TRUE,1,1,FALSE,FALSE,FALSE,FALSE,,TRUE,FALSE,FALSE,Course Lock,49.2,,16.4,Calm,33,,1.12.8,Mavic Mini,1SDCH7G0169R0K,1SFLH6Q0AB03DJ,1SRCH7F014TAHX,1U5X071EXP6C9Y,94.2,0.3,3.2,5.909995,2.23694,0,10313,Mavic Mini,1SDCH7G0169R0K,1SFLH6Q0AB03DJ,1SRCH7F014TAHX,1U5X071EXP6C9Y,DJI Fly,,1.12.8,D5009EE1-E7AA-7B1F-115F-9C83F747C552,1SDCH7G0169R0K,,,,,6.974208215,79.91416446,5,,
2/22/2024,19:43.2,5m 26.5s,326.5,6.974229524,79.91415496,2.6,2.6,3.6,52,1.8,0,0.447388,0,0.447388,0,0,-0.223694,0,2.5,-2,-66.3,293.7,,Tripod,Drop Calibration,,15,5,TRUE,,Mavic Mini,TRUE,FALSE,,Smart,RC,FALSE,TRUE,FALSE,,,TRUE,,FALSE,FALSE,FALSE,FALSE,FALSE,FALSE,FALSE,FALSE,FALSE,FALSE,0,Follow Yaw,0,0,-49.4,310.6,FALSE,FALSE,FALSE,FALSE,FALSE,TRUE,,TRUE,Normal,,100,1024,1024,1024,828,2,FALSE,FALSE,FALSE,FALSE,FALSE,0,FALSE,FALSE,FALSE,FALSE,78,7.6,1586,2056,7.619,FALSE,3.808,3.792,0.032,FALSE,FALSE,NA,102.4,102.2,102.3,0,0,3,0,5,3712.9,928.24,,Idle,0,20,FALSE,5,TRUE,6,Go Home,FALSE,FALSE,FALSE,FALSE,FALSE,FALSE,FALSE,FALSE,FALSE,FALSE,FALSE,FALSE,6.974226694,79.91415629,1.1,97.6,328,TRUE,1,1,FALSE,FALSE,FALSE,FALSE,,TRUE,FALSE,FALSE,Course Lock,49.2,,16.4,Calm,33,,1.12.8,Mavic Mini,1SDCH7G0169R0K,1SFLH6Q0AB03DJ,1SRCH7F014TAHX,1U5X071EXP6C9Y,94.2,0.3,3.2,5.909995,2.23694,0,10313,Mavic Mini,1SDCH7G0169R0K,1SFLH6Q0AB03DJ,1SRCH7F014TAHX,1U5X071EXP6C9Y,DJI Fly,,1.12.8,D5009EE1-E7AA-7B1F-115F-9C83F747C552,1SDCH7G0169R0K,,,,,6.974208215,79.91416446,5,,
2/22/2024,19:43.3,5m 26.6s,326.6,6.974229566,79.91415492,2.6,2.6,3.6,52,1.8,0,0.447388,0,0.447388,0,0,0,0,2.5,-1.8,-66.3,293.7,,Tripod,Drop Calibration,,15,5,TRUE,,Mavic Mini,TRUE,FALSE,,Smart,RC,FALSE,TRUE,FALSE,,,TRUE,,FALSE,FALSE,FALSE,FALSE,FALSE,FALSE,FALSE,FALSE,FALSE,FALSE,0,Follow Yaw,0,0,-49.4,310.6,FALSE,FALSE,FALSE,FALSE,FALSE,TRUE,,TRUE,Normal,,100,1024,1024,1024,711,2,FALSE,FALSE,FALSE,FALSE,FALSE,0,FALSE,FALSE,FALSE,FALSE,78,7.6,1586,2056,7.619,FALSE,3.808,3.792,0.032,FALSE,FALSE,NA,102.4,102.2,102.3,0,0,3,0,5,3712.9,928.24,,Idle,0,20,FALSE,5,TRUE,6,Go Home,FALSE,FALSE,FALSE,FALSE,FALSE,FALSE,FALSE,FALSE,FALSE,FALSE,FALSE,FALSE,6.974226694,79.91415629,1.1,97.6,328,TRUE,1,1,FALSE,FALSE,FALSE,FALSE,,TRUE,FALSE,FALSE,Course Lock,49.2,,16.4,Calm,33,,1.12.8,Mavic Mini,1SDCH7G0169R0K,1SFLH6Q0AB03DJ,1SRCH7F014TAHX,1U5X071EXP6C9Y,94.2,0.3,3.2,5.909995,2.23694,0,10313,Mavic Mini,1SDCH7G0169R0K,1SFLH6Q0AB03DJ,1SRCH7F014TAHX,1U5X071EXP6C9Y,DJI Fly,,1.12.8,D5009EE1-E7AA-7B1F-115F-9C83F747C552,1SDCH7G0169R0K,,,,,6.974208215,79.91416446,5,,
2/22/2024,19:43.4,5m 26.7s,326.7,6.974229609,79.9141549,2.6,2.6,3.6,52,1.8,0,0.447388,0,0.447388,0,0,0,0,2,-1.8,-66.3,293.7,,Tripod,Drop Calibration,,15,5,TRUE,,Mavic Mini,TRUE,FALSE,,Smart,RC,FALSE,TRUE,FALSE,,,TRUE,,FALSE,FALSE,FALSE,FALSE,FALSE,FALSE,FALSE,FALSE,FALSE,FALSE,0,Follow Yaw,0,0,-49.4,310.6,FALSE,FALSE,FALSE,FALSE,FALSE,TRUE,,TRUE,Normal,,100,1024,1024,1024,564,2,FALSE,FALSE,FALSE,FALSE,FALSE,0,FALSE,FALSE,FALSE,FALSE,77,7.6,1586,2056,7.638,FALSE,3.808,3.792,0.032,FALSE,FALSE,NA,102.4,102.2,102.3,0,0,3,0,5,5153,1288.25,,Idle,0,20,FALSE,5,TRUE,6,Go Home,FALSE,FALSE,FALSE,FALSE,FALSE,FALSE,FALSE,FALSE,FALSE,FALSE,FALSE,FALSE,6.974226694,79.91415629,1.1,97.6,328,TRUE,1,1,FALSE,FALSE,FALSE,FALSE,,TRUE,FALSE,FALSE,Course Lock,49.2,,16.4,Calm,33,,1.12.8,Mavic Mini,1SDCH7G0169R0K,1SFLH6Q0AB03DJ,1SRCH7F014TAHX,1U5X071EXP6C9Y,94.2,0.3,3.2,5.909995,2.23694,0,10313,Mavic Mini,1SDCH7G0169R0K,1SFLH6Q0AB03DJ,1SRCH7F014TAHX,1U5X071EXP6C9Y,DJI Fly,,1.12.8,D5009EE1-E7AA-7B1F-115F-9C83F747C552,1SDCH7G0169R0K,,,,,6.974208215,79.91416446,5,,
