CUSTOM.date [local],CUSTOM.updateTime [local],OSD.flyTime,OSD.flyTime [s],OSD.latitude,OSD.longitude,OSD.height [ft],OSD.heightMax [ft],OSD.vpsHeight [ft],OSD.altitude [ft],OSD.mileage [ft],OSD.hSpeed [MPH],OSD.hSpeedMax [MPH],OSD.xSpeed [MPH],OSD.xSpeedMax [MPH],OSD.ySpeed [MPH],OSD.ySpeedMax [MPH],OSD.zSpeed [MPH],OSD.zSpeedMax [MPH],OSD.pitch,OSD.roll,OSD.yaw,OSD.yaw [360],OSD.directionOfTravel,OSD.flycState,OSD.flycCommand,OSD.flightAction,OSD.gpsNum,OSD.gpsLevel,OSD.isGPSUsed,OSD.nonGPSCause,OSD.droneType,OSD.isSwaveWork,OSD.waveError,OSD.goHomeStatus,OSD.batteryType,OSD.ctrlDevice,OSD.isOnGround,OSD.isMotorOn,OSD.isMotorBlocked,OSD.motorStartFailedCause,OSD.motorFailReason,OSD.isImuPreheated,OSD.imuInitFailReason,OSD.isAcceletorOverRange,OSD.isBarometerDeadInAir,OSD.isCompassError,OSD.isGoHomeHeightModified,OSD.canIOCWork,OSD.isNotEnoughForce,OSD.isOutOfLimit,OSD.isPropellerCatapult,OSD.isVibrating,OSD.isVisionUsed,OSD.voltageWarning,GIMBAL.mode,GIMBAL.pitch,GIMBAL.roll,GIMBAL.yaw,GIMBAL.yaw [360],GIMBAL.isPitchAtLimit,GIMBAL.isRollAtLimit,GIMBAL.isYawAtLimit,GIMBAL.isStuck,CAMERA.isPhoto,CAMERA.isVideo,CAMERA.filename,CAMERA.sdCardIsInserted,CAMERA.sdCardState,RC.downlinkSignal,RC.uplinkSignal,RC.aileron,RC.elevator,RC.throttle,RC.rudder,RC.mode,RC.goHomeDepressed,RC.recordDepressed,RC.shutterDepressed,RC.playbackDepressed,RC.wheelDepressed,RC.wheelOffset,RC.custom1Depressed,RC.custom2Depressed,RC.custom3Depressed,RC.custom4Depressed,BATTERY.chargeLevel,BATTERY.currentPV [V],BATTERY.currentCapacity [mAh],BATTERY.fullCapacity [mAh],BATTERY.voltage [V],BATTERY.isCellVoltageEstimated,BATTERY.cellVoltage1 [V],BATTERY.cellVoltage2 [V],BATTERY.maxCellVoltageDeviation,BATTERY.isCellVoltageDeviationHigh,BATTERY.isVoltageLow,BATTERY.current [A],BATTERY.temperature [F],BATTERY.minTemperature [F],BATTERY.maxTemperature [F],BATTERY.usefulTime [s],BATTERY.goHomeTime [s],BATTERY.landTime [s],BATTERY.goHomeBattery,BATTERY.landBattery,BATTERY.safeFlyRadius,BATTERY.volumeConsume,BATTERY.status,BATTERY.goHomeStatus,BATTERY.goHomeCountdown,BATTERY.lowWarning,BATTERY.lowWarningGoHome,BATTERY.seriousLowWarning,BATTERY.seriousLowWarningLanding,BATTERY.timesCharged,MC.failSafeAction,MC.isObstacleAvoidanceEnabled,MC.isCollisionAvoidanceEnabled,MC.isRthObstacleAvoidanceEnabled,MC.isBraking,MC.isAvoidingObstacle,MC.isAvoidingActiveObstacle,MC.isAscentLimitedByObstacle,MC.isLandingConfirmationNeeded,MC.atLowAltitudeLimit,MC.atDistanceLimit,MC.atAirportAltitudeLimit,MC.atAirportBoundary,HOME.latitude,HOME.longitude,HOME.distance [ft],HOME.height [ft],HOME.heightLimit [ft],HOME.isHomeRecord,HOME.goHomeMode,HOME.aircraftHeadDirection,HOME.isDynamicHomePointEnabled,HOME.isReachedLimitDistance,HOME.isReachedLimitHeight,HOME.isCompassCalibrating,HOME.compassCalibrationState,HOME.isMultipleFlightModeEnabled,HOME.isBeginnerMode,HOME.isIOCEnabled,HOME.iocMode,HOME.goHomeHeight [ft],HOME.courseLockAngle,HOME.forceLandingHeight [ft],HOME.wind,HOME.dataRecorderFileIndex,RECOVER.appType,RECOVER.appVersion,RECOVER.aircraftName,RECOVER.aircraftSerial,RECOVER.cameraSerial,RECOVER.rcSerial,RECOVER.batterySerial,DETAILS.totalTime [s],DETAILS.totalDistance [ft],DETAILS.maxHeight [ft],DETAILS.maxHorizontalSpeed [MPH],DETAILS.maxVerticalSpeed [MPH],DETAILS.photoNum,DETAILS.videoTime [s],DETAILS.aircraftName,DETAILS.aircraftSerial,DETAILS.cameraSerial,DETAILS.rcSerial,DETAILS.batterySerial,DETAILS.appName,DETAILS.appType,DETAILS.appVersion,DETAILS.guid,SERIAL.flightController,SERIAL.camera,SERIAL.gimbal,SERIAL.rc,SERIAL.battery,APPGPS.latitude,APPGPS.longitude,APPGPS.accuracy,APP.tip,APP.warning
2/22/2024,15:52.1,1m 24.9s,84.9,6.974223636,79.91415459,0,0,0.6,50,0,0,0,0,0,0,0,0,0,5.2,2.2,-58.4,301.6,,Starting Motors,Drop Calibration,Takeoff (RC Assisted),12,4,TRUE,,Mavic Mini,FALSE,FALSE,,Smart,RC,TRUE,TRUE,FALSE,,,TRUE,,FALSE,FALSE,FALSE,FALSE,FALSE,FALSE,FALSE,FALSE,FALSE,FALSE,0,Follow Yaw,-2.5,0,-41.9,318.1,FALSE,FALSE,FALSE,FALSE,FALSE,FALSE,,TRUE,Normal,,,1024,1024,1024,1024,2,FALSE,FALSE,FALSE,FALSE,FALSE,0,FALSE,FALSE,FALSE,FALSE,92,8.032,1904,2056,8.032,FALSE,4.02,4.012,0.008,FALSE,FALSE,NA,88.3,88.3,88.3,,,,,,,,,Idle,,,TRUE,,FALSE,6,Go Home,FALSE,FALSE,FALSE,FALSE,FALSE,FALSE,FALSE,FALSE,FALSE,FALSE,FALSE,FALSE,,,,,,FALSE,,,FALSE,FALSE,FALSE,FALSE,,FALSE,FALSE,FALSE,,,,,Calm,,,1.12.8,Mavic Mini,1SDCH7G0169R0K,1SFLH6Q0AB03DJ,1SRCH7F014TAHX,1U5X071EXP6C9Y,86.9,0.5,26.2,8.914205,3.35541,0,0,Mavic Mini,1SDCH7G0169R0K,1SFLH6Q0AB03DJ,1SRCH7F014TAHX,1U5X071EXP6C9Y,DJI Fly,,1.12.8,94656A56-0E66-D943-5B16-4755D9D9559B,1SDCH7G0169R0K,,,,,,,,Flight mode changed to Starting Motors.,
2/22/2024,14:27.4,1m 25.0s,85,6.974223585,79.91415461,0,0,0.6,50,0,0,0,0,0,0,0,0,0,5.2,2.2,-58.4,301.6,,Starting Motors,Drop Calibration,Takeoff (RC Assisted),12,4,TRUE,,Mavic Mini,FALSE,FALSE,,Smart,RC,TRUE,TRUE,FALSE,,,TRUE,,FALSE,FALSE,FALSE,FALSE,FALSE,FALSE,FALSE,FALSE,FALSE,FALSE,0,Follow Yaw,-2.5,0,-41.9,318.1,FALSE,FALSE,FALSE,FALSE,FALSE,FALSE,,TRUE,Normal,,,1024,1024,1024,1024,2,FALSE,FALSE,FALSE,FALSE,FALSE,0,FALSE,FALSE,FALSE,FALSE,92,8.032,1904,2056,8.031,FALSE,4.02,4.012,0.008,FALSE,FALSE,NA,88.3,88.3,88.3,0,17,0,0,5,2502.3,625.58,,Idle,0,20,FALSE,5,TRUE,6,Go Home,FALSE,FALSE,FALSE,FALSE,FALSE,FALSE,FALSE,FALSE,FALSE,FALSE,FALSE,FALSE,6.974143363,79.91426209,48.6,100.3,328,TRUE,1,1,FALSE,FALSE,FALSE,FALSE,,TRUE,FALSE,FALSE,Course Lock,49.2,,16.4,Calm,33,,1.12.8,Mavic Mini,1SDCH7G0169R0K,1SFLH6Q0AB03DJ,1SRCH7F014TAHX,1U5X071EXP6C9Y,86.9,0.5,26.2,8.914205,3.35541,0,0,Mavic Mini,1SDCH7G0169R0K,1SFLH6Q0AB03DJ,1SRCH7F014TAHX,1U5X071EXP6C9Y,DJI Fly,,1.12.8,94656A56-0E66-D943-5B16-4755D9D9559B,1SDCH7G0169R0K,,,,,,,,Data Recorder File Index is 33.; Set Return to Home (RTH) altitude to 15 m (49 ft).; Set maximum flight altitude to 100 m (328 ft).,
2/22/2024,14:27.5,1m 25.1s,85.1,6.974223486,79.91415461,0,0,0.6,50,0,0,0,0,0,0,0,0,0,5.2,2.3,-58.5,301.5,,Starting Motors,Drop Calibration,Takeoff (RC Assisted),12,4,TRUE,,Mavic Mini,FALSE,FALSE,,Smart,RC,TRUE,TRUE,FALSE,,,TRUE,,FALSE,FALSE,FALSE,FALSE,FALSE,FALSE,FALSE,FALSE,FALSE,FALSE,0,Follow Yaw,-2.5,0,-41.9,318.1,FALSE,FALSE,FALSE,FALSE,FALSE,FALSE,,TRUE,Normal,,,1024,1024,1024,1024,2,FALSE,FALSE,FALSE,FALSE,FALSE,0,FALSE,FALSE,FALSE,FALSE,92,8.032,1904,2056,8.031,FALSE,4.02,4.012,0.008,FALSE,FALSE,NA,88.3,88.3,88.3,0,17,0,0,5,2502.3,625.58,,Idle,0,20,FALSE,5,TRUE,6,Go Home,FALSE,FALSE,FALSE,FALSE,FALSE,FALSE,FALSE,FALSE,FALSE,FALSE,FALSE,FALSE,6.974143363,79.91426209,48.6,100.3,328,TRUE,1,1,FALSE,FALSE,FALSE,FALSE,,TRUE,FALSE,FALSE,Course Lock,49.2,,16.4,Calm,33,,1.12.8,Mavic Mini,1SDCH7G0169R0K,1SFLH6Q0AB03DJ,1SRCH7F014TAHX,1U5X071EXP6C9Y,86.9,0.5,26.2,8.914205,3.35541,0,0,Mavic Mini,1SDCH7G0169R0K,1SFLH6Q0AB03DJ,1SRCH7F014TAHX,1U5X071EXP6C9Y,DJI Fly,,1.12.8,94656A56-0E66-D943-5B16-4755D9D9559B,1SDCH7G0169R0K,,,,,,,,,
2/22/2024,14:27.6,1m 25.2s,85.2,6.974223413,79.91415462,0,0,0.3,50,0,0,0,0,0,0,0,0,0,5.2,2.3,-58.4,301.6,,Starting Motors,Drop Calibration,Takeoff (RC Assisted),12,4,TRUE,,Mavic Mini,TRUE,FALSE,,Smart,RC,TRUE,TRUE,FALSE,,,TRUE,,FALSE,FALSE,FALSE,FALSE,FALSE,FALSE,FALSE,FALSE,FALSE,FALSE,0,Follow Yaw,-2.5,0,-41.9,318.1,FALSE,FALSE,FALSE,FALSE,FALSE,FALSE,,TRUE,Normal,,100,1024,1024,1024,1024,2,FALSE,FALSE,FALSE,FALSE,FALSE,0,FALSE,FALSE,FALSE,FALSE,92,8.032,1904,2056,8.031,FALSE,4.02,4.012,0.008,FALSE,FALSE,NA,88.3,88.3,88.3,0,17,0,0,5,2502.3,625.58,,Idle,0,20,FALSE,5,TRUE,6,Go Home,FALSE,FALSE,FALSE,FALSE,FALSE,FALSE,FALSE,FALSE,FALSE,FALSE,FALSE,FALSE,6.974143363,79.91426209,48.6,100.3,328,TRUE,1,1,FALSE,FALSE,FALSE,FALSE,,TRUE,FALSE,FALSE,Course Lock,49.2,,16.4,Calm,33,,1.12.8,Mavic Mini,1SDCH7G0169R0K,1SFLH6Q0AB03DJ,1SRCH7F014TAHX,1U5X071EXP6C9Y,86.9,0.5,26.2,8.914205,3.35541,0,0,Mavic Mini,1SDCH7G0169R0K,1SFLH6Q0AB03DJ,1SRCH7F014TAHX,1U5X071EXP6C9Y,DJI Fly,,1.12.8,94656A56-0E66-D943-5B16-4755D9D9559B,1SDCH7G0169R0K,,,,,,,,,
2/22/2024,14:27.7,1m 25.3s,85.3,6.974223478,79.91415487,0,0,0.3,50,0.1,0,0,0,0,0,0,0,0,5.2,2.3,-58.4,301.6,,Starting Motors,Drop Calibration,Takeoff (RC Assisted),12,4,TRUE,,Mavic Mini,TRUE,FALSE,,Smart,RC,TRUE,TRUE,FALSE,,,TRUE,,FALSE,FALSE,FALSE,FALSE,FALSE,FALSE,FALSE,FALSE,FALSE,FALSE,0,Follow Yaw,-2.5,0,-41.9,318.1,FALSE,FALSE,FALSE,FALSE,FALSE,FALSE,,TRUE,Normal,,100,1024,1024,1024,1024,2,FALSE,FALSE,FALSE,FALSE,FALSE,0,FALSE,FALSE,FALSE,FALSE,92,8.032,1904,2056,8.031,FALSE,4.02,4.012,0.008,FALSE,FALSE,NA,88.3,88.3,88.3,0,17,0,0,5,2502.3,625.58,,Idle,0,20,FALSE,5,TRUE,6,Go Home,FALSE,FALSE,FALSE,FALSE,FALSE,FALSE,FALSE,FALSE,FALSE,FALSE,FALSE,FALSE,6.974143363,79.91426209,48.5,100.3,328,TRUE,1,1,FALSE,FALSE,FALSE,FALSE,,TRUE,FALSE,FALSE,Course Lock,49.2,,16.4,Calm,33,,1.12.8,Mavic Mini,1SDCH7G0169R0K,1SFLH6Q0AB03DJ,1SRCH7F014TAHX,1U5X071EXP6C9Y,86.9,0.5,26.2,8.914205,3.35541,0,0,Mavic Mini,1SDCH7G0169R0K,1SFLH6Q0AB03DJ,1SRCH7F014TAHX,1U5X071EXP6C9Y,DJI Fly,,1.12.8,94656A56-0E66-D943-5B16-4755D9D9559B,1SDCH7G0169R0K,,,,,,,,,
2/22/2024,14:27.8,1m 25.4s,85.4,6.974223522,79.91415497,0,0,0.3,50,0.1,0,0,0,0,0,0,0,0,5.2,2.2,-58.4,301.6,,Starting Motors,Drop Calibration,Takeoff (RC Assisted),12,4,TRUE,,Mavic Mini,TRUE,FALSE,,Smart,RC,TRUE,TRUE,FALSE,,,TRUE,,FALSE,FALSE,FALSE,FALSE,FALSE,FALSE,FALSE,FALSE,FALSE,FALSE,0,Follow Yaw,-2.5,0,-41.9,318.1,FALSE,FALSE,FALSE,FALSE,FALSE,FALSE,,TRUE,Normal,,100,1024,1024,1024,1024,2,FALSE,FALSE,FALSE,FALSE,FALSE,0,FALSE,FALSE,FALSE,FALSE,92,8.032,1904,2056,8.031,FALSE,4.02,4.012,0.008,FALSE,FALSE,NA,88.3,88.3,88.3,0,17,0,0,5,2502.3,625.58,,Idle,0,20,FALSE,5,TRUE,6,Go Home,FALSE,FALSE,FALSE,FALSE,FALSE,FALSE,FALSE,FALSE,FALSE,FALSE,FALSE,FALSE,6.974143363,79.91426209,48.5,100.3,328,TRUE,1,1,FALSE,FALSE,FALSE,FALSE,,TRUE,FALSE,FALSE,Course Lock,49.2,,16.4,Calm,33,,1.12.8,Mavic Mini,1SDCH7G0169R0K,1SFLH6Q0AB03DJ,1SRCH7F014TAHX,1U5X071EXP6C9Y,86.9,0.5,26.2,8.914205,3.35541,0,0,Mavic Mini,1SDCH7G0169R0K,1SFLH6Q0AB03DJ,1SRCH7F014TAHX,1U5X071EXP6C9Y,DJI Fly,,1.12.8,94656A56-0E66-D943-5B16-4755D9D9559B,1SDCH7G0169R0K,,,,,,,,,
2/22/2024,14:27.9,1m 25.5s,85.5,6.974223562,79.91415505,0,0,0.3,50,0.2,0,0,0,0,0,0,0,0,5.3,2.4,-58.2,301.8,,Starting Motors,Drop Calibration,Takeoff (RC Assisted),12,4,TRUE,,Mavic Mini,TRUE,FALSE,,Smart,RC,TRUE,TRUE,FALSE,,,TRUE,,FALSE,FALSE,FALSE,FALSE,FALSE,FALSE,FALSE,FALSE,FALSE,FALSE,0,Follow Yaw,-2.5,0,-41.9,318.1,FALSE,FALSE,FALSE,FALSE,FALSE,FALSE,,TRUE,Normal,,100,1024,1024,1024,1024,2,FALSE,FALSE,FALSE,FALSE,FALSE,0,FALSE,FALSE,FALSE,FALSE,92,8.032,1904,2056,8.031,FALSE,4.02,4.012,0.008,FALSE,FALSE,NA,88.3,88.3,88.3,0,17,0,0,5,2502.3,625.58,,Idle,0,20,FALSE,5,TRUE,6,Go Home,FALSE,FALSE,FALSE,FALSE,FALSE,FALSE,FALSE,FALSE,FALSE,FALSE,FALSE,FALSE,6.974143363,79.91426209,48.5,100.3,328,TRUE,1,1,FALSE,FALSE,FALSE,FALSE,,TRUE,FALSE,FALSE,Course Lock,49.2,,16.4,Calm,33,,1.12.8,Mavic Mini,1SDCH7G0169R0K,1SFLH6Q0AB03DJ,1SRCH7F014TAHX,1U5X071EXP6C9Y,86.9,0.5,26.2,8.914205,3.35541,0,0,Mavic Mini,1SDCH7G0169R0K,1SFLH6Q0AB03DJ,1SRCH7F014TAHX,1U5X071EXP6C9Y,DJI Fly,,1.12.8,94656A56-0E66-D943-5B16-4755D9D9559B,1SDCH7G0169R0K,,,,,,,,,
2/22/2024,14:28.0,1m 25.6s,85.6,6.974223596,79.91415512,0,0,0.3,50,0.2,0,0,0,0,0,0,0,0,5.2,2.3,-58.2,301.8,,Starting Motors,Drop Calibration,Takeoff (RC Assisted),12,4,TRUE,,Mavic Mini,TRUE,FALSE,,Smart,RC,TRUE,TRUE,FALSE,,,TRUE,,FALSE,FALSE,FALSE,FALSE,FALSE,FALSE,FALSE,FALSE,FALSE,FALSE,0,Follow Yaw,-2.5,0,-41.7,318.3,FALSE,FALSE,FALSE,FALSE,FALSE,FALSE,,TRUE,Normal,,100,1024,1024,1024,1024,2,FALSE,FALSE,FALSE,FALSE,FALSE,0,FALSE,FALSE,FALSE,FALSE,92,8.032,1904,2056,8.031,FALSE,4.02,4.012,0.008,FALSE,FALSE,NA,88.3,88.3,88.3,0,17,0,0,5,2502.3,625.58,,Idle,0,20,FALSE,5,TRUE,6,Go Home,FALSE,FALSE,FALSE,FALSE,FALSE,FALSE,FALSE,FALSE,FALSE,FALSE,FALSE,FALSE,6.974143363,79.91426209,48.5,100.3,328,TRUE,1,1,FALSE,FALSE,FALSE,FALSE,,TRUE,FALSE,FALSE,Course Lock,49.2,,16.4,Calm,33,,1.12.8,Mavic Mini,1SDCH7G0169R0K,1SFLH6Q0AB03DJ,1SRCH7F014TAHX,1U5X071EXP6C9Y,86.9,0.5,26.2,8.914205,3.35541,0,0,Mavic Mini,1SDCH7G0169R0K,1SFLH6Q0AB03DJ,1SRCH7F014TAHX,1U5X071EXP6C9Y,DJI Fly,,1.12.8,94656A56-0E66-D943-5B16-4755D9D9559B,1SDCH7G0169R0K,,,,,,,,,
2/22/2024,14:28.1,1m 25.7s,85.7,6.974223598,79.91415527,0,0,0.3,50,0.3,0,0,0,0,0,0,0,0,5.2,2.3,-58.1,301.9,,Starting Motors,Drop Calibration,Takeoff (RC Assisted),12,4,TRUE,,Mavic Mini,TRUE,FALSE,,Smart,RC,TRUE,TRUE,FALSE,,,TRUE,,FALSE,FALSE,FALSE,FALSE,FALSE,FALSE,FALSE,FALSE,FALSE,FALSE,0,Follow Yaw,-2.5,0,-41.7,318.3,FALSE,FALSE,FALSE,FALSE,FALSE,FALSE,,TRUE,Normal,,100,1024,1024,1024,1024,2,FALSE,FALSE,FALSE,FALSE,FALSE,0,FALSE,FALSE,FALSE,FALSE,92,8.032,1904,2056,8.031,FALSE,4.02,4.012,0.008,FALSE,FALSE,NA,88.3,88.3,88.3,0,17,0,0,5,2502.3,625.58,,Idle,0,20,FALSE,5,TRUE,6,Go Home,FALSE,FALSE,FALSE,FALSE,FALSE,FALSE,FALSE,FALSE,FALSE,FALSE,FALSE,FALSE,6.974143363,79.91426209,48.5,100.3,328,TRUE,1,1,FALSE,FALSE,FALSE,FALSE,,TRUE,FALSE,FALSE,Course Lock,49.2,,16.4,Calm,33,,1.12.8,Mavic Mini,1SDCH7G0169R0K,1SFLH6Q0AB03DJ,1SRCH7F014TAHX,1U5X071EXP6C9Y,86.9,0.5,26.2,8.914205,3.35541,0,0,Mavic Mini,1SDCH7G0169R0K,1SFLH6Q0AB03DJ,1SRCH7F014TAHX,1U5X071EXP6C9Y,DJI Fly,,1.12.8,94656A56-0E66-D943-5B16-4755D9D9559B,1SDCH7G0169R0K,,,,,,,,,
2/22/2024,14:28.2,1m 25.8s,85.8,6.974223578,79.91415534,0,0,0.3,50,0.3,0,0,0,0,0,0,0,0,5.2,2.2,-58.1,301.9,,Starting Motors,Drop Calibration,Takeoff (RC Assisted),12,4,TRUE,,Mavic Mini,TRUE,FALSE,,Smart,RC,TRUE,TRUE,FALSE,,,TRUE,,FALSE,FALSE,FALSE,FALSE,FALSE,FALSE,FALSE,FALSE,FALSE,FALSE,0,Follow Yaw,-2.5,0,-41.7,318.3,FALSE,FALSE,FALSE,FALSE,FALSE,FALSE,,TRUE,Normal,,100,1024,1024,1024,1024,2,FALSE,FALSE,FALSE,FALSE,FALSE,0,FALSE,FALSE,FALSE,FALSE,92,8.032,1904,2056,8.031,FALSE,4.02,4.012,0.008,FALSE,FALSE,NA,88.3,88.3,88.3,0,17,0,0,5,2502.3,625.58,,Idle,0,20,FALSE,5,TRUE,6,Go Home,FALSE,FALSE,FALSE,FALSE,FALSE,FALSE,FALSE,FALSE,FALSE,FALSE,FALSE,FALSE,6.974143363,79.91426209,48.4,100.3,328,TRUE,1,1,FALSE,FALSE,FALSE,FALSE,,TRUE,FALSE,FALSE,Course Lock,49.2,,16.4,Calm,33,,1.12.8,Mavic Mini,1SDCH7G0169R0K,1SFLH6Q0AB03DJ,1SRCH7F014TAHX,1U5X071EXP6C9Y,86.9,0.5,26.2,8.914205,3.35541,0,0,Mavic Mini,1SDCH7G0169R0K,1SFLH6Q0AB03DJ,1SRCH7F014TAHX,1U5X071EXP6C9Y,DJI Fly,,1.12.8,94656A56-0E66-D943-5B16-4755D9D9559B,1SDCH7G0169R0K,,,,,,,,,
2/22/2024,14:28.3,1m 25.9s,85.9,6.974223577,79.91415545,0,0,0.3,50,0.3,0,0,0,0,0,0,0,0,5.2,2.2,-58.2,301.8,,Starting Motors,Drop Calibration,Takeoff (RC Assisted),12,4,TRUE,,Mavic Mini,TRUE,FALSE,,Smart,RC,TRUE,TRUE,FALSE,,,TRUE,,FALSE,FALSE,FALSE,FALSE,FALSE,FALSE,FALSE,FALSE,FALSE,FALSE,0,Follow Yaw,-2.5,0,-41.6,318.4,FALSE,FALSE,FALSE,FALSE,FALSE,FALSE,,TRUE,Normal,,100,1024,1024,1024,1024,2,FALSE,FALSE,FALSE,FALSE,FALSE,0,FALSE,FALSE,FALSE,FALSE,92,8.032,1904,2056,8.031,FALSE,4.02,4.012,0.008,FALSE,FALSE,NA,88.3,88.3,88.3,0,17,0,0,5,2502.3,625.58,,Idle,0,20,FALSE,5,TRUE,6,Go Home,FALSE,FALSE,FALSE,FALSE,FALSE,FALSE,FALSE,FALSE,FALSE,FALSE,FALSE,FALSE,6.974143363,79.91426209,48.4,100.3,328,TRUE,1,1,FALSE,FALSE,FALSE,FALSE,,TRUE,FALSE,FALSE,Course Lock,49.2,,16.4,Calm,33,,1.12.8,Mavic Mini,1SDCH7G0169R0K,1SFLH6Q0AB03DJ,1SRCH7F014TAHX,1U5X071EXP6C9Y,86.9,0.5,26.2,8.914205,3.35541,0,0,Mavic Mini,1SDCH7G0169R0K,1SFLH6Q0AB03DJ,1SRCH7F014TAHX,1U5X071EXP6C9Y,DJI Fly,,1.12.8,94656A56-0E66-D943-5B16-4755D9D9559B,1SDCH7G0169R0K,,,,,,,,,
2/22/2024,14:28.3,1m 26.0s,86,6.97422357,79.91415554,0,0,0.3,50,0.4,0,0,0,0,0,0,0,0,5.3,2.3,-58.2,301.8,,Manual Takeoff,Drop Calibration,Takeoff (RC Assisted),12,4,TRUE,,Mavic Mini,TRUE,FALSE,,Smart,RC,TRUE,TRUE,FALSE,,,TRUE,,FALSE,FALSE,FALSE,FALSE,FALSE,FALSE,FALSE,FALSE,FALSE,FALSE,0,Follow Yaw,-2.5,0,-41.6,318.4,FALSE,FALSE,FALSE,FALSE,FALSE,FALSE,,TRUE,Normal,,100,1024,1024,1024,1024,2,FALSE,FALSE,FALSE,FALSE,FALSE,0,FALSE,FALSE,FALSE,FALSE,92,7.979,1904,2056,8.035,FALSE,3.99,3.989,0.008,FALSE,FALSE,NA,88.3,88.3,88.3,0,17,0,0,5,2502.3,625.58,,Idle,0,20,FALSE,5,TRUE,6,Go Home,FALSE,FALSE,FALSE,FALSE,FALSE,FALSE,FALSE,FALSE,FALSE,FALSE,FALSE,FALSE,6.974143363,79.91426209,48.4,100.3,328,TRUE,1,1,FALSE,FALSE,FALSE,FALSE,,TRUE,FALSE,FALSE,Course Lock,49.2,,16.4,Calm,33,,1.12.8,Mavic Mini,1SDCH7G0169R0K,1SFLH6Q0AB03DJ,1SRCH7F014TAHX,1U5X071EXP6C9Y,86.9,0.5,26.2,8.914205,3.35541,0,0,Mavic Mini,1SDCH7G0169R0K,1SFLH6Q0AB03DJ,1SRCH7F014TAHX,1U5X071EXP6C9Y,DJI Fly,,1.12.8,94656A56-0E66-D943-5B16-4755D9D9559B,1SDCH7G0169R0K,,,,,,,,Flight mode changed to Manual Takeoff.,
2/22/2024,14:28.4,1m 26.1s,86.1,6.974223527,79.91415555,0,0,0.3,50,0.4,0,0,0,0,0,0,0,0,5.3,2.2,-58.1,301.9,,Manual Takeoff,Drop Calibration,Takeoff (RC Assisted),12,4,TRUE,,Mavic Mini,TRUE,FALSE,,Smart,RC,TRUE,TRUE,FALSE,,,TRUE,,FALSE,FALSE,FALSE,FALSE,FALSE,FALSE,FALSE,FALSE,FALSE,FALSE,0,Follow Yaw,-2.5,0,-41.6,318.4,FALSE,FALSE,FALSE,FALSE,FALSE,FALSE,,TRUE,Normal,,100,1024,1024,1024,1024,2,FALSE,FALSE,FALSE,FALSE,FALSE,0,FALSE,FALSE,FALSE,FALSE,92,7.979,1904,2056,8.035,FALSE,3.99,3.989,0.008,FALSE,FALSE,NA,88.3,88.3,88.3,0,17,0,0,5,2502.3,625.58,,Idle,0,20,FALSE,5,TRUE,6,Go Home,FALSE,FALSE,FALSE,FALSE,FALSE,FALSE,FALSE,FALSE,FALSE,FALSE,FALSE,FALSE,6.974143363,79.91426209,48.4,100.3,328,TRUE,1,1,FALSE,FALSE,FALSE,FALSE,,TRUE,FALSE,FALSE,Course Lock,49.2,,16.4,Calm,33,,1.12.8,Mavic Mini,1SDCH7G0169R0K,1SFLH6Q0AB03DJ,1SRCH7F014TAHX,1U5X071EXP6C9Y,86.9,0.5,26.2,8.914205,3.35541,0,0,Mavic Mini,1SDCH7G0169R0K,1SFLH6Q0AB03DJ,1SRCH7F014TAHX,1U5X071EXP6C9Y,DJI Fly,,1.12.8,94656A56-0E66-D943-5B16-4755D9D9559B,1SDCH7G0169R0K,,,,,,,,,
2/22/2024,14:28.5,1m 26.2s,86.2,6.974223413,79.91415553,0,0,0.3,50,0.4,0,0,0,0,0,0,0,0,5.3,2.2,-58.1,301.9,,Manual Takeoff,Drop Calibration,Takeoff (RC Assisted),12,4,TRUE,,Mavic Mini,TRUE,FALSE,,Smart,RC,TRUE,TRUE,FALSE,,,TRUE,,FALSE,FALSE,FALSE,FALSE,FALSE,FALSE,FALSE,FALSE,FALSE,FALSE,0,Follow Yaw,-2.5,0,-41.6,318.4,FALSE,FALSE,FALSE,FALSE,FALSE,FALSE,,TRUE,Normal,,100,1024,1024,1024,1024,2,FALSE,FALSE,FALSE,FALSE,FALSE,0,FALSE,FALSE,FALSE,FALSE,92,7.979,1904,2056,8.035,FALSE,3.99,3.989,0.008,FALSE,FALSE,NA,88.3,88.3,88.3,0,17,0,0,5,2502.3,625.58,,Idle,0,20,FALSE,5,TRUE,6,Go Home,FALSE,FALSE,FALSE,FALSE,FALSE,FALSE,FALSE,FALSE,FALSE,FALSE,FALSE,FALSE,6.974143363,79.91426209,48.3,100.3,328,TRUE,1,1,FALSE,FALSE,FALSE,FALSE,,TRUE,FALSE,FALSE,Course Lock,49.2,,16.4,Calm,33,,1.12.8,Mavic Mini,1SDCH7G0169R0K,1SFLH6Q0AB03DJ,1SRCH7F014TAHX,1U5X071EXP6C9Y,86.9,0.5,26.2,8.914205,3.35541,0,0,Mavic Mini,1SDCH7G0169R0K,1SFLH6Q0AB03DJ,1SRCH7F014TAHX,1U5X071EXP6C9Y,DJI Fly,,1.12.8,94656A56-0E66-D943-5B16-4755D9D9559B,1SDCH7G0169R0K,,,,,,,,,
2/22/2024,14:28.6,1m 26.3s,86.3,6.974223404,79.91415551,0,0,0.3,50,0.4,0,0,0,0,0,0,0,0,5.3,2.3,-58.1,301.9,,Manual Takeoff,Drop Calibration,Takeoff (RC Assisted),12,4,TRUE,,Mavic Mini,TRUE,FALSE,,Smart,RC,TRUE,TRUE,FALSE,,,TRUE,,FALSE,FALSE,FALSE,FALSE,FALSE,FALSE,FALSE,FALSE,FALSE,FALSE,0,Follow Yaw,-2.5,0,-41.6,318.4,FALSE,FALSE,FALSE,FALSE,FALSE,FALSE,,TRUE,Normal,,100,1024,1024,1024,1024,2,FALSE,FALSE,FALSE,FALSE,FALSE,0,FALSE,FALSE,FALSE,FALSE,92,7.979,1904,2056,8.035,FALSE,3.99,3.989,0.008,FALSE,FALSE,NA,88.3,88.3,88.3,0,17,0,0,5,2502.3,625.58,,Idle,0,20,FALSE,5,TRUE,6,Go Home,FALSE,FALSE,FALSE,FALSE,FALSE,FALSE,FALSE,FALSE,FALSE,FALSE,FALSE,FALSE,6.974143363,79.91426209,48.3,100.3,328,TRUE,1,1,FALSE,FALSE,FALSE,FALSE,,TRUE,FALSE,FALSE,Course Lock,49.2,,16.4,Calm,33,,1.12.8,Mavic Mini,1SDCH7G0169R0K,1SFLH6Q0AB03DJ,1SRCH7F014TAHX,1U5X071EXP6C9Y,86.9,0.5,26.2,8.914205,3.35541,0,0,Mavic Mini,1SDCH7G0169R0K,1SFLH6Q0AB03DJ,1SRCH7F014TAHX,1U5X071EXP6C9Y,DJI Fly,,1.12.8,94656A56-0E66-D943-5B16-4755D9D9559B,1SDCH7G0169R0K,,,,,,,,,
2/22/2024,14:28.7,1m 26.4s,86.4,6.974223391,79.91415549,0,0,0.3,50,0.4,0,0,0,0,0,0,0,0,5.3,2.2,-58.1,301.9,,Manual Takeoff,Drop Calibration,Takeoff (RC Assisted),12,4,TRUE,,Mavic Mini,TRUE,FALSE,,Smart,RC,TRUE,TRUE,FALSE,,,TRUE,,FALSE,FALSE,FALSE,FALSE,FALSE,FALSE,FALSE,FALSE,FALSE,FALSE,0,Follow Yaw,-2.5,0,-41.6,318.4,FALSE,FALSE,FALSE,FALSE,FALSE,FALSE,,TRUE,Normal,,100,1024,1024,1024,1024,2,FALSE,FALSE,FALSE,FALSE,FALSE,0,FALSE,FALSE,FALSE,FALSE,92,7.979,1904,2056,8.035,FALSE,3.99,3.989,0.008,FALSE,FALSE,NA,88.3,88.3,88.3,0,17,0,0,5,2502.3,625.58,,Idle,0,20,FALSE,5,TRUE,6,Go Home,FALSE,FALSE,FALSE,FALSE,FALSE,FALSE,FALSE,FALSE,FALSE,FALSE,FALSE,FALSE,6.974143363,79.91426209,48.3,100.3,328,TRUE,1,1,FALSE,FALSE,FALSE,FALSE,,TRUE,FALSE,FALSE,Course Lock,49.2,,16.4,Calm,33,,1.12.8,Mavic Mini,1SDCH7G0169R0K,1SFLH6Q0AB03DJ,1SRCH7F014TAHX,1U5X071EXP6C9Y,86.9,0.5,26.2,8.914205,3.35541,0,0,Mavic Mini,1SDCH7G0169R0K,1SFLH6Q0AB03DJ,1SRCH7F014TAHX,1U5X071EXP6C9Y,DJI Fly,,1.12.8,94656A56-0E66-D943-5B16-4755D9D9559B,1SDCH7G0169R0K,,,,,,,,,
2/22/2024,14:28.8,1m 26.5s,86.5,6.974223347,79.91415552,0,0,0.3,50,0.5,0,0,0,0,0,0,0,0,5.3,2.2,-58.1,301.9,,Manual Takeoff,Drop Calibration,Takeoff (RC Assisted),12,4,TRUE,,Mavic Mini,TRUE,FALSE,,Smart,RC,TRUE,TRUE,FALSE,,,TRUE,,FALSE,FALSE,FALSE,FALSE,FALSE,FALSE,FALSE,FALSE,FALSE,FALSE,0,Follow Yaw,-2.5,0,-41.6,318.4,FALSE,FALSE,FALSE,FALSE,FALSE,FALSE,,TRUE,Normal,,100,1024,1024,1024,1024,2,FALSE,FALSE,FALSE,FALSE,FALSE,0,FALSE,FALSE,FALSE,FALSE,92,7.979,1904,2056,8.035,FALSE,3.99,3.989,0.008,FALSE,FALSE,NA,88.3,88.3,88.3,0,17,0,0,5,2502.3,625.58,,Idle,0,20,FALSE,5,TRUE,6,Go Home,FALSE,FALSE,FALSE,FALSE,FALSE,FALSE,FALSE,FALSE,FALSE,FALSE,FALSE,FALSE,6.974143363,79.91426209,48.3,100.3,328,TRUE,1,1,FALSE,FALSE,FALSE,FALSE,,TRUE,FALSE,FALSE,Course Lock,49.2,,16.4,Calm,33,,1.12.8,Mavic Mini,1SDCH7G0169R0K,1SFLH6Q0AB03DJ,1SRCH7F014TAHX,1U5X071EXP6C9Y,86.9,0.5,26.2,8.914205,3.35541,0,0,Mavic Mini,1SDCH7G0169R0K,1SFLH6Q0AB03DJ,1SRCH7F014TAHX,1U5X071EXP6C9Y,DJI Fly,,1.12.8,94656A56-0E66-D943-5B16-4755D9D9559B,1SDCH7G0169R0K,,,,,,,,,
2/22/2024,14:28.9,1m 26.6s,86.6,6.974223249,79.91415544,0,0,0.3,50,0.5,0,0,0,0,0,0,0,0,5.3,2.2,-58.1,301.9,,Manual Takeoff,Drop Calibration,Takeoff (RC Assisted),12,4,TRUE,,Mavic Mini,TRUE,FALSE,,Smart,RC,TRUE,TRUE,FALSE,,,TRUE,,FALSE,FALSE,FALSE,FALSE,FALSE,FALSE,FALSE,FALSE,FALSE,FALSE,0,Follow Yaw,-2.5,0,-41.6,318.4,FALSE,FALSE,FALSE,FALSE,FALSE,FALSE,,TRUE,Normal,,100,1024,1024,1024,1024,2,FALSE,FALSE,FALSE,FALSE,FALSE,0,FALSE,FALSE,FALSE,FALSE,92,7.979,1904,2056,8.035,FALSE,3.99,3.989,0.008,FALSE,FALSE,NA,88.3,88.3,88.3,0,17,0,0,5,2502.3,625.58,,Idle,0,20,FALSE,5,TRUE,6,Go Home,FALSE,FALSE,FALSE,FALSE,FALSE,FALSE,FALSE,FALSE,FALSE,FALSE,FALSE,FALSE,6.974143363,79.91426209,48.3,100.3,328,TRUE,1,1,FALSE,FALSE,FALSE,FALSE,,TRUE,FALSE,FALSE,Course Lock,49.2,,16.4,Calm,33,,1.12.8,Mavic Mini,1SDCH7G0169R0K,1SFLH6Q0AB03DJ,1SRCH7F014TAHX,1U5X071EXP6C9Y,86.9,0.5,26.2,8.914205,3.35541,0,0,Mavic Mini,1SDCH7G0169R0K,1SFLH6Q0AB03DJ,1SRCH7F014TAHX,1U5X071EXP6C9Y,DJI Fly,,1.12.8,94656A56-0E66-D943-5B16-4755D9D9559B,1SDCH7G0169R0K,,,,,,,,,
2/22/2024,14:29.0,1m 26.7s,86.7,6.974223189,79.91415549,0,0,0.3,50,0.5,0,0,0,0,0,0,0,0,5.3,2.3,-58.1,301.9,,Manual Takeoff,Drop Calibration,Takeoff (RC Assisted),12,4,TRUE,,Mavic Mini,TRUE,FALSE,,Smart,RC,TRUE,TRUE,FALSE,,,TRUE,,FALSE,FALSE,FALSE,FALSE,FALSE,FALSE,FALSE,FALSE,FALSE,FALSE,0,Follow Yaw,-2.5,0,-41.6,318.4,FALSE,FALSE,FALSE,FALSE,FALSE,FALSE,,TRUE,Normal,,100,1024,1024,1024,1024,2,FALSE,FALSE,FALSE,FALSE,FALSE,0,FALSE,FALSE,FALSE,FALSE,92,7.979,1904,2056,8.035,FALSE,3.99,3.989,0.008,FALSE,FALSE,NA,88.3,88.3,88.3,0,17,0,0,5,2502.3,625.58,,Idle,0,20,FALSE,5,TRUE,6,Go Home,FALSE,FALSE,FALSE,FALSE,FALSE,FALSE,FALSE,FALSE,FALSE,FALSE,FALSE,FALSE,6.974143363,79.91426209,48.3,100.3,328,TRUE,1,1,FALSE,FALSE,FALSE,FALSE,,TRUE,FALSE,FALSE,Course Lock,49.2,,16.4,Calm,33,,1.12.8,Mavic Mini,1SDCH7G0169R0K,1SFLH6Q0AB03DJ,1SRCH7F014TAHX,1U5X071EXP6C9Y,86.9,0.5,26.2,8.914205,3.35541,0,0,Mavic Mini,1SDCH7G0169R0K,1SFLH6Q0AB03DJ,1SRCH7F014TAHX,1U5X071EXP6C9Y,DJI Fly,,1.12.8,94656A56-0E66-D943-5B16-4755D9D9559B,1SDCH7G0169R0K,,,,,,,,,
2/22/2024,14:29.1,1m 26.8s,86.8,6.974223131,79.91415554,0,0,0.3,50,0.6,0,0,0,0,0,0,0,0,5.3,2.3,-58.1,301.9,,Manual Takeoff,Drop Calibration,Takeoff (RC Assisted),12,4,TRUE,,Mavic Mini,TRUE,FALSE,,Smart,RC,TRUE,TRUE,FALSE,,,TRUE,,FALSE,FALSE,FALSE,FALSE,FALSE,FALSE,FALSE,FALSE,FALSE,FALSE,0,Follow Yaw,-2.5,0,-41.6,318.4,FALSE,FALSE,FALSE,FALSE,FALSE,FALSE,,TRUE,Normal,,100,1024,1024,1024,1024,2,FALSE,FALSE,FALSE,FALSE,FALSE,0,FALSE,FALSE,FALSE,FALSE,92,7.979,1904,2056,8.035,FALSE,3.99,3.989,0.008,FALSE,FALSE,NA,88.3,88.3,88.3,0,17,0,0,5,2502.3,625.58,,Idle,0,20,FALSE,5,TRUE,6,Go Home,FALSE,FALSE,FALSE,FALSE,FALSE,FALSE,FALSE,FALSE,FALSE,FALSE,FALSE,FALSE,6.974143363,79.91426209,48.3,100.3,328,TRUE,1,1,FALSE,FALSE,FALSE,FALSE,,TRUE,FALSE,FALSE,Course Lock,49.2,,16.4,Calm,33,,1.12.8,Mavic Mini,1SDCH7G0169R0K,1SFLH6Q0AB03DJ,1SRCH7F014TAHX,1U5X071EXP6C9Y,86.9,0.5,26.2,8.914205,3.35541,0,0,Mavic Mini,1SDCH7G0169R0K,1SFLH6Q0AB03DJ,1SRCH7F014TAHX,1U5X071EXP6C9Y,DJI Fly,,1.12.8,94656A56-0E66-D943-5B16-4755D9D9559B,1SDCH7G0169R0K,,,,,,,,,
2/22/2024,14:29.3,1m 26.9s,86.9,6.97422307,79.9141556,0,0,0.3,50,0.6,0,0,0,0,0,0,0,0,5.3,2.2,-58.1,301.9,,Manual Takeoff,Drop Calibration,Takeoff (RC Assisted),12,4,TRUE,,Mavic Mini,TRUE,FALSE,,Smart,RC,TRUE,TRUE,FALSE,,,TRUE,,FALSE,FALSE,FALSE,FALSE,FALSE,FALSE,FALSE,FALSE,FALSE,FALSE,0,Follow Yaw,-2.5,0,-41.6,318.4,FALSE,FALSE,FALSE,FALSE,FALSE,FALSE,,TRUE,Normal,,100,1024,1024,1024,1024,2,FALSE,FALSE,FALSE,FALSE,FALSE,0,FALSE,FALSE,FALSE,FALSE,92,7.979,1904,2056,8.035,FALSE,3.99,3.989,0.008,FALSE,FALSE,NA,88.3,88.3,88.3,0,17,0,0,5,2502.3,625.58,,Idle,0,20,FALSE,5,TRUE,6,Go Home,FALSE,FALSE,FALSE,FALSE,FALSE,FALSE,FALSE,FALSE,FALSE,FALSE,FALSE,FALSE,6.974143363,79.91426209,48.2,100.3,328,TRUE,1,1,FALSE,FALSE,FALSE,FALSE,,TRUE,FALSE,FALSE,Course Lock,49.2,,16.4,Calm,33,,1.12.8,Mavic Mini,1SDCH7G0169R0K,1SFLH6Q0AB03DJ,1SRCH7F014TAHX,1U5X071EXP6C9Y,86.9,0.5,26.2,8.914205,3.35541,0,0,Mavic Mini,1SDCH7G0169R0K,1SFLH6Q0AB03DJ,1SRCH7F014TAHX,1U5X071EXP6C9Y,DJI Fly,,1.12.8,94656A56-0E66-D943-5B16-4755D9D9559B,1SDCH7G0169R0K,,,,,6.974208467,79.91418131,5,,
2/22/2024,14:29.4,1m 27.0s,87,6.974222932,79.91415572,0,0,0.3,50,0.7,0,0,0,0,0,0,0,0,5.3,2.2,-58.1,301.9,,Manual Takeoff,Drop Calibration,Takeoff (RC Assisted),12,4,TRUE,,Mavic Mini,TRUE,FALSE,,Smart,RC,TRUE,TRUE,FALSE,,,TRUE,,FALSE,FALSE,FALSE,FALSE,FALSE,FALSE,FALSE,FALSE,FALSE,FALSE,0,Follow Yaw,-2.5,0,-41.6,318.4,FALSE,FALSE,FALSE,FALSE,FALSE,FALSE,,TRUE,Normal,,100,1024,1024,1024,1024,2,FALSE,FALSE,FALSE,FALSE,FALSE,0,FALSE,FALSE,FALSE,FALSE,92,7.979,1904,2056,8.012,FALSE,3.99,3.989,0.008,FALSE,FALSE,NA,88.3,88.3,88.3,0,17,0,0,5,2539.1,634.78,,Idle,0,20,FALSE,5,TRUE,6,Go Home,FALSE,FALSE,FALSE,FALSE,FALSE,FALSE,FALSE,FALSE,FALSE,FALSE,FALSE,FALSE,6.974143363,79.91426209,48.2,100.3,328,TRUE,1,1,FALSE,FALSE,FALSE,FALSE,,TRUE,FALSE,FALSE,Course Lock,49.2,,16.4,Calm,33,,1.12.8,Mavic Mini,1SDCH7G0169R0K,1SFLH6Q0AB03DJ,1SRCH7F014TAHX,1U5X071EXP6C9Y,86.9,0.5,26.2,8.914205,3.35541,0,0,Mavic Mini,1SDCH7G0169R0K,1SFLH6Q0AB03DJ,1SRCH7F014TAHX,1U5X071EXP6C9Y,DJI Fly,,1.12.8,94656A56-0E66-D943-5B16-4755D9D9559B,1SDCH7G0169R0K,,,,,6.974208467,79.91418131,5,,
2/22/2024,14:29.5,1m 27.1s,87.1,6.974222927,79.91415567,0,0,0.3,50,0.7,0,0,0,0,0,0,0,0,5.3,2.2,-58.1,301.9,,Manual Takeoff,Drop Calibration,Takeoff (RC Assisted),12,4,TRUE,,Mavic Mini,TRUE,FALSE,,Smart,RC,TRUE,TRUE,FALSE,,,TRUE,,FALSE,FALSE,FALSE,FALSE,FALSE,FALSE,FALSE,FALSE,FALSE,FALSE,0,Follow Yaw,-2.5,0,-41.6,318.4,FALSE,FALSE,FALSE,FALSE,FALSE,FALSE,,TRUE,Normal,,100,1024,1024,1024,1024,2,FALSE,FALSE,FALSE,FALSE,FALSE,0,FALSE,FALSE,FALSE,FALSE,92,8.02,1903,2056,8.012,FALSE,4.014,4.006,0.008,FALSE,FALSE,NA,88.3,88.3,88.3,0,17,0,0,5,2539.1,634.78,,Idle,0,20,FALSE,5,TRUE,6,Go Home,FALSE,FALSE,FALSE,FALSE,FALSE,FALSE,FALSE,FALSE,FALSE,FALSE,FALSE,FALSE,6.974143363,79.91426209,48.2,100.3,328,TRUE,1,1,FALSE,FALSE,FALSE,FALSE,,TRUE,FALSE,FALSE,Course Lock,49.2,,16.4,Calm,33,,1.12.8,Mavic Mini,1SDCH7G0169R0K,1SFLH6Q0AB03DJ,1SRCH7F014TAHX,1U5X071EXP6C9Y,86.9,0.5,26.2,8.914205,3.35541,0,0,Mavic Mini,1SDCH7G0169R0K,1SFLH6Q0AB03DJ,1SRCH7F014TAHX,1U5X071EXP6C9Y,DJI Fly,,1.12.8,94656A56-0E66-D943-5B16-4755D9D9559B,1SDCH7G0169R0K,,,,,6.974208467,79.91418131,5,,
2/22/2024,14:29.6,1m 27.2s,87.2,6.974222919,79.91415563,0,0,0.3,50,0.7,0,0,0,0,0,0,0,0,5.3,2.2,-58.1,301.9,,Manual Takeoff,Drop Calibration,Takeoff (RC Assisted),12,4,TRUE,,Mavic Mini,TRUE,FALSE,,Smart,RC,TRUE,TRUE,FALSE,,,TRUE,,FALSE,FALSE,FALSE,FALSE,FALSE,FALSE,FALSE,FALSE,FALSE,FALSE,0,Follow Yaw,-2.5,0,-41.6,318.4,FALSE,FALSE,FALSE,FALSE,FALSE,FALSE,,TRUE,Normal,,100,1024,1024,1024,1024,2,FALSE,FALSE,FALSE,FALSE,FALSE,0,FALSE,FALSE,FALSE,FALSE,92,8.02,1903,2056,8.012,FALSE,4.014,4.006,0.008,FALSE,FALSE,NA,88.3,88.3,88.3,0,17,0,0,5,2539.1,634.78,,Idle,0,20,FALSE,5,TRUE,6,Go Home,FALSE,FALSE,FALSE,FALSE,FALSE,FALSE,FALSE,FALSE,FALSE,FALSE,FALSE,FALSE,6.974143363,79.91426209,48.2,100.3,328,TRUE,1,1,FALSE,FALSE,FALSE,FALSE,,TRUE,FALSE,FALSE,Course Lock,49.2,,16.4,Calm,33,,1.12.8,Mavic Mini,1SDCH7G0169R0K,1SFLH6Q0AB03DJ,1SRCH7F014TAHX,1U5X071EXP6C9Y,86.9,0.5,26.2,8.914205,3.35541,0,0,Mavic Mini,1SDCH7G0169R0K,1SFLH6Q0AB03DJ,1SRCH7F014TAHX,1U5X071EXP6C9Y,DJI Fly,,1.12.8,94656A56-0E66-D943-5B16-4755D9D9559B,1SDCH7G0169R0K,,,,,6.974208467,79.91418131,5,,
2/22/2024,14:29.7,1m 27.3s,87.3,6.974222884,79.9141556,0,0,0.3,50,0.7,0,0,0,0,0,0,0,0,5.4,2.3,-58.1,301.9,,Manual Takeoff,Drop Calibration,Takeoff (RC Assisted),12,4,TRUE,,Mavic Mini,TRUE,FALSE,,Smart,RC,TRUE,TRUE,FALSE,,,TRUE,,FALSE,FALSE,FALSE,FALSE,FALSE,FALSE,FALSE,FALSE,FALSE,FALSE,0,Follow Yaw,-2.5,0,-41.6,318.4,FALSE,FALSE,FALSE,FALSE,FALSE,FALSE,,TRUE,Normal,,100,1024,1024,1024,1024,2,FALSE,FALSE,FALSE,FALSE,FALSE,0,FALSE,FALSE,FALSE,FALSE,92,8.02,1903,2056,8.012,FALSE,4.014,4.006,0.008,FALSE,FALSE,NA,88.3,88.3,88.3,0,17,0,0,5,2539.1,634.78,,Idle,0,20,FALSE,5,TRUE,6,Go Home,FALSE,FALSE,FALSE,FALSE,FALSE,FALSE,FALSE,FALSE,FALSE,FALSE,FALSE,FALSE,6.974143363,79.91426209,48.2,100.3,328,TRUE,1,1,FALSE,FALSE,FALSE,FALSE,,TRUE,FALSE,FALSE,Course Lock,49.2,,16.4,Calm,33,,1.12.8,Mavic Mini,1SDCH7G0169R0K,1SFLH6Q0AB03DJ,1SRCH7F014TAHX,1U5X071EXP6C9Y,86.9,0.5,26.2,8.914205,3.35541,0,0,Mavic Mini,1SDCH7G0169R0K,1SFLH6Q0AB03DJ,1SRCH7F014TAHX,1U5X071EXP6C9Y,DJI Fly,,1.12.8,94656A56-0E66-D943-5B16-4755D9D9559B,1SDCH7G0169R0K,,,,,6.974208467,79.91418131,5,,
2/22/2024,14:29.7,1m 27.4s,87.4,6.974222888,79.9141554,0,0,0.3,50,0.8,0,0,0,0,0,0,0,0,5.3,2.3,-58.1,301.9,,Manual Takeoff,Drop Calibration,Takeoff (RC Assisted),12,4,TRUE,,Mavic Mini,TRUE,FALSE,,Smart,RC,TRUE,TRUE,FALSE,,,TRUE,,FALSE,FALSE,FALSE,FALSE,FALSE,FALSE,FALSE,FALSE,FALSE,FALSE,0,Follow Yaw,-2.5,0,-41.6,318.4,FALSE,FALSE,FALSE,FALSE,FALSE,FALSE,,TRUE,Normal,,100,1024,1024,1024,1024,2,FALSE,FALSE,FALSE,FALSE,FALSE,0,FALSE,FALSE,FALSE,FALSE,92,8.02,1903,2056,8.012,FALSE,4.014,4.006,0.008,FALSE,FALSE,NA,88.3,88.3,88.3,0,17,0,0,5,2539.1,634.78,,Idle,0,20,FALSE,5,TRUE,6,Go Home,FALSE,FALSE,FALSE,FALSE,FALSE,FALSE,FALSE,FALSE,FALSE,FALSE,FALSE,FALSE,6.974143363,79.91426209,48.3,100.3,328,TRUE,1,1,FALSE,FALSE,FALSE,FALSE,,TRUE,FALSE,FALSE,Course Lock,49.2,,16.4,Calm,33,,1.12.8,Mavic Mini,1SDCH7G0169R0K,1SFLH6Q0AB03DJ,1SRCH7F014TAHX,1U5X071EXP6C9Y,86.9,0.5,26.2,8.914205,3.35541,0,0,Mavic Mini,1SDCH7G0169R0K,1SFLH6Q0AB03DJ,1SRCH7F014TAHX,1U5X071EXP6C9Y,DJI Fly,,1.12.8,94656A56-0E66-D943-5B16-4755D9D9559B,1SDCH7G0169R0K,,,,,6.974208467,79.91418131,5,,
2/22/2024,14:29.9,1m 27.5s,87.5,6.974222836,79.91415544,0,0,0.3,50,0.8,0,0,0,0,0,0,0,0,5.3,2.2,-58.1,301.9,,Manual Takeoff,Drop Calibration,Takeoff (RC Assisted),12,4,TRUE,,Mavic Mini,TRUE,FALSE,,Smart,RC,TRUE,TRUE,FALSE,,,TRUE,,FALSE,FALSE,FALSE,FALSE,FALSE,FALSE,FALSE,FALSE,FALSE,FALSE,0,Follow Yaw,-2.5,0,-41.6,318.4,FALSE,FALSE,FALSE,FALSE,FALSE,FALSE,,TRUE,Normal,,100,1024,1024,1024,1024,2,FALSE,FALSE,FALSE,FALSE,FALSE,0,FALSE,FALSE,FALSE,FALSE,92,8.02,1903,2056,8.012,FALSE,4.014,4.006,0.008,FALSE,FALSE,NA,88.3,88.3,88.3,0,17,0,0,5,2539.1,634.78,,Idle,0,20,FALSE,5,TRUE,6,Go Home,FALSE,FALSE,FALSE,FALSE,FALSE,FALSE,FALSE,FALSE,FALSE,FALSE,FALSE,FALSE,6.974143363,79.91426209,48.2,100.3,328,TRUE,1,1,FALSE,FALSE,FALSE,FALSE,,TRUE,FALSE,FALSE,Course Lock,49.2,,16.4,Calm,33,,1.12.8,Mavic Mini,1SDCH7G0169R0K,1SFLH6Q0AB03DJ,1SRCH7F014TAHX,1U5X071EXP6C9Y,86.9,0.5,26.2,8.914205,3.35541,0,0,Mavic Mini,1SDCH7G0169R0K,1SFLH6Q0AB03DJ,1SRCH7F014TAHX,1U5X071EXP6C9Y,DJI Fly,,1.12.8,94656A56-0E66-D943-5B16-4755D9D9559B,1SDCH7G0169R0K,,,,,6.974208467,79.91418131,5,,
2/22/2024,14:30.0,1m 27.6s,87.6,6.974222793,79.91415547,0,0,0.3,50,0.8,0,0,0,0,0,0,0,0,5.3,2.2,-58.1,301.9,,Manual Takeoff,Drop Calibration,Takeoff (RC Assisted),12,4,TRUE,,Mavic Mini,TRUE,FALSE,,Smart,RC,TRUE,TRUE,FALSE,,,TRUE,,FALSE,FALSE,FALSE,FALSE,FALSE,FALSE,FALSE,FALSE,FALSE,FALSE,0,Follow Yaw,-2.5,0,-41.6,318.4,FALSE,FALSE,FALSE,FALSE,FALSE,FALSE,,TRUE,Normal,,100,1024,1024,1114,1024,2,FALSE,FALSE,FALSE,FALSE,FALSE,0,FALSE,FALSE,FALSE,FALSE,92,8.02,1903,2056,8.012,FALSE,4.014,4.006,0.008,FALSE,FALSE,NA,88.3,88.3,88.3,0,17,0,0,5,2539.1,634.78,,Idle,0,20,FALSE,5,TRUE,6,Go Home,FALSE,FALSE,FALSE,FALSE,FALSE,FALSE,FALSE,FALSE,FALSE,FALSE,FALSE,FALSE,6.974143363,79.91426209,48.2,100.3,328,TRUE,1,1,FALSE,FALSE,FALSE,FALSE,,TRUE,FALSE,FALSE,Course Lock,49.2,,16.4,Calm,33,,1.12.8,Mavic Mini,1SDCH7G0169R0K,1SFLH6Q0AB03DJ,1SRCH7F014TAHX,1U5X071EXP6C9Y,86.9,0.5,26.2,8.914205,3.35541,0,0,Mavic Mini,1SDCH7G0169R0K,1SFLH6Q0AB03DJ,1SRCH7F014TAHX,1U5X071EXP6C9Y,DJI Fly,,1.12.8,94656A56-0E66-D943-5B16-4755D9D9559B,1SDCH7G0169R0K,,,,,6.974208467,79.91418131,5,,
2/22/2024,14:30.1,1m 27.7s,87.7,6.974222788,79.91415543,0,0,0.3,50,0.8,0,0,0,0,0,0,0,0,5.3,2.2,-58.1,301.9,,Manual Takeoff,Drop Calibration,Takeoff (RC Assisted),12,4,TRUE,,Mavic Mini,TRUE,FALSE,,Smart,RC,TRUE,TRUE,FALSE,,,TRUE,,FALSE,FALSE,FALSE,FALSE,FALSE,FALSE,FALSE,FALSE,FALSE,FALSE,0,Follow Yaw,-2.5,0,-41.6,318.4,FALSE,FALSE,FALSE,FALSE,FALSE,FALSE,,TRUE,Normal,,100,1024,1024,1164,1024,2,FALSE,FALSE,FALSE,FALSE,FALSE,0,FALSE,FALSE,FALSE,FALSE,92,8.02,1903,2056,8.012,FALSE,4.014,4.006,0.008,FALSE,FALSE,NA,88.3,88.3,88.3,0,17,0,0,5,2539.1,634.78,,Idle,0,20,FALSE,5,TRUE,6,Go Home,FALSE,FALSE,FALSE,FALSE,FALSE,FALSE,FALSE,FALSE,FALSE,FALSE,FALSE,FALSE,6.974143363,79.91426209,48.2,100.3,328,TRUE,1,1,FALSE,FALSE,FALSE,FALSE,,TRUE,FALSE,FALSE,Course Lock,49.2,,16.4,Calm,33,,1.12.8,Mavic Mini,1SDCH7G0169R0K,1SFLH6Q0AB03DJ,1SRCH7F014TAHX,1U5X071EXP6C9Y,86.9,0.5,26.2,8.914205,3.35541,0,0,Mavic Mini,1SDCH7G0169R0K,1SFLH6Q0AB03DJ,1SRCH7F014TAHX,1U5X071EXP6C9Y,DJI Fly,,1.12.8,94656A56-0E66-D943-5B16-4755D9D9559B,1SDCH7G0169R0K,,,,,6.974208467,79.91418131,5,,
2/22/2024,14:30.1,1m 27.8s,87.8,6.974222787,79.9141554,0,0,0.3,50,0.8,0,0,0,0,0,0,0,0,5.3,2.2,-58.1,301.9,,Manual Takeoff,Drop Calibration,Takeoff (RC Assisted),12,4,TRUE,,Mavic Mini,TRUE,FALSE,,Smart,RC,TRUE,TRUE,FALSE,,,TRUE,,FALSE,FALSE,FALSE,FALSE,FALSE,FALSE,FALSE,FALSE,FALSE,FALSE,0,Follow Yaw,-2.5,0,-41.6,318.4,FALSE,FALSE,FALSE,FALSE,FALSE,FALSE,,TRUE,Normal,,100,1024,1024,1257,1024,2,FALSE,FALSE,FALSE,FALSE,FALSE,0,FALSE,FALSE,FALSE,FALSE,92,8.02,1903,2056,8.012,FALSE,4.014,4.006,0.008,FALSE,FALSE,NA,88.3,88.3,88.3,0,17,0,0,5,2539.1,634.78,,Idle,0,20,FALSE,5,TRUE,6,Go Home,FALSE,FALSE,FALSE,FALSE,FALSE,FALSE,FALSE,FALSE,FALSE,FALSE,FALSE,FALSE,6.974143363,79.91426209,48.2,100.3,328,TRUE,1,1,FALSE,FALSE,FALSE,FALSE,,TRUE,FALSE,FALSE,Course Lock,49.2,,16.4,Calm,33,,1.12.8,Mavic Mini,1SDCH7G0169R0K,1SFLH6Q0AB03DJ,1SRCH7F014TAHX,1U5X071EXP6C9Y,86.9,0.5,26.2,8.914205,3.35541,0,0,Mavic Mini,1SDCH7G0169R0K,1SFLH6Q0AB03DJ,1SRCH7F014TAHX,1U5X071EXP6C9Y,DJI Fly,,1.12.8,94656A56-0E66-D943-5B16-4755D9D9559B,1SDCH7G0169R0K,,,,,6.974208467,79.91418131,5,,
2/22/2024,14:30.2,1m 27.9s,87.9,6.974222882,79.91415533,0,0,0.3,50,0.9,0,0,0,0,0,0,0,0,5.3,2.3,-58.1,301.9,,Manual Takeoff,Drop Calibration,Takeoff (RC Assisted),12,4,TRUE,,Mavic Mini,TRUE,FALSE,,Smart,RC,TRUE,TRUE,FALSE,,,TRUE,,FALSE,FALSE,FALSE,FALSE,FALSE,FALSE,FALSE,FALSE,FALSE,FALSE,0,Follow Yaw,-2.5,0,-41.6,318.4,FALSE,FALSE,FALSE,FALSE,FALSE,FALSE,,TRUE,Normal,,100,1024,1024,1273,1024,2,FALSE,FALSE,FALSE,FALSE,FALSE,0,FALSE,FALSE,FALSE,FALSE,92,8.02,1903,2056,8.012,FALSE,4.014,4.006,0.008,FALSE,FALSE,NA,88.3,88.3,88.3,0,17,0,0,5,2539.1,634.78,,Idle,0,20,FALSE,5,TRUE,6,Go Home,FALSE,FALSE,FALSE,FALSE,FALSE,FALSE,FALSE,FALSE,FALSE,FALSE,FALSE,FALSE,6.974143363,79.91426209,48.3,100.3,328,TRUE,1,1,FALSE,FALSE,FALSE,FALSE,,TRUE,FALSE,FALSE,Course Lock,49.2,,16.4,Calm,33,,1.12.8,Mavic Mini,1SDCH7G0169R0K,1SFLH6Q0AB03DJ,1SRCH7F014TAHX,1U5X071EXP6C9Y,86.9,0.5,26.2,8.914205,3.35541,0,0,Mavic Mini,1SDCH7G0169R0K,1SFLH6Q0AB03DJ,1SRCH7F014TAHX,1U5X071EXP6C9Y,DJI Fly,,1.12.8,94656A56-0E66-D943-5B16-4755D9D9559B,1SDCH7G0169R0K,,,,,6.974208467,79.91418131,5,,
2/22/2024,14:30.4,1m 28.0s,88,6.974222895,79.91415531,0,0,0.3,50,0.9,0,0,0,0,0,0,0,0,5.3,2.2,-58.1,301.9,,Manual Takeoff,Drop Calibration,Takeoff (RC Assisted),11,4,TRUE,,Mavic Mini,TRUE,FALSE,,Smart,RC,TRUE,TRUE,FALSE,,,TRUE,,FALSE,FALSE,FALSE,FALSE,FALSE,FALSE,FALSE,FALSE,FALSE,FALSE,0,Follow Yaw,-2.5,0,-41.6,318.4,FALSE,FALSE,FALSE,FALSE,FALSE,FALSE,,TRUE,Normal,,100,1024,1024,1273,1024,2,FALSE,FALSE,FALSE,FALSE,FALSE,0,FALSE,FALSE,FALSE,FALSE,92,8.02,1903,2056,8.015,FALSE,4.014,4.006,0.008,FALSE,FALSE,NA,88.3,88.3,88.3,0,17,0,0,5,2654.6,663.65,,Idle,0,20,FALSE,5,TRUE,6,Go Home,FALSE,FALSE,FALSE,FALSE,FALSE,FALSE,FALSE,FALSE,FALSE,FALSE,FALSE,FALSE,6.974143363,79.91426209,48.3,100.3,328,TRUE,1,1,FALSE,FALSE,FALSE,FALSE,,TRUE,FALSE,FALSE,Course Lock,49.2,,16.4,Calm,33,,1.12.8,Mavic Mini,1SDCH7G0169R0K,1SFLH6Q0AB03DJ,1SRCH7F014TAHX,1U5X071EXP6C9Y,86.9,0.5,26.2,8.914205,3.35541,0,0,Mavic Mini,1SDCH7G0169R0K,1SFLH6Q0AB03DJ,1SRCH7F014TAHX,1U5X071EXP6C9Y,DJI Fly,,1.12.8,94656A56-0E66-D943-5B16-4755D9D9559B,1SDCH7G0169R0K,,,,,6.974208467,79.91418131,5,,
2/22/2024,14:30.5,1m 28.1s,88.1,6.974222909,79.91415531,0,0,0.3,50,0.9,0,0,0,0,0,0,0,0,5.2,2.2,-58.1,301.9,,Manual Takeoff,Drop Calibration,Takeoff (RC Assisted),11,4,TRUE,,Mavic Mini,TRUE,FALSE,,Smart,RC,TRUE,TRUE,FALSE,,,TRUE,,FALSE,FALSE,FALSE,FALSE,FALSE,FALSE,FALSE,FALSE,FALSE,FALSE,0,Follow Yaw,-2.5,0,-41.6,318.4,FALSE,FALSE,FALSE,FALSE,FALSE,FALSE,,TRUE,Normal,,100,1024,1024,1289,1024,2,FALSE,FALSE,FALSE,FALSE,FALSE,0,FALSE,FALSE,FALSE,FALSE,92,8.02,1903,2056,8.015,FALSE,4.014,4.006,0.008,FALSE,FALSE,NA,88.3,88.3,88.3,0,17,0,0,5,2654.6,663.65,,Idle,0,20,FALSE,5,TRUE,6,Go Home,FALSE,FALSE,FALSE,FALSE,FALSE,FALSE,FALSE,FALSE,FALSE,FALSE,FALSE,FALSE,6.974143363,79.91426209,48.3,100.3,328,TRUE,1,1,FALSE,FALSE,FALSE,FALSE,,TRUE,FALSE,FALSE,Course Lock,49.2,,16.4,Calm,33,,1.12.8,Mavic Mini,1SDCH7G0169R0K,1SFLH6Q0AB03DJ,1SRCH7F014TAHX,1U5X071EXP6C9Y,86.9,0.5,26.2,8.914205,3.35541,0,0,Mavic Mini,1SDCH7G0169R0K,1SFLH6Q0AB03DJ,1SRCH7F014TAHX,1U5X071EXP6C9Y,DJI Fly,,1.12.8,94656A56-0E66-D943-5B16-4755D9D9559B,1SDCH7G0169R0K,,,,,6.974208467,79.91418131,5,,
2/22/2024,14:30.6,1m 28.2s,88.2,6.974222923,79.91415531,0,0,0.3,50,0.9,0,0,0,0,0,0,0,0,5.3,2.1,-58.2,301.8,,Manual Takeoff,Drop Calibration,Takeoff (RC Assisted),12,4,TRUE,,Mavic Mini,TRUE,FALSE,,Smart,RC,TRUE,TRUE,FALSE,,,TRUE,,FALSE,FALSE,FALSE,FALSE,FALSE,FALSE,FALSE,FALSE,FALSE,FALSE,0,Follow Yaw,-2.5,0,-41.6,318.4,FALSE,FALSE,FALSE,FALSE,FALSE,FALSE,,TRUE,Normal,,100,1024,1024,1301,1024,2,FALSE,FALSE,FALSE,FALSE,FALSE,0,FALSE,FALSE,FALSE,FALSE,92,7.977,1903,2056,8.015,FALSE,3.994,3.983,0.011,FALSE,FALSE,NA,88.3,88.3,88.3,0,17,0,0,5,2654.6,663.65,,Idle,0,20,FALSE,5,TRUE,6,Go Home,FALSE,FALSE,FALSE,FALSE,FALSE,FALSE,FALSE,FALSE,FALSE,FALSE,FALSE,FALSE,6.974143363,79.91426209,48.3,100.3,328,TRUE,1,1,FALSE,FALSE,FALSE,FALSE,,TRUE,FALSE,FALSE,Course Lock,49.2,,16.4,Calm,33,,1.12.8,Mavic Mini,1SDCH7G0169R0K,1SFLH6Q0AB03DJ,1SRCH7F014TAHX,1U5X071EXP6C9Y,86.9,0.5,26.2,8.914205,3.35541,0,0,Mavic Mini,1SDCH7G0169R0K,1SFLH6Q0AB03DJ,1SRCH7F014TAHX,1U5X071EXP6C9Y,DJI Fly,,1.12.8,94656A56-0E66-D943-5B16-4755D9D9559B,1SDCH7G0169R0K,,,,,6.974208467,79.91418131,5,,
2/22/2024,14:30.7,1m 28.3s,88.3,6.974222997,79.91415546,0,0,0.3,50,1,0,0,0,0,0,0,0,0,5.3,2.1,-59.3,300.7,,Manual Takeoff,Drop Calibration,Takeoff (RC Assisted),12,4,TRUE,,Mavic Mini,TRUE,FALSE,,Smart,RC,TRUE,TRUE,FALSE,,,TRUE,,FALSE,FALSE,FALSE,FALSE,FALSE,FALSE,FALSE,FALSE,FALSE,FALSE,0,Follow Yaw,-2.5,0,-41.8,318.2,FALSE,FALSE,FALSE,FALSE,FALSE,FALSE,,TRUE,Normal,,100,1024,1024,1309,1024,2,FALSE,FALSE,FALSE,FALSE,FALSE,0,FALSE,FALSE,FALSE,FALSE,92,7.977,1903,2056,8.015,FALSE,3.994,3.983,0.011,FALSE,FALSE,NA,88.5,88.3,88.5,0,17,0,0,5,2654.6,663.65,,Idle,0,20,FALSE,5,TRUE,6,Go Home,FALSE,FALSE,FALSE,FALSE,FALSE,FALSE,FALSE,FALSE,FALSE,FALSE,FALSE,FALSE,6.974143363,79.91426209,48.3,100.3,328,TRUE,1,1,FALSE,FALSE,FALSE,FALSE,,TRUE,FALSE,FALSE,Course Lock,49.2,,16.4,Calm,33,,1.12.8,Mavic Mini,1SDCH7G0169R0K,1SFLH6Q0AB03DJ,1SRCH7F014TAHX,1U5X071EXP6C9Y,86.9,0.5,26.2,8.914205,3.35541,0,0,Mavic Mini,1SDCH7G0169R0K,1SFLH6Q0AB03DJ,1SRCH7F014TAHX,1U5X071EXP6C9Y,DJI Fly,,1.12.8,94656A56-0E66-D943-5B16-4755D9D9559B,1SDCH7G0169R0K,,,,,6.974208467,79.91418131,5,,
2/22/2024,14:30.8,1m 28.4s,88.4,6.974223014,79.91415552,0,0,0.3,50,1,0,0,0,0,0,0,0,0,5.2,2,-60.4,299.6,,Manual Takeoff,Drop Calibration,Takeoff (RC Assisted),11,4,TRUE,,Mavic Mini,TRUE,FALSE,,Smart,RC,TRUE,TRUE,FALSE,,,TRUE,,FALSE,FALSE,FALSE,FALSE,FALSE,FALSE,FALSE,FALSE,FALSE,FALSE,0,Follow Yaw,-2.5,0,-42.5,317.5,FALSE,FALSE,FALSE,FALSE,FALSE,FALSE,,TRUE,Normal,,100,1024,1024,1322,1024,2,FALSE,FALSE,FALSE,FALSE,FALSE,0,FALSE,FALSE,FALSE,FALSE,92,7.977,1903,2056,8.015,FALSE,3.994,3.983,0.011,FALSE,FALSE,NA,88.5,88.3,88.5,0,17,0,0,5,2654.6,663.65,,Idle,0,20,FALSE,5,TRUE,6,Go Home,FALSE,FALSE,FALSE,FALSE,FALSE,FALSE,FALSE,FALSE,FALSE,FALSE,FALSE,FALSE,6.974143363,79.91426209,48.3,100.3,328,TRUE,1,1,FALSE,FALSE,FALSE,FALSE,,TRUE,FALSE,FALSE,Course Lock,49.2,,16.4,Calm,33,,1.12.8,Mavic Mini,1SDCH7G0169R0K,1SFLH6Q0AB03DJ,1SRCH7F014TAHX,1U5X071EXP6C9Y,86.9,0.5,26.2,8.914205,3.35541,0,0,Mavic Mini,1SDCH7G0169R0K,1SFLH6Q0AB03DJ,1SRCH7F014TAHX,1U5X071EXP6C9Y,DJI Fly,,1.12.8,94656A56-0E66-D943-5B16-4755D9D9559B,1SDCH7G0169R0K,,,,,6.974208467,79.91418131,5,,
2/22/2024,14:30.9,1m 28.5s,88.5,6.974223034,79.91415556,0,0,0.3,50,1,0,0,0,0,0,0,0,0,3.6,2.2,-60.7,299.3,,Manual Takeoff,Drop Calibration,Takeoff (RC Assisted),11,4,TRUE,,Mavic Mini,TRUE,FALSE,,Smart,RC,TRUE,TRUE,FALSE,,,TRUE,,FALSE,FALSE,FALSE,FALSE,FALSE,FALSE,FALSE,FALSE,FALSE,FALSE,0,Follow Yaw,-2.5,0,-43.1,316.9,FALSE,FALSE,FALSE,FALSE,FALSE,FALSE,,TRUE,Normal,,100,1024,1024,1329,1024,2,FALSE,FALSE,FALSE,FALSE,FALSE,0,FALSE,FALSE,FALSE,FALSE,92,7.977,1903,2056,8.015,FALSE,3.994,3.983,0.011,FALSE,FALSE,NA,88.5,88.3,88.5,0,17,0,0,5,2654.6,663.65,,Idle,0,20,FALSE,5,TRUE,6,Go Home,FALSE,FALSE,FALSE,FALSE,FALSE,FALSE,FALSE,FALSE,FALSE,FALSE,FALSE,FALSE,6.974143363,79.91426209,48.3,100.3,328,TRUE,1,1,FALSE,FALSE,FALSE,FALSE,,TRUE,FALSE,FALSE,Course Lock,49.2,,16.4,Calm,33,,1.12.8,Mavic Mini,1SDCH7G0169R0K,1SFLH6Q0AB03DJ,1SRCH7F014TAHX,1U5X071EXP6C9Y,86.9,0.5,26.2,8.914205,3.35541,0,0,Mavic Mini,1SDCH7G0169R0K,1SFLH6Q0AB03DJ,1SRCH7F014TAHX,1U5X071EXP6C9Y,DJI Fly,,1.12.8,94656A56-0E66-D943-5B16-4755D9D9559B,1SDCH7G0169R0K,,,,,6.974208467,79.91418131,5,,
2/22/2024,14:31.0,1m 28.6s,88.6,6.974223084,79.91415561,0,0,0.3,50,1,0,0,0,0,0,0,0,0,0.8,1,-61.2,298.8,,Manual Takeoff,Drop Calibration,Takeoff (RC Assisted),11,4,TRUE,,Mavic Mini,TRUE,FALSE,,Smart,RC,TRUE,TRUE,FALSE,,,TRUE,,FALSE,FALSE,FALSE,FALSE,FALSE,FALSE,FALSE,FALSE,FALSE,FALSE,0,Follow Yaw,-2.5,0,-43.5,316.5,FALSE,FALSE,FALSE,FALSE,FALSE,FALSE,,TRUE,Normal,,100,1024,1024,1331,1024,2,FALSE,FALSE,FALSE,FALSE,FALSE,0,FALSE,FALSE,FALSE,FALSE,92,7.977,1903,2056,8.015,FALSE,3.994,3.983,0.011,FALSE,FALSE,NA,88.5,88.3,88.5,0,17,0,0,5,2654.6,663.65,,Idle,0,20,FALSE,5,TRUE,6,Go Home,FALSE,FALSE,FALSE,FALSE,FALSE,FALSE,FALSE,FALSE,FALSE,FALSE,FALSE,FALSE,6.974143363,79.91426209,48.2,100.3,328,TRUE,1,1,FALSE,FALSE,FALSE,FALSE,,TRUE,FALSE,FALSE,Course Lock,49.2,,16.4,Calm,33,,1.12.8,Mavic Mini,1SDCH7G0169R0K,1SFLH6Q0AB03DJ,1SRCH7F014TAHX,1U5X071EXP6C9Y,86.9,0.5,26.2,8.914205,3.35541,0,0,Mavic Mini,1SDCH7G0169R0K,1SFLH6Q0AB03DJ,1SRCH7F014TAHX,1U5X071EXP6C9Y,DJI Fly,,1.12.8,94656A56-0E66-D943-5B16-4755D9D9559B,1SDCH7G0169R0K,,,,,6.974208467,79.91418131,5,,
2/22/2024,14:31.1,1m 28.7s,88.7,6.974223163,79.91415569,0,0,0.3,50,1.1,0.223694,0.223694,0.223694,0.223694,0,0,-0.223694,0,-1.2,0.2,-62.1,297.9,36.7,Manual Takeoff,Drop Calibration,Takeoff (RC Assisted),11,4,TRUE,,Mavic Mini,TRUE,FALSE,,Smart,RC,TRUE,TRUE,FALSE,,,TRUE,,FALSE,FALSE,FALSE,FALSE,FALSE,FALSE,FALSE,FALSE,FALSE,FALSE,0,Follow Yaw,-2.5,0,-44,316,FALSE,FALSE,FALSE,FALSE,FALSE,FALSE,,TRUE,Normal,,100,1024,1024,1333,1024,2,FALSE,FALSE,FALSE,FALSE,FALSE,0,FALSE,FALSE,FALSE,FALSE,92,7.977,1903,2056,8.015,FALSE,3.994,3.983,0.011,FALSE,FALSE,NA,88.5,88.3,88.5,0,17,0,0,5,2654.6,663.65,,Idle,0,20,FALSE,5,TRUE,6,Go Home,FALSE,FALSE,FALSE,FALSE,FALSE,FALSE,FALSE,FALSE,FALSE,FALSE,FALSE,FALSE,6.974143363,79.91426209,48.2,100.3,328,TRUE,1,1,FALSE,FALSE,FALSE,FALSE,,TRUE,FALSE,FALSE,Course Lock,49.2,,16.4,Calm,33,,1.12.8,Mavic Mini,1SDCH7G0169R0K,1SFLH6Q0AB03DJ,1SRCH7F014TAHX,1U5X071EXP6C9Y,86.9,0.5,26.2,8.914205,3.35541,0,0,Mavic Mini,1SDCH7G0169R0K,1SFLH6Q0AB03DJ,1SRCH7F014TAHX,1U5X071EXP6C9Y,DJI Fly,,1.12.8,94656A56-0E66-D943-5B16-4755D9D9559B,1SDCH7G0169R0K,,,,,6.974208467,79.91418131,5,,
2/22/2024,14:31.1,1m 28.8s,88.8,6.974223301,79.91415574,0,0,0.3,50,1.1,0.223694,0.223694,0.223694,0.223694,0,0,-0.447388,0,-0.7,-1.2,-62.5,297.5,16.5,Tripod,Drop Calibration,,11,4,TRUE,,Mavic Mini,TRUE,FALSE,,Smart,RC,FALSE,TRUE,FALSE,,,TRUE,,FALSE,FALSE,FALSE,FALSE,FALSE,FALSE,FALSE,FALSE,FALSE,FALSE,0,Follow Yaw,-2.5,0,-44.6,315.4,FALSE,FALSE,FALSE,FALSE,FALSE,FALSE,,TRUE,Normal,,100,1024,1024,1340,1024,2,FALSE,FALSE,FALSE,FALSE,FALSE,0,FALSE,FALSE,FALSE,FALSE,92,7.977,1903,2056,8.015,FALSE,3.994,3.983,0.011,FALSE,FALSE,NA,88.5,88.3,88.5,0,17,0,0,5,2654.6,663.65,,Idle,0,20,FALSE,5,TRUE,6,Go Home,FALSE,FALSE,FALSE,FALSE,FALSE,FALSE,FALSE,FALSE,FALSE,FALSE,FALSE,FALSE,6.974143363,79.91426209,48.3,100.3,328,TRUE,1,1,FALSE,FALSE,FALSE,FALSE,,TRUE,FALSE,FALSE,Course Lock,49.2,,16.4,Calm,33,,1.12.8,Mavic Mini,1SDCH7G0169R0K,1SFLH6Q0AB03DJ,1SRCH7F014TAHX,1U5X071EXP6C9Y,86.9,0.5,26.2,8.914205,3.35541,0,0,Mavic Mini,1SDCH7G0169R0K,1SFLH6Q0AB03DJ,1SRCH7F014TAHX,1U5X071EXP6C9Y,DJI Fly,,1.12.8,94656A56-0E66-D943-5B16-4755D9D9559B,1SDCH7G0169R0K,,,,,6.974208467,79.91418131,5,Flight mode changed to Tripod.,
2/22/2024,14:31.2,1m 28.9s,88.9,6.974223467,79.91415579,0,0,0.6,50,1.2,0.223694,0.223694,0.223694,0.223694,0,0,-0.894776,0,0.8,-2.3,-62.5,297.5,13.7,Tripod,Drop Calibration,,11,4,TRUE,,Mavic Mini,TRUE,FALSE,,Smart,RC,FALSE,TRUE,FALSE,,,TRUE,,FALSE,FALSE,FALSE,FALSE,FALSE,FALSE,FALSE,FALSE,FALSE,FALSE,0,Follow Yaw,-2.5,0,-44.9,315.1,FALSE,FALSE,FALSE,FALSE,FALSE,FALSE,,TRUE,Normal,,100,1024,1024,1340,1024,2,FALSE,FALSE,FALSE,FALSE,FALSE,0,FALSE,FALSE,FALSE,FALSE,92,7.977,1903,2056,8.015,FALSE,3.994,3.983,0.011,FALSE,FALSE,NA,88.5,88.3,88.5,0,17,0,0,5,2654.6,663.65,,Idle,0,20,FALSE,5,TRUE,6,Go Home,FALSE,FALSE,FALSE,FALSE,FALSE,FALSE,FALSE,FALSE,FALSE,FALSE,FALSE,FALSE,6.974143363,79.91426209,48.3,100.3,328,TRUE,1,1,FALSE,FALSE,FALSE,FALSE,,TRUE,FALSE,FALSE,Course Lock,49.2,,16.4,Calm,33,,1.12.8,Mavic Mini,1SDCH7G0169R0K,1SFLH6Q0AB03DJ,1SRCH7F014TAHX,1U5X071EXP6C9Y,86.9,0.5,26.2,8.914205,3.35541,0,0,Mavic Mini,1SDCH7G0169R0K,1SFLH6Q0AB03DJ,1SRCH7F014TAHX,1U5X071EXP6C9Y,DJI Fly,,1.12.8,94656A56-0E66-D943-5B16-4755D9D9559B,1SDCH7G0169R0K,,,,,6.974208257,79.91417997,5,,
2/22/2024,14:31.3,1m 29.0s,89,6.974223615,79.91415581,0,0,0.6,50,1.2,0.223694,0.223694,0.223694,0.223694,0,0,-1.11847,0,1.2,-2.2,-62.4,297.6,4.4,Tripod,Drop Calibration,,12,4,TRUE,,Mavic Mini,TRUE,FALSE,,Smart,RC,FALSE,TRUE,FALSE,,,TRUE,,FALSE,FALSE,FALSE,FALSE,FALSE,FALSE,FALSE,FALSE,FALSE,FALSE,0,Follow Yaw,-2.5,0,-44.9,315.1,FALSE,FALSE,FALSE,FALSE,FALSE,FALSE,,TRUE,Normal,,100,1024,1024,1341,1024,2,FALSE,FALSE,FALSE,FALSE,FALSE,0,FALSE,FALSE,FALSE,FALSE,92,7.977,1903,2056,7.969,FALSE,3.994,3.983,0.011,FALSE,FALSE,NA,88.5,88.3,88.5,0,0,1,0,5,2859.3,714.83,,Idle,0,20,FALSE,5,TRUE,6,Go Home,FALSE,FALSE,FALSE,FALSE,FALSE,FALSE,FALSE,FALSE,FALSE,FALSE,FALSE,FALSE,6.974223209,79.91415571,0.1,100.3,328,TRUE,1,1,FALSE,FALSE,FALSE,FALSE,,TRUE,FALSE,FALSE,Course Lock,49.2,,16.4,Calm,33,,1.12.8,Mavic Mini,1SDCH7G0169R0K,1SFLH6Q0AB03DJ,1SRCH7F014TAHX,1U5X071EXP6C9Y,86.9,0.5,26.2,8.914205,3.35541,0,0,Mavic Mini,1SDCH7G0169R0K,1SFLH6Q0AB03DJ,1SRCH7F014TAHX,1U5X071EXP6C9Y,DJI Fly,,1.12.8,94656A56-0E66-D943-5B16-4755D9D9559B,1SDCH7G0169R0K,,,,,6.974208257,79.91417997,5,Home Point Updated.,
2/22/2024,14:31.4,1m 29.1s,89.1,6.9742237,79.91415585,0.3,0.3,0.6,50,1.3,0.223694,0.223694,0.223694,0.223694,0,0,-1.11847,0,2.1,-1.8,-62.2,297.8,20.8,Tripod,Drop Calibration,,12,4,TRUE,,Mavic Mini,TRUE,FALSE,,Smart,RC,FALSE,TRUE,FALSE,,,TRUE,,FALSE,FALSE,FALSE,FALSE,FALSE,FALSE,FALSE,FALSE,FALSE,FALSE,0,Follow Yaw,-2.5,0,-44.9,315.1,FALSE,FALSE,FALSE,FALSE,FALSE,FALSE,,TRUE,Normal,,100,1024,1024,1343,1024,2,FALSE,FALSE,FALSE,FALSE,FALSE,0,FALSE,FALSE,FALSE,FALSE,92,7.977,1903,2056,7.969,FALSE,3.994,3.983,0.011,FALSE,FALSE,NA,88.5,88.3,88.5,0,0,1,0,5,2859.3,714.83,,Idle,0,20,FALSE,5,TRUE,6,Go Home,FALSE,FALSE,FALSE,FALSE,FALSE,FALSE,FALSE,FALSE,FALSE,FALSE,FALSE,FALSE,6.974223209,79.91415571,0.1,100.3,328,TRUE,1,1,FALSE,FALSE,FALSE,FALSE,,TRUE,FALSE,FALSE,Course Lock,49.2,,16.4,Calm,33,,1.12.8,Mavic Mini,1SDCH7G0169R0K,1SFLH6Q0AB03DJ,1SRCH7F014TAHX,1U5X071EXP6C9Y,86.9,0.5,26.2,8.914205,3.35541,0,0,Mavic Mini,1SDCH7G0169R0K,1SFLH6Q0AB03DJ,1SRCH7F014TAHX,1U5X071EXP6C9Y,DJI Fly,,1.12.8,94656A56-0E66-D943-5B16-4755D9D9559B,1SDCH7G0169R0K,,,,,6.974208257,79.91417997,5,,
2/22/2024,14:31.5,1m 29.2s,89.2,6.974223816,79.91415582,0.3,0.3,0.9,50,1.3,0.223694,0.223694,0.223694,0.223694,0,0,-1.342164,0,1.8,-1.5,-62.1,297.9,348,Tripod,Drop Calibration,,12,4,TRUE,,Mavic Mini,TRUE,FALSE,,Smart,RC,FALSE,TRUE,FALSE,,,TRUE,,FALSE,FALSE,FALSE,FALSE,FALSE,FALSE,FALSE,FALSE,FALSE,FALSE,0,Follow Yaw,-2.5,0,-44.9,315.1,FALSE,FALSE,FALSE,FALSE,FALSE,FALSE,,TRUE,Normal,,100,1024,1024,1352,1024,2,FALSE,FALSE,FALSE,FALSE,FALSE,0,FALSE,FALSE,FALSE,FALSE,92,7.977,1903,2056,7.969,FALSE,3.994,3.983,0.011,FALSE,FALSE,NA,88.5,88.3,88.5,0,0,1,0,5,2859.3,714.83,,Idle,0,20,FALSE,5,TRUE,6,Go Home,FALSE,FALSE,FALSE,FALSE,FALSE,FALSE,FALSE,FALSE,FALSE,FALSE,FALSE,FALSE,6.974223209,79.91415571,0.2,100.3,328,TRUE,1,1,FALSE,FALSE,FALSE,FALSE,,TRUE,FALSE,FALSE,Course Lock,49.2,,16.4,Calm,33,,1.12.8,Mavic Mini,1SDCH7G0169R0K,1SFLH6Q0AB03DJ,1SRCH7F014TAHX,1U5X071EXP6C9Y,86.9,0.5,26.2,8.914205,3.35541,0,0,Mavic Mini,1SDCH7G0169R0K,1SFLH6Q0AB03DJ,1SRCH7F014TAHX,1U5X071EXP6C9Y,DJI Fly,,1.12.8,94656A56-0E66-D943-5B16-4755D9D9559B,1SDCH7G0169R0K,,,,,6.974208257,79.91417997,5,,
2/22/2024,14:31.6,1m 29.3s,89.3,6.974223996,79.91415571,0.6,0.6,0.9,50,1.4,0.223694,0.223694,0.223694,0.223694,0,0,-1.342164,0,1.4,-1.1,-62.1,297.9,335,Tripod,Drop Calibration,,12,4,TRUE,,Mavic Mini,TRUE,FALSE,,Smart,RC,FALSE,TRUE,FALSE,,,TRUE,,FALSE,FALSE,FALSE,FALSE,FALSE,FALSE,FALSE,FALSE,FALSE,FALSE,0,Follow Yaw,-2.5,0,-44.9,315.1,FALSE,FALSE,FALSE,FALSE,FALSE,FALSE,,TRUE,Normal,,100,1024,1024,1356,1024,2,FALSE,FALSE,FALSE,FALSE,FALSE,0,FALSE,FALSE,FALSE,FALSE,92,7.977,1903,2056,7.969,FALSE,3.994,3.983,0.011,FALSE,FALSE,NA,88.5,88.3,88.5,0,0,1,0,5,2859.3,714.83,,Idle,0,20,FALSE,5,TRUE,6,Go Home,FALSE,FALSE,FALSE,FALSE,FALSE,FALSE,FALSE,FALSE,FALSE,FALSE,FALSE,FALSE,6.974223209,79.91415571,0.2,100.3,328,TRUE,1,1,FALSE,FALSE,FALSE,FALSE,,TRUE,FALSE,FALSE,Course Lock,49.2,,16.4,Calm,33,,1.12.8,Mavic Mini,1SDCH7G0169R0K,1SFLH6Q0AB03DJ,1SRCH7F014TAHX,1U5X071EXP6C9Y,86.9,0.5,26.2,8.914205,3.35541,0,0,Mavic Mini,1SDCH7G0169R0K,1SFLH6Q0AB03DJ,1SRCH7F014TAHX,1U5X071EXP6C9Y,DJI Fly,,1.12.8,94656A56-0E66-D943-5B16-4755D9D9559B,1SDCH7G0169R0K,,,,,6.974208257,79.91417997,5,,
2/22/2024,14:31.8,1m 29.4s,89.4,6.974224171,79.9141556,0.6,0.6,1.3,50,1.5,0.223694,0.223694,0.223694,0.223694,0,0,-1.342164,0,1.9,-1.6,-62,298,333.6,Tripod,Drop Calibration,,11,4,TRUE,,Mavic Mini,TRUE,FALSE,,Smart,RC,FALSE,TRUE,FALSE,,,TRUE,,FALSE,FALSE,FALSE,FALSE,FALSE,FALSE,FALSE,FALSE,FALSE,FALSE,0,Follow Yaw,-2.5,0,-44.9,315.1,FALSE,FALSE,FALSE,FALSE,FALSE,FALSE,,TRUE,Normal,,100,1024,1024,1357,1024,2,FALSE,FALSE,FALSE,FALSE,FALSE,0,FALSE,FALSE,FALSE,FALSE,92,7.801,1902,2056,7.969,FALSE,3.904,3.897,0.011,FALSE,FALSE,NA,88.5,88.3,88.5,0,0,1,0,5,2859.3,714.83,,Idle,0,20,FALSE,5,TRUE,6,Go Home,FALSE,FALSE,FALSE,FALSE,FALSE,FALSE,FALSE,FALSE,FALSE,FALSE,FALSE,FALSE,6.974223209,79.91415571,0.3,100.3,328,TRUE,1,1,FALSE,FALSE,FALSE,FALSE,,TRUE,FALSE,FALSE,Course Lock,49.2,,16.4,Calm,33,,1.12.8,Mavic Mini,1SDCH7G0169R0K,1SFLH6Q0AB03DJ,1SRCH7F014TAHX,1U5X071EXP6C9Y,86.9,0.5,26.2,8.914205,3.35541,0,0,Mavic Mini,1SDCH7G0169R0K,1SFLH6Q0AB03DJ,1SRCH7F014TAHX,1U5X071EXP6C9Y,DJI Fly,,1.12.8,94656A56-0E66-D943-5B16-4755D9D9559B,1SDCH7G0169R0K,,,,,6.974208257,79.91417997,5,Home Point updated. RTH altitude adjusted to 15 m! (Code: 120852).,
2/22/2024,14:31.8,1m 29.5s,89.5,6.974224315,79.9141554,0.9,0.9,1.3,51,1.6,0.223694,0.223694,0.223694,0.223694,0,0,-1.342164,0,2.6,-2.2,-61.9,298.1,314.2,Tripod,Drop Calibration,,11,4,TRUE,,Mavic Mini,TRUE,FALSE,,Smart,RC,FALSE,TRUE,FALSE,,,TRUE,,FALSE,FALSE,FALSE,FALSE,FALSE,FALSE,FALSE,FALSE,FALSE,FALSE,0,Follow Yaw,-2.5,0,-44.9,315.1,FALSE,FALSE,FALSE,FALSE,FALSE,FALSE,,TRUE,Normal,,100,1024,1024,1370,1024,2,FALSE,FALSE,FALSE,FALSE,FALSE,0,FALSE,FALSE,FALSE,FALSE,92,7.801,1902,2056,7.969,FALSE,3.904,3.897,0.011,FALSE,FALSE,NA,88.5,88.3,88.5,0,0,1,0,5,2859.3,714.83,,Idle,0,20,FALSE,5,TRUE,6,Go Home,FALSE,FALSE,FALSE,FALSE,FALSE,FALSE,FALSE,FALSE,FALSE,FALSE,FALSE,FALSE,6.974223209,79.91415571,0.4,100.3,328,TRUE,1,1,FALSE,FALSE,FALSE,FALSE,,TRUE,FALSE,FALSE,Course Lock,49.2,,16.4,Calm,33,,1.12.8,Mavic Mini,1SDCH7G0169R0K,1SFLH6Q0AB03DJ,1SRCH7F014TAHX,1U5X071EXP6C9Y,86.9,0.5,26.2,8.914205,3.35541,0,0,Mavic Mini,1SDCH7G0169R0K,1SFLH6Q0AB03DJ,1SRCH7F014TAHX,1U5X071EXP6C9Y,DJI Fly,,1.12.8,94656A56-0E66-D943-5B16-4755D9D9559B,1SDCH7G0169R0K,,,,,6.974208257,79.91417997,5,,
2/22/2024,14:32.0,1m 29.6s,89.6,6.974224525,79.91415492,0.9,0.9,1.6,51,1.7,0.223694,0.223694,0.223694,0.223694,0,0,-1.11847,0,2.7,-2.1,-61.8,298.2,299.4,Tripod,Drop Calibration,,11,4,TRUE,,Mavic Mini,TRUE,FALSE,,Smart,RC,FALSE,TRUE,FALSE,,,TRUE,,FALSE,FALSE,FALSE,FALSE,FALSE,FALSE,FALSE,FALSE,FALSE,FALSE,0,Follow Yaw,-2.5,0,-44.9,315.1,FALSE,FALSE,FALSE,FALSE,FALSE,FALSE,,TRUE,Normal,,100,1024,1024,1406,1024,2,FALSE,FALSE,FALSE,FALSE,FALSE,0,FALSE,FALSE,FALSE,FALSE,92,7.801,1902,2056,7.969,FALSE,3.904,3.897,0.011,FALSE,FALSE,NA,88.5,88.3,88.5,0,0,1,0,5,2859.3,714.83,,Idle,0,20,FALSE,5,TRUE,6,Go Home,FALSE,FALSE,FALSE,FALSE,FALSE,FALSE,FALSE,FALSE,FALSE,FALSE,FALSE,FALSE,6.974223209,79.91415571,0.5,100.3,328,TRUE,1,1,FALSE,FALSE,FALSE,FALSE,,TRUE,FALSE,FALSE,Course Lock,49.2,,16.4,Calm,33,,1.12.8,Mavic Mini,1SDCH7G0169R0K,1SFLH6Q0AB03DJ,1SRCH7F014TAHX,1U5X071EXP6C9Y,86.9,0.5,26.2,8.914205,3.35541,0,0,Mavic Mini,1SDCH7G0169R0K,1SFLH6Q0AB03DJ,1SRCH7F014TAHX,1U5X071EXP6C9Y,DJI Fly,,1.12.8,94656A56-0E66-D943-5B16-4755D9D9559B,1SDCH7G0169R0K,,,,,6.974208257,79.91417997,5,,
2/22/2024,14:32.1,1m 29.7s,89.7,6.974224649,79.91415487,1.3,1.3,1.9,51,1.8,0.223694,0.223694,0.223694,0.223694,0,0,-1.11847,0,3.1,-2.3,-61.8,298.2,343.9,Tripod,Drop Calibration,,11,4,TRUE,,Mavic Mini,TRUE,FALSE,,Smart,RC,FALSE,TRUE,FALSE,,,TRUE,,FALSE,FALSE,FALSE,FALSE,FALSE,FALSE,FALSE,FALSE,FALSE,FALSE,0,Follow Yaw,-2.5,0,-44.9,315.1,FALSE,FALSE,FALSE,FALSE,FALSE,FALSE,,TRUE,Normal,,100,1024,1024,1406,1024,2,FALSE,FALSE,FALSE,FALSE,FALSE,0,FALSE,FALSE,FALSE,FALSE,92,7.801,1902,2056,7.969,FALSE,3.904,3.897,0.011,FALSE,FALSE,NA,88.5,88.3,88.5,0,0,1,0,5,2859.3,714.83,,Idle,0,20,FALSE,5,TRUE,6,Go Home,FALSE,FALSE,FALSE,FALSE,FALSE,FALSE,FALSE,FALSE,FALSE,FALSE,FALSE,FALSE,6.974223209,79.91415571,0.6,100.3,328,TRUE,1,1,FALSE,FALSE,FALSE,FALSE,,TRUE,FALSE,FALSE,Course Lock,49.2,,16.4,Calm,33,,1.12.8,Mavic Mini,1SDCH7G0169R0K,1SFLH6Q0AB03DJ,1SRCH7F014TAHX,1U5X071EXP6C9Y,86.9,0.5,26.2,8.914205,3.35541,0,0,Mavic Mini,1SDCH7G0169R0K,1SFLH6Q0AB03DJ,1SRCH7F014TAHX,1U5X071EXP6C9Y,DJI Fly,,1.12.8,94656A56-0E66-D943-5B16-4755D9D9559B,1SDCH7G0169R0K,,,,,6.974208257,79.91417997,5,,
2/22/2024,14:32.2,1m 29.8s,89.8,6.974224748,79.91415484,1.6,1.6,1.9,51,1.8,0,0.223694,0,0.223694,0,0,-1.11847,0,2.9,-2.2,-61.8,298.2,,Tripod,Drop Calibration,,12,4,TRUE,,Mavic Mini,TRUE,FALSE,,Smart,RC,FALSE,TRUE,FALSE,,,TRUE,,FALSE,FALSE,FALSE,FALSE,FALSE,FALSE,FALSE,FALSE,FALSE,FALSE,0,Follow Yaw,-2.5,0,-44.9,315.1,FALSE,FALSE,FALSE,FALSE,FALSE,FALSE,,TRUE,Normal,,100,1024,1024,1406,1024,2,FALSE,FALSE,FALSE,FALSE,FALSE,0,FALSE,FALSE,FALSE,FALSE,92,7.801,1902,2056,7.969,FALSE,3.904,3.897,0.011,FALSE,FALSE,NA,88.5,88.3,88.5,0,0,1,0,5,2859.3,714.83,,Idle,0,20,FALSE,5,TRUE,6,Go Home,FALSE,FALSE,FALSE,FALSE,FALSE,FALSE,FALSE,FALSE,FALSE,FALSE,FALSE,FALSE,6.974223209,79.91415571,0.6,100.3,328,TRUE,1,1,FALSE,FALSE,FALSE,FALSE,,TRUE,FALSE,FALSE,Course Lock,49.2,,16.4,Calm,33,,1.12.8,Mavic Mini,1SDCH7G0169R0K,1SFLH6Q0AB03DJ,1SRCH7F014TAHX,1U5X071EXP6C9Y,86.9,0.5,26.2,8.914205,3.35541,0,0,Mavic Mini,1SDCH7G0169R0K,1SFLH6Q0AB03DJ,1SRCH7F014TAHX,1U5X071EXP6C9Y,DJI Fly,,1.12.8,94656A56-0E66-D943-5B16-4755D9D9559B,1SDCH7G0169R0K,,,,,6.974208257,79.91417997,5,,
2/22/2024,14:32.3,1m 29.9s,89.9,6.974224809,79.91415482,1.6,1.6,2.2,51,1.9,0,0.223694,0,0.223694,0,0,-1.11847,0,2.8,-2.4,-61.8,298.2,,Tripod,Drop Calibration,,12,4,TRUE,,Mavic Mini,TRUE,FALSE,,Smart,RC,FALSE,TRUE,FALSE,,,TRUE,,FALSE,FALSE,FALSE,FALSE,FALSE,FALSE,FALSE,FALSE,FALSE,FALSE,0,Follow Yaw,-2.5,0,-44.9,315.1,FALSE,FALSE,FALSE,FALSE,FALSE,FALSE,,TRUE,Normal,,100,1024,1024,1401,1024,2,FALSE,FALSE,FALSE,FALSE,FALSE,0,FALSE,FALSE,FALSE,FALSE,92,7.801,1902,2056,7.969,FALSE,3.904,3.897,0.011,FALSE,FALSE,NA,88.5,88.3,88.5,0,0,1,0,5,2859.3,714.83,,Idle,0,20,FALSE,5,TRUE,6,Go Home,FALSE,FALSE,FALSE,FALSE,FALSE,FALSE,FALSE,FALSE,FALSE,FALSE,FALSE,FALSE,6.974223209,79.91415571,0.6,100.3,328,TRUE,1,1,FALSE,FALSE,FALSE,FALSE,,TRUE,FALSE,FALSE,Course Lock,49.2,,16.4,Calm,33,,1.12.8,Mavic Mini,1SDCH7G0169R0K,1SFLH6Q0AB03DJ,1SRCH7F014TAHX,1U5X071EXP6C9Y,86.9,0.5,26.2,8.914205,3.35541,0,0,Mavic Mini,1SDCH7G0169R0K,1SFLH6Q0AB03DJ,1SRCH7F014TAHX,1U5X071EXP6C9Y,DJI Fly,,1.12.8,94656A56-0E66-D943-5B16-4755D9D9559B,1SDCH7G0169R0K,,,,,6.974208257,79.91417997,5,,
2/22/2024,14:32.3,1m 30.0s,90,6.974224797,79.91415494,1.9,1.9,2.2,52,1.9,0,0.223694,0,0.223694,0,0,-1.342164,0,2.7,-2.2,-61.8,298.2,,Tripod,Drop Calibration,,12,4,TRUE,,Mavic Mini,TRUE,FALSE,,Smart,RC,FALSE,TRUE,FALSE,,,TRUE,,FALSE,FALSE,FALSE,FALSE,FALSE,FALSE,FALSE,FALSE,FALSE,FALSE,0,Follow Yaw,-2.5,0,-44.9,315.1,FALSE,FALSE,FALSE,FALSE,FALSE,FALSE,,TRUE,Normal,,100,1024,1024,1401,1024,2,FALSE,FALSE,FALSE,FALSE,FALSE,0,FALSE,FALSE,FALSE,FALSE,92,7.801,1902,2056,7.833,FALSE,3.904,3.897,0.011,FALSE,FALSE,NA,88.5,88.3,88.5,0,0,1,0,5,3447.6,861.9,,Idle,0,20,FALSE,5,TRUE,6,Go Home,FALSE,FALSE,FALSE,FALSE,FALSE,FALSE,FALSE,FALSE,FALSE,FALSE,FALSE,FALSE,6.974223209,79.91415571,0.6,100.3,328,TRUE,1,1,FALSE,FALSE,FALSE,FALSE,,TRUE,FALSE,FALSE,Course Lock,49.2,,16.4,Calm,33,,1.12.8,Mavic Mini,1SDCH7G0169R0K,1SFLH6Q0AB03DJ,1SRCH7F014TAHX,1U5X071EXP6C9Y,86.9,0.5,26.2,8.914205,3.35541,0,0,Mavic Mini,1SDCH7G0169R0K,1SFLH6Q0AB03DJ,1SRCH7F014TAHX,1U5X071EXP6C9Y,DJI Fly,,1.12.8,94656A56-0E66-D943-5B16-4755D9D9559B,1SDCH7G0169R0K,,,,,6.974208257,79.91417997,5,,
