CUSTOM.date [local],CUSTOM.updateTime [local],OSD.flyTime,OSD.flyTime [s],OSD.latitude,OSD.longitude,OSD.height [ft],OSD.heightMax [ft],OSD.vpsHeight [ft],OSD.altitude [ft],OSD.mileage [ft],OSD.hSpeed [MPH],OSD.hSpeedMax [MPH],OSD.xSpeed [MPH],OSD.xSpeedMax [MPH],OSD.ySpeed [MPH],OSD.ySpeedMax [MPH],OSD.zSpeed [MPH],OSD.zSpeedMax [MPH],OSD.pitch,OSD.roll,OSD.yaw,OSD.yaw [360],OSD.directionOfTravel,OSD.flycState,OSD.flycCommand,OSD.flightAction,OSD.gpsNum,OSD.gpsLevel,OSD.isGPSUsed,OSD.nonGPSCause,OSD.droneType,OSD.isSwaveWork,OSD.waveError,OSD.goHomeStatus,OSD.batteryType,OSD.ctrlDevice,OSD.isOnGround,OSD.isMotorOn,OSD.isMotorBlocked,OSD.motorStartFailedCause,OSD.motorFailReason,OSD.isImuPreheated,OSD.imuInitFailReason,OSD.isAcceletorOverRange,OSD.isBarometerDeadInAir,OSD.isCompassError,OSD.isGoHomeHeightModified,OSD.canIOCWork,OSD.isNotEnoughForce,OSD.isOutOfLimit,OSD.isPropellerCatapult,OSD.isVibrating,OSD.isVisionUsed,OSD.voltageWarning,GIMBAL.mode,GIMBAL.pitch,GIMBAL.roll,GIMBAL.yaw,GIMBAL.yaw [360],GIMBAL.isPitchAtLimit,GIMBAL.isRollAtLimit,GIMBAL.isYawAtLimit,GIMBAL.isStuck,CAMERA.isPhoto,CAMERA.isVideo,CAMERA.filename,CAMERA.sdCardIsInserted,CAMERA.sdCardState,RC.downlinkSignal,RC.uplinkSignal,RC.aileron,RC.elevator,RC.throttle,RC.rudder,RC.mode,RC.goHomeDepressed,RC.recordDepressed,RC.shutterDepressed,RC.playbackDepressed,RC.wheelDepressed,RC.wheelOffset,RC.custom1Depressed,RC.custom2Depressed,RC.custom3Depressed,RC.custom4Depressed,BATTERY.chargeLevel,BATTERY.currentPV [V],BATTERY.currentCapacity [mAh],BATTERY.fullCapacity [mAh],BATTERY.voltage [V],BATTERY.isCellVoltageEstimated,BATTERY.cellVoltage1 [V],BATTERY.cellVoltage2 [V],BATTERY.maxCellVoltageDeviation,BATTERY.isCellVoltageDeviationHigh,BATTERY.isVoltageLow,BATTERY.current [A],BATTERY.temperature [F],BATTERY.minTemperature [F],BATTERY.maxTemperature [F],BATTERY.usefulTime [s],BATTERY.goHomeTime [s],BATTERY.landTime [s],BATTERY.goHomeBattery,BATTERY.landBattery,BATTERY.safeFlyRadius,BATTERY.volumeConsume,BATTERY.status,BATTERY.goHomeStatus,BATTERY.goHomeCountdown,BATTERY.lowWarning,BATTERY.lowWarningGoHome,BATTERY.seriousLowWarning,BATTERY.seriousLowWarningLanding,BATTERY.timesCharged,MC.failSafeAction,MC.isObstacleAvoidanceEnabled,MC.isCollisionAvoidanceEnabled,MC.isRthObstacleAvoidanceEnabled,MC.isBraking,MC.isAvoidingObstacle,MC.isAvoidingActiveObstacle,MC.isAscentLimitedByObstacle,MC.isLandingConfirmationNeeded,MC.atLowAltitudeLimit,MC.atDistanceLimit,MC.atAirportAltitudeLimit,MC.atAirportBoundary,HOME.latitude,HOME.longitude,HOME.distance [ft],HOME.height [ft],HOME.heightLimit [ft],HOME.isHomeRecord,HOME.goHomeMode,HOME.aircraftHeadDirection,HOME.isDynamicHomePointEnabled,HOME.isReachedLimitDistance,HOME.isReachedLimitHeight,HOME.isCompassCalibrating,HOME.compassCalibrationState,HOME.isMultipleFlightModeEnabled,HOME.isBeginnerMode,HOME.isIOCEnabled,HOME.iocMode,HOME.goHomeHeight [ft],HOME.courseLockAngle,HOME.forceLandingHeight [ft],HOME.wind,HOME.dataRecorderFileIndex,RECOVER.appType,RECOVER.appVersion,RECOVER.aircraftName,RECOVER.aircraftSerial,RECOVER.cameraSerial,RECOVER.rcSerial,RECOVER.batterySerial,DETAILS.totalTime [s],DETAILS.totalDistance [ft],DETAILS.maxHeight [ft],DETAILS.maxHorizontalSpeed [MPH],DETAILS.maxVerticalSpeed [MPH],DETAILS.photoNum,DETAILS.videoTime [s],DETAILS.aircraftName,DETAILS.aircraftSerial,DETAILS.cameraSerial,DETAILS.rcSerial,DETAILS.batterySerial,DETAILS.appName,DETAILS.appType,DETAILS.appVersion,DETAILS.guid,SERIAL.flightController,SERIAL.camera,SERIAL.gimbal,SERIAL.rc,SERIAL.battery,APPGPS.latitude,APPGPS.longitude,APPGPS.accuracy,APP.tip,APP.warning
2/27/2024,59:53.1,0m 0.0s,0,6.974165871,79.91452015,0,0,3.2,61,0,0,0,0,0,0,0,0,0,9.2,4,146.1,146.1,,P-GPS,Other,Takeoff (RC Assisted),11,4,TRUE,,Mavic Mini,FALSE,FALSE,,Smart,RC,TRUE,TRUE,FALSE,,,TRUE,,FALSE,FALSE,FALSE,FALSE,FALSE,FALSE,FALSE,FALSE,FALSE,FALSE,0,Follow Yaw,0,0,147.5,147.5,FALSE,FALSE,FALSE,FALSE,FALSE,FALSE,,TRUE,Normal,,,1024,1024,1024,1024,1,FALSE,FALSE,FALSE,FALSE,FALSE,0,FALSE,FALSE,FALSE,FALSE,97,8.186,2001,2063,8.186,TRUE,4.094,4.094,,FALSE,FALSE,NA,82.9,82.9,82.9,,,,,,,,,Idle,,,TRUE,,FALSE,6,Go Home,FALSE,FALSE,FALSE,FALSE,FALSE,FALSE,FALSE,FALSE,FALSE,FALSE,FALSE,FALSE,,,,,,FALSE,,,FALSE,FALSE,FALSE,FALSE,,FALSE,FALSE,FALSE,,,,,Calm,,,1.12.8,Mavic Mini,1SDCH7G0169R0K,1SFLH6Q0AB03DJ,1SRCH7F014TAHX,1U5X071EXP6C9Y,103.7,0.1,3.2,3.20285,1.565858,0,341,Mavic Mini,1SDCH7G0169R0K,1SFLH6Q0AB03DJ,1SRCH7F014TAHX,1U5X071EXP6C9Y,DJI Fly,,1.12.8,083CA358-B33B-D79D-00B8-F00242845986,1SDCH7G0169R0K,,,,,,,,Flight mode changed to P-GPS.,
2/27/2024,59:53.3,0m 0.1s,0.1,6.974166019,79.91452017,0,0,3.2,61,0,0,0,0,0,0,0,0,0,9.2,4,146.1,146.1,,Starting Motors,Other,Takeoff (RC Assisted),11,4,TRUE,,Mavic Mini,FALSE,FALSE,,Smart,RC,TRUE,TRUE,FALSE,,,TRUE,,FALSE,FALSE,FALSE,FALSE,FALSE,FALSE,FALSE,FALSE,FALSE,FALSE,0,Follow Yaw,0,0,147.5,147.5,FALSE,FALSE,FALSE,FALSE,FALSE,FALSE,,TRUE,Normal,,,1024,1024,1024,1024,1,FALSE,FALSE,FALSE,FALSE,FALSE,0,FALSE,FALSE,FALSE,FALSE,97,8.186,2001,2063,8.186,TRUE,4.094,4.094,,FALSE,FALSE,NA,82.9,82.9,82.9,,,,,,,,,Idle,,,TRUE,,FALSE,6,Go Home,FALSE,FALSE,FALSE,FALSE,FALSE,FALSE,FALSE,FALSE,FALSE,FALSE,FALSE,FALSE,,,,,,FALSE,,,FALSE,FALSE,FALSE,FALSE,,FALSE,FALSE,FALSE,,,,,Calm,,,1.12.8,Mavic Mini,1SDCH7G0169R0K,1SFLH6Q0AB03DJ,1SRCH7F014TAHX,1U5X071EXP6C9Y,103.7,0.1,3.2,3.20285,1.565858,0,341,Mavic Mini,1SDCH7G0169R0K,1SFLH6Q0AB03DJ,1SRCH7F014TAHX,1U5X071EXP6C9Y,DJI Fly,,1.12.8,083CA358-B33B-D79D-00B8-F00242845986,1SDCH7G0169R0K,,,,,,,,Flight mode changed to Starting Motors.,
2/27/2024,59:53.4,0m 0.2s,0.2,6.974166196,79.91452017,0,0,0.3,61,0,0,0,0,0,0,0,0,0,9.2,4,146.1,146.1,,Starting Motors,Other,Takeoff (RC Assisted),11,4,TRUE,,Mavic Mini,TRUE,FALSE,,Smart,RC,TRUE,TRUE,FALSE,,,TRUE,,FALSE,FALSE,FALSE,FALSE,FALSE,FALSE,FALSE,FALSE,FALSE,FALSE,0,Follow Yaw,0,0,147.5,147.5,FALSE,FALSE,FALSE,FALSE,FALSE,FALSE,,TRUE,Normal,,100,1024,1024,1024,1024,1,FALSE,FALSE,FALSE,FALSE,FALSE,0,FALSE,FALSE,FALSE,FALSE,97,8.186,2001,2063,8.186,TRUE,4.094,4.094,,FALSE,FALSE,NA,82.9,82.9,82.9,,,,,,,,,Idle,,,TRUE,,FALSE,6,Go Home,FALSE,FALSE,FALSE,FALSE,FALSE,FALSE,FALSE,FALSE,FALSE,FALSE,FALSE,FALSE,,,,,,FALSE,,,FALSE,FALSE,FALSE,FALSE,,FALSE,FALSE,FALSE,,,,,Calm,,,1.12.8,Mavic Mini,1SDCH7G0169R0K,1SFLH6Q0AB03DJ,1SRCH7F014TAHX,1U5X071EXP6C9Y,103.7,0.1,3.2,3.20285,1.565858,0,341,Mavic Mini,1SDCH7G0169R0K,1SFLH6Q0AB03DJ,1SRCH7F014TAHX,1U5X071EXP6C9Y,DJI Fly,,1.12.8,083CA358-B33B-D79D-00B8-F00242845986,1SDCH7G0169R0K,,,,,,,,,
2/27/2024,59:53.5,0m 0.3s,0.3,6.974166303,79.91452018,0,0,0.3,61,0.1,0,0,0,0,0,0,0,0,9.3,4,146.1,146.1,,Starting Motors,Other,Takeoff (RC Assisted),11,4,TRUE,,Mavic Mini,TRUE,FALSE,,Smart,RC,TRUE,TRUE,FALSE,,,TRUE,,FALSE,FALSE,FALSE,FALSE,FALSE,FALSE,FALSE,FALSE,FALSE,FALSE,0,Follow Yaw,0,0,147.5,147.5,FALSE,FALSE,FALSE,FALSE,FALSE,FALSE,,TRUE,Normal,,100,1024,1024,1024,1024,1,FALSE,FALSE,FALSE,FALSE,FALSE,0,FALSE,FALSE,FALSE,FALSE,97,8.186,2001,2063,8.186,TRUE,4.094,4.094,,FALSE,FALSE,NA,82.9,82.9,82.9,,,,,,,,,Idle,,,TRUE,,FALSE,6,Go Home,FALSE,FALSE,FALSE,FALSE,FALSE,FALSE,FALSE,FALSE,FALSE,FALSE,FALSE,FALSE,,,,,,FALSE,,,FALSE,FALSE,FALSE,FALSE,,FALSE,FALSE,FALSE,,,,,Calm,,,1.12.8,Mavic Mini,1SDCH7G0169R0K,1SFLH6Q0AB03DJ,1SRCH7F014TAHX,1U5X071EXP6C9Y,103.7,0.1,3.2,3.20285,1.565858,0,341,Mavic Mini,1SDCH7G0169R0K,1SFLH6Q0AB03DJ,1SRCH7F014TAHX,1U5X071EXP6C9Y,DJI Fly,,1.12.8,083CA358-B33B-D79D-00B8-F00242845986,1SDCH7G0169R0K,,,,,,,,,
2/27/2024,59:53.6,0m 0.4s,0.4,6.974166409,79.91452019,0,0,0.3,61,0.1,0,0,0,0,0,0,0,0,9.2,4,146.1,146.1,,Starting Motors,Other,Takeoff (RC Assisted),11,4,TRUE,,Mavic Mini,TRUE,FALSE,,Smart,RC,TRUE,TRUE,FALSE,,,TRUE,,FALSE,FALSE,FALSE,FALSE,FALSE,FALSE,FALSE,FALSE,FALSE,FALSE,0,Follow Yaw,0,0,146.8,146.8,FALSE,FALSE,FALSE,FALSE,FALSE,FALSE,,TRUE,Normal,,100,1024,1024,1024,1024,1,FALSE,FALSE,FALSE,FALSE,FALSE,0,FALSE,FALSE,FALSE,FALSE,97,8.186,2001,2063,8.186,TRUE,4.094,4.094,,FALSE,FALSE,NA,82.9,82.9,82.9,,,,,,,,,Idle,,,TRUE,,FALSE,6,Go Home,FALSE,FALSE,FALSE,FALSE,FALSE,FALSE,FALSE,FALSE,FALSE,FALSE,FALSE,FALSE,,,,,,FALSE,,,FALSE,FALSE,FALSE,FALSE,,FALSE,FALSE,FALSE,,,,,Calm,,,1.12.8,Mavic Mini,1SDCH7G0169R0K,1SFLH6Q0AB03DJ,1SRCH7F014TAHX,1U5X071EXP6C9Y,103.7,0.1,3.2,3.20285,1.565858,0,341,Mavic Mini,1SDCH7G0169R0K,1SFLH6Q0AB03DJ,1SRCH7F014TAHX,1U5X071EXP6C9Y,DJI Fly,,1.12.8,083CA358-B33B-D79D-00B8-F00242845986,1SDCH7G0169R0K,,,,,,,,,
2/27/2024,59:53.6,0m 0.5s,0.5,6.974166538,79.91452018,0,0,0.3,61,0.1,0,0,0,0,0,0,0,0,9.2,4,145.8,145.8,,Starting Motors,Other,Takeoff (RC Assisted),11,4,TRUE,,Mavic Mini,TRUE,FALSE,,Smart,RC,TRUE,TRUE,FALSE,,,TRUE,,FALSE,FALSE,FALSE,FALSE,FALSE,FALSE,FALSE,FALSE,FALSE,FALSE,0,Follow Yaw,0,0,144.5,144.5,FALSE,FALSE,FALSE,FALSE,FALSE,FALSE,,TRUE,Normal,,100,1024,1024,1024,1024,1,FALSE,FALSE,FALSE,FALSE,FALSE,0,FALSE,FALSE,FALSE,FALSE,97,8.186,2001,2063,8.186,TRUE,4.094,4.094,,FALSE,FALSE,NA,82.9,82.9,82.9,,,,,,,,,Idle,,,TRUE,,FALSE,6,Go Home,FALSE,FALSE,FALSE,FALSE,FALSE,FALSE,FALSE,FALSE,FALSE,FALSE,FALSE,FALSE,,,,,,FALSE,,,FALSE,FALSE,FALSE,FALSE,,FALSE,FALSE,FALSE,,,,,Calm,,,1.12.8,Mavic Mini,1SDCH7G0169R0K,1SFLH6Q0AB03DJ,1SRCH7F014TAHX,1U5X071EXP6C9Y,103.7,0.1,3.2,3.20285,1.565858,0,341,Mavic Mini,1SDCH7G0169R0K,1SFLH6Q0AB03DJ,1SRCH7F014TAHX,1U5X071EXP6C9Y,DJI Fly,,1.12.8,083CA358-B33B-D79D-00B8-F00242845986,1SDCH7G0169R0K,,,,,,,,,
2/27/2024,59:53.7,0m 0.6s,0.6,6.97416665,79.91452018,0,0,0.3,61,0.2,0,0,0,0,0,0,0,0,9.3,4,145.6,145.6,,Starting Motors,Other,Takeoff (RC Assisted),11,4,TRUE,,Mavic Mini,TRUE,FALSE,,Smart,RC,TRUE,TRUE,FALSE,,,TRUE,,FALSE,FALSE,FALSE,FALSE,FALSE,FALSE,FALSE,FALSE,FALSE,FALSE,0,Follow Yaw,0,0,143.9,143.9,FALSE,FALSE,FALSE,FALSE,FALSE,FALSE,,TRUE,Normal,,100,1024,1024,1024,1024,1,FALSE,FALSE,FALSE,FALSE,FALSE,0,FALSE,FALSE,FALSE,FALSE,97,8.186,2001,2063,8.17,TRUE,4.086,4.086,,FALSE,FALSE,NA,82.9,82.9,82.9,0,3,0,0,5,2474,618.51,,Idle,0,20,FALSE,5,TRUE,6,Go Home,FALSE,FALSE,FALSE,FALSE,FALSE,FALSE,FALSE,FALSE,FALSE,FALSE,FALSE,FALSE,6.974145223,79.9145228,7.8,184,328,TRUE,1,1,FALSE,FALSE,FALSE,FALSE,,TRUE,FALSE,FALSE,Course Lock,49.2,254.5,16.4,Calm,39,,1.12.8,Mavic Mini,1SDCH7G0169R0K,1SFLH6Q0AB03DJ,1SRCH7F014TAHX,1U5X071EXP6C9Y,103.7,0.1,3.2,3.20285,1.565858,0,341,Mavic Mini,1SDCH7G0169R0K,1SFLH6Q0AB03DJ,1SRCH7F014TAHX,1U5X071EXP6C9Y,DJI Fly,,1.12.8,083CA358-B33B-D79D-00B8-F00242845986,1SDCH7G0169R0K,,,,,,,,Data Recorder File Index is 39.; Set Return to Home (RTH) altitude to 15 m (49 ft).; Set maximum flight altitude to 100 m (328 ft).,
2/27/2024,59:53.8,0m 0.7s,0.7,6.974166798,79.91452017,0,0,0.3,61,0.2,0,0,0,0,0,0,0,0,9.2,4,145.4,145.4,,Starting Motors,Other,Takeoff (RC Assisted),11,4,TRUE,,Mavic Mini,TRUE,FALSE,,Smart,RC,TRUE,TRUE,FALSE,,,TRUE,,FALSE,FALSE,FALSE,FALSE,FALSE,FALSE,FALSE,FALSE,FALSE,FALSE,0,Follow Yaw,0,0,143.8,143.8,FALSE,FALSE,FALSE,FALSE,FALSE,FALSE,,TRUE,Normal,,100,1024,1024,1024,1024,1,FALSE,FALSE,FALSE,FALSE,FALSE,0,FALSE,FALSE,FALSE,FALSE,97,8.154,2001,2063,8.17,FALSE,4.08,4.074,0.006,FALSE,FALSE,NA,82.9,82.9,82.9,0,3,0,0,5,2474,618.51,,Idle,0,20,FALSE,5,TRUE,6,Go Home,FALSE,FALSE,FALSE,FALSE,FALSE,FALSE,FALSE,FALSE,FALSE,FALSE,FALSE,FALSE,6.974145223,79.9145228,7.9,184,328,TRUE,1,1,FALSE,FALSE,FALSE,FALSE,,TRUE,FALSE,FALSE,Course Lock,49.2,254.5,16.4,Calm,39,,1.12.8,Mavic Mini,1SDCH7G0169R0K,1SFLH6Q0AB03DJ,1SRCH7F014TAHX,1U5X071EXP6C9Y,103.7,0.1,3.2,3.20285,1.565858,0,341,Mavic Mini,1SDCH7G0169R0K,1SFLH6Q0AB03DJ,1SRCH7F014TAHX,1U5X071EXP6C9Y,DJI Fly,,1.12.8,083CA358-B33B-D79D-00B8-F00242845986,1SDCH7G0169R0K,,,,,,,,,
2/27/2024,59:53.9,0m 0.8s,0.8,6.974166953,79.91452016,0,0,0.3,61,0.3,0,0,0,0,0,0,0,0,9.3,3.9,145.2,145.2,,Starting Motors,Other,Takeoff (RC Assisted),11,4,TRUE,,Mavic Mini,TRUE,FALSE,,Smart,RC,TRUE,TRUE,FALSE,,,TRUE,,FALSE,FALSE,FALSE,FALSE,FALSE,FALSE,FALSE,FALSE,FALSE,FALSE,0,Follow Yaw,0,0,143.7,143.7,FALSE,FALSE,FALSE,FALSE,FALSE,FALSE,,TRUE,Normal,,100,1024,1024,1024,1024,1,FALSE,FALSE,FALSE,FALSE,FALSE,0,FALSE,FALSE,FALSE,FALSE,97,8.154,2000,2063,8.17,FALSE,4.08,4.074,0.006,FALSE,FALSE,NA,82.9,82.9,82.9,0,3,0,0,5,2474,618.51,,Idle,0,20,FALSE,5,TRUE,6,Go Home,FALSE,FALSE,FALSE,FALSE,FALSE,FALSE,FALSE,FALSE,FALSE,FALSE,FALSE,FALSE,6.974145223,79.9145228,7.9,184,328,TRUE,1,1,FALSE,FALSE,FALSE,FALSE,,TRUE,FALSE,FALSE,Course Lock,49.2,254.5,16.4,Calm,39,,1.12.8,Mavic Mini,1SDCH7G0169R0K,1SFLH6Q0AB03DJ,1SRCH7F014TAHX,1U5X071EXP6C9Y,103.7,0.1,3.2,3.20285,1.565858,0,341,Mavic Mini,1SDCH7G0169R0K,1SFLH6Q0AB03DJ,1SRCH7F014TAHX,1U5X071EXP6C9Y,DJI Fly,,1.12.8,083CA358-B33B-D79D-00B8-F00242845986,1SDCH7G0169R0K,,,,,,,,,
2/27/2024,59:54.0,0m 0.9s,0.9,6.974167057,79.91452014,0,0,0.3,61,0.3,0,0,0,0,0,0,0,0,9.3,3.9,145,145,,Starting Motors,Other,Takeoff (RC Assisted),11,4,TRUE,,Mavic Mini,TRUE,FALSE,,Smart,RC,TRUE,TRUE,FALSE,,,TRUE,,FALSE,FALSE,FALSE,FALSE,FALSE,FALSE,FALSE,FALSE,FALSE,FALSE,0,Follow Yaw,0,0,143.7,143.7,FALSE,FALSE,FALSE,FALSE,FALSE,FALSE,,TRUE,Normal,,100,1024,1024,1024,1024,1,FALSE,FALSE,FALSE,FALSE,FALSE,0,FALSE,FALSE,FALSE,FALSE,97,8.154,2000,2063,8.17,FALSE,4.08,4.074,0.006,FALSE,FALSE,NA,82.9,82.9,82.9,0,3,0,0,5,2474,618.51,,Idle,0,20,FALSE,5,TRUE,6,Go Home,FALSE,FALSE,FALSE,FALSE,FALSE,FALSE,FALSE,FALSE,FALSE,FALSE,FALSE,FALSE,6.974145223,79.9145228,8,184,328,TRUE,1,1,FALSE,FALSE,FALSE,FALSE,,TRUE,FALSE,FALSE,Course Lock,49.2,254.5,16.4,Calm,39,,1.12.8,Mavic Mini,1SDCH7G0169R0K,1SFLH6Q0AB03DJ,1SRCH7F014TAHX,1U5X071EXP6C9Y,103.7,0.1,3.2,3.20285,1.565858,0,341,Mavic Mini,1SDCH7G0169R0K,1SFLH6Q0AB03DJ,1SRCH7F014TAHX,1U5X071EXP6C9Y,DJI Fly,,1.12.8,083CA358-B33B-D79D-00B8-F00242845986,1SDCH7G0169R0K,,,,,,,,,
2/27/2024,59:54.1,0m 1.0s,1,6.974167132,79.91452013,0,0,0.3,61,0.4,0,0,0,0,0,0,0,0,9.3,3.9,144.9,144.9,,Starting Motors,Other,Takeoff (RC Assisted),11,4,TRUE,,Mavic Mini,TRUE,FALSE,,Smart,RC,TRUE,TRUE,FALSE,,,TRUE,,FALSE,FALSE,FALSE,FALSE,FALSE,FALSE,FALSE,FALSE,FALSE,FALSE,0,Follow Yaw,0,0,143.7,143.7,FALSE,FALSE,FALSE,FALSE,FALSE,FALSE,,TRUE,Normal,,100,1024,1024,1024,1024,1,FALSE,FALSE,FALSE,FALSE,FALSE,0,FALSE,FALSE,FALSE,FALSE,97,8.154,2000,2063,8.17,FALSE,4.08,4.074,0.006,FALSE,FALSE,NA,82.9,82.9,82.9,0,3,0,0,5,2474,618.51,,Idle,0,20,FALSE,5,TRUE,6,Go Home,FALSE,FALSE,FALSE,FALSE,FALSE,FALSE,FALSE,FALSE,FALSE,FALSE,FALSE,FALSE,6.974145223,79.9145228,8,184,328,TRUE,1,1,FALSE,FALSE,FALSE,FALSE,,TRUE,FALSE,FALSE,Course Lock,49.2,254.5,16.4,Calm,39,,1.12.8,Mavic Mini,1SDCH7G0169R0K,1SFLH6Q0AB03DJ,1SRCH7F014TAHX,1U5X071EXP6C9Y,103.7,0.1,3.2,3.20285,1.565858,0,341,Mavic Mini,1SDCH7G0169R0K,1SFLH6Q0AB03DJ,1SRCH7F014TAHX,1U5X071EXP6C9Y,DJI Fly,,1.12.8,083CA358-B33B-D79D-00B8-F00242845986,1SDCH7G0169R0K,,,,,,,,,
2/27/2024,59:54.2,0m 1.1s,1.1,6.974167257,79.91452012,0,0,0.3,61,0.4,0,0,0,0,0,0,0,0,9.4,3.9,144.7,144.7,,Starting Motors,Other,Takeoff (RC Assisted),11,4,TRUE,,Mavic Mini,TRUE,FALSE,,Smart,RC,TRUE,TRUE,FALSE,,,TRUE,,FALSE,FALSE,FALSE,FALSE,FALSE,FALSE,FALSE,FALSE,FALSE,FALSE,0,Follow Yaw,0,0,143.7,143.7,FALSE,FALSE,FALSE,FALSE,FALSE,FALSE,,TRUE,Normal,,100,1024,1024,1024,1024,1,FALSE,FALSE,FALSE,FALSE,FALSE,0,FALSE,FALSE,FALSE,FALSE,97,8.154,2000,2063,8.17,FALSE,4.08,4.074,0.006,FALSE,FALSE,NA,82.9,82.9,82.9,0,3,0,0,5,2474,618.51,,Idle,0,20,FALSE,5,TRUE,6,Go Home,FALSE,FALSE,FALSE,FALSE,FALSE,FALSE,FALSE,FALSE,FALSE,FALSE,FALSE,FALSE,6.974145223,79.9145228,8,184,328,TRUE,1,1,FALSE,FALSE,FALSE,FALSE,,TRUE,FALSE,FALSE,Course Lock,49.2,254.5,16.4,Calm,39,,1.12.8,Mavic Mini,1SDCH7G0169R0K,1SFLH6Q0AB03DJ,1SRCH7F014TAHX,1U5X071EXP6C9Y,103.7,0.1,3.2,3.20285,1.565858,0,341,Mavic Mini,1SDCH7G0169R0K,1SFLH6Q0AB03DJ,1SRCH7F014TAHX,1U5X071EXP6C9Y,DJI Fly,,1.12.8,083CA358-B33B-D79D-00B8-F00242845986,1SDCH7G0169R0K,,,,,,,,,
2/27/2024,59:54.3,0m 1.2s,1.2,6.974167394,79.91452011,0,0,0.3,61,0.5,0,0,0,0,0,0,0,0,9.4,3.9,144.5,144.5,,Manual Takeoff,Other,Takeoff (RC Assisted),11,4,TRUE,,Mavic Mini,TRUE,FALSE,,Smart,RC,TRUE,TRUE,FALSE,,,TRUE,,FALSE,FALSE,FALSE,FALSE,FALSE,FALSE,FALSE,FALSE,FALSE,FALSE,0,Follow Yaw,0,0,143.7,143.7,FALSE,FALSE,FALSE,FALSE,FALSE,FALSE,,TRUE,Normal,,100,1024,1024,1024,1024,1,FALSE,FALSE,FALSE,FALSE,FALSE,0,FALSE,FALSE,FALSE,FALSE,97,8.154,2000,2063,8.17,FALSE,4.08,4.074,0.006,FALSE,FALSE,NA,82.9,82.9,82.9,0,3,0,0,5,2474,618.51,,Idle,0,20,FALSE,5,TRUE,6,Go Home,FALSE,FALSE,FALSE,FALSE,FALSE,FALSE,FALSE,FALSE,FALSE,FALSE,FALSE,FALSE,6.974145223,79.9145228,8.1,184,328,TRUE,1,1,FALSE,FALSE,FALSE,FALSE,,TRUE,FALSE,FALSE,Course Lock,49.2,254.5,16.4,Calm,39,,1.12.8,Mavic Mini,1SDCH7G0169R0K,1SFLH6Q0AB03DJ,1SRCH7F014TAHX,1U5X071EXP6C9Y,103.7,0.1,3.2,3.20285,1.565858,0,341,Mavic Mini,1SDCH7G0169R0K,1SFLH6Q0AB03DJ,1SRCH7F014TAHX,1U5X071EXP6C9Y,DJI Fly,,1.12.8,083CA358-B33B-D79D-00B8-F00242845986,1SDCH7G0169R0K,,,,,,,,Flight mode changed to Manual Takeoff.,
2/27/2024,59:54.4,0m 1.3s,1.3,6.974167544,79.9145201,0,0,0.3,61,0.5,0,0,0,0,0,0,0,0,9.3,4,144.3,144.3,,Manual Takeoff,Other,Takeoff (RC Assisted),11,4,TRUE,,Mavic Mini,TRUE,FALSE,,Smart,RC,TRUE,TRUE,FALSE,,,TRUE,,FALSE,FALSE,FALSE,FALSE,FALSE,FALSE,FALSE,FALSE,FALSE,FALSE,0,Follow Yaw,0,0,143.7,143.7,FALSE,FALSE,FALSE,FALSE,FALSE,FALSE,,TRUE,Normal,,100,1024,1024,1024,1024,1,FALSE,FALSE,FALSE,FALSE,FALSE,0,FALSE,FALSE,FALSE,FALSE,97,8.154,2000,2063,8.17,FALSE,4.08,4.074,0.006,FALSE,FALSE,NA,82.9,82.9,82.9,0,3,0,0,5,2474,618.51,,Idle,0,20,FALSE,5,TRUE,6,Go Home,FALSE,FALSE,FALSE,FALSE,FALSE,FALSE,FALSE,FALSE,FALSE,FALSE,FALSE,FALSE,6.974145223,79.9145228,8.2,184,328,TRUE,1,1,FALSE,FALSE,FALSE,FALSE,,TRUE,FALSE,FALSE,Course Lock,49.2,254.5,16.4,Calm,39,,1.12.8,Mavic Mini,1SDCH7G0169R0K,1SFLH6Q0AB03DJ,1SRCH7F014TAHX,1U5X071EXP6C9Y,103.7,0.1,3.2,3.20285,1.565858,0,341,Mavic Mini,1SDCH7G0169R0K,1SFLH6Q0AB03DJ,1SRCH7F014TAHX,1U5X071EXP6C9Y,DJI Fly,,1.12.8,083CA358-B33B-D79D-00B8-F00242845986,1SDCH7G0169R0K,,,,,,,,,
2/27/2024,59:54.5,0m 1.4s,1.4,6.974167701,79.9145201,0,0,0.3,61,0.6,0,0,0,0,0,0,0,0,9.3,3.9,144.2,144.2,,Manual Takeoff,Other,Takeoff (RC Assisted),11,4,TRUE,,Mavic Mini,TRUE,FALSE,,Smart,RC,TRUE,TRUE,FALSE,,,TRUE,,FALSE,FALSE,FALSE,FALSE,FALSE,FALSE,FALSE,FALSE,FALSE,FALSE,0,Follow Yaw,0,0,143.7,143.7,FALSE,FALSE,FALSE,FALSE,FALSE,FALSE,,TRUE,Normal,,100,1024,1024,1024,1024,1,FALSE,FALSE,FALSE,FALSE,FALSE,0,FALSE,FALSE,FALSE,FALSE,97,8.154,2000,2063,8.17,FALSE,4.08,4.074,0.006,FALSE,FALSE,NA,82.9,82.9,82.9,0,3,0,0,5,2474,618.51,,Idle,0,20,FALSE,5,TRUE,6,Go Home,FALSE,FALSE,FALSE,FALSE,FALSE,FALSE,FALSE,FALSE,FALSE,FALSE,FALSE,FALSE,6.974145223,79.9145228,8.2,184,328,TRUE,1,1,FALSE,FALSE,FALSE,FALSE,,TRUE,FALSE,FALSE,Course Lock,49.2,254.5,16.4,Calm,39,,1.12.8,Mavic Mini,1SDCH7G0169R0K,1SFLH6Q0AB03DJ,1SRCH7F014TAHX,1U5X071EXP6C9Y,103.7,0.1,3.2,3.20285,1.565858,0,341,Mavic Mini,1SDCH7G0169R0K,1SFLH6Q0AB03DJ,1SRCH7F014TAHX,1U5X071EXP6C9Y,DJI Fly,,1.12.8,083CA358-B33B-D79D-00B8-F00242845986,1SDCH7G0169R0K,,,,,,,,,
2/27/2024,59:54.5,0m 1.5s,1.5,6.97416792,79.91452016,0,0,0.3,61,0.6,0,0,0,0,0,0,0,0,9.3,3.9,144,144,,Manual Takeoff,Other,Takeoff (RC Assisted),11,4,TRUE,,Mavic Mini,TRUE,FALSE,,Smart,RC,TRUE,TRUE,FALSE,,,TRUE,,FALSE,FALSE,FALSE,FALSE,FALSE,FALSE,FALSE,FALSE,FALSE,FALSE,0,Follow Yaw,0,0,143.7,143.7,FALSE,FALSE,FALSE,FALSE,FALSE,FALSE,,TRUE,Normal,,100,1024,1024,1024,1024,1,FALSE,FALSE,FALSE,FALSE,FALSE,0,FALSE,FALSE,FALSE,FALSE,97,8.154,2000,2063,8.17,FALSE,4.08,4.074,0.006,FALSE,FALSE,NA,82.9,82.9,82.9,0,3,0,0,5,2474,618.51,,Idle,0,20,FALSE,5,TRUE,6,Go Home,FALSE,FALSE,FALSE,FALSE,FALSE,FALSE,FALSE,FALSE,FALSE,FALSE,FALSE,FALSE,6.974145223,79.9145228,8.3,184,328,TRUE,1,1,FALSE,FALSE,FALSE,FALSE,,TRUE,FALSE,FALSE,Course Lock,49.2,254.5,16.4,Calm,39,,1.12.8,Mavic Mini,1SDCH7G0169R0K,1SFLH6Q0AB03DJ,1SRCH7F014TAHX,1U5X071EXP6C9Y,103.7,0.1,3.2,3.20285,1.565858,0,341,Mavic Mini,1SDCH7G0169R0K,1SFLH6Q0AB03DJ,1SRCH7F014TAHX,1U5X071EXP6C9Y,DJI Fly,,1.12.8,083CA358-B33B-D79D-00B8-F00242845986,1SDCH7G0169R0K,,,,,,,,,
2/27/2024,59:54.7,0m 1.6s,1.6,6.974168075,79.91452021,0,0,0.3,61,0.7,0,0,0,0,0,0,0,0,9.3,4,143.9,143.9,,Manual Takeoff,Other,Takeoff (RC Assisted),11,4,TRUE,,Mavic Mini,TRUE,FALSE,,Smart,RC,TRUE,TRUE,FALSE,,,TRUE,,FALSE,FALSE,FALSE,FALSE,FALSE,FALSE,FALSE,FALSE,FALSE,FALSE,0,Follow Yaw,0,0,143.6,143.6,FALSE,FALSE,FALSE,FALSE,FALSE,FALSE,,TRUE,Normal,,100,1024,1024,1024,1024,1,FALSE,FALSE,FALSE,FALSE,FALSE,0,FALSE,FALSE,FALSE,FALSE,97,8.154,2000,2063,8.157,FALSE,4.08,4.074,0.006,FALSE,FALSE,NA,82.9,82.9,82.9,0,3,0,0,5,2490.2,622.57,,Idle,0,20,FALSE,5,TRUE,6,Go Home,FALSE,FALSE,FALSE,FALSE,FALSE,FALSE,FALSE,FALSE,FALSE,FALSE,FALSE,FALSE,6.974145223,79.9145228,8.3,184,328,TRUE,1,1,FALSE,FALSE,FALSE,FALSE,,TRUE,FALSE,FALSE,Course Lock,49.2,254.5,16.4,Calm,39,,1.12.8,Mavic Mini,1SDCH7G0169R0K,1SFLH6Q0AB03DJ,1SRCH7F014TAHX,1U5X071EXP6C9Y,103.7,0.1,3.2,3.20285,1.565858,0,341,Mavic Mini,1SDCH7G0169R0K,1SFLH6Q0AB03DJ,1SRCH7F014TAHX,1U5X071EXP6C9Y,DJI Fly,,1.12.8,083CA358-B33B-D79D-00B8-F00242845986,1SDCH7G0169R0K,,,,,,,,,
2/27/2024,59:54.7,0m 1.7s,1.7,6.974168179,79.91452018,0,0,0.3,61,0.7,0,0,0,0,0,0,0,0,9.3,3.9,143.8,143.8,,Manual Takeoff,Other,Takeoff (RC Assisted),11,4,TRUE,,Mavic Mini,TRUE,FALSE,,Smart,RC,TRUE,TRUE,FALSE,,,TRUE,,FALSE,FALSE,FALSE,FALSE,FALSE,FALSE,FALSE,FALSE,FALSE,FALSE,0,Follow Yaw,0,0,143.6,143.6,FALSE,FALSE,FALSE,FALSE,FALSE,FALSE,,TRUE,Normal,,100,1024,1024,1024,1024,1,FALSE,FALSE,FALSE,FALSE,FALSE,0,FALSE,FALSE,FALSE,FALSE,97,8.154,2000,2063,8.157,FALSE,4.08,4.074,0.006,FALSE,FALSE,NA,82.9,82.9,82.9,0,3,0,0,5,2490.2,622.57,,Idle,0,20,FALSE,5,TRUE,6,Go Home,FALSE,FALSE,FALSE,FALSE,FALSE,FALSE,FALSE,FALSE,FALSE,FALSE,FALSE,FALSE,6.974145223,79.9145228,8.4,184,328,TRUE,1,1,FALSE,FALSE,FALSE,FALSE,,TRUE,FALSE,FALSE,Course Lock,49.2,254.5,16.4,Calm,39,,1.12.8,Mavic Mini,1SDCH7G0169R0K,1SFLH6Q0AB03DJ,1SRCH7F014TAHX,1U5X071EXP6C9Y,103.7,0.1,3.2,3.20285,1.565858,0,341,Mavic Mini,1SDCH7G0169R0K,1SFLH6Q0AB03DJ,1SRCH7F014TAHX,1U5X071EXP6C9Y,DJI Fly,,1.12.8,083CA358-B33B-D79D-00B8-F00242845986,1SDCH7G0169R0K,,,,,,,,,
2/27/2024,59:55.0,0m 1.8s,1.8,6.974168282,79.91452014,0,0,0.3,61,0.8,0,0,0,0,0,0,0,0,9.3,3.9,143.7,143.7,,Manual Takeoff,Other,Takeoff (RC Assisted),11,4,TRUE,,Mavic Mini,TRUE,FALSE,,Smart,RC,TRUE,TRUE,FALSE,,,TRUE,,FALSE,FALSE,FALSE,FALSE,FALSE,FALSE,FALSE,FALSE,FALSE,FALSE,0,Follow Yaw,0,0,143.6,143.6,FALSE,FALSE,FALSE,FALSE,FALSE,FALSE,,TRUE,Normal,,100,1024,1024,1024,1024,1,FALSE,FALSE,FALSE,FALSE,FALSE,0,FALSE,FALSE,FALSE,FALSE,97,8.154,2000,2063,8.157,FALSE,4.08,4.074,0.006,FALSE,FALSE,NA,82.9,82.9,82.9,0,3,0,0,5,2490.2,622.57,,Idle,0,20,FALSE,5,TRUE,6,Go Home,FALSE,FALSE,FALSE,FALSE,FALSE,FALSE,FALSE,FALSE,FALSE,FALSE,FALSE,FALSE,6.974145223,79.9145228,8.4,184,328,TRUE,1,1,FALSE,FALSE,FALSE,FALSE,,TRUE,FALSE,FALSE,Course Lock,49.2,254.5,16.4,Calm,39,,1.12.8,Mavic Mini,1SDCH7G0169R0K,1SFLH6Q0AB03DJ,1SRCH7F014TAHX,1U5X071EXP6C9Y,103.7,0.1,3.2,3.20285,1.565858,0,341,Mavic Mini,1SDCH7G0169R0K,1SFLH6Q0AB03DJ,1SRCH7F014TAHX,1U5X071EXP6C9Y,DJI Fly,,1.12.8,083CA358-B33B-D79D-00B8-F00242845986,1SDCH7G0169R0K,,,,,,,,,
2/27/2024,59:55.1,0m 1.9s,1.9,6.974168405,79.91452025,0,0,0.3,61,0.8,0,0,0,0,0,0,0,0,9.3,3.9,143.6,143.6,,Manual Takeoff,Other,Takeoff (RC Assisted),11,4,TRUE,,Mavic Mini,TRUE,FALSE,,Smart,RC,TRUE,TRUE,FALSE,,,TRUE,,FALSE,FALSE,FALSE,FALSE,FALSE,FALSE,FALSE,FALSE,FALSE,FALSE,0,Follow Yaw,0,0,143.6,143.6,FALSE,FALSE,FALSE,FALSE,FALSE,FALSE,,TRUE,Normal,,100,1024,1024,1024,1024,1,FALSE,FALSE,FALSE,FALSE,FALSE,0,FALSE,FALSE,FALSE,FALSE,97,8.164,2000,2063,8.157,FALSE,4.084,4.08,0.006,FALSE,FALSE,NA,82.9,82.9,82.9,0,3,0,0,5,2490.2,622.57,,Idle,0,20,FALSE,5,TRUE,6,Go Home,FALSE,FALSE,FALSE,FALSE,FALSE,FALSE,FALSE,FALSE,FALSE,FALSE,FALSE,FALSE,6.974145223,79.9145228,8.5,184,328,TRUE,1,1,FALSE,FALSE,FALSE,FALSE,,TRUE,FALSE,FALSE,Course Lock,49.2,254.5,16.4,Calm,39,,1.12.8,Mavic Mini,1SDCH7G0169R0K,1SFLH6Q0AB03DJ,1SRCH7F014TAHX,1U5X071EXP6C9Y,103.7,0.1,3.2,3.20285,1.565858,0,341,Mavic Mini,1SDCH7G0169R0K,1SFLH6Q0AB03DJ,1SRCH7F014TAHX,1U5X071EXP6C9Y,DJI Fly,,1.12.8,083CA358-B33B-D79D-00B8-F00242845986,1SDCH7G0169R0K,,,,,,,,,
2/27/2024,59:55.1,0m 2.0s,2,6.974168544,79.91452028,0,0,0.3,61,0.9,0,0,0,0,0,0,0,0,9.3,3.9,143.5,143.5,,Manual Takeoff,Other,Takeoff (RC Assisted),11,4,TRUE,,Mavic Mini,TRUE,FALSE,,Smart,RC,TRUE,TRUE,FALSE,,,TRUE,,FALSE,FALSE,FALSE,FALSE,FALSE,FALSE,FALSE,FALSE,FALSE,FALSE,0,Follow Yaw,0,0,143.6,143.6,FALSE,FALSE,FALSE,FALSE,FALSE,FALSE,,TRUE,Normal,,100,1024,1024,1024,1024,1,FALSE,FALSE,FALSE,FALSE,FALSE,0,FALSE,FALSE,FALSE,FALSE,97,8.164,2000,2063,8.157,FALSE,4.084,4.08,0.006,FALSE,FALSE,NA,82.9,82.9,82.9,0,3,0,0,5,2490.2,622.57,,Idle,0,20,FALSE,5,TRUE,6,Go Home,FALSE,FALSE,FALSE,FALSE,FALSE,FALSE,FALSE,FALSE,FALSE,FALSE,FALSE,FALSE,6.974145223,79.9145228,8.5,184,328,TRUE,1,1,FALSE,FALSE,FALSE,FALSE,,TRUE,FALSE,FALSE,Course Lock,49.2,254.5,16.4,Calm,39,,1.12.8,Mavic Mini,1SDCH7G0169R0K,1SFLH6Q0AB03DJ,1SRCH7F014TAHX,1U5X071EXP6C9Y,103.7,0.1,3.2,3.20285,1.565858,0,341,Mavic Mini,1SDCH7G0169R0K,1SFLH6Q0AB03DJ,1SRCH7F014TAHX,1U5X071EXP6C9Y,DJI Fly,,1.12.8,083CA358-B33B-D79D-00B8-F00242845986,1SDCH7G0169R0K,,,,,,,,,
2/27/2024,59:55.2,0m 2.1s,2.1,6.974168689,79.91452029,0,0,0.3,61,1,0,0,0,0,0,0,0,0,9.3,3.9,143.4,143.4,,Manual Takeoff,Other,Takeoff (RC Assisted),11,4,TRUE,,Mavic Mini,TRUE,FALSE,,Smart,RC,TRUE,TRUE,FALSE,,,TRUE,,FALSE,FALSE,FALSE,FALSE,FALSE,FALSE,FALSE,FALSE,FALSE,FALSE,0,Follow Yaw,0,0,143.6,143.6,FALSE,FALSE,FALSE,FALSE,FALSE,FALSE,,TRUE,Normal,,100,1024,1024,1024,1024,1,FALSE,FALSE,FALSE,FALSE,FALSE,0,FALSE,FALSE,FALSE,FALSE,97,8.164,2000,2063,8.157,FALSE,4.084,4.08,0.006,FALSE,FALSE,NA,82.9,82.9,82.9,0,3,0,0,5,2490.2,622.57,,Idle,0,20,FALSE,5,TRUE,6,Go Home,FALSE,FALSE,FALSE,FALSE,FALSE,FALSE,FALSE,FALSE,FALSE,FALSE,FALSE,FALSE,6.974145223,79.9145228,8.6,184,328,TRUE,1,1,FALSE,FALSE,FALSE,FALSE,,TRUE,FALSE,FALSE,Course Lock,49.2,254.5,16.4,Calm,39,,1.12.8,Mavic Mini,1SDCH7G0169R0K,1SFLH6Q0AB03DJ,1SRCH7F014TAHX,1U5X071EXP6C9Y,103.7,0.1,3.2,3.20285,1.565858,0,341,Mavic Mini,1SDCH7G0169R0K,1SFLH6Q0AB03DJ,1SRCH7F014TAHX,1U5X071EXP6C9Y,DJI Fly,,1.12.8,083CA358-B33B-D79D-00B8-F00242845986,1SDCH7G0169R0K,,,,,6.974180848,79.91449689,5,,
2/27/2024,59:55.4,0m 2.2s,2.2,6.974168842,79.91452029,0,0,0.3,61,1,0,0,0,0,0,0,0,0,9.3,3.9,143.4,143.4,,Manual Takeoff,Other,Takeoff (RC Assisted),11,4,TRUE,,Mavic Mini,TRUE,FALSE,,Smart,RC,TRUE,TRUE,FALSE,,,TRUE,,FALSE,FALSE,FALSE,FALSE,FALSE,FALSE,FALSE,FALSE,FALSE,FALSE,0,Follow Yaw,0,0,143.6,143.6,FALSE,FALSE,FALSE,FALSE,FALSE,FALSE,,TRUE,Normal,,100,1024,1024,1024,1024,1,FALSE,FALSE,FALSE,FALSE,FALSE,0,FALSE,FALSE,FALSE,FALSE,97,8.164,2000,2063,8.157,FALSE,4.084,4.08,0.006,FALSE,FALSE,NA,82.9,82.9,82.9,0,3,0,0,5,2490.2,622.57,,Idle,0,20,FALSE,5,TRUE,6,Go Home,FALSE,FALSE,FALSE,FALSE,FALSE,FALSE,FALSE,FALSE,FALSE,FALSE,FALSE,FALSE,6.974145223,79.9145228,8.6,184,328,TRUE,1,1,FALSE,FALSE,FALSE,FALSE,,TRUE,FALSE,FALSE,Course Lock,49.2,254.5,16.4,Calm,39,,1.12.8,Mavic Mini,1SDCH7G0169R0K,1SFLH6Q0AB03DJ,1SRCH7F014TAHX,1U5X071EXP6C9Y,103.7,0.1,3.2,3.20285,1.565858,0,341,Mavic Mini,1SDCH7G0169R0K,1SFLH6Q0AB03DJ,1SRCH7F014TAHX,1U5X071EXP6C9Y,DJI Fly,,1.12.8,083CA358-B33B-D79D-00B8-F00242845986,1SDCH7G0169R0K,,,,,6.974180848,79.91449689,5,,
2/27/2024,59:55.4,0m 2.3s,2.3,6.974168932,79.91452029,0,0,0.3,61,1,0,0,0,0,0,0,0,0,9.3,3.9,143.3,143.3,,Manual Takeoff,Other,Takeoff (RC Assisted),11,4,TRUE,,Mavic Mini,TRUE,FALSE,,Smart,RC,TRUE,TRUE,FALSE,,,TRUE,,FALSE,FALSE,FALSE,FALSE,FALSE,FALSE,FALSE,FALSE,FALSE,FALSE,0,Follow Yaw,0,0,143.6,143.6,FALSE,FALSE,FALSE,FALSE,FALSE,FALSE,,TRUE,Normal,,100,1024,1024,1024,1024,1,FALSE,FALSE,FALSE,FALSE,FALSE,0,FALSE,FALSE,FALSE,FALSE,97,8.164,2000,2063,8.157,FALSE,4.084,4.08,0.006,FALSE,FALSE,NA,82.9,82.9,82.9,0,3,0,0,5,2490.2,622.57,,Idle,0,20,FALSE,5,TRUE,6,Go Home,FALSE,FALSE,FALSE,FALSE,FALSE,FALSE,FALSE,FALSE,FALSE,FALSE,FALSE,FALSE,6.974145223,79.9145228,8.6,184,328,TRUE,1,1,FALSE,FALSE,FALSE,FALSE,,TRUE,FALSE,FALSE,Course Lock,49.2,254.5,16.4,Calm,39,,1.12.8,Mavic Mini,1SDCH7G0169R0K,1SFLH6Q0AB03DJ,1SRCH7F014TAHX,1U5X071EXP6C9Y,103.7,0.1,3.2,3.20285,1.565858,0,341,Mavic Mini,1SDCH7G0169R0K,1SFLH6Q0AB03DJ,1SRCH7F014TAHX,1U5X071EXP6C9Y,DJI Fly,,1.12.8,083CA358-B33B-D79D-00B8-F00242845986,1SDCH7G0169R0K,,,,,6.974180848,79.91449689,5,,
2/27/2024,59:55.5,0m 2.4s,2.4,6.974169036,79.91452028,0,0,0.3,61,1.1,0,0,0,0,0,0,0,0,9.3,3.9,143.2,143.2,,Manual Takeoff,Other,Takeoff (RC Assisted),11,4,TRUE,,Mavic Mini,TRUE,FALSE,,Smart,RC,TRUE,TRUE,FALSE,,,TRUE,,FALSE,FALSE,FALSE,FALSE,FALSE,FALSE,FALSE,FALSE,FALSE,FALSE,0,Follow Yaw,0,0,143.6,143.6,FALSE,FALSE,FALSE,FALSE,FALSE,FALSE,,TRUE,Normal,,100,1024,1024,1024,1024,1,FALSE,FALSE,FALSE,FALSE,FALSE,0,FALSE,FALSE,FALSE,FALSE,97,8.164,2000,2063,8.157,FALSE,4.084,4.08,0.006,FALSE,FALSE,NA,82.9,82.9,82.9,0,3,0,0,5,2490.2,622.57,,Idle,0,20,FALSE,5,TRUE,6,Go Home,FALSE,FALSE,FALSE,FALSE,FALSE,FALSE,FALSE,FALSE,FALSE,FALSE,FALSE,FALSE,6.974145223,79.9145228,8.7,184,328,TRUE,1,1,FALSE,FALSE,FALSE,FALSE,,TRUE,FALSE,FALSE,Course Lock,49.2,254.5,16.4,Calm,39,,1.12.8,Mavic Mini,1SDCH7G0169R0K,1SFLH6Q0AB03DJ,1SRCH7F014TAHX,1U5X071EXP6C9Y,103.7,0.1,3.2,3.20285,1.565858,0,341,Mavic Mini,1SDCH7G0169R0K,1SFLH6Q0AB03DJ,1SRCH7F014TAHX,1U5X071EXP6C9Y,DJI Fly,,1.12.8,083CA358-B33B-D79D-00B8-F00242845986,1SDCH7G0169R0K,,,,,6.974180848,79.91449689,5,,
2/27/2024,59:55.6,0m 2.5s,2.5,6.974169164,79.91452027,0,0,0.3,61,1.1,0,0,0,0,0,0,0,0,9.3,3.9,143.2,143.2,,Manual Takeoff,Other,Takeoff (RC Assisted),11,4,TRUE,,Mavic Mini,TRUE,FALSE,,Smart,RC,TRUE,TRUE,FALSE,,,TRUE,,FALSE,FALSE,FALSE,FALSE,FALSE,FALSE,FALSE,FALSE,FALSE,FALSE,0,Follow Yaw,0,0,143.6,143.6,FALSE,FALSE,FALSE,FALSE,FALSE,FALSE,,TRUE,Normal,,100,1024,1024,1024,1024,1,FALSE,FALSE,FALSE,FALSE,FALSE,0,FALSE,FALSE,FALSE,FALSE,97,8.164,2000,2063,8.157,FALSE,4.084,4.08,0.006,FALSE,FALSE,NA,82.9,82.9,82.9,0,3,0,0,5,2490.2,622.57,,Idle,0,20,FALSE,5,TRUE,6,Go Home,FALSE,FALSE,FALSE,FALSE,FALSE,FALSE,FALSE,FALSE,FALSE,FALSE,FALSE,FALSE,6.974145223,79.9145228,8.7,184,328,TRUE,1,1,FALSE,FALSE,FALSE,FALSE,,TRUE,FALSE,FALSE,Course Lock,49.2,254.5,16.4,Calm,39,,1.12.8,Mavic Mini,1SDCH7G0169R0K,1SFLH6Q0AB03DJ,1SRCH7F014TAHX,1U5X071EXP6C9Y,103.7,0.1,3.2,3.20285,1.565858,0,341,Mavic Mini,1SDCH7G0169R0K,1SFLH6Q0AB03DJ,1SRCH7F014TAHX,1U5X071EXP6C9Y,DJI Fly,,1.12.8,083CA358-B33B-D79D-00B8-F00242845986,1SDCH7G0169R0K,,,,,6.974180848,79.91449689,5,,
2/27/2024,59:55.7,0m 2.6s,2.6,6.974169302,79.91452026,0,0,0.3,61,1.2,0,0,0,0,0,0,0,0,9.3,3.9,143.1,143.1,,Manual Takeoff,Other,Takeoff (RC Assisted),11,4,TRUE,,Mavic Mini,TRUE,FALSE,,Smart,RC,TRUE,TRUE,FALSE,,,TRUE,,FALSE,FALSE,FALSE,FALSE,FALSE,FALSE,FALSE,FALSE,FALSE,FALSE,0,Follow Yaw,0,0,143.6,143.6,FALSE,FALSE,FALSE,FALSE,FALSE,FALSE,,TRUE,Normal,,100,1024,1024,1024,1024,1,FALSE,FALSE,FALSE,FALSE,FALSE,0,FALSE,FALSE,FALSE,FALSE,97,8.164,2000,2063,8.162,FALSE,4.084,4.08,0.006,FALSE,FALSE,NA,82.9,82.9,82.9,0,3,0,0,5,2578.9,644.74,,Idle,0,20,FALSE,5,TRUE,6,Go Home,FALSE,FALSE,FALSE,FALSE,FALSE,FALSE,FALSE,FALSE,FALSE,FALSE,FALSE,FALSE,6.974145223,79.9145228,8.8,184,328,TRUE,1,1,FALSE,FALSE,FALSE,FALSE,,TRUE,FALSE,FALSE,Course Lock,49.2,254.5,16.4,Calm,39,,1.12.8,Mavic Mini,1SDCH7G0169R0K,1SFLH6Q0AB03DJ,1SRCH7F014TAHX,1U5X071EXP6C9Y,103.7,0.1,3.2,3.20285,1.565858,0,341,Mavic Mini,1SDCH7G0169R0K,1SFLH6Q0AB03DJ,1SRCH7F014TAHX,1U5X071EXP6C9Y,DJI Fly,,1.12.8,083CA358-B33B-D79D-00B8-F00242845986,1SDCH7G0169R0K,,,,,6.974180848,79.91449689,5,,
2/27/2024,59:55.8,0m 2.7s,2.7,6.974169386,79.91452026,0,0,0.3,61,1.2,0,0,0,0,0,0,0,0,9.3,3.9,143.1,143.1,,Manual Takeoff,Other,Takeoff (RC Assisted),11,4,TRUE,,Mavic Mini,TRUE,FALSE,,Smart,RC,TRUE,TRUE,FALSE,,,TRUE,,FALSE,FALSE,FALSE,FALSE,FALSE,FALSE,FALSE,FALSE,FALSE,FALSE,0,Follow Yaw,0,0,143.6,143.6,FALSE,FALSE,FALSE,FALSE,FALSE,FALSE,,TRUE,Normal,,100,1024,1024,1024,1024,1,FALSE,FALSE,FALSE,FALSE,FALSE,0,FALSE,FALSE,FALSE,FALSE,97,8.164,2000,2063,8.162,FALSE,4.084,4.08,0.006,FALSE,FALSE,NA,82.9,82.9,82.9,0,3,0,0,5,2578.9,644.74,,Idle,0,20,FALSE,5,TRUE,6,Go Home,FALSE,FALSE,FALSE,FALSE,FALSE,FALSE,FALSE,FALSE,FALSE,FALSE,FALSE,FALSE,6.974145223,79.9145228,8.8,184,328,TRUE,1,1,FALSE,FALSE,FALSE,FALSE,,TRUE,FALSE,FALSE,Course Lock,49.2,254.5,16.4,Calm,39,,1.12.8,Mavic Mini,1SDCH7G0169R0K,1SFLH6Q0AB03DJ,1SRCH7F014TAHX,1U5X071EXP6C9Y,103.7,0.1,3.2,3.20285,1.565858,0,341,Mavic Mini,1SDCH7G0169R0K,1SFLH6Q0AB03DJ,1SRCH7F014TAHX,1U5X071EXP6C9Y,DJI Fly,,1.12.8,083CA358-B33B-D79D-00B8-F00242845986,1SDCH7G0169R0K,,,,,6.974180848,79.91449689,5,,
2/27/2024,59:55.9,0m 2.8s,2.8,6.97416949,79.91452025,0,0,0.3,61,1.2,0,0,0,0,0,0,0,0,9.3,3.9,143,143,,Manual Takeoff,Other,Takeoff (RC Assisted),11,4,TRUE,,Mavic Mini,TRUE,FALSE,,Smart,RC,TRUE,TRUE,FALSE,,,TRUE,,FALSE,FALSE,FALSE,FALSE,FALSE,FALSE,FALSE,FALSE,FALSE,FALSE,0,Follow Yaw,0,0,143.6,143.6,FALSE,FALSE,FALSE,FALSE,FALSE,FALSE,,TRUE,Normal,,100,1024,1024,1024,1024,1,FALSE,FALSE,FALSE,FALSE,FALSE,0,FALSE,FALSE,FALSE,FALSE,97,8.164,2000,2063,8.162,FALSE,4.084,4.08,0.006,FALSE,FALSE,NA,82.9,82.9,82.9,0,3,0,0,5,2578.9,644.74,,Idle,0,20,FALSE,5,TRUE,6,Go Home,FALSE,FALSE,FALSE,FALSE,FALSE,FALSE,FALSE,FALSE,FALSE,FALSE,FALSE,FALSE,6.974145223,79.9145228,8.9,184,328,TRUE,1,1,FALSE,FALSE,FALSE,FALSE,,TRUE,FALSE,FALSE,Course Lock,49.2,254.5,16.4,Calm,39,,1.12.8,Mavic Mini,1SDCH7G0169R0K,1SFLH6Q0AB03DJ,1SRCH7F014TAHX,1U5X071EXP6C9Y,103.7,0.1,3.2,3.20285,1.565858,0,341,Mavic Mini,1SDCH7G0169R0K,1SFLH6Q0AB03DJ,1SRCH7F014TAHX,1U5X071EXP6C9Y,DJI Fly,,1.12.8,083CA358-B33B-D79D-00B8-F00242845986,1SDCH7G0169R0K,,,,,6.974180848,79.91449689,5,,
2/27/2024,59:56.0,0m 2.9s,2.9,6.974169622,79.91452029,0,0,0.3,61,1.3,0,0,0,0,0,0,0,0,9.3,3.9,142.9,142.9,,Manual Takeoff,Other,Takeoff (RC Assisted),11,4,TRUE,,Mavic Mini,TRUE,FALSE,,Smart,RC,TRUE,TRUE,FALSE,,,TRUE,,FALSE,FALSE,FALSE,FALSE,FALSE,FALSE,FALSE,FALSE,FALSE,FALSE,0,Follow Yaw,0,0,143.6,143.6,FALSE,FALSE,FALSE,FALSE,FALSE,FALSE,,TRUE,Normal,,100,1024,1024,1024,1024,1,FALSE,FALSE,FALSE,FALSE,FALSE,0,FALSE,FALSE,FALSE,FALSE,97,8.164,2000,2063,8.162,FALSE,4.084,4.08,0.006,FALSE,FALSE,NA,82.9,82.9,82.9,0,3,0,0,5,2578.9,644.74,,Idle,0,20,FALSE,5,TRUE,6,Go Home,FALSE,FALSE,FALSE,FALSE,FALSE,FALSE,FALSE,FALSE,FALSE,FALSE,FALSE,FALSE,6.974145223,79.9145228,8.9,184,328,TRUE,1,1,FALSE,FALSE,FALSE,FALSE,,TRUE,FALSE,FALSE,Course Lock,49.2,254.5,16.4,Calm,39,,1.12.8,Mavic Mini,1SDCH7G0169R0K,1SFLH6Q0AB03DJ,1SRCH7F014TAHX,1U5X071EXP6C9Y,103.7,0.1,3.2,3.20285,1.565858,0,341,Mavic Mini,1SDCH7G0169R0K,1SFLH6Q0AB03DJ,1SRCH7F014TAHX,1U5X071EXP6C9Y,DJI Fly,,1.12.8,083CA358-B33B-D79D-00B8-F00242845986,1SDCH7G0169R0K,,,,,6.974180848,79.91449689,5,,
2/27/2024,59:56.1,0m 3.0s,3,6.974169765,79.91452034,0,0,0.3,61,1.3,0,0,0,0,0,0,0,0,9.3,3.8,142.9,142.9,,Manual Takeoff,Other,Takeoff (RC Assisted),11,4,TRUE,,Mavic Mini,TRUE,FALSE,,Smart,RC,TRUE,TRUE,FALSE,,,TRUE,,FALSE,FALSE,FALSE,FALSE,FALSE,FALSE,FALSE,FALSE,FALSE,FALSE,0,Follow Yaw,0,0,143.6,143.6,FALSE,FALSE,FALSE,FALSE,FALSE,FALSE,,TRUE,Normal,,100,1024,1024,1024,1024,1,FALSE,FALSE,FALSE,FALSE,FALSE,0,FALSE,FALSE,FALSE,FALSE,97,8.164,2000,2063,8.162,FALSE,4.085,4.079,0.006,FALSE,FALSE,NA,82.9,82.9,82.9,0,3,0,0,5,2578.9,644.74,,Idle,0,20,FALSE,5,TRUE,6,Go Home,FALSE,FALSE,FALSE,FALSE,FALSE,FALSE,FALSE,FALSE,FALSE,FALSE,FALSE,FALSE,6.974145223,79.9145228,8.9,184,328,TRUE,1,1,FALSE,FALSE,FALSE,FALSE,,TRUE,FALSE,FALSE,Course Lock,49.2,254.5,16.4,Calm,39,,1.12.8,Mavic Mini,1SDCH7G0169R0K,1SFLH6Q0AB03DJ,1SRCH7F014TAHX,1U5X071EXP6C9Y,103.7,0.1,3.2,3.20285,1.565858,0,341,Mavic Mini,1SDCH7G0169R0K,1SFLH6Q0AB03DJ,1SRCH7F014TAHX,1U5X071EXP6C9Y,DJI Fly,,1.12.8,083CA358-B33B-D79D-00B8-F00242845986,1SDCH7G0169R0K,,,,,6.974180848,79.91449689,5,,
2/27/2024,59:56.2,0m 3.1s,3.1,6.974169872,79.91452035,0,0,0.3,61,1.4,0,0,0,0,0,0,0,0,9.3,3.9,142.9,142.9,,Manual Takeoff,Other,Takeoff (RC Assisted),11,4,TRUE,,Mavic Mini,TRUE,FALSE,,Smart,RC,TRUE,TRUE,FALSE,,,TRUE,,FALSE,FALSE,FALSE,FALSE,FALSE,FALSE,FALSE,FALSE,FALSE,FALSE,0,Follow Yaw,0,0,143.6,143.6,FALSE,FALSE,FALSE,FALSE,FALSE,FALSE,,TRUE,Normal,,100,1024,1024,1024,1024,1,FALSE,FALSE,FALSE,FALSE,FALSE,0,FALSE,FALSE,FALSE,FALSE,97,8.164,2000,2063,8.162,FALSE,4.085,4.079,0.006,FALSE,FALSE,NA,82.9,82.9,82.9,0,3,0,0,5,2578.9,644.74,,Idle,0,20,FALSE,5,TRUE,6,Go Home,FALSE,FALSE,FALSE,FALSE,FALSE,FALSE,FALSE,FALSE,FALSE,FALSE,FALSE,FALSE,6.974145223,79.9145228,9,184,328,TRUE,1,1,FALSE,FALSE,FALSE,FALSE,,TRUE,FALSE,FALSE,Course Lock,49.2,254.5,16.4,Calm,39,,1.12.8,Mavic Mini,1SDCH7G0169R0K,1SFLH6Q0AB03DJ,1SRCH7F014TAHX,1U5X071EXP6C9Y,103.7,0.1,3.2,3.20285,1.565858,0,341,Mavic Mini,1SDCH7G0169R0K,1SFLH6Q0AB03DJ,1SRCH7F014TAHX,1U5X071EXP6C9Y,DJI Fly,,1.12.8,083CA358-B33B-D79D-00B8-F00242845986,1SDCH7G0169R0K,,,,,6.974180848,79.91449689,5,,
2/27/2024,59:56.3,0m 3.2s,3.2,6.974169983,79.91452045,0,0,0.3,61,1.4,0,0,0,0,0,0,0,0,9.3,3.9,142.8,142.8,,Manual Takeoff,Other,Takeoff (RC Assisted),11,4,TRUE,,Mavic Mini,TRUE,FALSE,,Smart,RC,TRUE,TRUE,FALSE,,,TRUE,,FALSE,FALSE,FALSE,FALSE,FALSE,FALSE,FALSE,FALSE,FALSE,FALSE,0,Follow Yaw,0,0,143.6,143.6,FALSE,FALSE,FALSE,FALSE,FALSE,FALSE,,TRUE,Normal,,100,1024,1024,1024,1024,1,FALSE,FALSE,FALSE,FALSE,FALSE,0,FALSE,FALSE,FALSE,FALSE,97,8.164,2000,2063,8.162,FALSE,4.085,4.079,0.006,FALSE,FALSE,NA,82.9,82.9,82.9,0,3,0,0,5,2578.9,644.74,,Idle,0,20,FALSE,5,TRUE,6,Go Home,FALSE,FALSE,FALSE,FALSE,FALSE,FALSE,FALSE,FALSE,FALSE,FALSE,FALSE,FALSE,6.974145223,79.9145228,9,184,328,TRUE,1,1,FALSE,FALSE,FALSE,FALSE,,TRUE,FALSE,FALSE,Course Lock,49.2,254.5,16.4,Calm,39,,1.12.8,Mavic Mini,1SDCH7G0169R0K,1SFLH6Q0AB03DJ,1SRCH7F014TAHX,1U5X071EXP6C9Y,103.7,0.1,3.2,3.20285,1.565858,0,341,Mavic Mini,1SDCH7G0169R0K,1SFLH6Q0AB03DJ,1SRCH7F014TAHX,1U5X071EXP6C9Y,DJI Fly,,1.12.8,083CA358-B33B-D79D-00B8-F00242845986,1SDCH7G0169R0K,,,,,6.974180848,79.91449689,5,,
2/27/2024,59:56.4,0m 3.3s,3.3,6.974170072,79.91452045,0,0,0.3,61,1.5,0,0,0,0,0,0,0,0,9.3,3.9,142.8,142.8,,Manual Takeoff,Other,Takeoff (RC Assisted),11,4,TRUE,,Mavic Mini,TRUE,FALSE,,Smart,RC,TRUE,TRUE,FALSE,,,TRUE,,FALSE,FALSE,FALSE,FALSE,FALSE,FALSE,FALSE,FALSE,FALSE,FALSE,0,Follow Yaw,0,0,143.6,143.6,FALSE,FALSE,FALSE,FALSE,FALSE,FALSE,,TRUE,Normal,,100,1024,1024,1024,1024,1,FALSE,FALSE,FALSE,FALSE,FALSE,0,FALSE,FALSE,FALSE,FALSE,97,8.164,2000,2063,8.162,FALSE,4.085,4.079,0.006,FALSE,FALSE,NA,82.9,82.9,82.9,0,3,0,0,5,2578.9,644.74,,Idle,0,20,FALSE,5,TRUE,6,Go Home,FALSE,FALSE,FALSE,FALSE,FALSE,FALSE,FALSE,FALSE,FALSE,FALSE,FALSE,FALSE,6.974145223,79.9145228,9.1,184,328,TRUE,1,1,FALSE,FALSE,FALSE,FALSE,,TRUE,FALSE,FALSE,Course Lock,49.2,254.5,16.4,Calm,39,,1.12.8,Mavic Mini,1SDCH7G0169R0K,1SFLH6Q0AB03DJ,1SRCH7F014TAHX,1U5X071EXP6C9Y,103.7,0.1,3.2,3.20285,1.565858,0,341,Mavic Mini,1SDCH7G0169R0K,1SFLH6Q0AB03DJ,1SRCH7F014TAHX,1U5X071EXP6C9Y,DJI Fly,,1.12.8,083CA358-B33B-D79D-00B8-F00242845986,1SDCH7G0169R0K,,,,,6.974180848,79.91449689,5,,
2/27/2024,59:56.5,0m 3.4s,3.4,6.974170165,79.91452044,0,0,0.3,61,1.5,0,0,0,0,0,0,0,0,9.3,3.9,142.7,142.7,,Manual Takeoff,Other,Takeoff (RC Assisted),11,4,TRUE,,Mavic Mini,TRUE,FALSE,,Smart,RC,TRUE,TRUE,FALSE,,,TRUE,,FALSE,FALSE,FALSE,FALSE,FALSE,FALSE,FALSE,FALSE,FALSE,FALSE,0,Follow Yaw,0,0,143.6,143.6,FALSE,FALSE,FALSE,FALSE,FALSE,FALSE,,TRUE,Normal,,100,1024,1024,1024,1024,1,FALSE,FALSE,FALSE,FALSE,FALSE,0,FALSE,FALSE,FALSE,FALSE,97,8.164,2000,2063,8.162,FALSE,4.085,4.079,0.006,FALSE,FALSE,NA,82.9,82.9,82.9,0,3,0,0,5,2578.9,644.74,,Idle,0,20,FALSE,5,TRUE,6,Go Home,FALSE,FALSE,FALSE,FALSE,FALSE,FALSE,FALSE,FALSE,FALSE,FALSE,FALSE,FALSE,6.974145223,79.9145228,9.1,184,328,TRUE,1,1,FALSE,FALSE,FALSE,FALSE,,TRUE,FALSE,FALSE,Course Lock,49.2,254.5,16.4,Calm,39,,1.12.8,Mavic Mini,1SDCH7G0169R0K,1SFLH6Q0AB03DJ,1SRCH7F014TAHX,1U5X071EXP6C9Y,103.7,0.1,3.2,3.20285,1.565858,0,341,Mavic Mini,1SDCH7G0169R0K,1SFLH6Q0AB03DJ,1SRCH7F014TAHX,1U5X071EXP6C9Y,DJI Fly,,1.12.8,083CA358-B33B-D79D-00B8-F00242845986,1SDCH7G0169R0K,,,,,6.974180848,79.91449689,5,,
2/27/2024,59:56.6,0m 3.5s,3.5,6.974170295,79.91452043,0,0,0.3,61,1.6,0,0,0,0,0,0,0,0,9.3,3.9,142.7,142.7,,Manual Takeoff,Other,Takeoff (RC Assisted),11,4,TRUE,,Mavic Mini,TRUE,FALSE,,Smart,RC,TRUE,TRUE,FALSE,,,TRUE,,FALSE,FALSE,FALSE,FALSE,FALSE,FALSE,FALSE,FALSE,FALSE,FALSE,0,Follow Yaw,0,0,143.6,143.6,FALSE,FALSE,FALSE,FALSE,FALSE,FALSE,,TRUE,Normal,,100,1024,1024,1024,1024,1,FALSE,FALSE,FALSE,FALSE,FALSE,0,FALSE,FALSE,FALSE,FALSE,97,8.164,2000,2063,8.162,FALSE,4.085,4.079,0.006,FALSE,FALSE,NA,82.9,82.9,82.9,0,3,0,0,5,2578.9,644.74,,Idle,0,20,FALSE,5,TRUE,6,Go Home,FALSE,FALSE,FALSE,FALSE,FALSE,FALSE,FALSE,FALSE,FALSE,FALSE,FALSE,FALSE,6.974145223,79.9145228,9.1,184,328,TRUE,1,1,FALSE,FALSE,FALSE,FALSE,,TRUE,FALSE,FALSE,Course Lock,49.2,254.5,16.4,Calm,39,,1.12.8,Mavic Mini,1SDCH7G0169R0K,1SFLH6Q0AB03DJ,1SRCH7F014TAHX,1U5X071EXP6C9Y,103.7,0.1,3.2,3.20285,1.565858,0,341,Mavic Mini,1SDCH7G0169R0K,1SFLH6Q0AB03DJ,1SRCH7F014TAHX,1U5X071EXP6C9Y,DJI Fly,,1.12.8,083CA358-B33B-D79D-00B8-F00242845986,1SDCH7G0169R0K,,,,,6.974180848,79.91449689,5,,
2/27/2024,59:56.6,0m 3.6s,3.6,6.974170457,79.91452039,0,0,0.3,61,1.6,0,0,0,0,0,0,0,0,9.3,3.8,142.7,142.7,,Manual Takeoff,Other,Takeoff (RC Assisted),11,4,TRUE,,Mavic Mini,TRUE,FALSE,,Smart,RC,TRUE,TRUE,FALSE,,,TRUE,,FALSE,FALSE,FALSE,FALSE,FALSE,FALSE,FALSE,FALSE,FALSE,FALSE,0,Follow Yaw,0,0,143.6,143.6,FALSE,FALSE,FALSE,FALSE,FALSE,FALSE,,TRUE,Normal,,100,1024,1024,1024,1024,1,FALSE,FALSE,FALSE,FALSE,FALSE,0,FALSE,FALSE,FALSE,FALSE,97,8.164,2000,2063,8.164,FALSE,4.085,4.079,0.006,FALSE,FALSE,NA,82.9,82.9,82.9,0,3,0,0,5,2741.1,685.27,,Idle,0,20,FALSE,5,TRUE,6,Go Home,FALSE,FALSE,FALSE,FALSE,FALSE,FALSE,FALSE,FALSE,FALSE,FALSE,FALSE,FALSE,6.974145223,79.9145228,9.2,184,328,TRUE,1,1,FALSE,FALSE,FALSE,FALSE,,TRUE,FALSE,FALSE,Course Lock,49.2,254.5,16.4,Calm,39,,1.12.8,Mavic Mini,1SDCH7G0169R0K,1SFLH6Q0AB03DJ,1SRCH7F014TAHX,1U5X071EXP6C9Y,103.7,0.1,3.2,3.20285,1.565858,0,341,Mavic Mini,1SDCH7G0169R0K,1SFLH6Q0AB03DJ,1SRCH7F014TAHX,1U5X071EXP6C9Y,DJI Fly,,1.12.8,083CA358-B33B-D79D-00B8-F00242845986,1SDCH7G0169R0K,,,,,6.974180848,79.91449689,5,,
2/27/2024,59:56.9,0m 3.7s,3.7,6.974170567,79.91452043,0,0,0.3,61,1.7,0,0,0,0,0,0,0,0,9.3,3.9,142.6,142.6,,Manual Takeoff,Other,Takeoff (RC Assisted),11,4,TRUE,,Mavic Mini,TRUE,FALSE,,Smart,RC,TRUE,TRUE,FALSE,,,TRUE,,FALSE,FALSE,FALSE,FALSE,FALSE,FALSE,FALSE,FALSE,FALSE,FALSE,0,Follow Yaw,0,0,143.6,143.6,FALSE,FALSE,FALSE,FALSE,FALSE,FALSE,,TRUE,Normal,,100,1024,1024,1024,1024,1,FALSE,FALSE,FALSE,FALSE,FALSE,0,FALSE,FALSE,FALSE,FALSE,97,8.164,2000,2063,8.164,FALSE,4.085,4.079,0.006,FALSE,FALSE,NA,82.9,82.9,82.9,0,3,0,0,5,2741.1,685.27,,Idle,0,20,FALSE,5,TRUE,6,Go Home,FALSE,FALSE,FALSE,FALSE,FALSE,FALSE,FALSE,FALSE,FALSE,FALSE,FALSE,FALSE,6.974145223,79.9145228,9.2,184,328,TRUE,1,1,FALSE,FALSE,FALSE,FALSE,,TRUE,FALSE,FALSE,Course Lock,49.2,254.5,16.4,Calm,39,,1.12.8,Mavic Mini,1SDCH7G0169R0K,1SFLH6Q0AB03DJ,1SRCH7F014TAHX,1U5X071EXP6C9Y,103.7,0.1,3.2,3.20285,1.565858,0,341,Mavic Mini,1SDCH7G0169R0K,1SFLH6Q0AB03DJ,1SRCH7F014TAHX,1U5X071EXP6C9Y,DJI Fly,,1.12.8,083CA358-B33B-D79D-00B8-F00242845986,1SDCH7G0169R0K,,,,,6.974180848,79.91449689,5,,
2/27/2024,59:56.9,0m 3.8s,3.8,6.974170679,79.91452047,0,0,0.3,61,1.7,0,0,0,0,0,0,0,0,9.3,3.8,142.6,142.6,,Manual Takeoff,Other,Takeoff (RC Assisted),11,4,TRUE,,Mavic Mini,TRUE,FALSE,,Smart,RC,TRUE,TRUE,FALSE,,,TRUE,,FALSE,FALSE,FALSE,FALSE,FALSE,FALSE,FALSE,FALSE,FALSE,FALSE,0,Follow Yaw,0,0,143.6,143.6,FALSE,FALSE,FALSE,FALSE,FALSE,FALSE,,TRUE,Normal,,100,1024,1024,1024,1024,1,FALSE,FALSE,FALSE,FALSE,FALSE,0,FALSE,FALSE,FALSE,FALSE,97,8.164,2000,2063,8.164,FALSE,4.085,4.079,0.006,FALSE,FALSE,NA,82.9,82.9,82.9,0,3,0,0,5,2741.1,685.27,,Idle,0,20,FALSE,5,TRUE,6,Go Home,FALSE,FALSE,FALSE,FALSE,FALSE,FALSE,FALSE,FALSE,FALSE,FALSE,FALSE,FALSE,6.974145223,79.9145228,9.3,184,328,TRUE,1,1,FALSE,FALSE,FALSE,FALSE,,TRUE,FALSE,FALSE,Course Lock,49.2,254.5,16.4,Calm,39,,1.12.8,Mavic Mini,1SDCH7G0169R0K,1SFLH6Q0AB03DJ,1SRCH7F014TAHX,1U5X071EXP6C9Y,103.7,0.1,3.2,3.20285,1.565858,0,341,Mavic Mini,1SDCH7G0169R0K,1SFLH6Q0AB03DJ,1SRCH7F014TAHX,1U5X071EXP6C9Y,DJI Fly,,1.12.8,083CA358-B33B-D79D-00B8-F00242845986,1SDCH7G0169R0K,,,,,6.974180848,79.91449689,5,,
2/27/2024,59:57.1,0m 3.9s,3.9,6.974170775,79.91452049,0,0,0.3,61,1.7,0,0,0,0,0,0,0,0,9.3,3.9,142.6,142.6,,Manual Takeoff,Other,Takeoff (RC Assisted),11,4,TRUE,,Mavic Mini,TRUE,FALSE,,Smart,RC,TRUE,TRUE,FALSE,,,TRUE,,FALSE,FALSE,FALSE,FALSE,FALSE,FALSE,FALSE,FALSE,FALSE,FALSE,0,Follow Yaw,0,0,143.6,143.6,FALSE,FALSE,FALSE,FALSE,FALSE,FALSE,,TRUE,Normal,,100,1024,1024,1057,1024,1,FALSE,FALSE,FALSE,FALSE,FALSE,0,FALSE,FALSE,FALSE,FALSE,97,8.164,2000,2063,8.164,FALSE,4.085,4.079,0.006,FALSE,FALSE,NA,82.9,82.9,82.9,0,3,0,0,5,2741.1,685.27,,Idle,0,20,FALSE,5,TRUE,6,Go Home,FALSE,FALSE,FALSE,FALSE,FALSE,FALSE,FALSE,FALSE,FALSE,FALSE,FALSE,FALSE,6.974145223,79.9145228,9.3,184,328,TRUE,1,1,FALSE,FALSE,FALSE,FALSE,,TRUE,FALSE,FALSE,Course Lock,49.2,254.5,16.4,Calm,39,,1.12.8,Mavic Mini,1SDCH7G0169R0K,1SFLH6Q0AB03DJ,1SRCH7F014TAHX,1U5X071EXP6C9Y,103.7,0.1,3.2,3.20285,1.565858,0,341,Mavic Mini,1SDCH7G0169R0K,1SFLH6Q0AB03DJ,1SRCH7F014TAHX,1U5X071EXP6C9Y,DJI Fly,,1.12.8,083CA358-B33B-D79D-00B8-F00242845986,1SDCH7G0169R0K,,,,,6.974180848,79.91449689,5,,
2/27/2024,59:57.1,0m 4.0s,4,6.97417084,79.91452057,0,0,0.3,61,1.8,0,0,0,0,0,0,0,0,9.3,3.8,142.5,142.5,,Manual Takeoff,Other,Takeoff (RC Assisted),11,4,TRUE,,Mavic Mini,TRUE,FALSE,,Smart,RC,TRUE,TRUE,FALSE,,,TRUE,,FALSE,FALSE,FALSE,FALSE,FALSE,FALSE,FALSE,FALSE,FALSE,FALSE,0,Follow Yaw,0,0,143.6,143.6,FALSE,FALSE,FALSE,FALSE,FALSE,FALSE,,TRUE,Normal,,100,1024,1024,1208,1024,1,FALSE,FALSE,FALSE,FALSE,FALSE,0,FALSE,FALSE,FALSE,FALSE,97,8.164,2000,2063,8.164,FALSE,4.085,4.079,0.006,FALSE,FALSE,NA,82.9,82.9,82.9,0,3,0,0,5,2741.1,685.27,,Idle,0,20,FALSE,5,TRUE,6,Go Home,FALSE,FALSE,FALSE,FALSE,FALSE,FALSE,FALSE,FALSE,FALSE,FALSE,FALSE,FALSE,6.974145223,79.9145228,9.3,184,328,TRUE,1,1,FALSE,FALSE,FALSE,FALSE,,TRUE,FALSE,FALSE,Course Lock,49.2,254.5,16.4,Calm,39,,1.12.8,Mavic Mini,1SDCH7G0169R0K,1SFLH6Q0AB03DJ,1SRCH7F014TAHX,1U5X071EXP6C9Y,103.7,0.1,3.2,3.20285,1.565858,0,341,Mavic Mini,1SDCH7G0169R0K,1SFLH6Q0AB03DJ,1SRCH7F014TAHX,1U5X071EXP6C9Y,DJI Fly,,1.12.8,083CA358-B33B-D79D-00B8-F00242845986,1SDCH7G0169R0K,,,,,6.974180848,79.91449689,5,,
2/27/2024,59:57.2,0m 4.1s,4.1,6.97417093,79.91452056,0,0,0.3,61,1.8,0,0,0,0,0,0,0,0,9.3,3.9,142.5,142.5,,Manual Takeoff,Other,Takeoff (RC Assisted),11,4,TRUE,,Mavic Mini,TRUE,FALSE,,Smart,RC,TRUE,TRUE,FALSE,,,TRUE,,FALSE,FALSE,FALSE,FALSE,FALSE,FALSE,FALSE,FALSE,FALSE,FALSE,0,Follow Yaw,0,0,143.6,143.6,FALSE,FALSE,FALSE,FALSE,FALSE,FALSE,,TRUE,Normal,,100,1024,1024,1208,1024,1,FALSE,FALSE,FALSE,FALSE,FALSE,0,FALSE,FALSE,FALSE,FALSE,97,8.161,1999,2063,8.164,FALSE,4.082,4.079,0.006,FALSE,FALSE,NA,82.9,82.9,82.9,0,3,0,0,5,2741.1,685.27,,Idle,0,20,FALSE,5,TRUE,6,Go Home,FALSE,FALSE,FALSE,FALSE,FALSE,FALSE,FALSE,FALSE,FALSE,FALSE,FALSE,FALSE,6.974145223,79.9145228,9.4,184,328,TRUE,1,1,FALSE,FALSE,FALSE,FALSE,,TRUE,FALSE,FALSE,Course Lock,49.2,254.5,16.4,Calm,39,,1.12.8,Mavic Mini,1SDCH7G0169R0K,1SFLH6Q0AB03DJ,1SRCH7F014TAHX,1U5X071EXP6C9Y,103.7,0.1,3.2,3.20285,1.565858,0,341,Mavic Mini,1SDCH7G0169R0K,1SFLH6Q0AB03DJ,1SRCH7F014TAHX,1U5X071EXP6C9Y,DJI Fly,,1.12.8,083CA358-B33B-D79D-00B8-F00242845986,1SDCH7G0169R0K,,,,,6.974180848,79.91449689,5,,
2/27/2024,59:57.3,0m 4.2s,4.2,6.974171025,79.91452056,0,0,0.3,61,1.8,0,0,0,0,0,0,0,0,9.3,3.9,142.5,142.5,,Manual Takeoff,Other,Takeoff (RC Assisted),11,4,TRUE,,Mavic Mini,TRUE,FALSE,,Smart,RC,TRUE,TRUE,FALSE,,,TRUE,,FALSE,FALSE,FALSE,FALSE,FALSE,FALSE,FALSE,FALSE,FALSE,FALSE,0,Follow Yaw,0,0,143.6,143.6,FALSE,FALSE,FALSE,FALSE,FALSE,FALSE,,TRUE,Normal,,100,1024,1024,1285,1024,1,FALSE,FALSE,FALSE,FALSE,FALSE,0,FALSE,FALSE,FALSE,FALSE,97,8.161,1999,2063,8.164,FALSE,4.082,4.079,0.006,FALSE,FALSE,NA,82.9,82.9,82.9,0,3,0,0,5,2741.1,685.27,,Idle,0,20,FALSE,5,TRUE,6,Go Home,FALSE,FALSE,FALSE,FALSE,FALSE,FALSE,FALSE,FALSE,FALSE,FALSE,FALSE,FALSE,6.974145223,79.9145228,9.4,184,328,TRUE,1,1,FALSE,FALSE,FALSE,FALSE,,TRUE,FALSE,FALSE,Course Lock,49.2,254.5,16.4,Calm,39,,1.12.8,Mavic Mini,1SDCH7G0169R0K,1SFLH6Q0AB03DJ,1SRCH7F014TAHX,1U5X071EXP6C9Y,103.7,0.1,3.2,3.20285,1.565858,0,341,Mavic Mini,1SDCH7G0169R0K,1SFLH6Q0AB03DJ,1SRCH7F014TAHX,1U5X071EXP6C9Y,DJI Fly,,1.12.8,083CA358-B33B-D79D-00B8-F00242845986,1SDCH7G0169R0K,,,,,6.974180848,79.91449689,5,,
2/27/2024,59:57.4,0m 4.3s,4.3,6.974171116,79.91452059,0,0,0.3,61,1.9,0,0,0,0,0,0,0,0,9.3,3.8,142.4,142.4,,Manual Takeoff,Other,Takeoff (RC Assisted),11,4,TRUE,,Mavic Mini,TRUE,FALSE,,Smart,RC,TRUE,TRUE,FALSE,,,TRUE,,FALSE,FALSE,FALSE,FALSE,FALSE,FALSE,FALSE,FALSE,FALSE,FALSE,0,Follow Yaw,0,0,143.6,143.6,FALSE,FALSE,FALSE,FALSE,FALSE,FALSE,,TRUE,Normal,,100,1024,1024,1317,1024,1,FALSE,FALSE,FALSE,FALSE,FALSE,0,FALSE,FALSE,FALSE,FALSE,97,8.161,1999,2063,8.164,FALSE,4.082,4.079,0.006,FALSE,FALSE,NA,82.9,82.9,82.9,0,3,0,0,5,2741.1,685.27,,Idle,0,20,FALSE,5,TRUE,6,Go Home,FALSE,FALSE,FALSE,FALSE,FALSE,FALSE,FALSE,FALSE,FALSE,FALSE,FALSE,FALSE,6.974145223,79.9145228,9.4,184,328,TRUE,1,1,FALSE,FALSE,FALSE,FALSE,,TRUE,FALSE,FALSE,Course Lock,49.2,254.5,16.4,Calm,39,,1.12.8,Mavic Mini,1SDCH7G0169R0K,1SFLH6Q0AB03DJ,1SRCH7F014TAHX,1U5X071EXP6C9Y,103.7,0.1,3.2,3.20285,1.565858,0,341,Mavic Mini,1SDCH7G0169R0K,1SFLH6Q0AB03DJ,1SRCH7F014TAHX,1U5X071EXP6C9Y,DJI Fly,,1.12.8,083CA358-B33B-D79D-00B8-F00242845986,1SDCH7G0169R0K,,,,,6.974180848,79.91449689,5,,
2/27/2024,59:57.5,0m 4.4s,4.4,6.974171159,79.91452066,0,0,0.3,61,1.9,0,0,0,0,0,0,0,0,9.3,3.7,142.4,142.4,,Manual Takeoff,Other,Takeoff (RC Assisted),11,4,TRUE,,Mavic Mini,TRUE,FALSE,,Smart,RC,TRUE,TRUE,FALSE,,,TRUE,,FALSE,FALSE,FALSE,FALSE,FALSE,FALSE,FALSE,FALSE,FALSE,FALSE,0,Follow Yaw,0,0,143.6,143.6,FALSE,FALSE,FALSE,FALSE,FALSE,FALSE,,TRUE,Normal,,100,1024,1024,1330,1024,1,FALSE,FALSE,FALSE,FALSE,FALSE,0,FALSE,FALSE,FALSE,FALSE,97,8.161,1999,2063,8.164,FALSE,4.082,4.079,0.006,FALSE,FALSE,NA,82.9,82.9,82.9,0,3,0,0,5,2741.1,685.27,,Idle,0,20,FALSE,5,TRUE,6,Go Home,FALSE,FALSE,FALSE,FALSE,FALSE,FALSE,FALSE,FALSE,FALSE,FALSE,FALSE,FALSE,6.974145223,79.9145228,9.4,184,328,TRUE,1,1,FALSE,FALSE,FALSE,FALSE,,TRUE,FALSE,FALSE,Course Lock,49.2,254.5,16.4,Calm,39,,1.12.8,Mavic Mini,1SDCH7G0169R0K,1SFLH6Q0AB03DJ,1SRCH7F014TAHX,1U5X071EXP6C9Y,103.7,0.1,3.2,3.20285,1.565858,0,341,Mavic Mini,1SDCH7G0169R0K,1SFLH6Q0AB03DJ,1SRCH7F014TAHX,1U5X071EXP6C9Y,DJI Fly,,1.12.8,083CA358-B33B-D79D-00B8-F00242845986,1SDCH7G0169R0K,,,,,6.974180848,79.91449689,5,,
2/27/2024,59:57.6,0m 4.5s,4.5,6.974171253,79.91452067,0,0,0.3,61,1.9,0,0,0,0,0,0,0,0,9.2,3.5,142.4,142.4,,Manual Takeoff,Other,Takeoff (RC Assisted),11,4,TRUE,,Mavic Mini,TRUE,FALSE,,Smart,RC,TRUE,TRUE,FALSE,,,TRUE,,FALSE,FALSE,FALSE,FALSE,FALSE,FALSE,FALSE,FALSE,FALSE,FALSE,0,Follow Yaw,0,0,143.6,143.6,FALSE,FALSE,FALSE,FALSE,FALSE,FALSE,,TRUE,Normal,,100,1024,1024,1344,1024,1,FALSE,FALSE,FALSE,FALSE,FALSE,0,FALSE,FALSE,FALSE,FALSE,97,8.161,1999,2063,8.164,FALSE,4.082,4.079,0.006,FALSE,FALSE,NA,82.9,82.9,82.9,0,3,0,0,5,2741.1,685.27,,Idle,0,20,FALSE,5,TRUE,6,Go Home,FALSE,FALSE,FALSE,FALSE,FALSE,FALSE,FALSE,FALSE,FALSE,FALSE,FALSE,FALSE,6.974145223,79.9145228,9.5,184,328,TRUE,1,1,FALSE,FALSE,FALSE,FALSE,,TRUE,FALSE,FALSE,Course Lock,49.2,254.5,16.4,Calm,39,,1.12.8,Mavic Mini,1SDCH7G0169R0K,1SFLH6Q0AB03DJ,1SRCH7F014TAHX,1U5X071EXP6C9Y,103.7,0.1,3.2,3.20285,1.565858,0,341,Mavic Mini,1SDCH7G0169R0K,1SFLH6Q0AB03DJ,1SRCH7F014TAHX,1U5X071EXP6C9Y,DJI Fly,,1.12.8,083CA358-B33B-D79D-00B8-F00242845986,1SDCH7G0169R0K,,,,,6.974180848,79.91449689,5,,
2/27/2024,59:57.7,0m 4.6s,4.6,6.974171351,79.91452068,0,0,0.3,61,2,0,0,0,0,0,0,0,0,8.7,3.7,142.3,142.3,,Manual Takeoff,Other,Takeoff (RC Assisted),11,4,TRUE,,Mavic Mini,TRUE,FALSE,,Smart,RC,TRUE,TRUE,FALSE,,,TRUE,,FALSE,FALSE,FALSE,FALSE,FALSE,FALSE,FALSE,FALSE,FALSE,FALSE,0,Follow Yaw,0,0,143.6,143.6,FALSE,FALSE,FALSE,FALSE,FALSE,FALSE,,TRUE,Normal,,100,1024,1024,1353,1024,1,FALSE,FALSE,FALSE,FALSE,FALSE,0,FALSE,FALSE,FALSE,FALSE,97,8.161,1999,2063,8.134,FALSE,4.082,4.079,0.006,FALSE,FALSE,NA,82.9,82.9,82.9,0,3,0,0,5,2936,734,,Idle,0,20,FALSE,5,TRUE,6,Go Home,FALSE,FALSE,FALSE,FALSE,FALSE,FALSE,FALSE,FALSE,FALSE,FALSE,FALSE,FALSE,6.974145223,79.9145228,9.5,184,328,TRUE,1,1,FALSE,FALSE,FALSE,FALSE,,TRUE,FALSE,FALSE,Course Lock,49.2,254.5,16.4,Calm,39,,1.12.8,Mavic Mini,1SDCH7G0169R0K,1SFLH6Q0AB03DJ,1SRCH7F014TAHX,1U5X071EXP6C9Y,103.7,0.1,3.2,3.20285,1.565858,0,341,Mavic Mini,1SDCH7G0169R0K,1SFLH6Q0AB03DJ,1SRCH7F014TAHX,1U5X071EXP6C9Y,DJI Fly,,1.12.8,083CA358-B33B-D79D-00B8-F00242845986,1SDCH7G0169R0K,,,,,6.974180848,79.91449689,5,,
2/27/2024,59:57.9,0m 4.7s,4.7,6.974171442,79.91452066,0,0,0.3,61,2,0,0,0,0,0,0,0,0,8,3.8,142,142,,Manual Takeoff,Other,Takeoff (RC Assisted),11,4,TRUE,,Mavic Mini,TRUE,FALSE,,Smart,RC,TRUE,TRUE,FALSE,,,TRUE,,FALSE,FALSE,FALSE,FALSE,FALSE,FALSE,FALSE,FALSE,FALSE,FALSE,0,Follow Yaw,0,0,143.6,143.6,FALSE,FALSE,FALSE,FALSE,FALSE,FALSE,,TRUE,Normal,,100,1024,1024,1355,1024,1,FALSE,FALSE,FALSE,FALSE,FALSE,0,FALSE,FALSE,FALSE,FALSE,97,8.161,1999,2063,8.134,FALSE,4.082,4.079,0.006,FALSE,FALSE,NA,82.9,82.9,82.9,0,3,0,0,5,2936,734,,Idle,0,20,FALSE,5,TRUE,6,Go Home,FALSE,FALSE,FALSE,FALSE,FALSE,FALSE,FALSE,FALSE,FALSE,FALSE,FALSE,FALSE,6.974145223,79.9145228,9.5,184,328,TRUE,1,1,FALSE,FALSE,FALSE,FALSE,,TRUE,FALSE,FALSE,Course Lock,49.2,254.5,16.4,Calm,39,,1.12.8,Mavic Mini,1SDCH7G0169R0K,1SFLH6Q0AB03DJ,1SRCH7F014TAHX,1U5X071EXP6C9Y,103.7,0.1,3.2,3.20285,1.565858,0,341,Mavic Mini,1SDCH7G0169R0K,1SFLH6Q0AB03DJ,1SRCH7F014TAHX,1U5X071EXP6C9Y,DJI Fly,,1.12.8,083CA358-B33B-D79D-00B8-F00242845986,1SDCH7G0169R0K,,,,,6.974180848,79.91449689,5,,
2/27/2024,59:57.9,0m 4.8s,4.8,6.974171546,79.9145206,0,0,0.3,61,2.1,0,0,0,0,0,0,0,0,6.8,3.7,141.8,141.8,,Manual Takeoff,Other,Takeoff (RC Assisted),11,4,TRUE,,Mavic Mini,TRUE,FALSE,,Smart,RC,TRUE,TRUE,FALSE,,,TRUE,,FALSE,FALSE,FALSE,FALSE,FALSE,FALSE,FALSE,FALSE,FALSE,FALSE,0,Follow Yaw,0,0,143.6,143.6,FALSE,FALSE,FALSE,FALSE,FALSE,FALSE,,TRUE,Normal,,100,1024,1024,1355,1024,1,FALSE,FALSE,FALSE,FALSE,FALSE,0,FALSE,FALSE,FALSE,FALSE,97,8.161,1999,2063,8.134,FALSE,4.082,4.079,0.006,FALSE,FALSE,NA,82.9,82.9,82.9,0,3,0,0,5,2936,734,,Idle,0,20,FALSE,5,TRUE,6,Go Home,FALSE,FALSE,FALSE,FALSE,FALSE,FALSE,FALSE,FALSE,FALSE,FALSE,FALSE,FALSE,6.974145223,79.9145228,9.6,184,328,TRUE,1,1,FALSE,FALSE,FALSE,FALSE,,TRUE,FALSE,FALSE,Course Lock,49.2,254.5,16.4,Calm,39,,1.12.8,Mavic Mini,1SDCH7G0169R0K,1SFLH6Q0AB03DJ,1SRCH7F014TAHX,1U5X071EXP6C9Y,103.7,0.1,3.2,3.20285,1.565858,0,341,Mavic Mini,1SDCH7G0169R0K,1SFLH6Q0AB03DJ,1SRCH7F014TAHX,1U5X071EXP6C9Y,DJI Fly,,1.12.8,083CA358-B33B-D79D-00B8-F00242845986,1SDCH7G0169R0K,,,,,6.974180848,79.91449689,5,,
2/27/2024,59:58.1,0m 4.9s,4.9,6.974171664,79.91452051,0,0,0.3,61,2.1,0.223694,0.223694,0,0,-0.223694,0,0,0,4.3,2.4,141.4,141.4,330.3,Manual Takeoff,Other,Takeoff (RC Assisted),11,4,TRUE,,Mavic Mini,TRUE,FALSE,,Smart,RC,TRUE,TRUE,FALSE,,,TRUE,,FALSE,FALSE,FALSE,FALSE,FALSE,FALSE,FALSE,FALSE,FALSE,FALSE,0,Follow Yaw,0,0,143.6,143.6,FALSE,FALSE,FALSE,FALSE,FALSE,FALSE,,TRUE,Normal,,100,1024,1024,1355,1024,1,FALSE,FALSE,FALSE,FALSE,FALSE,0,FALSE,FALSE,FALSE,FALSE,97,8.161,1999,2063,8.134,FALSE,4.082,4.079,0.006,FALSE,FALSE,NA,82.9,82.9,82.9,0,3,0,0,5,2936,734,,Idle,0,20,FALSE,5,TRUE,6,Go Home,FALSE,FALSE,FALSE,FALSE,FALSE,FALSE,FALSE,FALSE,FALSE,FALSE,FALSE,FALSE,6.974145223,79.9145228,9.6,184,328,TRUE,1,1,FALSE,FALSE,FALSE,FALSE,,TRUE,FALSE,FALSE,Course Lock,49.2,254.5,16.4,Calm,39,,1.12.8,Mavic Mini,1SDCH7G0169R0K,1SFLH6Q0AB03DJ,1SRCH7F014TAHX,1U5X071EXP6C9Y,103.7,0.1,3.2,3.20285,1.565858,0,341,Mavic Mini,1SDCH7G0169R0K,1SFLH6Q0AB03DJ,1SRCH7F014TAHX,1U5X071EXP6C9Y,DJI Fly,,1.12.8,083CA358-B33B-D79D-00B8-F00242845986,1SDCH7G0169R0K,,,,,6.974180848,79.91449689,5,,
2/27/2024,59:58.1,0m 5.0s,5,6.974171783,79.91452041,0,0,0.3,61,2.2,0.223694,0.223694,0,0,-0.223694,0,-0.223694,0,1.1,-0.4,140.3,140.3,325.3,Manual Takeoff,Other,Takeoff (RC Assisted),11,4,TRUE,,Mavic Mini,TRUE,FALSE,,Smart,RC,TRUE,TRUE,FALSE,,,TRUE,,FALSE,FALSE,FALSE,FALSE,FALSE,FALSE,FALSE,FALSE,FALSE,FALSE,0,Follow Yaw,0,0,143.6,143.6,FALSE,FALSE,FALSE,FALSE,FALSE,FALSE,,TRUE,Normal,,100,1024,1024,1355,1024,1,FALSE,FALSE,FALSE,FALSE,FALSE,0,FALSE,FALSE,FALSE,FALSE,97,8.161,1999,2063,8.134,FALSE,4.082,4.079,0.006,FALSE,FALSE,NA,82.9,82.9,82.9,0,3,0,0,5,2936,734,,Idle,0,20,FALSE,5,TRUE,6,Go Home,FALSE,FALSE,FALSE,FALSE,FALSE,FALSE,FALSE,FALSE,FALSE,FALSE,FALSE,FALSE,6.974145223,79.9145228,9.7,184,328,TRUE,1,1,FALSE,FALSE,FALSE,FALSE,,TRUE,FALSE,FALSE,Course Lock,49.2,254.5,16.4,Calm,39,,1.12.8,Mavic Mini,1SDCH7G0169R0K,1SFLH6Q0AB03DJ,1SRCH7F014TAHX,1U5X071EXP6C9Y,103.7,0.1,3.2,3.20285,1.565858,0,341,Mavic Mini,1SDCH7G0169R0K,1SFLH6Q0AB03DJ,1SRCH7F014TAHX,1U5X071EXP6C9Y,DJI Fly,,1.12.8,083CA358-B33B-D79D-00B8-F00242845986,1SDCH7G0169R0K,,,,,6.974180848,79.91449689,5,,
2/27/2024,59:58.2,0m 5.1s,5.1,6.974171942,79.91452021,0,0,0.3,61,2.3,0.223694,0.223694,0,0,-0.223694,0,-0.447388,0,0.1,-1.4,139.6,139.6,317,P-GPS,Other,,11,4,TRUE,,Mavic Mini,TRUE,FALSE,,Smart,RC,FALSE,TRUE,FALSE,,,TRUE,,FALSE,FALSE,FALSE,FALSE,FALSE,FALSE,FALSE,FALSE,FALSE,FALSE,0,Follow Yaw,0,0,143.5,143.5,FALSE,FALSE,FALSE,FALSE,FALSE,FALSE,,TRUE,Normal,,100,1024,1024,1355,1024,1,FALSE,FALSE,FALSE,FALSE,FALSE,0,FALSE,FALSE,FALSE,FALSE,97,8.161,1999,2063,8.134,FALSE,4.082,4.079,0.006,FALSE,FALSE,NA,82.9,82.9,82.9,0,3,0,0,5,2936,734,,Idle,0,20,FALSE,5,TRUE,6,Go Home,FALSE,FALSE,FALSE,FALSE,FALSE,FALSE,FALSE,FALSE,TRUE,FALSE,FALSE,FALSE,6.974145223,79.9145228,9.7,184,328,TRUE,1,1,FALSE,FALSE,FALSE,FALSE,,TRUE,FALSE,FALSE,Course Lock,49.2,254.5,16.4,Calm,39,,1.12.8,Mavic Mini,1SDCH7G0169R0K,1SFLH6Q0AB03DJ,1SRCH7F014TAHX,1U5X071EXP6C9Y,103.7,0.1,3.2,3.20285,1.565858,0,341,Mavic Mini,1SDCH7G0169R0K,1SFLH6Q0AB03DJ,1SRCH7F014TAHX,1U5X071EXP6C9Y,DJI Fly,,1.12.8,083CA358-B33B-D79D-00B8-F00242845986,1SDCH7G0169R0K,,,,,6.974180848,79.91449689,5,Flight mode changed to P-GPS.,
2/27/2024,59:58.3,0m 5.2s,5.2,6.974172111,79.91452003,0,0,0.3,61,2.3,0.223694,0.223694,0,0,-0.223694,0,-0.671082,0,-0.8,-1.5,139.7,139.7,319.5,P-GPS,Other,,11,4,TRUE,,Mavic Mini,TRUE,FALSE,,Smart,RC,FALSE,TRUE,FALSE,,,TRUE,,FALSE,FALSE,FALSE,FALSE,FALSE,FALSE,FALSE,FALSE,FALSE,FALSE,0,Follow Yaw,0,0,143.4,143.4,FALSE,FALSE,FALSE,FALSE,FALSE,FALSE,,TRUE,Normal,,100,1024,1024,1354,1024,1,FALSE,FALSE,FALSE,FALSE,FALSE,0,FALSE,FALSE,FALSE,FALSE,97,7.979,1999,2063,8.134,FALSE,3.994,3.985,0.009,FALSE,FALSE,NA,82.9,82.9,82.9,0,3,0,0,5,2936,734,,Idle,0,20,FALSE,5,TRUE,6,Go Home,FALSE,FALSE,FALSE,FALSE,FALSE,FALSE,FALSE,FALSE,TRUE,FALSE,FALSE,FALSE,6.974145223,79.9145228,9.8,184,328,TRUE,1,1,FALSE,FALSE,FALSE,FALSE,,TRUE,FALSE,FALSE,Course Lock,49.2,254.5,16.4,Calm,39,,1.12.8,Mavic Mini,1SDCH7G0169R0K,1SFLH6Q0AB03DJ,1SRCH7F014TAHX,1U5X071EXP6C9Y,103.7,0.1,3.2,3.20285,1.565858,0,341,Mavic Mini,1SDCH7G0169R0K,1SFLH6Q0AB03DJ,1SRCH7F014TAHX,1U5X071EXP6C9Y,DJI Fly,,1.12.8,083CA358-B33B-D79D-00B8-F00242845986,1SDCH7G0169R0K,,,,,6.974180848,79.91449689,5,,
2/27/2024,59:58.4,0m 5.3s,5.3,6.974172317,79.91451978,0,0,0.6,61,2.5,0,0.223694,0,0,0,0,-0.894776,0,-0.8,-1,139.7,139.7,,P-GPS,Other,,11,4,TRUE,,Mavic Mini,TRUE,FALSE,,Smart,RC,FALSE,TRUE,FALSE,,,TRUE,,FALSE,FALSE,FALSE,FALSE,FALSE,FALSE,FALSE,FALSE,FALSE,FALSE,0,Follow Yaw,0,0,143.3,143.3,FALSE,FALSE,FALSE,FALSE,FALSE,FALSE,,TRUE,Normal,,100,1024,1024,1354,1024,1,FALSE,FALSE,FALSE,FALSE,FALSE,0,FALSE,FALSE,FALSE,FALSE,97,7.979,1999,2063,8.134,FALSE,3.994,3.985,0.009,FALSE,FALSE,NA,83.1,82.9,83.1,0,3,0,0,5,2936,734,,Idle,0,20,FALSE,5,TRUE,6,Go Home,FALSE,FALSE,FALSE,FALSE,FALSE,FALSE,FALSE,FALSE,TRUE,FALSE,FALSE,FALSE,6.974145223,79.9145228,9.9,184,328,TRUE,1,1,FALSE,FALSE,FALSE,FALSE,,TRUE,FALSE,FALSE,Course Lock,49.2,254.5,16.4,Calm,39,,1.12.8,Mavic Mini,1SDCH7G0169R0K,1SFLH6Q0AB03DJ,1SRCH7F014TAHX,1U5X071EXP6C9Y,103.7,0.1,3.2,3.20285,1.565858,0,341,Mavic Mini,1SDCH7G0169R0K,1SFLH6Q0AB03DJ,1SRCH7F014TAHX,1U5X071EXP6C9Y,DJI Fly,,1.12.8,083CA358-B33B-D79D-00B8-F00242845986,1SDCH7G0169R0K,,,,,6.974180848,79.91449689,5,,
