CUSTOM.date [local],CUSTOM.updateTime [local],OSD.flyTime,OSD.flyTime [s],OSD.latitude,OSD.longitude,OSD.height [ft],OSD.heightMax [ft],OSD.vpsHeight [ft],OSD.altitude [ft],OSD.mileage [ft],OSD.hSpeed [MPH],OSD.hSpeedMax [MPH],OSD.xSpeed [MPH],OSD.xSpeedMax [MPH],OSD.ySpeed [MPH],OSD.ySpeedMax [MPH],OSD.zSpeed [MPH],OSD.zSpeedMax [MPH],OSD.pitch,OSD.roll,OSD.yaw,OSD.yaw [360],OSD.directionOfTravel,OSD.flycState,OSD.flycCommand,OSD.flightAction,OSD.gpsNum,OSD.gpsLevel,OSD.isGPSUsed,OSD.nonGPSCause,OSD.droneType,OSD.isSwaveWork,OSD.waveError,OSD.goHomeStatus,OSD.batteryType,OSD.ctrlDevice,OSD.isOnGround,OSD.isMotorOn,OSD.isMotorBlocked,OSD.motorStartFailedCause,OSD.motorFailReason,OSD.isImuPreheated,OSD.imuInitFailReason,OSD.isAcceletorOverRange,OSD.isBarometerDeadInAir,OSD.isCompassError,OSD.isGoHomeHeightModified,OSD.canIOCWork,OSD.isNotEnoughForce,OSD.isOutOfLimit,OSD.isPropellerCatapult,OSD.isVibrating,OSD.isVisionUsed,OSD.voltageWarning,GIMBAL.mode,GIMBAL.pitch,GIMBAL.roll,GIMBAL.yaw,GIMBAL.yaw [360],GIMBAL.isPitchAtLimit,GIMBAL.isRollAtLimit,GIMBAL.isYawAtLimit,GIMBAL.isStuck,CAMERA.isPhoto,CAMERA.isVideo,CAMERA.filename,CAMERA.sdCardIsInserted,CAMERA.sdCardState,RC.downlinkSignal,RC.uplinkSignal,RC.aileron,RC.elevator,RC.throttle,RC.rudder,RC.mode,RC.goHomeDepressed,RC.recordDepressed,RC.shutterDepressed,RC.playbackDepressed,RC.wheelDepressed,RC.wheelOffset,RC.custom1Depressed,RC.custom2Depressed,RC.custom3Depressed,RC.custom4Depressed,BATTERY.chargeLevel,BATTERY.currentPV [V],BATTERY.currentCapacity [mAh],BATTERY.fullCapacity [mAh],BATTERY.voltage [V],BATTERY.isCellVoltageEstimated,BATTERY.cellVoltage1 [V],BATTERY.cellVoltage2 [V],BATTERY.maxCellVoltageDeviation,BATTERY.isCellVoltageDeviationHigh,BATTERY.isVoltageLow,BATTERY.current [A],BATTERY.temperature [F],BATTERY.minTemperature [F],BATTERY.maxTemperature [F],BATTERY.usefulTime [s],BATTERY.goHomeTime [s],BATTERY.landTime [s],BATTERY.goHomeBattery,BATTERY.landBattery,BATTERY.safeFlyRadius,BATTERY.volumeConsume,BATTERY.status,BATTERY.goHomeStatus,BATTERY.goHomeCountdown,BATTERY.lowWarning,BATTERY.lowWarningGoHome,BATTERY.seriousLowWarning,BATTERY.seriousLowWarningLanding,BATTERY.timesCharged,MC.failSafeAction,MC.isObstacleAvoidanceEnabled,MC.isCollisionAvoidanceEnabled,MC.isRthObstacleAvoidanceEnabled,MC.isBraking,MC.isAvoidingObstacle,MC.isAvoidingActiveObstacle,MC.isAscentLimitedByObstacle,MC.isLandingConfirmationNeeded,MC.atLowAltitudeLimit,MC.atDistanceLimit,MC.atAirportAltitudeLimit,MC.atAirportBoundary,HOME.latitude,HOME.longitude,HOME.distance [ft],HOME.height [ft],HOME.heightLimit [ft],HOME.isHomeRecord,HOME.goHomeMode,HOME.aircraftHeadDirection,HOME.isDynamicHomePointEnabled,HOME.isReachedLimitDistance,HOME.isReachedLimitHeight,HOME.isCompassCalibrating,HOME.compassCalibrationState,HOME.isMultipleFlightModeEnabled,HOME.isBeginnerMode,HOME.isIOCEnabled,HOME.iocMode,HOME.goHomeHeight [ft],HOME.courseLockAngle,HOME.forceLandingHeight [ft],HOME.wind,HOME.dataRecorderFileIndex,RECOVER.appType,RECOVER.appVersion,RECOVER.aircraftName,RECOVER.aircraftSerial,RECOVER.cameraSerial,RECOVER.rcSerial,RECOVER.batterySerial,DETAILS.totalTime [s],DETAILS.totalDistance [ft],DETAILS.maxHeight [ft],DETAILS.maxHorizontalSpeed [MPH],DETAILS.maxVerticalSpeed [MPH],DETAILS.photoNum,DETAILS.videoTime [s],DETAILS.aircraftName,DETAILS.aircraftSerial,DETAILS.cameraSerial,DETAILS.rcSerial,DETAILS.batterySerial,DETAILS.appName,DETAILS.appType,DETAILS.appVersion,DETAILS.guid,SERIAL.flightController,SERIAL.camera,SERIAL.gimbal,SERIAL.rc,SERIAL.battery,APPGPS.latitude,APPGPS.longitude,APPGPS.accuracy,APP.tip,APP.warning
2/15/2024,54:08.8,12m 27.8s,747.8,6.97422083,79.91434071,0,0,,51,0,0,0,0,0,0,0,0,0,7.3,-3.8,-87.2,272.8,,Starting Motors,Auto Fly,Takeoff (RC Assisted),15,5,TRUE,,Mavic Mini,FALSE,FALSE,,Smart,RC,TRUE,TRUE,FALSE,,,TRUE,,FALSE,FALSE,FALSE,FALSE,FALSE,FALSE,FALSE,FALSE,FALSE,FALSE,0,Follow Yaw,0,0,-60.3,299.7,FALSE,FALSE,FALSE,FALSE,FALSE,FALSE,,TRUE,Normal,,,1024,1024,1024,1024,2,FALSE,FALSE,FALSE,FALSE,FALSE,0,FALSE,FALSE,FALSE,FALSE,48,7.435,1018,2113,7.435,TRUE,3.718,3.718,,FALSE,FALSE,NA,117.5,117.5,117.5,,,,,,,,,Idle,,,TRUE,,FALSE,9,Go Home,FALSE,FALSE,FALSE,FALSE,FALSE,FALSE,FALSE,FALSE,FALSE,FALSE,FALSE,FALSE,,,,,,FALSE,,,FALSE,FALSE,FALSE,FALSE,,FALSE,FALSE,FALSE,,,,,Calm,,,1.12.8,Mavic Mini,1SDCH7G0169R0K,1SFLH6Q0AB03DJ,1SRCH7F014TAHX,1U5X071EXP5ZJG,107.4,0.3,3.2,4.702942,1.342164,0,0,Mavic Mini,1SDCH7G0169R0K,1SFLH6Q0AB03DJ,1SRCH7F014TAHX,1U5X071EXP5ZJG,DJI Fly,,1.12.8,9FC8C382-B77C-D883-E2BA-F140A9B1AB04,1SDCH7G0169R0K,,,,,,,,Flight mode changed to Starting Motors.,
2/15/2024,41:41.1,12m 27.9s,747.9,6.974220825,79.91434071,0,0,,51,0,0,0,0,0,0,0,0,0,7.3,-3.8,-87.2,272.8,,Starting Motors,Auto Fly,Takeoff (RC Assisted),16,5,TRUE,,Mavic Mini,FALSE,FALSE,,Smart,RC,TRUE,TRUE,FALSE,,,TRUE,,FALSE,FALSE,FALSE,FALSE,FALSE,FALSE,FALSE,FALSE,FALSE,FALSE,0,Follow Yaw,0,0,-60.3,299.7,FALSE,FALSE,FALSE,FALSE,FALSE,FALSE,,TRUE,Normal,,,1024,1024,1024,1024,2,FALSE,FALSE,FALSE,FALSE,FALSE,0,FALSE,FALSE,FALSE,FALSE,48,7.435,1018,2113,7.435,TRUE,3.718,3.718,,FALSE,FALSE,NA,117.5,117.5,117.5,,,,,,,,,Idle,,,TRUE,,FALSE,9,Go Home,FALSE,FALSE,FALSE,FALSE,FALSE,FALSE,FALSE,FALSE,FALSE,FALSE,FALSE,FALSE,,,,,,FALSE,,,FALSE,FALSE,FALSE,FALSE,,FALSE,FALSE,FALSE,,,,,Calm,,,1.12.8,Mavic Mini,1SDCH7G0169R0K,1SFLH6Q0AB03DJ,1SRCH7F014TAHX,1U5X071EXP5ZJG,107.4,0.3,3.2,4.702942,1.342164,0,0,Mavic Mini,1SDCH7G0169R0K,1SFLH6Q0AB03DJ,1SRCH7F014TAHX,1U5X071EXP5ZJG,DJI Fly,,1.12.8,9FC8C382-B77C-D883-E2BA-F140A9B1AB04,1SDCH7G0169R0K,,,,,,,,,
2/15/2024,41:41.2,12m 28.0s,748,6.974220686,79.9143407,0,0,0.3,51,0,0,0,0,0,0,0,0,0,7.3,-3.8,-87.2,272.8,,Starting Motors,Auto Fly,Takeoff (RC Assisted),16,5,TRUE,,Mavic Mini,TRUE,FALSE,,Smart,RC,TRUE,TRUE,FALSE,,,TRUE,,FALSE,FALSE,FALSE,FALSE,FALSE,FALSE,FALSE,FALSE,FALSE,FALSE,0,Follow Yaw,0,0,-60.3,299.7,FALSE,FALSE,FALSE,FALSE,FALSE,FALSE,,TRUE,Normal,,100,1024,1024,1024,1024,2,FALSE,FALSE,FALSE,FALSE,FALSE,0,FALSE,FALSE,FALSE,FALSE,48,7.435,1018,2113,7.435,TRUE,3.718,3.718,,FALSE,FALSE,NA,117.5,117.5,117.5,,,,,,,,,Idle,,,TRUE,,FALSE,9,Go Home,FALSE,FALSE,FALSE,FALSE,FALSE,FALSE,FALSE,FALSE,FALSE,FALSE,FALSE,FALSE,,,,,,FALSE,,,FALSE,FALSE,FALSE,FALSE,,FALSE,FALSE,FALSE,,,,,Calm,,,1.12.8,Mavic Mini,1SDCH7G0169R0K,1SFLH6Q0AB03DJ,1SRCH7F014TAHX,1U5X071EXP5ZJG,107.4,0.3,3.2,4.702942,1.342164,0,0,Mavic Mini,1SDCH7G0169R0K,1SFLH6Q0AB03DJ,1SRCH7F014TAHX,1U5X071EXP5ZJG,DJI Fly,,1.12.8,9FC8C382-B77C-D883-E2BA-F140A9B1AB04,1SDCH7G0169R0K,,,,,,,,,
2/15/2024,41:41.3,12m 28.1s,748.1,6.974220649,79.9143407,0,0,0.3,51,0,0,0,0,0,0,0,0,0,7.3,-3.9,-87.3,272.7,,Starting Motors,Auto Fly,Takeoff (RC Assisted),16,5,TRUE,,Mavic Mini,TRUE,FALSE,,Smart,RC,TRUE,TRUE,FALSE,,,TRUE,,FALSE,FALSE,FALSE,FALSE,FALSE,FALSE,FALSE,FALSE,FALSE,FALSE,0,Follow Yaw,0,0,-60.3,299.7,FALSE,FALSE,FALSE,FALSE,FALSE,FALSE,,TRUE,Normal,,100,1024,1024,1024,1024,2,FALSE,FALSE,FALSE,FALSE,FALSE,0,FALSE,FALSE,FALSE,FALSE,48,7.433,1017,2113,7.433,FALSE,3.719,3.715,0.004,FALSE,FALSE,NA,117.5,117.5,117.5,,,,,,,,,Idle,,,TRUE,,FALSE,9,Go Home,FALSE,FALSE,FALSE,FALSE,FALSE,FALSE,FALSE,FALSE,FALSE,FALSE,FALSE,FALSE,,,,,,FALSE,,,FALSE,FALSE,FALSE,FALSE,,FALSE,FALSE,FALSE,,,,,Calm,,,1.12.8,Mavic Mini,1SDCH7G0169R0K,1SFLH6Q0AB03DJ,1SRCH7F014TAHX,1U5X071EXP5ZJG,107.4,0.3,3.2,4.702942,1.342164,0,0,Mavic Mini,1SDCH7G0169R0K,1SFLH6Q0AB03DJ,1SRCH7F014TAHX,1U5X071EXP5ZJG,DJI Fly,,1.12.8,9FC8C382-B77C-D883-E2BA-F140A9B1AB04,1SDCH7G0169R0K,,,,,,,,,
2/15/2024,41:41.4,12m 28.2s,748.2,6.974220688,79.9143407,0,0,0.3,51,0,0,0,0,0,0,0,0,0,7.3,-3.9,-87.3,272.7,,Starting Motors,Auto Fly,Takeoff (RC Assisted),16,5,TRUE,,Mavic Mini,TRUE,FALSE,,Smart,RC,TRUE,TRUE,FALSE,,,TRUE,,FALSE,FALSE,FALSE,FALSE,FALSE,FALSE,FALSE,FALSE,FALSE,FALSE,0,Follow Yaw,0,0,-60.3,299.7,FALSE,FALSE,FALSE,FALSE,FALSE,FALSE,,TRUE,Normal,,100,1024,1024,1024,1024,2,FALSE,FALSE,FALSE,FALSE,FALSE,0,FALSE,FALSE,FALSE,FALSE,48,7.433,1017,2113,7.433,FALSE,3.719,3.715,0.004,FALSE,FALSE,NA,117.5,117.5,117.5,,,,,,,,,Idle,,,TRUE,,FALSE,9,Go Home,FALSE,FALSE,FALSE,FALSE,FALSE,FALSE,FALSE,FALSE,FALSE,FALSE,FALSE,FALSE,,,,,,FALSE,,,FALSE,FALSE,FALSE,FALSE,,FALSE,FALSE,FALSE,,,,,Calm,,,1.12.8,Mavic Mini,1SDCH7G0169R0K,1SFLH6Q0AB03DJ,1SRCH7F014TAHX,1U5X071EXP5ZJG,107.4,0.3,3.2,4.702942,1.342164,0,0,Mavic Mini,1SDCH7G0169R0K,1SFLH6Q0AB03DJ,1SRCH7F014TAHX,1U5X071EXP5ZJG,DJI Fly,,1.12.8,9FC8C382-B77C-D883-E2BA-F140A9B1AB04,1SDCH7G0169R0K,,,,,,,,,
2/15/2024,41:41.5,12m 28.3s,748.3,6.974220718,79.91434071,0,0,0.3,51,0,0,0,0,0,0,0,0,0,7.3,-3.9,-87.3,272.7,,Starting Motors,Auto Fly,Takeoff (RC Assisted),16,5,TRUE,,Mavic Mini,TRUE,FALSE,,Smart,RC,TRUE,TRUE,FALSE,,,TRUE,,FALSE,FALSE,FALSE,FALSE,FALSE,FALSE,FALSE,FALSE,FALSE,FALSE,0,Follow Yaw,0,0,-60.3,299.7,FALSE,FALSE,FALSE,FALSE,FALSE,FALSE,,TRUE,Normal,,100,1024,1024,1024,1024,2,FALSE,FALSE,FALSE,FALSE,FALSE,0,FALSE,FALSE,FALSE,FALSE,48,7.433,1017,2113,7.433,FALSE,3.719,3.715,0.004,FALSE,FALSE,NA,117.5,117.5,117.5,,,,,,,,,Idle,,,TRUE,,FALSE,9,Go Home,FALSE,FALSE,FALSE,FALSE,FALSE,FALSE,FALSE,FALSE,FALSE,FALSE,FALSE,FALSE,,,,,,FALSE,,,FALSE,FALSE,FALSE,FALSE,,FALSE,FALSE,FALSE,,,,,Calm,,,1.12.8,Mavic Mini,1SDCH7G0169R0K,1SFLH6Q0AB03DJ,1SRCH7F014TAHX,1U5X071EXP5ZJG,107.4,0.3,3.2,4.702942,1.342164,0,0,Mavic Mini,1SDCH7G0169R0K,1SFLH6Q0AB03DJ,1SRCH7F014TAHX,1U5X071EXP5ZJG,DJI Fly,,1.12.8,9FC8C382-B77C-D883-E2BA-F140A9B1AB04,1SDCH7G0169R0K,,,,,,,,,
2/15/2024,41:41.6,12m 28.4s,748.4,6.974220698,79.91434069,0,0,0.3,51,0,0,0,0,0,0,0,0,0,7.3,-3.9,-87.3,272.7,,Starting Motors,Auto Fly,Takeoff (RC Assisted),16,5,TRUE,,Mavic Mini,TRUE,FALSE,,Smart,RC,TRUE,TRUE,FALSE,,,TRUE,,FALSE,FALSE,FALSE,FALSE,FALSE,FALSE,FALSE,FALSE,FALSE,FALSE,0,Follow Yaw,0,0,-60.3,299.7,FALSE,FALSE,FALSE,FALSE,FALSE,FALSE,,TRUE,Normal,,100,1024,1024,1024,1024,2,FALSE,FALSE,FALSE,FALSE,FALSE,0,FALSE,FALSE,FALSE,FALSE,48,7.433,1017,2113,7.433,FALSE,3.719,3.715,0.004,FALSE,FALSE,NA,117.5,117.5,117.5,,,,,,,,,Idle,,,TRUE,,FALSE,9,Go Home,FALSE,FALSE,FALSE,FALSE,FALSE,FALSE,FALSE,FALSE,FALSE,FALSE,FALSE,FALSE,,,,,,FALSE,,,FALSE,FALSE,FALSE,FALSE,,FALSE,FALSE,FALSE,,,,,Calm,,,1.12.8,Mavic Mini,1SDCH7G0169R0K,1SFLH6Q0AB03DJ,1SRCH7F014TAHX,1U5X071EXP5ZJG,107.4,0.3,3.2,4.702942,1.342164,0,0,Mavic Mini,1SDCH7G0169R0K,1SFLH6Q0AB03DJ,1SRCH7F014TAHX,1U5X071EXP5ZJG,DJI Fly,,1.12.8,9FC8C382-B77C-D883-E2BA-F140A9B1AB04,1SDCH7G0169R0K,,,,,,,,,
2/15/2024,41:41.7,12m 28.5s,748.5,6.974220669,79.91434069,0,0,0.3,51,0.1,0,0,0,0,0,0,0,0,7.3,-3.9,-87.4,272.6,,Starting Motors,Auto Fly,Takeoff (RC Assisted),16,5,TRUE,,Mavic Mini,TRUE,FALSE,,Smart,RC,TRUE,TRUE,FALSE,,,TRUE,,FALSE,FALSE,FALSE,FALSE,FALSE,FALSE,FALSE,FALSE,FALSE,FALSE,0,Follow Yaw,0,0,-60.3,299.7,FALSE,FALSE,FALSE,FALSE,FALSE,FALSE,,TRUE,Normal,,100,1024,1024,1024,1024,2,FALSE,FALSE,FALSE,FALSE,FALSE,0,FALSE,FALSE,FALSE,FALSE,48,7.433,1017,2113,7.433,FALSE,3.719,3.715,0.004,FALSE,FALSE,NA,117.5,117.5,117.5,,,,,,,,,Idle,,,TRUE,,FALSE,9,Go Home,FALSE,FALSE,FALSE,FALSE,FALSE,FALSE,FALSE,FALSE,FALSE,FALSE,FALSE,FALSE,,,,,,FALSE,,,FALSE,FALSE,FALSE,FALSE,,FALSE,FALSE,FALSE,,,,,Calm,,,1.12.8,Mavic Mini,1SDCH7G0169R0K,1SFLH6Q0AB03DJ,1SRCH7F014TAHX,1U5X071EXP5ZJG,107.4,0.3,3.2,4.702942,1.342164,0,0,Mavic Mini,1SDCH7G0169R0K,1SFLH6Q0AB03DJ,1SRCH7F014TAHX,1U5X071EXP5ZJG,DJI Fly,,1.12.8,9FC8C382-B77C-D883-E2BA-F140A9B1AB04,1SDCH7G0169R0K,,,,,,,,,
2/15/2024,41:41.7,12m 28.6s,748.6,6.97422066,79.91434069,0,0,0.3,51,0.1,0,0,0,0,0,0,0,0,7.3,-3.9,-87.4,272.6,,Starting Motors,Auto Fly,Takeoff (RC Assisted),16,5,TRUE,,Mavic Mini,TRUE,FALSE,,Smart,RC,TRUE,TRUE,FALSE,,,TRUE,,FALSE,FALSE,FALSE,FALSE,FALSE,FALSE,FALSE,FALSE,FALSE,FALSE,0,Follow Yaw,0,0,-60.4,299.6,FALSE,FALSE,FALSE,FALSE,FALSE,FALSE,,TRUE,Normal,,100,1024,1024,1024,1024,2,FALSE,FALSE,FALSE,FALSE,FALSE,0,FALSE,FALSE,FALSE,FALSE,48,7.433,1017,2113,7.433,FALSE,3.719,3.715,0.004,FALSE,FALSE,NA,117.5,117.5,117.5,,,,,,,,,Idle,,,TRUE,,FALSE,9,Go Home,FALSE,FALSE,FALSE,FALSE,FALSE,FALSE,FALSE,FALSE,FALSE,FALSE,FALSE,FALSE,,,,,,FALSE,,,FALSE,FALSE,FALSE,FALSE,,FALSE,FALSE,FALSE,,,,,Calm,,,1.12.8,Mavic Mini,1SDCH7G0169R0K,1SFLH6Q0AB03DJ,1SRCH7F014TAHX,1U5X071EXP5ZJG,107.4,0.3,3.2,4.702942,1.342164,0,0,Mavic Mini,1SDCH7G0169R0K,1SFLH6Q0AB03DJ,1SRCH7F014TAHX,1U5X071EXP5ZJG,DJI Fly,,1.12.8,9FC8C382-B77C-D883-E2BA-F140A9B1AB04,1SDCH7G0169R0K,,,,,,,,,
2/15/2024,41:41.9,12m 28.7s,748.7,6.974220654,79.91434069,0,0,0.3,51,0.1,0,0,0,0,0,0,0,0,7.3,-3.9,-87.4,272.6,,Starting Motors,Auto Fly,Takeoff (RC Assisted),16,5,TRUE,,Mavic Mini,TRUE,FALSE,,Smart,RC,TRUE,TRUE,FALSE,,,TRUE,,FALSE,FALSE,FALSE,FALSE,FALSE,FALSE,FALSE,FALSE,FALSE,FALSE,0,Follow Yaw,0,0,-60.4,299.6,FALSE,FALSE,FALSE,FALSE,FALSE,FALSE,,TRUE,Normal,,100,1024,1024,1024,1024,2,FALSE,FALSE,FALSE,FALSE,FALSE,0,FALSE,FALSE,FALSE,FALSE,48,7.433,1017,2113,7.425,FALSE,3.719,3.715,0.004,FALSE,FALSE,NA,117.5,117.5,117.5,0,0,0,0,5,2614.4,653.61,,Idle,0,20,FALSE,5,TRUE,9,Go Home,FALSE,FALSE,FALSE,FALSE,FALSE,FALSE,FALSE,FALSE,FALSE,FALSE,FALSE,FALSE,6.974216211,79.91434039,1.6,119.1,328,TRUE,1,1,FALSE,FALSE,FALSE,FALSE,,TRUE,FALSE,FALSE,Course Lock,65.6,41.9,16.4,Calm,27,,1.12.8,Mavic Mini,1SDCH7G0169R0K,1SFLH6Q0AB03DJ,1SRCH7F014TAHX,1U5X071EXP5ZJG,107.4,0.3,3.2,4.702942,1.342164,0,0,Mavic Mini,1SDCH7G0169R0K,1SFLH6Q0AB03DJ,1SRCH7F014TAHX,1U5X071EXP5ZJG,DJI Fly,,1.12.8,9FC8C382-B77C-D883-E2BA-F140A9B1AB04,1SDCH7G0169R0K,,,,,,,,Data Recorder File Index is 27.; Set Return to Home (RTH) altitude to 20 m (66 ft).; Set maximum flight altitude to 100 m (328 ft).,
2/15/2024,41:42.0,12m 28.8s,748.8,6.974220658,79.91434068,0,0,0.3,51,0.1,0,0,0,0,0,0,0,0,7.3,-3.9,-87.4,272.6,,Starting Motors,Auto Fly,Takeoff (RC Assisted),16,5,TRUE,,Mavic Mini,TRUE,FALSE,,Smart,RC,TRUE,TRUE,FALSE,,,TRUE,,FALSE,FALSE,FALSE,FALSE,FALSE,FALSE,FALSE,FALSE,FALSE,FALSE,0,Follow Yaw,0,0,-60.4,299.6,FALSE,FALSE,FALSE,FALSE,FALSE,FALSE,,TRUE,Normal,,100,1024,1024,1024,1024,2,FALSE,FALSE,FALSE,FALSE,FALSE,0,FALSE,FALSE,FALSE,FALSE,48,7.433,1017,2113,7.425,FALSE,3.719,3.715,0.004,FALSE,FALSE,NA,117.5,117.5,117.5,0,0,0,0,5,2614.4,653.61,,Idle,0,20,FALSE,5,TRUE,9,Go Home,FALSE,FALSE,FALSE,FALSE,FALSE,FALSE,FALSE,FALSE,FALSE,FALSE,FALSE,FALSE,6.974216211,79.91434039,1.6,119.1,328,TRUE,1,1,FALSE,FALSE,FALSE,FALSE,,TRUE,FALSE,FALSE,Course Lock,65.6,41.9,16.4,Calm,27,,1.12.8,Mavic Mini,1SDCH7G0169R0K,1SFLH6Q0AB03DJ,1SRCH7F014TAHX,1U5X071EXP5ZJG,107.4,0.3,3.2,4.702942,1.342164,0,0,Mavic Mini,1SDCH7G0169R0K,1SFLH6Q0AB03DJ,1SRCH7F014TAHX,1U5X071EXP5ZJG,DJI Fly,,1.12.8,9FC8C382-B77C-D883-E2BA-F140A9B1AB04,1SDCH7G0169R0K,,,,,,,,,
2/15/2024,41:42.1,12m 28.9s,748.9,6.974220665,79.91434069,0,0,0.3,51,0.1,0,0,0,0,0,0,0,0,7.2,-3.9,-87.4,272.6,,Manual Takeoff,Auto Fly,Takeoff (RC Assisted),16,5,TRUE,,Mavic Mini,TRUE,FALSE,,Smart,RC,TRUE,TRUE,FALSE,,,TRUE,,FALSE,FALSE,FALSE,FALSE,FALSE,FALSE,FALSE,FALSE,FALSE,FALSE,0,Follow Yaw,0,0,-60.4,299.6,FALSE,FALSE,FALSE,FALSE,FALSE,FALSE,,TRUE,Normal,,100,1024,1024,1024,1024,2,FALSE,FALSE,FALSE,FALSE,FALSE,0,FALSE,FALSE,FALSE,FALSE,48,7.433,1017,2113,7.425,FALSE,3.719,3.715,0.004,FALSE,FALSE,NA,117.5,117.5,117.5,0,0,0,0,5,2614.4,653.61,,Idle,0,20,FALSE,5,TRUE,9,Go Home,FALSE,FALSE,FALSE,FALSE,FALSE,FALSE,FALSE,FALSE,FALSE,FALSE,FALSE,FALSE,6.974216211,79.91434039,1.6,119.1,328,TRUE,1,1,FALSE,FALSE,FALSE,FALSE,,TRUE,FALSE,FALSE,Course Lock,65.6,41.9,16.4,Calm,27,,1.12.8,Mavic Mini,1SDCH7G0169R0K,1SFLH6Q0AB03DJ,1SRCH7F014TAHX,1U5X071EXP5ZJG,107.4,0.3,3.2,4.702942,1.342164,0,0,Mavic Mini,1SDCH7G0169R0K,1SFLH6Q0AB03DJ,1SRCH7F014TAHX,1U5X071EXP5ZJG,DJI Fly,,1.12.8,9FC8C382-B77C-D883-E2BA-F140A9B1AB04,1SDCH7G0169R0K,,,,,,,,Flight mode changed to Manual Takeoff.,
2/15/2024,41:42.2,12m 29.0s,749,6.974220671,79.91434068,0,0,0.3,51,0.1,0,0,0,0,0,0,0,0,7.3,-3.9,-87.3,272.7,,Manual Takeoff,Auto Fly,Takeoff (RC Assisted),16,5,TRUE,,Mavic Mini,TRUE,FALSE,,Smart,RC,TRUE,TRUE,FALSE,,,TRUE,,FALSE,FALSE,FALSE,FALSE,FALSE,FALSE,FALSE,FALSE,FALSE,FALSE,0,Follow Yaw,0,0,-60.4,299.6,FALSE,FALSE,FALSE,FALSE,FALSE,FALSE,,TRUE,Normal,,100,1024,1024,1024,1024,2,FALSE,FALSE,FALSE,FALSE,FALSE,0,FALSE,FALSE,FALSE,FALSE,48,7.433,1017,2113,7.425,FALSE,3.719,3.715,0.004,FALSE,FALSE,NA,117.5,117.5,117.5,0,0,0,0,5,2614.4,653.61,,Idle,0,20,FALSE,5,TRUE,9,Go Home,FALSE,FALSE,FALSE,FALSE,FALSE,FALSE,FALSE,FALSE,FALSE,FALSE,FALSE,FALSE,6.974216211,79.91434039,1.6,119.1,328,TRUE,1,1,FALSE,FALSE,FALSE,FALSE,,TRUE,FALSE,FALSE,Course Lock,65.6,41.9,16.4,Calm,27,,1.12.8,Mavic Mini,1SDCH7G0169R0K,1SFLH6Q0AB03DJ,1SRCH7F014TAHX,1U5X071EXP5ZJG,107.4,0.3,3.2,4.702942,1.342164,0,0,Mavic Mini,1SDCH7G0169R0K,1SFLH6Q0AB03DJ,1SRCH7F014TAHX,1U5X071EXP5ZJG,DJI Fly,,1.12.8,9FC8C382-B77C-D883-E2BA-F140A9B1AB04,1SDCH7G0169R0K,,,,,,,,,
2/15/2024,41:42.3,12m 29.1s,749.1,6.974220677,79.91434068,0,0,0.3,51,0.1,0,0,0,0,0,0,0,0,7.3,-3.9,-87.3,272.7,,Manual Takeoff,Auto Fly,Takeoff (RC Assisted),16,5,TRUE,,Mavic Mini,TRUE,FALSE,,Smart,RC,TRUE,TRUE,FALSE,,,TRUE,,FALSE,FALSE,FALSE,FALSE,FALSE,FALSE,FALSE,FALSE,FALSE,FALSE,0,Follow Yaw,0,0,-60.4,299.6,FALSE,FALSE,FALSE,FALSE,FALSE,FALSE,,TRUE,Normal,,100,1024,1024,1024,1024,2,FALSE,FALSE,FALSE,FALSE,FALSE,0,FALSE,FALSE,FALSE,FALSE,48,7.433,1017,2113,7.425,FALSE,3.719,3.715,0.004,FALSE,FALSE,NA,117.5,117.5,117.5,0,0,0,0,5,2614.4,653.61,,Idle,0,20,FALSE,5,TRUE,9,Go Home,FALSE,FALSE,FALSE,FALSE,FALSE,FALSE,FALSE,FALSE,FALSE,FALSE,FALSE,FALSE,6.974216211,79.91434039,1.6,119.1,328,TRUE,1,1,FALSE,FALSE,FALSE,FALSE,,TRUE,FALSE,FALSE,Course Lock,65.6,41.9,16.4,Calm,27,,1.12.8,Mavic Mini,1SDCH7G0169R0K,1SFLH6Q0AB03DJ,1SRCH7F014TAHX,1U5X071EXP5ZJG,107.4,0.3,3.2,4.702942,1.342164,0,0,Mavic Mini,1SDCH7G0169R0K,1SFLH6Q0AB03DJ,1SRCH7F014TAHX,1U5X071EXP5ZJG,DJI Fly,,1.12.8,9FC8C382-B77C-D883-E2BA-F140A9B1AB04,1SDCH7G0169R0K,,,,,,,,,
2/15/2024,41:42.4,12m 29.2s,749.2,6.974220682,79.91434068,0,0,0.3,51,0.1,0,0,0,0,0,0,0,0,7.3,-3.9,-87.3,272.7,,Manual Takeoff,Auto Fly,Takeoff (RC Assisted),16,5,TRUE,,Mavic Mini,TRUE,FALSE,,Smart,RC,TRUE,TRUE,FALSE,,,TRUE,,FALSE,FALSE,FALSE,FALSE,FALSE,FALSE,FALSE,FALSE,FALSE,FALSE,0,Follow Yaw,0,0,-60.4,299.6,FALSE,FALSE,FALSE,FALSE,FALSE,FALSE,,TRUE,Normal,,100,1024,1024,1024,1024,2,FALSE,FALSE,FALSE,FALSE,FALSE,0,FALSE,FALSE,FALSE,FALSE,48,7.423,1017,2113,7.425,FALSE,3.712,3.711,0.004,FALSE,FALSE,NA,117.5,117.5,117.5,0,0,0,0,5,2614.4,653.61,,Idle,0,20,FALSE,5,TRUE,9,Go Home,FALSE,FALSE,FALSE,FALSE,FALSE,FALSE,FALSE,FALSE,FALSE,FALSE,FALSE,FALSE,6.974216211,79.91434039,1.6,119.1,328,TRUE,1,1,FALSE,FALSE,FALSE,FALSE,,TRUE,FALSE,FALSE,Course Lock,65.6,41.9,16.4,Calm,27,,1.12.8,Mavic Mini,1SDCH7G0169R0K,1SFLH6Q0AB03DJ,1SRCH7F014TAHX,1U5X071EXP5ZJG,107.4,0.3,3.2,4.702942,1.342164,0,0,Mavic Mini,1SDCH7G0169R0K,1SFLH6Q0AB03DJ,1SRCH7F014TAHX,1U5X071EXP5ZJG,DJI Fly,,1.12.8,9FC8C382-B77C-D883-E2BA-F140A9B1AB04,1SDCH7G0169R0K,,,,,,,,,
2/15/2024,41:42.5,12m 29.3s,749.3,6.974220718,79.91434069,0,0,0.3,51,0.1,0,0,0,0,0,0,0,0,7.3,-3.8,-87.3,272.7,,Manual Takeoff,Auto Fly,Takeoff (RC Assisted),16,5,TRUE,,Mavic Mini,TRUE,FALSE,,Smart,RC,TRUE,TRUE,FALSE,,,TRUE,,FALSE,FALSE,FALSE,FALSE,FALSE,FALSE,FALSE,FALSE,FALSE,FALSE,0,Follow Yaw,0,0,-60.4,299.6,FALSE,FALSE,FALSE,FALSE,FALSE,FALSE,,TRUE,Normal,,100,1024,1024,1024,1024,2,FALSE,FALSE,FALSE,FALSE,FALSE,0,FALSE,FALSE,FALSE,FALSE,48,7.423,1017,2113,7.425,FALSE,3.712,3.711,0.004,FALSE,FALSE,NA,117.5,117.5,117.5,0,0,0,0,5,2614.4,653.61,,Idle,0,20,FALSE,5,TRUE,9,Go Home,FALSE,FALSE,FALSE,FALSE,FALSE,FALSE,FALSE,FALSE,FALSE,FALSE,FALSE,FALSE,6.974216211,79.91434039,1.6,119.1,328,TRUE,1,1,FALSE,FALSE,FALSE,FALSE,,TRUE,FALSE,FALSE,Course Lock,65.6,41.9,16.4,Calm,27,,1.12.8,Mavic Mini,1SDCH7G0169R0K,1SFLH6Q0AB03DJ,1SRCH7F014TAHX,1U5X071EXP5ZJG,107.4,0.3,3.2,4.702942,1.342164,0,0,Mavic Mini,1SDCH7G0169R0K,1SFLH6Q0AB03DJ,1SRCH7F014TAHX,1U5X071EXP5ZJG,DJI Fly,,1.12.8,9FC8C382-B77C-D883-E2BA-F140A9B1AB04,1SDCH7G0169R0K,,,,,,,,,
2/15/2024,41:42.6,12m 29.4s,749.4,6.974220725,79.9143407,0,0,0.3,51,0.1,0,0,0,0,0,0,0,0,7.3,-3.9,-87.3,272.7,,Manual Takeoff,Auto Fly,Takeoff (RC Assisted),16,5,TRUE,,Mavic Mini,TRUE,FALSE,,Smart,RC,TRUE,TRUE,FALSE,,,TRUE,,FALSE,FALSE,FALSE,FALSE,FALSE,FALSE,FALSE,FALSE,FALSE,FALSE,0,Follow Yaw,0,0,-60.4,299.6,FALSE,FALSE,FALSE,FALSE,FALSE,FALSE,,TRUE,Normal,,100,1024,1024,1024,1024,2,FALSE,FALSE,FALSE,FALSE,FALSE,0,FALSE,FALSE,FALSE,FALSE,48,7.423,1017,2113,7.425,FALSE,3.712,3.711,0.004,FALSE,FALSE,NA,117.5,117.5,117.5,0,0,0,0,5,2614.4,653.61,,Idle,0,20,FALSE,5,TRUE,9,Go Home,FALSE,FALSE,FALSE,FALSE,FALSE,FALSE,FALSE,FALSE,FALSE,FALSE,FALSE,FALSE,6.974216211,79.91434039,1.6,119.1,328,TRUE,1,1,FALSE,FALSE,FALSE,FALSE,,TRUE,FALSE,FALSE,Course Lock,65.6,41.9,16.4,Calm,27,,1.12.8,Mavic Mini,1SDCH7G0169R0K,1SFLH6Q0AB03DJ,1SRCH7F014TAHX,1U5X071EXP5ZJG,107.4,0.3,3.2,4.702942,1.342164,0,0,Mavic Mini,1SDCH7G0169R0K,1SFLH6Q0AB03DJ,1SRCH7F014TAHX,1U5X071EXP5ZJG,DJI Fly,,1.12.8,9FC8C382-B77C-D883-E2BA-F140A9B1AB04,1SDCH7G0169R0K,,,,,,,,,
2/15/2024,41:42.8,12m 29.5s,749.5,6.974220726,79.9143407,0,0,0.3,51,0.1,0,0,0,0,0,0,0,0,7.3,-3.9,-87.3,272.7,,Manual Takeoff,Auto Fly,Takeoff (RC Assisted),16,5,TRUE,,Mavic Mini,TRUE,FALSE,,Smart,RC,TRUE,TRUE,FALSE,,,TRUE,,FALSE,FALSE,FALSE,FALSE,FALSE,FALSE,FALSE,FALSE,FALSE,FALSE,0,Follow Yaw,0,0,-60.4,299.6,FALSE,FALSE,FALSE,FALSE,FALSE,FALSE,,TRUE,Normal,,100,1024,1024,1035,1024,2,FALSE,FALSE,FALSE,FALSE,FALSE,0,FALSE,FALSE,FALSE,FALSE,48,7.423,1017,2113,7.425,FALSE,3.712,3.711,0.004,FALSE,FALSE,NA,117.5,117.5,117.5,0,0,0,0,5,2614.4,653.61,,Idle,0,20,FALSE,5,TRUE,9,Go Home,FALSE,FALSE,FALSE,FALSE,FALSE,FALSE,FALSE,FALSE,FALSE,FALSE,FALSE,FALSE,6.974216211,79.91434039,1.6,119.1,328,TRUE,1,1,FALSE,FALSE,FALSE,FALSE,,TRUE,FALSE,FALSE,Course Lock,65.6,41.9,16.4,Calm,27,,1.12.8,Mavic Mini,1SDCH7G0169R0K,1SFLH6Q0AB03DJ,1SRCH7F014TAHX,1U5X071EXP5ZJG,107.4,0.3,3.2,4.702942,1.342164,0,0,Mavic Mini,1SDCH7G0169R0K,1SFLH6Q0AB03DJ,1SRCH7F014TAHX,1U5X071EXP5ZJG,DJI Fly,,1.12.8,9FC8C382-B77C-D883-E2BA-F140A9B1AB04,1SDCH7G0169R0K,,,,,,,,,
2/15/2024,41:42.8,12m 29.6s,749.6,6.974220678,79.9143407,0,0,0.3,51,0.1,0,0,0,0,0,0,0,0,7.3,-3.8,-87.3,272.7,,Manual Takeoff,Auto Fly,Takeoff (RC Assisted),16,5,TRUE,,Mavic Mini,TRUE,FALSE,,Smart,RC,TRUE,TRUE,FALSE,,,TRUE,,FALSE,FALSE,FALSE,FALSE,FALSE,FALSE,FALSE,FALSE,FALSE,FALSE,0,Follow Yaw,0,0,-60.4,299.6,FALSE,FALSE,FALSE,FALSE,FALSE,FALSE,,TRUE,Normal,,100,1024,1024,1109,1024,2,FALSE,FALSE,FALSE,FALSE,FALSE,0,FALSE,FALSE,FALSE,FALSE,48,7.423,1017,2113,7.425,FALSE,3.712,3.711,0.004,FALSE,FALSE,NA,117.5,117.5,117.5,0,0,0,0,5,2614.4,653.61,,Idle,0,20,FALSE,5,TRUE,9,Go Home,FALSE,FALSE,FALSE,FALSE,FALSE,FALSE,FALSE,FALSE,FALSE,FALSE,FALSE,FALSE,6.974216211,79.91434039,1.6,119.1,328,TRUE,1,1,FALSE,FALSE,FALSE,FALSE,,TRUE,FALSE,FALSE,Course Lock,65.6,41.9,16.4,Calm,27,,1.12.8,Mavic Mini,1SDCH7G0169R0K,1SFLH6Q0AB03DJ,1SRCH7F014TAHX,1U5X071EXP5ZJG,107.4,0.3,3.2,4.702942,1.342164,0,0,Mavic Mini,1SDCH7G0169R0K,1SFLH6Q0AB03DJ,1SRCH7F014TAHX,1U5X071EXP5ZJG,DJI Fly,,1.12.8,9FC8C382-B77C-D883-E2BA-F140A9B1AB04,1SDCH7G0169R0K,,,,,,,,,
2/15/2024,41:42.9,12m 29.7s,749.7,6.974220559,79.91434069,0,0,0.3,51,0.2,0,0,0,0,0,0,0,0,7.2,-3.8,-87.3,272.7,,Manual Takeoff,Auto Fly,Takeoff (RC Assisted),16,5,TRUE,,Mavic Mini,TRUE,FALSE,,Smart,RC,TRUE,TRUE,FALSE,,,TRUE,,FALSE,FALSE,FALSE,FALSE,FALSE,FALSE,FALSE,FALSE,FALSE,FALSE,0,Follow Yaw,0,0,-60.4,299.6,FALSE,FALSE,FALSE,FALSE,FALSE,FALSE,,TRUE,Normal,,100,1024,1024,1162,1024,2,FALSE,FALSE,FALSE,FALSE,FALSE,0,FALSE,FALSE,FALSE,FALSE,48,7.423,1017,2113,7.421,FALSE,3.712,3.711,0.004,FALSE,FALSE,NA,117.5,117.5,117.5,0,0,0,0,5,2658.1,664.52,,Idle,0,20,FALSE,5,TRUE,9,Go Home,FALSE,FALSE,FALSE,FALSE,FALSE,FALSE,FALSE,FALSE,FALSE,FALSE,FALSE,FALSE,6.974216211,79.91434039,1.5,119.1,328,TRUE,1,1,FALSE,FALSE,FALSE,FALSE,,TRUE,FALSE,FALSE,Course Lock,65.6,41.9,16.4,Calm,27,,1.12.8,Mavic Mini,1SDCH7G0169R0K,1SFLH6Q0AB03DJ,1SRCH7F014TAHX,1U5X071EXP5ZJG,107.4,0.3,3.2,4.702942,1.342164,0,0,Mavic Mini,1SDCH7G0169R0K,1SFLH6Q0AB03DJ,1SRCH7F014TAHX,1U5X071EXP5ZJG,DJI Fly,,1.12.8,9FC8C382-B77C-D883-E2BA-F140A9B1AB04,1SDCH7G0169R0K,,,,,,,,,
2/15/2024,41:43.0,12m 29.8s,749.8,6.974220599,79.91434068,0,0,0.3,51,0.2,0,0,0,0,0,0,0,0,7.3,-3.8,-87.3,272.7,,Manual Takeoff,Auto Fly,Takeoff (RC Assisted),16,5,TRUE,,Mavic Mini,TRUE,FALSE,,Smart,RC,TRUE,TRUE,FALSE,,,TRUE,,FALSE,FALSE,FALSE,FALSE,FALSE,FALSE,FALSE,FALSE,FALSE,FALSE,0,Follow Yaw,0,0,-60.4,299.6,FALSE,FALSE,FALSE,FALSE,FALSE,FALSE,,TRUE,Normal,,100,1024,1024,1180,1024,2,FALSE,FALSE,FALSE,FALSE,FALSE,0,FALSE,FALSE,FALSE,FALSE,48,7.423,1017,2113,7.421,FALSE,3.712,3.711,0.004,FALSE,FALSE,NA,117.5,117.5,117.5,0,0,0,0,5,2658.1,664.52,,Idle,0,20,FALSE,5,TRUE,9,Go Home,FALSE,FALSE,FALSE,FALSE,FALSE,FALSE,FALSE,FALSE,FALSE,FALSE,FALSE,FALSE,6.974216211,79.91434039,1.6,119.1,328,TRUE,1,1,FALSE,FALSE,FALSE,FALSE,,TRUE,FALSE,FALSE,Course Lock,65.6,41.9,16.4,Calm,27,,1.12.8,Mavic Mini,1SDCH7G0169R0K,1SFLH6Q0AB03DJ,1SRCH7F014TAHX,1U5X071EXP5ZJG,107.4,0.3,3.2,4.702942,1.342164,0,0,Mavic Mini,1SDCH7G0169R0K,1SFLH6Q0AB03DJ,1SRCH7F014TAHX,1U5X071EXP5ZJG,DJI Fly,,1.12.8,9FC8C382-B77C-D883-E2BA-F140A9B1AB04,1SDCH7G0169R0K,,,,,6.974234325,79.91435397,5,,
2/15/2024,41:43.1,12m 29.9s,749.9,6.974220638,79.91434068,0,0,0.3,51,0.2,0,0,0,0,0,0,0,0,7.2,-3.8,-87.2,272.8,,Manual Takeoff,Auto Fly,Takeoff (RC Assisted),16,5,TRUE,,Mavic Mini,TRUE,FALSE,,Smart,RC,TRUE,TRUE,FALSE,,,TRUE,,FALSE,FALSE,FALSE,FALSE,FALSE,FALSE,FALSE,FALSE,FALSE,FALSE,0,Follow Yaw,0,0,-60.4,299.6,FALSE,FALSE,FALSE,FALSE,FALSE,FALSE,,TRUE,Normal,,100,1024,1024,1183,1024,2,FALSE,FALSE,FALSE,FALSE,FALSE,0,FALSE,FALSE,FALSE,FALSE,48,7.423,1017,2113,7.421,FALSE,3.712,3.711,0.004,FALSE,FALSE,NA,117.5,117.5,117.5,0,0,0,0,5,2658.1,664.52,,Idle,0,20,FALSE,5,TRUE,9,Go Home,FALSE,FALSE,FALSE,FALSE,FALSE,FALSE,FALSE,FALSE,FALSE,FALSE,FALSE,FALSE,6.974216211,79.91434039,1.6,119.1,328,TRUE,1,1,FALSE,FALSE,FALSE,FALSE,,TRUE,FALSE,FALSE,Course Lock,65.6,41.9,16.4,Calm,27,,1.12.8,Mavic Mini,1SDCH7G0169R0K,1SFLH6Q0AB03DJ,1SRCH7F014TAHX,1U5X071EXP5ZJG,107.4,0.3,3.2,4.702942,1.342164,0,0,Mavic Mini,1SDCH7G0169R0K,1SFLH6Q0AB03DJ,1SRCH7F014TAHX,1U5X071EXP5ZJG,DJI Fly,,1.12.8,9FC8C382-B77C-D883-E2BA-F140A9B1AB04,1SDCH7G0169R0K,,,,,6.974234325,79.91435397,5,,
2/15/2024,41:43.2,12m 30.0s,750,6.97422066,79.91434068,0,0,0.3,51,0.2,0,0,0,0,0,0,0,0,7.2,-3.8,-87.2,272.8,,Manual Takeoff,Auto Fly,Takeoff (RC Assisted),16,5,TRUE,,Mavic Mini,TRUE,FALSE,,Smart,RC,TRUE,TRUE,FALSE,,,TRUE,,FALSE,FALSE,FALSE,FALSE,FALSE,FALSE,FALSE,FALSE,FALSE,FALSE,0,Follow Yaw,0,0,-60.4,299.6,FALSE,FALSE,FALSE,FALSE,FALSE,FALSE,,TRUE,Normal,,100,1024,1024,1182,1024,2,FALSE,FALSE,FALSE,FALSE,FALSE,0,FALSE,FALSE,FALSE,FALSE,48,7.423,1017,2113,7.421,FALSE,3.712,3.711,0.004,FALSE,FALSE,NA,117.5,117.5,117.5,0,0,0,0,5,2658.1,664.52,,Idle,0,20,FALSE,5,TRUE,9,Go Home,FALSE,FALSE,FALSE,FALSE,FALSE,FALSE,FALSE,FALSE,FALSE,FALSE,FALSE,FALSE,6.974216211,79.91434039,1.6,119.1,328,TRUE,1,1,FALSE,FALSE,FALSE,FALSE,,TRUE,FALSE,FALSE,Course Lock,65.6,41.9,16.4,Calm,27,,1.12.8,Mavic Mini,1SDCH7G0169R0K,1SFLH6Q0AB03DJ,1SRCH7F014TAHX,1U5X071EXP5ZJG,107.4,0.3,3.2,4.702942,1.342164,0,0,Mavic Mini,1SDCH7G0169R0K,1SFLH6Q0AB03DJ,1SRCH7F014TAHX,1U5X071EXP5ZJG,DJI Fly,,1.12.8,9FC8C382-B77C-D883-E2BA-F140A9B1AB04,1SDCH7G0169R0K,,,,,6.974234325,79.91435397,5,,
2/15/2024,41:43.3,12m 30.1s,750.1,6.974220669,79.91434069,0,0,0.3,51,0.2,0,0,0,0,0,0,0,0,7.1,-3.8,-87.2,272.8,,Manual Takeoff,Auto Fly,Takeoff (RC Assisted),16,5,TRUE,,Mavic Mini,TRUE,FALSE,,Smart,RC,TRUE,TRUE,FALSE,,,TRUE,,FALSE,FALSE,FALSE,FALSE,FALSE,FALSE,FALSE,FALSE,FALSE,FALSE,0,Follow Yaw,0,0,-60.4,299.6,FALSE,FALSE,FALSE,FALSE,FALSE,FALSE,,TRUE,Normal,,100,1024,1024,1182,1024,2,FALSE,FALSE,FALSE,FALSE,FALSE,0,FALSE,FALSE,FALSE,FALSE,48,7.423,1017,2113,7.421,FALSE,3.712,3.711,0.004,FALSE,FALSE,NA,117.5,117.5,117.5,0,0,0,0,5,2658.1,664.52,,Idle,0,20,FALSE,5,TRUE,9,Go Home,FALSE,FALSE,FALSE,FALSE,FALSE,FALSE,FALSE,FALSE,FALSE,FALSE,FALSE,FALSE,6.974216211,79.91434039,1.6,119.1,328,TRUE,1,1,FALSE,FALSE,FALSE,FALSE,,TRUE,FALSE,FALSE,Course Lock,65.6,41.9,16.4,Calm,27,,1.12.8,Mavic Mini,1SDCH7G0169R0K,1SFLH6Q0AB03DJ,1SRCH7F014TAHX,1U5X071EXP5ZJG,107.4,0.3,3.2,4.702942,1.342164,0,0,Mavic Mini,1SDCH7G0169R0K,1SFLH6Q0AB03DJ,1SRCH7F014TAHX,1U5X071EXP5ZJG,DJI Fly,,1.12.8,9FC8C382-B77C-D883-E2BA-F140A9B1AB04,1SDCH7G0169R0K,,,,,6.974234325,79.91435397,5,,
2/15/2024,41:43.4,12m 30.2s,750.2,6.974220626,79.91434069,0,0,0.3,51,0.2,0,0,0,0,0,0,0,0,7.1,-3.8,-87.2,272.8,,Manual Takeoff,Auto Fly,Takeoff (RC Assisted),16,5,TRUE,,Mavic Mini,TRUE,FALSE,,Smart,RC,TRUE,TRUE,FALSE,,,TRUE,,FALSE,FALSE,FALSE,FALSE,FALSE,FALSE,FALSE,FALSE,FALSE,FALSE,0,Follow Yaw,0,0,-60.3,299.7,FALSE,FALSE,FALSE,FALSE,FALSE,FALSE,,TRUE,Normal,,100,1024,1024,1182,1024,2,FALSE,FALSE,FALSE,FALSE,FALSE,0,FALSE,FALSE,FALSE,FALSE,48,7.423,1017,2113,7.421,FALSE,3.712,3.711,0.004,FALSE,FALSE,NA,117.5,117.5,117.5,0,0,0,0,5,2658.1,664.52,,Idle,0,20,FALSE,5,TRUE,9,Go Home,FALSE,FALSE,FALSE,FALSE,FALSE,FALSE,FALSE,FALSE,FALSE,FALSE,FALSE,FALSE,6.974216211,79.91434039,1.6,119.1,328,TRUE,1,1,FALSE,FALSE,FALSE,FALSE,,TRUE,FALSE,FALSE,Course Lock,65.6,41.9,16.4,Calm,27,,1.12.8,Mavic Mini,1SDCH7G0169R0K,1SFLH6Q0AB03DJ,1SRCH7F014TAHX,1U5X071EXP5ZJG,107.4,0.3,3.2,4.702942,1.342164,0,0,Mavic Mini,1SDCH7G0169R0K,1SFLH6Q0AB03DJ,1SRCH7F014TAHX,1U5X071EXP5ZJG,DJI Fly,,1.12.8,9FC8C382-B77C-D883-E2BA-F140A9B1AB04,1SDCH7G0169R0K,,,,,6.974234325,79.91435397,5,,
2/15/2024,41:43.5,12m 30.3s,750.3,6.974220587,79.91434069,0,0,0.3,51,0.2,0,0,0,0,0,0,0,0,7.1,-3.8,-87.3,272.7,,Manual Takeoff,Auto Fly,Takeoff (RC Assisted),16,5,TRUE,,Mavic Mini,TRUE,FALSE,,Smart,RC,TRUE,TRUE,FALSE,,,TRUE,,FALSE,FALSE,FALSE,FALSE,FALSE,FALSE,FALSE,FALSE,FALSE,FALSE,0,Follow Yaw,0,0,-60.3,299.7,FALSE,FALSE,FALSE,FALSE,FALSE,FALSE,,TRUE,Normal,,100,1024,1024,1182,1024,2,FALSE,FALSE,FALSE,FALSE,FALSE,0,FALSE,FALSE,FALSE,FALSE,48,7.394,1017,2113,7.421,FALSE,3.698,3.696,0.004,FALSE,FALSE,NA,117.5,117.5,117.5,0,0,0,0,5,2658.1,664.52,,Idle,0,20,FALSE,5,TRUE,9,Go Home,FALSE,FALSE,FALSE,FALSE,FALSE,FALSE,FALSE,FALSE,FALSE,FALSE,FALSE,FALSE,6.974216211,79.91434039,1.6,119.1,328,TRUE,1,1,FALSE,FALSE,FALSE,FALSE,,TRUE,FALSE,FALSE,Course Lock,65.6,41.9,16.4,Calm,27,,1.12.8,Mavic Mini,1SDCH7G0169R0K,1SFLH6Q0AB03DJ,1SRCH7F014TAHX,1U5X071EXP5ZJG,107.4,0.3,3.2,4.702942,1.342164,0,0,Mavic Mini,1SDCH7G0169R0K,1SFLH6Q0AB03DJ,1SRCH7F014TAHX,1U5X071EXP5ZJG,DJI Fly,,1.12.8,9FC8C382-B77C-D883-E2BA-F140A9B1AB04,1SDCH7G0169R0K,,,,,6.974234325,79.91435397,5,,
2/15/2024,41:43.6,12m 30.4s,750.4,6.974220569,79.91434069,0,0,0.3,51,0.2,0,0,0,0,0,0,0,0,6.7,-3.8,-88.1,271.9,,Manual Takeoff,Auto Fly,Takeoff (RC Assisted),16,5,TRUE,,Mavic Mini,TRUE,FALSE,,Smart,RC,TRUE,TRUE,FALSE,,,TRUE,,FALSE,FALSE,FALSE,FALSE,FALSE,FALSE,FALSE,FALSE,FALSE,FALSE,0,Follow Yaw,0,0,-60.5,299.5,FALSE,FALSE,FALSE,FALSE,FALSE,FALSE,,TRUE,Normal,,100,1024,1024,1181,1024,2,FALSE,FALSE,FALSE,FALSE,FALSE,0,FALSE,FALSE,FALSE,FALSE,48,7.394,1017,2113,7.421,FALSE,3.698,3.696,0.004,FALSE,FALSE,NA,117.5,117.5,117.5,0,0,0,0,5,2658.1,664.52,,Idle,0,20,FALSE,5,TRUE,9,Go Home,FALSE,FALSE,FALSE,FALSE,FALSE,FALSE,FALSE,FALSE,FALSE,FALSE,FALSE,FALSE,6.974216211,79.91434039,1.5,119.1,328,TRUE,1,1,FALSE,FALSE,FALSE,FALSE,,TRUE,FALSE,FALSE,Course Lock,65.6,41.9,16.4,Calm,27,,1.12.8,Mavic Mini,1SDCH7G0169R0K,1SFLH6Q0AB03DJ,1SRCH7F014TAHX,1U5X071EXP5ZJG,107.4,0.3,3.2,4.702942,1.342164,0,0,Mavic Mini,1SDCH7G0169R0K,1SFLH6Q0AB03DJ,1SRCH7F014TAHX,1U5X071EXP5ZJG,DJI Fly,,1.12.8,9FC8C382-B77C-D883-E2BA-F140A9B1AB04,1SDCH7G0169R0K,,,,,6.974234325,79.91435397,5,,
2/15/2024,41:43.7,12m 30.5s,750.5,6.974220536,79.91434069,0,0,0.3,51,0.2,0,0,0,0,0,0,0,0,6.1,-3.9,-88.9,271.1,,Manual Takeoff,Auto Fly,Takeoff (RC Assisted),16,5,TRUE,,Mavic Mini,TRUE,FALSE,,Smart,RC,TRUE,TRUE,FALSE,,,TRUE,,FALSE,FALSE,FALSE,FALSE,FALSE,FALSE,FALSE,FALSE,FALSE,FALSE,0,Follow Yaw,0,0,-61.2,298.8,FALSE,FALSE,FALSE,FALSE,FALSE,FALSE,,TRUE,Normal,,100,1024,1024,1177,1024,2,FALSE,FALSE,FALSE,FALSE,FALSE,0,FALSE,FALSE,FALSE,FALSE,48,7.394,1017,2113,7.421,FALSE,3.698,3.696,0.004,FALSE,FALSE,NA,117.5,117.5,117.5,0,0,0,0,5,2658.1,664.52,,Idle,0,20,FALSE,5,TRUE,9,Go Home,FALSE,FALSE,FALSE,FALSE,FALSE,FALSE,FALSE,FALSE,FALSE,FALSE,FALSE,FALSE,6.974216211,79.91434039,1.5,119.1,328,TRUE,1,1,FALSE,FALSE,FALSE,FALSE,,TRUE,FALSE,FALSE,Course Lock,65.6,41.9,16.4,Calm,27,,1.12.8,Mavic Mini,1SDCH7G0169R0K,1SFLH6Q0AB03DJ,1SRCH7F014TAHX,1U5X071EXP5ZJG,107.4,0.3,3.2,4.702942,1.342164,0,0,Mavic Mini,1SDCH7G0169R0K,1SFLH6Q0AB03DJ,1SRCH7F014TAHX,1U5X071EXP5ZJG,DJI Fly,,1.12.8,9FC8C382-B77C-D883-E2BA-F140A9B1AB04,1SDCH7G0169R0K,,,,,6.974234325,79.91435397,5,,
2/15/2024,41:43.8,12m 30.6s,750.6,6.974220343,79.91434073,0,0,0.3,51,0.3,0,0,0,0,0,0,0,0,3.9,-4.2,-90.2,269.8,,Manual Takeoff,Auto Fly,Takeoff (RC Assisted),16,5,TRUE,,Mavic Mini,TRUE,FALSE,,Smart,RC,TRUE,TRUE,FALSE,,,TRUE,,FALSE,FALSE,FALSE,FALSE,FALSE,FALSE,FALSE,FALSE,FALSE,FALSE,0,Follow Yaw,0,0,-62.1,297.9,FALSE,FALSE,FALSE,FALSE,FALSE,FALSE,,TRUE,Normal,,100,1024,1024,1167,1024,2,FALSE,FALSE,FALSE,FALSE,FALSE,0,FALSE,FALSE,FALSE,FALSE,48,7.394,1017,2113,7.421,FALSE,3.698,3.696,0.004,FALSE,FALSE,NA,117.5,117.5,117.5,0,0,0,0,5,2658.1,664.52,,Idle,0,20,FALSE,5,TRUE,9,Go Home,FALSE,FALSE,FALSE,FALSE,FALSE,FALSE,FALSE,FALSE,FALSE,FALSE,FALSE,FALSE,6.974216211,79.91434039,1.5,119.1,328,TRUE,1,1,FALSE,FALSE,FALSE,FALSE,,TRUE,FALSE,FALSE,Course Lock,65.6,41.9,16.4,Calm,27,,1.12.8,Mavic Mini,1SDCH7G0169R0K,1SFLH6Q0AB03DJ,1SRCH7F014TAHX,1U5X071EXP5ZJG,107.4,0.3,3.2,4.702942,1.342164,0,0,Mavic Mini,1SDCH7G0169R0K,1SFLH6Q0AB03DJ,1SRCH7F014TAHX,1U5X071EXP5ZJG,DJI Fly,,1.12.8,9FC8C382-B77C-D883-E2BA-F140A9B1AB04,1SDCH7G0169R0K,,,,,6.974234325,79.91435397,5,,
2/15/2024,41:43.9,12m 30.7s,750.7,6.97422018,79.91434077,0,0,0.3,51,0.4,0.223694,0.223694,-0.223694,0,0,0,0,0,1.6,-3.1,-92.4,267.6,168.6,Manual Takeoff,Auto Fly,Takeoff (RC Assisted),16,5,TRUE,,Mavic Mini,TRUE,FALSE,,Smart,RC,TRUE,TRUE,FALSE,,,TRUE,,FALSE,FALSE,FALSE,FALSE,FALSE,FALSE,FALSE,FALSE,FALSE,FALSE,0,Follow Yaw,0,0,-64.2,295.8,FALSE,FALSE,FALSE,FALSE,FALSE,FALSE,,TRUE,Normal,,100,1024,1024,1156,1024,2,FALSE,FALSE,FALSE,FALSE,FALSE,0,FALSE,FALSE,FALSE,FALSE,48,7.394,1017,2113,7.37,FALSE,3.698,3.696,0.004,FALSE,FALSE,NA,117.5,117.5,117.5,0,0,0,0,5,2846.5,711.64,,Idle,0,20,FALSE,5,TRUE,9,Go Home,FALSE,FALSE,FALSE,FALSE,FALSE,FALSE,FALSE,FALSE,FALSE,FALSE,FALSE,FALSE,6.974216211,79.91434039,1.4,119.1,328,TRUE,1,1,FALSE,FALSE,FALSE,FALSE,,TRUE,FALSE,FALSE,Course Lock,65.6,41.9,16.4,Calm,27,,1.12.8,Mavic Mini,1SDCH7G0169R0K,1SFLH6Q0AB03DJ,1SRCH7F014TAHX,1U5X071EXP5ZJG,107.4,0.3,3.2,4.702942,1.342164,0,0,Mavic Mini,1SDCH7G0169R0K,1SFLH6Q0AB03DJ,1SRCH7F014TAHX,1U5X071EXP5ZJG,DJI Fly,,1.12.8,9FC8C382-B77C-D883-E2BA-F140A9B1AB04,1SDCH7G0169R0K,,,,,6.974234325,79.91435397,5,,
2/15/2024,41:44.0,12m 30.8s,750.8,6.974219979,79.91434083,0,0,0.3,51,0.5,0.447388,0.447388,-0.447388,0,0,0,0,0,0.3,-2.4,-93.7,266.3,167.2,Manual Takeoff,Auto Fly,Takeoff (RC Assisted),16,5,TRUE,,Mavic Mini,TRUE,FALSE,,Smart,RC,TRUE,TRUE,FALSE,,,TRUE,,FALSE,FALSE,FALSE,FALSE,FALSE,FALSE,FALSE,FALSE,FALSE,FALSE,0,Follow Yaw,0,0,-65.9,294.1,FALSE,FALSE,FALSE,FALSE,FALSE,FALSE,,TRUE,Normal,,100,1024,1024,1149,1024,2,FALSE,FALSE,FALSE,FALSE,FALSE,0,FALSE,FALSE,FALSE,FALSE,48,7.394,1017,2113,7.37,FALSE,3.698,3.696,0.004,FALSE,FALSE,NA,117.5,117.5,117.5,0,0,0,0,5,2846.5,711.64,,Idle,0,20,FALSE,5,TRUE,9,Go Home,FALSE,FALSE,FALSE,FALSE,FALSE,FALSE,FALSE,FALSE,FALSE,FALSE,FALSE,FALSE,6.974216211,79.91434039,1.3,119.1,328,TRUE,1,1,FALSE,FALSE,FALSE,FALSE,,TRUE,FALSE,FALSE,Course Lock,65.6,41.9,16.4,Calm,27,,1.12.8,Mavic Mini,1SDCH7G0169R0K,1SFLH6Q0AB03DJ,1SRCH7F014TAHX,1U5X071EXP5ZJG,107.4,0.3,3.2,4.702942,1.342164,0,0,Mavic Mini,1SDCH7G0169R0K,1SFLH6Q0AB03DJ,1SRCH7F014TAHX,1U5X071EXP5ZJG,DJI Fly,,1.12.8,9FC8C382-B77C-D883-E2BA-F140A9B1AB04,1SDCH7G0169R0K,,,,,6.974234325,79.91435397,5,,
2/15/2024,41:44.2,12m 30.9s,750.9,6.974219736,79.91434088,0,0,0.3,51,0.5,0.671082,0.671082,-0.671082,0,0,0,-0.223694,0,0,-1.9,-95,265,170.2,Manual Takeoff,Auto Fly,Takeoff (RC Assisted),16,5,TRUE,,Mavic Mini,TRUE,FALSE,,Smart,RC,TRUE,TRUE,FALSE,,,TRUE,,FALSE,FALSE,FALSE,FALSE,FALSE,FALSE,FALSE,FALSE,FALSE,FALSE,0,Follow Yaw,0,0,-67.2,292.8,FALSE,FALSE,FALSE,FALSE,FALSE,FALSE,,TRUE,Normal,,100,1024,1024,1149,1024,2,FALSE,FALSE,FALSE,FALSE,FALSE,0,FALSE,FALSE,FALSE,FALSE,48,7.394,1017,2113,7.37,FALSE,3.698,3.696,0.004,FALSE,FALSE,NA,117.5,117.5,117.5,0,0,0,0,5,2846.5,711.64,,Idle,0,20,FALSE,5,TRUE,9,Go Home,FALSE,FALSE,FALSE,FALSE,FALSE,FALSE,FALSE,FALSE,FALSE,FALSE,FALSE,FALSE,6.974216211,79.91434039,1.2,119.1,328,TRUE,1,1,FALSE,FALSE,FALSE,FALSE,,TRUE,FALSE,FALSE,Course Lock,65.6,41.9,16.4,Calm,27,,1.12.8,Mavic Mini,1SDCH7G0169R0K,1SFLH6Q0AB03DJ,1SRCH7F014TAHX,1U5X071EXP5ZJG,107.4,0.3,3.2,4.702942,1.342164,0,0,Mavic Mini,1SDCH7G0169R0K,1SFLH6Q0AB03DJ,1SRCH7F014TAHX,1U5X071EXP5ZJG,DJI Fly,,1.12.8,9FC8C382-B77C-D883-E2BA-F140A9B1AB04,1SDCH7G0169R0K,,,,,6.974234325,79.91435397,5,,
2/15/2024,41:44.2,12m 31.0s,751,6.974219394,79.91434092,0,0,0.3,51,0.7,0.671082,0.671082,-0.671082,0,0,0,-0.223694,0,0,-1.3,-95.9,264.1,174.5,Tripod,Auto Fly,,16,5,TRUE,,Mavic Mini,TRUE,FALSE,,Smart,RC,FALSE,TRUE,FALSE,,,TRUE,,FALSE,FALSE,FALSE,FALSE,FALSE,FALSE,FALSE,FALSE,FALSE,FALSE,0,Follow Yaw,0,0,-68.3,291.7,FALSE,FALSE,FALSE,FALSE,FALSE,FALSE,,TRUE,Normal,,100,1024,1024,1149,1024,2,FALSE,FALSE,FALSE,FALSE,FALSE,0,FALSE,FALSE,FALSE,FALSE,48,7.394,1017,2113,7.37,FALSE,3.698,3.696,0.004,FALSE,FALSE,NA,117.5,117.5,117.5,0,0,0,0,5,2846.5,711.64,,Idle,0,20,FALSE,5,TRUE,9,Go Home,FALSE,FALSE,FALSE,FALSE,FALSE,FALSE,FALSE,FALSE,FALSE,FALSE,FALSE,FALSE,6.974216211,79.91434039,1.1,119.1,328,TRUE,1,1,FALSE,FALSE,FALSE,FALSE,,TRUE,FALSE,FALSE,Course Lock,65.6,41.9,16.4,Calm,27,,1.12.8,Mavic Mini,1SDCH7G0169R0K,1SFLH6Q0AB03DJ,1SRCH7F014TAHX,1U5X071EXP5ZJG,107.4,0.3,3.2,4.702942,1.342164,0,0,Mavic Mini,1SDCH7G0169R0K,1SFLH6Q0AB03DJ,1SRCH7F014TAHX,1U5X071EXP5ZJG,DJI Fly,,1.12.8,9FC8C382-B77C-D883-E2BA-F140A9B1AB04,1SDCH7G0169R0K,,,,,6.974234325,79.91435397,5,Flight mode changed to Tripod.,
2/15/2024,41:44.3,12m 31.1s,751.1,6.974219068,79.91434092,0,0,0.6,51,0.8,0.671082,0.671082,-0.671082,0,0,0,-0.671082,0,0.1,1.1,-95.7,264.3,179.9,Tripod,Auto Fly,,15,5,TRUE,,Mavic Mini,TRUE,FALSE,,Smart,RC,FALSE,TRUE,FALSE,,,TRUE,,FALSE,FALSE,FALSE,FALSE,FALSE,FALSE,FALSE,FALSE,FALSE,FALSE,0,Follow Yaw,0,0,-68.6,291.4,FALSE,FALSE,FALSE,FALSE,FALSE,FALSE,,TRUE,Normal,,100,1024,1024,1147,1024,2,FALSE,FALSE,FALSE,FALSE,FALSE,0,FALSE,FALSE,FALSE,FALSE,48,7.394,1017,2113,7.37,FALSE,3.698,3.696,0.004,FALSE,FALSE,NA,117.5,117.5,117.5,0,0,0,0,5,2846.5,711.64,,Idle,0,20,FALSE,5,TRUE,9,Go Home,FALSE,FALSE,FALSE,FALSE,FALSE,FALSE,FALSE,FALSE,FALSE,FALSE,FALSE,FALSE,6.974216211,79.91434039,1,119.1,328,TRUE,1,1,FALSE,FALSE,FALSE,FALSE,,TRUE,FALSE,FALSE,Course Lock,65.6,41.9,16.4,Calm,27,,1.12.8,Mavic Mini,1SDCH7G0169R0K,1SFLH6Q0AB03DJ,1SRCH7F014TAHX,1U5X071EXP5ZJG,107.4,0.3,3.2,4.702942,1.342164,0,0,Mavic Mini,1SDCH7G0169R0K,1SFLH6Q0AB03DJ,1SRCH7F014TAHX,1U5X071EXP5ZJG,DJI Fly,,1.12.8,9FC8C382-B77C-D883-E2BA-F140A9B1AB04,1SDCH7G0169R0K,,,,,6.974234325,79.91435397,5,,
2/15/2024,41:44.4,12m 31.2s,751.2,6.974218684,79.91434086,0,0,0.6,51,0.9,0.671082,0.671082,-0.671082,0,0,0,-0.894776,0,0.8,2.4,-95.3,264.7,187.8,Tripod,Auto Fly,,15,5,TRUE,,Mavic Mini,TRUE,FALSE,,Smart,RC,FALSE,TRUE,FALSE,,,TRUE,,FALSE,FALSE,FALSE,FALSE,FALSE,FALSE,FALSE,FALSE,FALSE,FALSE,0,Follow Yaw,0,0,-68.6,291.4,FALSE,FALSE,FALSE,FALSE,FALSE,FALSE,,TRUE,Normal,,100,1024,1024,1147,1024,2,FALSE,FALSE,FALSE,FALSE,FALSE,0,FALSE,FALSE,FALSE,FALSE,48,7.394,1017,2113,7.37,FALSE,3.698,3.696,0.004,FALSE,FALSE,NA,117.5,117.5,117.5,0,0,0,0,5,2846.5,711.64,,Idle,0,20,FALSE,5,TRUE,9,Go Home,FALSE,FALSE,FALSE,FALSE,FALSE,FALSE,FALSE,FALSE,FALSE,FALSE,FALSE,FALSE,6.974216211,79.91434039,0.9,119.1,328,TRUE,1,1,FALSE,FALSE,FALSE,FALSE,,TRUE,FALSE,FALSE,Course Lock,65.6,41.9,16.4,Calm,27,,1.12.8,Mavic Mini,1SDCH7G0169R0K,1SFLH6Q0AB03DJ,1SRCH7F014TAHX,1U5X071EXP5ZJG,107.4,0.3,3.2,4.702942,1.342164,0,0,Mavic Mini,1SDCH7G0169R0K,1SFLH6Q0AB03DJ,1SRCH7F014TAHX,1U5X071EXP5ZJG,DJI Fly,,1.12.8,9FC8C382-B77C-D883-E2BA-F140A9B1AB04,1SDCH7G0169R0K,,,,,6.974234325,79.91435397,5,,
2/15/2024,41:44.5,12m 31.3s,751.3,6.974218392,79.91434078,0.3,0.3,0.9,51,1,0.447388,0.671082,-0.447388,0,0,0,-1.11847,0,2,2.7,-95.2,264.8,191.8,Tripod,Auto Fly,,16,5,TRUE,,Mavic Mini,TRUE,FALSE,,Smart,RC,FALSE,TRUE,FALSE,,,TRUE,,FALSE,FALSE,FALSE,FALSE,FALSE,FALSE,FALSE,FALSE,FALSE,FALSE,0,Follow Yaw,0,0,-68.6,291.4,FALSE,FALSE,FALSE,FALSE,FALSE,FALSE,,TRUE,Normal,,100,1024,1024,1147,1024,2,FALSE,FALSE,FALSE,FALSE,FALSE,0,FALSE,FALSE,FALSE,FALSE,48,7.394,1017,2113,7.37,FALSE,3.698,3.696,0.004,FALSE,FALSE,NA,117.5,117.5,117.5,0,0,0,0,5,2846.5,711.64,,Idle,0,20,FALSE,5,TRUE,9,Go Home,FALSE,FALSE,FALSE,FALSE,FALSE,FALSE,FALSE,FALSE,FALSE,FALSE,FALSE,FALSE,6.974216211,79.91434039,0.8,119.1,328,TRUE,1,1,FALSE,FALSE,FALSE,FALSE,,TRUE,FALSE,FALSE,Course Lock,65.6,41.9,16.4,Calm,27,,1.12.8,Mavic Mini,1SDCH7G0169R0K,1SFLH6Q0AB03DJ,1SRCH7F014TAHX,1U5X071EXP5ZJG,107.4,0.3,3.2,4.702942,1.342164,0,0,Mavic Mini,1SDCH7G0169R0K,1SFLH6Q0AB03DJ,1SRCH7F014TAHX,1U5X071EXP5ZJG,DJI Fly,,1.12.8,9FC8C382-B77C-D883-E2BA-F140A9B1AB04,1SDCH7G0169R0K,,,,,6.974234325,79.91435397,5,,
2/15/2024,41:44.6,12m 31.4s,751.4,6.974217892,79.91434077,0.3,0.3,0.9,51,1.2,0.223694,0.671082,-0.223694,0,0,0,-1.342164,0,1.8,2.3,-95.3,264.7,180.9,Tripod,Auto Fly,,16,5,TRUE,,Mavic Mini,TRUE,FALSE,,Smart,RC,FALSE,TRUE,FALSE,,,TRUE,,FALSE,FALSE,FALSE,FALSE,FALSE,FALSE,FALSE,FALSE,FALSE,FALSE,0,Follow Yaw,0,0,-68.6,291.4,FALSE,FALSE,FALSE,FALSE,FALSE,FALSE,,TRUE,Normal,,100,1024,1024,1147,1024,2,FALSE,FALSE,FALSE,FALSE,FALSE,0,FALSE,FALSE,FALSE,FALSE,48,7.236,1015,2113,7.37,FALSE,3.617,3.619,0.004,FALSE,FALSE,NA,117.5,117.5,117.5,0,0,0,0,5,2846.5,711.64,,Idle,0,20,FALSE,5,TRUE,9,Go Home,FALSE,FALSE,FALSE,FALSE,FALSE,FALSE,FALSE,FALSE,FALSE,FALSE,FALSE,FALSE,6.974216211,79.91434039,0.6,119.1,328,TRUE,1,1,FALSE,FALSE,FALSE,FALSE,,TRUE,FALSE,FALSE,Course Lock,65.6,41.9,16.4,Calm,27,,1.12.8,Mavic Mini,1SDCH7G0169R0K,1SFLH6Q0AB03DJ,1SRCH7F014TAHX,1U5X071EXP5ZJG,107.4,0.3,3.2,4.702942,1.342164,0,0,Mavic Mini,1SDCH7G0169R0K,1SFLH6Q0AB03DJ,1SRCH7F014TAHX,1U5X071EXP5ZJG,DJI Fly,,1.12.8,9FC8C382-B77C-D883-E2BA-F140A9B1AB04,1SDCH7G0169R0K,,,,,6.974234325,79.91435397,5,,
2/15/2024,41:44.7,12m 31.5s,751.5,6.97421766,79.91434073,0.6,0.6,1.3,51,1.3,0.223694,0.671082,-0.223694,0,0,0,-1.342164,0,1.7,1.7,-95.2,264.8,186.6,Tripod,Auto Fly,,15,5,TRUE,,Mavic Mini,TRUE,FALSE,,Smart,RC,FALSE,TRUE,FALSE,,,TRUE,,FALSE,FALSE,FALSE,FALSE,FALSE,FALSE,FALSE,FALSE,FALSE,FALSE,0,Follow Yaw,0,0,-68.6,291.4,FALSE,FALSE,FALSE,FALSE,FALSE,FALSE,,TRUE,Normal,,100,1024,1024,1147,1024,2,FALSE,FALSE,FALSE,FALSE,FALSE,0,FALSE,FALSE,FALSE,FALSE,48,7.236,1015,2113,7.37,FALSE,3.617,3.619,0.004,FALSE,FALSE,NA,117.5,117.5,117.5,0,0,0,0,5,2846.5,711.64,,Idle,0,20,FALSE,5,TRUE,9,Go Home,FALSE,FALSE,FALSE,FALSE,FALSE,FALSE,FALSE,FALSE,FALSE,FALSE,FALSE,FALSE,6.974216211,79.91434039,0.5,119.1,328,TRUE,1,1,FALSE,FALSE,FALSE,FALSE,,TRUE,FALSE,FALSE,Course Lock,65.6,41.9,16.4,Calm,27,,1.12.8,Mavic Mini,1SDCH7G0169R0K,1SFLH6Q0AB03DJ,1SRCH7F014TAHX,1U5X071EXP5ZJG,107.4,0.3,3.2,4.702942,1.342164,0,0,Mavic Mini,1SDCH7G0169R0K,1SFLH6Q0AB03DJ,1SRCH7F014TAHX,1U5X071EXP5ZJG,DJI Fly,,1.12.8,9FC8C382-B77C-D883-E2BA-F140A9B1AB04,1SDCH7G0169R0K,,,,,6.974234325,79.91435397,5,,
2/15/2024,41:44.8,12m 31.6s,751.6,6.974217516,79.91434072,0.6,0.6,1.6,51,1.4,0.223694,0.671082,-0.223694,0,0,0,-1.342164,0,1.7,1.3,-95.2,264.8,182.2,Tripod,Auto Fly,,15,5,TRUE,,Mavic Mini,TRUE,FALSE,,Smart,RC,FALSE,TRUE,FALSE,,,TRUE,,FALSE,FALSE,FALSE,FALSE,FALSE,FALSE,FALSE,FALSE,FALSE,FALSE,0,Follow Yaw,0,0,-68.6,291.4,FALSE,FALSE,FALSE,FALSE,FALSE,FALSE,,TRUE,Normal,,100,1024,1024,1145,1024,2,FALSE,FALSE,FALSE,FALSE,FALSE,0,FALSE,FALSE,FALSE,FALSE,48,7.236,1015,2113,7.37,FALSE,3.617,3.619,0.004,FALSE,FALSE,NA,117.5,117.5,117.5,0,0,0,0,5,2846.5,711.64,,Idle,0,20,FALSE,5,TRUE,9,Go Home,FALSE,FALSE,FALSE,FALSE,FALSE,FALSE,FALSE,FALSE,FALSE,FALSE,FALSE,FALSE,6.974216211,79.91434039,0.4,119.1,328,TRUE,1,1,FALSE,FALSE,FALSE,FALSE,,TRUE,FALSE,FALSE,Course Lock,65.6,41.9,16.4,Calm,27,,1.12.8,Mavic Mini,1SDCH7G0169R0K,1SFLH6Q0AB03DJ,1SRCH7F014TAHX,1U5X071EXP5ZJG,107.4,0.3,3.2,4.702942,1.342164,0,0,Mavic Mini,1SDCH7G0169R0K,1SFLH6Q0AB03DJ,1SRCH7F014TAHX,1U5X071EXP5ZJG,DJI Fly,,1.12.8,9FC8C382-B77C-D883-E2BA-F140A9B1AB04,1SDCH7G0169R0K,,,,,6.974234325,79.91435397,5,,
2/15/2024,41:44.9,12m 31.7s,751.7,6.974217409,79.91434069,0.9,0.9,1.6,52,1.4,0.223694,0.671082,0,0,-0.223694,0,-0.894776,0,2,1,-95.1,264.9,192,Tripod,Auto Fly,,15,5,TRUE,,Mavic Mini,TRUE,FALSE,,Smart,RC,FALSE,TRUE,FALSE,,,TRUE,,FALSE,FALSE,FALSE,FALSE,FALSE,FALSE,FALSE,FALSE,FALSE,FALSE,0,Follow Yaw,0,0,-68.6,291.4,FALSE,FALSE,FALSE,FALSE,FALSE,FALSE,,TRUE,Normal,,100,1024,1024,1144,1024,2,FALSE,FALSE,FALSE,FALSE,FALSE,0,FALSE,FALSE,FALSE,FALSE,48,7.236,1015,2113,7.342,FALSE,3.617,3.619,0.004,FALSE,FALSE,NA,117.5,117.5,117.5,0,0,3,0,5,3486.8,871.71,,Idle,0,20,FALSE,5,TRUE,9,Go Home,FALSE,FALSE,FALSE,FALSE,FALSE,FALSE,FALSE,FALSE,FALSE,FALSE,FALSE,FALSE,6.974219525,79.91434091,0.7,119.1,328,TRUE,1,1,FALSE,FALSE,FALSE,FALSE,,TRUE,FALSE,FALSE,Course Lock,65.6,41.9,16.4,Calm,27,,1.12.8,Mavic Mini,1SDCH7G0169R0K,1SFLH6Q0AB03DJ,1SRCH7F014TAHX,1U5X071EXP5ZJG,107.4,0.3,3.2,4.702942,1.342164,0,0,Mavic Mini,1SDCH7G0169R0K,1SFLH6Q0AB03DJ,1SRCH7F014TAHX,1U5X071EXP5ZJG,DJI Fly,,1.12.8,9FC8C382-B77C-D883-E2BA-F140A9B1AB04,1SDCH7G0169R0K,,,,,6.974234325,79.91435397,5,Home Point Updated.,
2/15/2024,41:45.1,12m 31.8s,751.8,6.974217459,79.91434054,0.9,0.9,1.9,52,1.5,0,0.671082,0,0,0,0,-0.671082,0,2.3,1,-95.1,264.9,,Tripod,Auto Fly,,15,5,TRUE,,Mavic Mini,TRUE,FALSE,,Smart,RC,FALSE,TRUE,FALSE,,,TRUE,,FALSE,FALSE,FALSE,FALSE,FALSE,FALSE,FALSE,FALSE,FALSE,FALSE,0,Follow Yaw,0,0,-68.6,291.4,FALSE,FALSE,FALSE,FALSE,FALSE,FALSE,,TRUE,Normal,,100,1024,1024,1144,1024,2,FALSE,FALSE,FALSE,FALSE,FALSE,0,FALSE,FALSE,FALSE,FALSE,48,7.236,1015,2113,7.342,FALSE,3.617,3.619,0.004,FALSE,FALSE,NA,117.5,117.5,117.5,0,0,3,0,5,3486.8,871.71,,Idle,0,20,FALSE,5,TRUE,9,Go Home,FALSE,FALSE,FALSE,FALSE,FALSE,FALSE,FALSE,FALSE,FALSE,FALSE,FALSE,FALSE,6.974219525,79.91434091,0.7,119.1,328,TRUE,1,1,FALSE,FALSE,FALSE,FALSE,,TRUE,FALSE,FALSE,Course Lock,65.6,41.9,16.4,Calm,27,,1.12.8,Mavic Mini,1SDCH7G0169R0K,1SFLH6Q0AB03DJ,1SRCH7F014TAHX,1U5X071EXP5ZJG,107.4,0.3,3.2,4.702942,1.342164,0,0,Mavic Mini,1SDCH7G0169R0K,1SFLH6Q0AB03DJ,1SRCH7F014TAHX,1U5X071EXP5ZJG,DJI Fly,,1.12.8,9FC8C382-B77C-D883-E2BA-F140A9B1AB04,1SDCH7G0169R0K,,,,,6.974234325,79.91435397,5,Home Point updated. RTH altitude adjusted to 20 m! (Code: 120852).,
2/15/2024,41:45.2,12m 31.9s,751.9,6.974217441,79.91434041,1.3,1.3,1.9,52,1.5,0,0.671082,0,0,0,0,-0.447388,0,2.4,0.5,-95.1,264.9,,Tripod,Auto Fly,,15,5,TRUE,,Mavic Mini,TRUE,FALSE,,Smart,RC,FALSE,TRUE,FALSE,,,TRUE,,FALSE,FALSE,FALSE,FALSE,FALSE,FALSE,FALSE,FALSE,FALSE,FALSE,0,Follow Yaw,0,0,-68.6,291.4,FALSE,FALSE,FALSE,FALSE,FALSE,FALSE,,TRUE,Normal,,100,1024,1024,1145,1024,2,FALSE,FALSE,FALSE,FALSE,FALSE,0,FALSE,FALSE,FALSE,FALSE,48,7.236,1015,2113,7.342,FALSE,3.617,3.619,0.004,FALSE,FALSE,NA,117.5,117.5,117.5,0,0,3,0,5,3486.8,871.71,,Idle,0,20,FALSE,5,TRUE,9,Go Home,FALSE,FALSE,FALSE,FALSE,FALSE,FALSE,FALSE,FALSE,FALSE,FALSE,FALSE,FALSE,6.974219525,79.91434091,0.7,119.1,328,TRUE,1,1,FALSE,FALSE,FALSE,FALSE,,TRUE,FALSE,FALSE,Course Lock,65.6,41.9,16.4,Calm,27,,1.12.8,Mavic Mini,1SDCH7G0169R0K,1SFLH6Q0AB03DJ,1SRCH7F014TAHX,1U5X071EXP5ZJG,107.4,0.3,3.2,4.702942,1.342164,0,0,Mavic Mini,1SDCH7G0169R0K,1SFLH6Q0AB03DJ,1SRCH7F014TAHX,1U5X071EXP5ZJG,DJI Fly,,1.12.8,9FC8C382-B77C-D883-E2BA-F140A9B1AB04,1SDCH7G0169R0K,,,,,6.974234325,79.91435397,5,,
2/15/2024,41:45.3,12m 32.0s,752,6.974217474,79.91434035,1.3,1.3,1.9,52,1.5,0,0.671082,0,0,0,0,-0.223694,0,2.5,0.1,-95.1,264.9,,Tripod,Auto Fly,,15,5,TRUE,,Mavic Mini,TRUE,FALSE,,Smart,RC,FALSE,TRUE,FALSE,,,TRUE,,FALSE,FALSE,FALSE,FALSE,FALSE,FALSE,FALSE,FALSE,FALSE,FALSE,0,Follow Yaw,0,0,-68.6,291.4,FALSE,FALSE,FALSE,FALSE,FALSE,FALSE,,TRUE,Normal,,100,1024,1024,1156,1024,2,FALSE,FALSE,FALSE,FALSE,FALSE,0,FALSE,FALSE,FALSE,FALSE,48,7.236,1015,2113,7.342,FALSE,3.617,3.619,0.004,FALSE,FALSE,NA,117.5,117.5,117.5,0,0,3,0,5,3486.8,871.71,,Idle,0,20,FALSE,5,TRUE,9,Go Home,FALSE,FALSE,FALSE,FALSE,FALSE,FALSE,FALSE,FALSE,FALSE,FALSE,FALSE,FALSE,6.974219525,79.91434091,0.7,119.1,328,TRUE,1,1,FALSE,FALSE,FALSE,FALSE,,TRUE,FALSE,FALSE,Course Lock,65.6,41.9,16.4,Calm,27,,1.12.8,Mavic Mini,1SDCH7G0169R0K,1SFLH6Q0AB03DJ,1SRCH7F014TAHX,1U5X071EXP5ZJG,107.4,0.3,3.2,4.702942,1.342164,0,0,Mavic Mini,1SDCH7G0169R0K,1SFLH6Q0AB03DJ,1SRCH7F014TAHX,1U5X071EXP5ZJG,DJI Fly,,1.12.8,9FC8C382-B77C-D883-E2BA-F140A9B1AB04,1SDCH7G0169R0K,,,,,6.974234325,79.91435397,5,,
2/15/2024,41:45.4,12m 32.1s,752.1,6.974217505,79.9143403,1.3,1.3,1.9,52,1.6,0,0.671082,0,0,0,0,-0.223694,0,2.4,0.1,-95.1,264.9,,Tripod,Auto Fly,,15,5,TRUE,,Mavic Mini,TRUE,FALSE,,Smart,RC,FALSE,TRUE,FALSE,,,TRUE,,FALSE,FALSE,FALSE,FALSE,FALSE,FALSE,FALSE,FALSE,FALSE,FALSE,0,Follow Yaw,0,0,-68.6,291.4,FALSE,FALSE,FALSE,FALSE,FALSE,FALSE,,TRUE,Normal,,100,1024,1024,1182,1024,2,FALSE,FALSE,FALSE,FALSE,FALSE,0,FALSE,FALSE,FALSE,FALSE,48,7.236,1015,2113,7.342,FALSE,3.617,3.619,0.004,FALSE,FALSE,NA,117.5,117.5,117.5,0,0,3,0,5,3486.8,871.71,,Idle,0,20,FALSE,5,TRUE,9,Go Home,FALSE,FALSE,FALSE,FALSE,FALSE,FALSE,FALSE,FALSE,FALSE,FALSE,FALSE,FALSE,6.974219525,79.91434091,0.7,119.1,328,TRUE,1,1,FALSE,FALSE,FALSE,FALSE,,TRUE,FALSE,FALSE,Course Lock,65.6,41.9,16.4,Calm,27,,1.12.8,Mavic Mini,1SDCH7G0169R0K,1SFLH6Q0AB03DJ,1SRCH7F014TAHX,1U5X071EXP5ZJG,107.4,0.3,3.2,4.702942,1.342164,0,0,Mavic Mini,1SDCH7G0169R0K,1SFLH6Q0AB03DJ,1SRCH7F014TAHX,1U5X071EXP5ZJG,DJI Fly,,1.12.8,9FC8C382-B77C-D883-E2BA-F140A9B1AB04,1SDCH7G0169R0K,,,,,6.974234325,79.91435397,5,,
2/15/2024,41:45.4,12m 32.2s,752.2,6.974217486,79.91434021,1.3,1.3,1.9,52,1.6,0,0.671082,0,0,0,0,0,0,2.5,0,-95.1,264.9,,Tripod,Auto Fly,,15,5,TRUE,,Mavic Mini,TRUE,FALSE,,Smart,RC,FALSE,TRUE,FALSE,,,TRUE,,FALSE,FALSE,FALSE,FALSE,FALSE,FALSE,FALSE,FALSE,FALSE,FALSE,0,Follow Yaw,0,0,-68.6,291.4,FALSE,FALSE,FALSE,FALSE,FALSE,FALSE,,TRUE,Normal,,100,1024,1024,1209,1024,2,FALSE,FALSE,FALSE,FALSE,FALSE,0,FALSE,FALSE,FALSE,FALSE,48,7.236,1015,2113,7.342,FALSE,3.617,3.619,0.004,FALSE,FALSE,NA,117.5,117.5,117.5,0,0,3,0,5,3486.8,871.71,,Idle,0,20,FALSE,5,TRUE,9,Go Home,FALSE,FALSE,FALSE,FALSE,FALSE,FALSE,FALSE,FALSE,FALSE,FALSE,FALSE,FALSE,6.974219525,79.91434091,0.7,119.1,328,TRUE,1,1,FALSE,FALSE,FALSE,FALSE,,TRUE,FALSE,FALSE,Course Lock,65.6,41.9,16.4,Calm,27,,1.12.8,Mavic Mini,1SDCH7G0169R0K,1SFLH6Q0AB03DJ,1SRCH7F014TAHX,1U5X071EXP5ZJG,107.4,0.3,3.2,4.702942,1.342164,0,0,Mavic Mini,1SDCH7G0169R0K,1SFLH6Q0AB03DJ,1SRCH7F014TAHX,1U5X071EXP5ZJG,DJI Fly,,1.12.8,9FC8C382-B77C-D883-E2BA-F140A9B1AB04,1SDCH7G0169R0K,,,,,6.974234325,79.91435397,5,,
2/15/2024,41:45.5,12m 32.3s,752.3,6.97421756,79.91434017,1.3,1.3,2.2,52,1.6,0,0.671082,0,0,0,0,0,0,2.5,-0.2,-95.2,264.8,,Tripod,Auto Fly,,15,5,TRUE,,Mavic Mini,TRUE,FALSE,,Smart,RC,FALSE,TRUE,FALSE,,,TRUE,,FALSE,FALSE,FALSE,FALSE,FALSE,FALSE,FALSE,FALSE,FALSE,FALSE,0,Follow Yaw,0,0,-68.6,291.4,FALSE,FALSE,FALSE,FALSE,FALSE,FALSE,,TRUE,Normal,,100,1024,1024,1211,1024,2,FALSE,FALSE,FALSE,FALSE,FALSE,0,FALSE,FALSE,FALSE,FALSE,48,7.236,1015,2113,7.342,FALSE,3.617,3.619,0.004,FALSE,FALSE,NA,117.5,117.5,117.5,0,0,3,0,5,3486.8,871.71,,Idle,0,20,FALSE,5,TRUE,9,Go Home,FALSE,FALSE,FALSE,FALSE,FALSE,FALSE,FALSE,FALSE,FALSE,FALSE,FALSE,FALSE,6.974219525,79.91434091,0.7,119.1,328,TRUE,1,1,FALSE,FALSE,FALSE,FALSE,,TRUE,FALSE,FALSE,Course Lock,65.6,41.9,16.4,Calm,27,,1.12.8,Mavic Mini,1SDCH7G0169R0K,1SFLH6Q0AB03DJ,1SRCH7F014TAHX,1U5X071EXP5ZJG,107.4,0.3,3.2,4.702942,1.342164,0,0,Mavic Mini,1SDCH7G0169R0K,1SFLH6Q0AB03DJ,1SRCH7F014TAHX,1U5X071EXP5ZJG,DJI Fly,,1.12.8,9FC8C382-B77C-D883-E2BA-F140A9B1AB04,1SDCH7G0169R0K,,,,,6.974234325,79.91435397,5,,
2/15/2024,41:45.6,12m 32.4s,752.4,6.974217566,79.91434009,1.3,1.3,2.2,52,1.6,0,0.671082,0,0,0,0,0,0,2.5,-0.2,-95.2,264.8,,Tripod,Auto Fly,,15,5,TRUE,,Mavic Mini,TRUE,FALSE,,Smart,RC,FALSE,TRUE,FALSE,,,TRUE,,FALSE,FALSE,FALSE,FALSE,FALSE,FALSE,FALSE,FALSE,FALSE,FALSE,0,Follow Yaw,0,0,-68.6,291.4,FALSE,FALSE,FALSE,FALSE,FALSE,FALSE,,TRUE,Normal,,100,1024,1024,1214,1024,2,FALSE,FALSE,FALSE,FALSE,FALSE,0,FALSE,FALSE,FALSE,FALSE,48,7.236,1015,2113,7.342,FALSE,3.617,3.619,0.004,FALSE,FALSE,NA,117.5,117.5,117.5,0,0,3,0,5,3486.8,871.71,,Idle,0,20,FALSE,5,TRUE,9,Go Home,FALSE,FALSE,FALSE,FALSE,FALSE,FALSE,FALSE,FALSE,FALSE,FALSE,FALSE,FALSE,6.974219525,79.91434091,0.7,119.1,328,TRUE,1,1,FALSE,FALSE,FALSE,FALSE,,TRUE,FALSE,FALSE,Course Lock,65.6,41.9,16.4,Calm,27,,1.12.8,Mavic Mini,1SDCH7G0169R0K,1SFLH6Q0AB03DJ,1SRCH7F014TAHX,1U5X071EXP5ZJG,107.4,0.3,3.2,4.702942,1.342164,0,0,Mavic Mini,1SDCH7G0169R0K,1SFLH6Q0AB03DJ,1SRCH7F014TAHX,1U5X071EXP5ZJG,DJI Fly,,1.12.8,9FC8C382-B77C-D883-E2BA-F140A9B1AB04,1SDCH7G0169R0K,,,,,6.974234325,79.91435397,5,,
2/15/2024,41:45.7,12m 32.5s,752.5,6.974217574,79.91434002,1.3,1.3,2.2,52,1.7,0,0.671082,0,0,0,0,-0.223694,0,2.4,-0.2,-95.2,264.8,,Tripod,Auto Fly,,15,5,TRUE,,Mavic Mini,TRUE,FALSE,,Smart,RC,FALSE,TRUE,FALSE,,,TRUE,,FALSE,FALSE,FALSE,FALSE,FALSE,FALSE,FALSE,FALSE,FALSE,FALSE,0,Follow Yaw,0,0,-68.6,291.4,FALSE,FALSE,FALSE,FALSE,FALSE,FALSE,,TRUE,Normal,,100,1024,1024,1219,1024,2,FALSE,FALSE,FALSE,FALSE,FALSE,0,FALSE,FALSE,FALSE,FALSE,48,7.236,1015,2113,7.342,FALSE,3.617,3.619,0.004,FALSE,FALSE,NA,117.5,117.5,117.5,0,0,3,0,5,3486.8,871.71,,Idle,0,20,FALSE,5,TRUE,9,Go Home,FALSE,FALSE,FALSE,FALSE,FALSE,FALSE,FALSE,FALSE,FALSE,FALSE,FALSE,FALSE,6.974219525,79.91434091,0.7,119.1,328,TRUE,1,1,FALSE,FALSE,FALSE,FALSE,,TRUE,FALSE,FALSE,Course Lock,65.6,41.9,16.4,Calm,27,,1.12.8,Mavic Mini,1SDCH7G0169R0K,1SFLH6Q0AB03DJ,1SRCH7F014TAHX,1U5X071EXP5ZJG,107.4,0.3,3.2,4.702942,1.342164,0,0,Mavic Mini,1SDCH7G0169R0K,1SFLH6Q0AB03DJ,1SRCH7F014TAHX,1U5X071EXP5ZJG,DJI Fly,,1.12.8,9FC8C382-B77C-D883-E2BA-F140A9B1AB04,1SDCH7G0169R0K,,,,,6.974234325,79.91435397,5,,
2/15/2024,41:45.8,12m 32.6s,752.6,6.974217602,79.91433996,1.3,1.3,2.2,52,1.7,0,0.671082,0,0,0,0,-0.223694,0,2.3,-0.2,-95.3,264.7,,Tripod,Auto Fly,,15,5,TRUE,,Mavic Mini,TRUE,FALSE,,Smart,RC,FALSE,TRUE,FALSE,,,TRUE,,FALSE,FALSE,FALSE,FALSE,FALSE,FALSE,FALSE,FALSE,FALSE,FALSE,0,Follow Yaw,0,0,-68.6,291.4,FALSE,FALSE,FALSE,FALSE,FALSE,FALSE,,TRUE,Normal,,100,1024,1024,1223,1024,2,FALSE,FALSE,FALSE,FALSE,FALSE,0,FALSE,FALSE,FALSE,FALSE,48,7.25,1014,2113,7.342,FALSE,3.627,3.624,0.004,FALSE,FALSE,NA,117.5,117.5,117.5,0,0,3,0,5,3486.8,871.71,,Idle,0,20,FALSE,5,TRUE,9,Go Home,FALSE,FALSE,FALSE,FALSE,FALSE,FALSE,FALSE,FALSE,FALSE,FALSE,FALSE,FALSE,6.974219525,79.91434091,0.7,119.1,328,TRUE,1,1,FALSE,FALSE,FALSE,FALSE,,TRUE,FALSE,FALSE,Course Lock,65.6,41.9,16.4,Calm,27,,1.12.8,Mavic Mini,1SDCH7G0169R0K,1SFLH6Q0AB03DJ,1SRCH7F014TAHX,1U5X071EXP5ZJG,107.4,0.3,3.2,4.702942,1.342164,0,0,Mavic Mini,1SDCH7G0169R0K,1SFLH6Q0AB03DJ,1SRCH7F014TAHX,1U5X071EXP5ZJG,DJI Fly,,1.12.8,9FC8C382-B77C-D883-E2BA-F140A9B1AB04,1SDCH7G0169R0K,,,,,6.974234325,79.91435397,5,,
2/15/2024,41:45.9,12m 32.7s,752.7,6.97421767,79.91433987,1.6,1.6,2.6,52,1.7,0,0.671082,0,0,0,0,-0.447388,0,2.2,-0.1,-95.3,264.7,,Tripod,Auto Fly,,15,5,TRUE,,Mavic Mini,TRUE,FALSE,,Smart,RC,FALSE,TRUE,FALSE,,,TRUE,,FALSE,FALSE,FALSE,FALSE,FALSE,FALSE,FALSE,FALSE,FALSE,FALSE,0,Follow Yaw,0,0,-68.6,291.4,FALSE,FALSE,FALSE,FALSE,FALSE,FALSE,,TRUE,Normal,,100,1024,1024,1223,1024,2,FALSE,FALSE,FALSE,FALSE,FALSE,0,FALSE,FALSE,FALSE,FALSE,48,7.25,1014,2113,7.215,FALSE,3.627,3.624,0.004,FALSE,FALSE,NA,117.5,117.5,117.5,0,0,3,0,5,4944.2,1236.06,,Idle,0,20,FALSE,5,TRUE,9,Go Home,FALSE,FALSE,FALSE,FALSE,FALSE,FALSE,FALSE,FALSE,FALSE,FALSE,FALSE,FALSE,6.974219525,79.91434091,0.7,119.1,328,TRUE,1,1,FALSE,FALSE,FALSE,FALSE,,TRUE,FALSE,FALSE,Course Lock,65.6,41.9,16.4,Calm,27,,1.12.8,Mavic Mini,1SDCH7G0169R0K,1SFLH6Q0AB03DJ,1SRCH7F014TAHX,1U5X071EXP5ZJG,107.4,0.3,3.2,4.702942,1.342164,0,0,Mavic Mini,1SDCH7G0169R0K,1SFLH6Q0AB03DJ,1SRCH7F014TAHX,1U5X071EXP5ZJG,DJI Fly,,1.12.8,9FC8C382-B77C-D883-E2BA-F140A9B1AB04,1SDCH7G0169R0K,,,,,6.974234325,79.91435397,5,,
2/15/2024,41:46.0,12m 32.8s,752.8,6.974217687,79.91433981,1.6,1.6,2.6,52,1.8,0,0.671082,0,0,0,0,-0.447388,0,2.1,-0.2,-95.3,264.7,,Tripod,Auto Fly,,15,5,TRUE,,Mavic Mini,TRUE,FALSE,,Smart,RC,FALSE,TRUE,FALSE,,,TRUE,,FALSE,FALSE,FALSE,FALSE,FALSE,FALSE,FALSE,FALSE,FALSE,FALSE,0,Follow Yaw,0,0,-68.6,291.4,FALSE,FALSE,FALSE,FALSE,FALSE,FALSE,,TRUE,Normal,,100,1024,1024,1238,1024,2,FALSE,FALSE,FALSE,FALSE,FALSE,0,FALSE,FALSE,FALSE,FALSE,48,7.25,1014,2113,7.215,FALSE,3.627,3.624,0.004,FALSE,FALSE,NA,117.5,117.5,117.5,0,0,3,0,5,4944.2,1236.06,,Idle,0,20,FALSE,5,TRUE,9,Go Home,FALSE,FALSE,FALSE,FALSE,FALSE,FALSE,FALSE,FALSE,FALSE,FALSE,FALSE,FALSE,6.974219525,79.91434091,0.7,119.1,328,TRUE,1,1,FALSE,FALSE,FALSE,FALSE,,TRUE,FALSE,FALSE,Course Lock,65.6,41.9,16.4,Calm,27,,1.12.8,Mavic Mini,1SDCH7G0169R0K,1SFLH6Q0AB03DJ,1SRCH7F014TAHX,1U5X071EXP5ZJG,107.4,0.3,3.2,4.702942,1.342164,0,0,Mavic Mini,1SDCH7G0169R0K,1SFLH6Q0AB03DJ,1SRCH7F014TAHX,1U5X071EXP5ZJG,DJI Fly,,1.12.8,9FC8C382-B77C-D883-E2BA-F140A9B1AB04,1SDCH7G0169R0K,,,,,6.974234325,79.91435397,5,,
2/15/2024,41:46.1,12m 32.9s,752.9,6.974217705,79.91433977,1.6,1.6,2.6,52,1.8,0,0.671082,0,0,0,0,-0.447388,0,2.1,-0.1,-95.3,264.7,,Tripod,Auto Fly,,15,5,TRUE,,Mavic Mini,TRUE,FALSE,,Smart,RC,FALSE,TRUE,FALSE,,,TRUE,,FALSE,FALSE,FALSE,FALSE,FALSE,FALSE,FALSE,FALSE,FALSE,FALSE,0,Follow Yaw,0,0,-68.6,291.4,FALSE,FALSE,FALSE,FALSE,FALSE,FALSE,,TRUE,Normal,,100,1024,1024,1250,1024,2,FALSE,FALSE,FALSE,FALSE,FALSE,0,FALSE,FALSE,FALSE,FALSE,48,7.25,1014,2113,7.215,FALSE,3.627,3.624,0.004,FALSE,FALSE,NA,117.5,117.5,117.5,0,0,3,0,5,4944.2,1236.06,,Idle,0,20,FALSE,5,TRUE,9,Go Home,FALSE,FALSE,FALSE,FALSE,FALSE,FALSE,FALSE,FALSE,FALSE,FALSE,FALSE,FALSE,6.974219525,79.91434091,0.7,119.1,328,TRUE,1,1,FALSE,FALSE,FALSE,FALSE,,TRUE,FALSE,FALSE,Course Lock,65.6,41.9,16.4,Calm,27,,1.12.8,Mavic Mini,1SDCH7G0169R0K,1SFLH6Q0AB03DJ,1SRCH7F014TAHX,1U5X071EXP5ZJG,107.4,0.3,3.2,4.702942,1.342164,0,0,Mavic Mini,1SDCH7G0169R0K,1SFLH6Q0AB03DJ,1SRCH7F014TAHX,1U5X071EXP5ZJG,DJI Fly,,1.12.8,9FC8C382-B77C-D883-E2BA-F140A9B1AB04,1SDCH7G0169R0K,,,,,6.974234325,79.91435397,5,,
2/15/2024,41:46.2,12m 33.0s,753,6.974217756,79.91433981,1.6,1.6,2.9,52,1.8,0,0.671082,0,0,0,0,-0.447388,0,2,0,-95.3,264.7,,Tripod,Auto Fly,,15,5,TRUE,,Mavic Mini,TRUE,FALSE,,Smart,RC,FALSE,TRUE,FALSE,,,TRUE,,FALSE,FALSE,FALSE,FALSE,FALSE,FALSE,FALSE,FALSE,FALSE,FALSE,0,Follow Yaw,0,0,-68.6,291.4,FALSE,FALSE,FALSE,FALSE,FALSE,FALSE,,TRUE,Normal,,100,1024,1024,1254,1024,2,FALSE,FALSE,FALSE,FALSE,FALSE,0,FALSE,FALSE,FALSE,FALSE,48,7.25,1014,2113,7.215,FALSE,3.627,3.624,0.004,FALSE,FALSE,NA,117.5,117.5,117.5,0,0,3,0,5,4944.2,1236.06,,Idle,0,20,FALSE,5,TRUE,9,Go Home,FALSE,FALSE,FALSE,FALSE,FALSE,FALSE,FALSE,FALSE,FALSE,FALSE,FALSE,FALSE,6.974219525,79.91434091,0.7,119.1,328,TRUE,1,1,FALSE,FALSE,FALSE,FALSE,,TRUE,FALSE,FALSE,Course Lock,65.6,41.9,16.4,Calm,27,,1.12.8,Mavic Mini,1SDCH7G0169R0K,1SFLH6Q0AB03DJ,1SRCH7F014TAHX,1U5X071EXP5ZJG,107.4,0.3,3.2,4.702942,1.342164,0,0,Mavic Mini,1SDCH7G0169R0K,1SFLH6Q0AB03DJ,1SRCH7F014TAHX,1U5X071EXP5ZJG,DJI Fly,,1.12.8,9FC8C382-B77C-D883-E2BA-F140A9B1AB04,1SDCH7G0169R0K,,,,,6.974234325,79.91435397,5,,
