CUSTOM.date [local],CUSTOM.updateTime [local],OSD.flyTime,OSD.flyTime [s],OSD.latitude,OSD.longitude,OSD.height [ft],OSD.heightMax [ft],OSD.vpsHeight [ft],OSD.altitude [ft],OSD.mileage [ft],OSD.hSpeed [MPH],OSD.hSpeedMax [MPH],OSD.xSpeed [MPH],OSD.xSpeedMax [MPH],OSD.ySpeed [MPH],OSD.ySpeedMax [MPH],OSD.zSpeed [MPH],OSD.zSpeedMax [MPH],OSD.pitch,OSD.roll,OSD.yaw,OSD.yaw [360],OSD.directionOfTravel,OSD.flycState,OSD.flycCommand,OSD.flightAction,OSD.gpsNum,OSD.gpsLevel,OSD.isGPSUsed,OSD.nonGPSCause,OSD.droneType,OSD.isSwaveWork,OSD.waveError,OSD.goHomeStatus,OSD.batteryType,OSD.ctrlDevice,OSD.isOnGround,OSD.isMotorOn,OSD.isMotorBlocked,OSD.motorStartFailedCause,OSD.motorFailReason,OSD.isImuPreheated,OSD.imuInitFailReason,OSD.isAcceletorOverRange,OSD.isBarometerDeadInAir,OSD.isCompassError,OSD.isGoHomeHeightModified,OSD.canIOCWork,OSD.isNotEnoughForce,OSD.isOutOfLimit,OSD.isPropellerCatapult,OSD.isVibrating,OSD.isVisionUsed,OSD.voltageWarning,GIMBAL.mode,GIMBAL.pitch,GIMBAL.roll,GIMBAL.yaw,GIMBAL.yaw [360],GIMBAL.isPitchAtLimit,GIMBAL.isRollAtLimit,GIMBAL.isYawAtLimit,GIMBAL.isStuck,CAMERA.isPhoto,CAMERA.isVideo,CAMERA.filename,CAMERA.sdCardIsInserted,CAMERA.sdCardState,RC.downlinkSignal,RC.uplinkSignal,RC.aileron,RC.elevator,RC.throttle,RC.rudder,RC.mode,RC.goHomeDepressed,RC.recordDepressed,RC.shutterDepressed,RC.playbackDepressed,RC.wheelDepressed,RC.wheelOffset,RC.custom1Depressed,RC.custom2Depressed,RC.custom3Depressed,RC.custom4Depressed,BATTERY.chargeLevel,BATTERY.currentPV [V],BATTERY.currentCapacity [mAh],BATTERY.fullCapacity [mAh],BATTERY.voltage [V],BATTERY.isCellVoltageEstimated,BATTERY.cellVoltage1 [V],BATTERY.cellVoltage2 [V],BATTERY.maxCellVoltageDeviation,BATTERY.isCellVoltageDeviationHigh,BATTERY.isVoltageLow,BATTERY.current [A],BATTERY.temperature [F],BATTERY.minTemperature [F],BATTERY.maxTemperature [F],BATTERY.usefulTime [s],BATTERY.goHomeTime [s],BATTERY.landTime [s],BATTERY.goHomeBattery,BATTERY.landBattery,BATTERY.safeFlyRadius,BATTERY.volumeConsume,BATTERY.status,BATTERY.goHomeStatus,BATTERY.goHomeCountdown,BATTERY.lowWarning,BATTERY.lowWarningGoHome,BATTERY.seriousLowWarning,BATTERY.seriousLowWarningLanding,BATTERY.timesCharged,MC.failSafeAction,MC.isObstacleAvoidanceEnabled,MC.isCollisionAvoidanceEnabled,MC.isRthObstacleAvoidanceEnabled,MC.isBraking,MC.isAvoidingObstacle,MC.isAvoidingActiveObstacle,MC.isAscentLimitedByObstacle,MC.isLandingConfirmationNeeded,MC.atLowAltitudeLimit,MC.atDistanceLimit,MC.atAirportAltitudeLimit,MC.atAirportBoundary,HOME.latitude,HOME.longitude,HOME.distance [ft],HOME.height [ft],HOME.heightLimit [ft],HOME.isHomeRecord,HOME.goHomeMode,HOME.aircraftHeadDirection,HOME.isDynamicHomePointEnabled,HOME.isReachedLimitDistance,HOME.isReachedLimitHeight,HOME.isCompassCalibrating,HOME.compassCalibrationState,HOME.isMultipleFlightModeEnabled,HOME.isBeginnerMode,HOME.isIOCEnabled,HOME.iocMode,HOME.goHomeHeight [ft],HOME.courseLockAngle,HOME.forceLandingHeight [ft],HOME.wind,HOME.dataRecorderFileIndex,RECOVER.appType,RECOVER.appVersion,RECOVER.aircraftName,RECOVER.aircraftSerial,RECOVER.cameraSerial,RECOVER.rcSerial,RECOVER.batterySerial,DETAILS.totalTime [s],DETAILS.totalDistance [ft],DETAILS.maxHeight [ft],DETAILS.maxHorizontalSpeed [MPH],DETAILS.maxVerticalSpeed [MPH],DETAILS.photoNum,DETAILS.videoTime [s],DETAILS.aircraftName,DETAILS.aircraftSerial,DETAILS.cameraSerial,DETAILS.rcSerial,DETAILS.batterySerial,DETAILS.appName,DETAILS.appType,DETAILS.appVersion,DETAILS.guid,SERIAL.flightController,SERIAL.camera,SERIAL.gimbal,SERIAL.rc,SERIAL.battery,APPGPS.latitude,APPGPS.longitude,APPGPS.accuracy,APP.tip,APP.warning
1/26/2024,49:31.1,3m 2.0s,182,6.972803895,79.91588438,0,0,,59,0,0,0,0,0,0,0,0,0,2,-1.7,-17,343,,Starting Motors,Auto Fly,Takeoff (App Auto),14,5,TRUE,,Mavic Mini,FALSE,FALSE,,Smart,RC,TRUE,TRUE,FALSE,,,TRUE,,FALSE,FALSE,FALSE,FALSE,FALSE,FALSE,FALSE,FALSE,FALSE,FALSE,0,Follow Yaw,-5,0,-18,342,FALSE,FALSE,FALSE,FALSE,FALSE,FALSE,,TRUE,Normal,,100,1024,1024,1024,1024,1,FALSE,FALSE,FALSE,FALSE,FALSE,0,FALSE,FALSE,FALSE,FALSE,85,8.002,1767,2082,8.002,TRUE,4.001,4.001,,FALSE,FALSE,NA,98.8,98.7,98.7,,,,,,,,,Idle,,,TRUE,,FALSE,6,Go Home,FALSE,FALSE,FALSE,FALSE,FALSE,FALSE,FALSE,FALSE,FALSE,FALSE,FALSE,FALSE,,,,,,FALSE,,,FALSE,FALSE,FALSE,FALSE,,FALSE,FALSE,FALSE,,,,,Calm,,,1.12.6,Mavic Mini,1SDCH7G0169R0K,1SFLH6Q0AB03DJ,1SRCH7F014TAHX,1U5X071EXP6C8G,174.3,0.1,68.8,10.204472,3.579104,0,18024,Mavic Mini,1SDCH7G0169R0K,1SFLH6Q0AB03DJ,1SRCH7F014TAHX,1U5X071EXP6C8G,DJI Fly,,1.12.6,BA9FA6F8-3ACB-7256-8308-84B74D2B7468,1SDCH7G0169R0K,,,,,,,,Flight mode changed to Starting Motors.,
1/26/2024,46:29.2,3m 2.1s,182.1,6.972803942,79.91588433,0,0,,59,0,0,0,0,0,0,0,0,0,2,-1.7,-17,343,,Starting Motors,Auto Fly,Takeoff (App Auto),14,5,TRUE,,Mavic Mini,FALSE,FALSE,,Smart,RC,TRUE,TRUE,FALSE,,,TRUE,,FALSE,FALSE,FALSE,FALSE,FALSE,FALSE,FALSE,FALSE,FALSE,FALSE,0,Follow Yaw,-5,0,-18,342,FALSE,FALSE,FALSE,FALSE,FALSE,FALSE,,TRUE,Normal,,100,1024,1024,1024,1024,1,FALSE,FALSE,FALSE,FALSE,FALSE,0,FALSE,FALSE,FALSE,FALSE,85,8.002,1767,2082,8.002,TRUE,4.001,4.001,,FALSE,FALSE,NA,98.8,98.7,98.7,,,,,,,,,Idle,,,TRUE,,FALSE,6,Go Home,FALSE,FALSE,FALSE,FALSE,FALSE,FALSE,FALSE,FALSE,FALSE,FALSE,FALSE,FALSE,,,,,,FALSE,,,FALSE,FALSE,FALSE,FALSE,,FALSE,FALSE,FALSE,,,,,Calm,,,1.12.6,Mavic Mini,1SDCH7G0169R0K,1SFLH6Q0AB03DJ,1SRCH7F014TAHX,1U5X071EXP6C8G,174.3,0.1,68.8,10.204472,3.579104,0,18024,Mavic Mini,1SDCH7G0169R0K,1SFLH6Q0AB03DJ,1SRCH7F014TAHX,1U5X071EXP6C8G,DJI Fly,,1.12.6,BA9FA6F8-3ACB-7256-8308-84B74D2B7468,1SDCH7G0169R0K,,,,,,,,,
1/26/2024,46:29.4,3m 2.2s,182.2,6.972803994,79.91588428,0,0,0.3,59,0,0,0,0,0,0,0,0,0,2,-1.7,-17,343,,Starting Motors,Auto Fly,Takeoff (App Auto),14,5,TRUE,,Mavic Mini,TRUE,FALSE,,Smart,RC,TRUE,TRUE,FALSE,,,TRUE,,FALSE,FALSE,FALSE,FALSE,FALSE,FALSE,FALSE,FALSE,FALSE,FALSE,0,Follow Yaw,-5,0,-18,342,FALSE,FALSE,FALSE,FALSE,FALSE,FALSE,,TRUE,Normal,,100,1024,1024,1024,1024,1,FALSE,FALSE,FALSE,FALSE,FALSE,0,FALSE,FALSE,FALSE,FALSE,85,8.002,1767,2082,8.002,TRUE,4.001,4.001,,FALSE,FALSE,NA,98.8,98.7,98.7,,,,,,,,,Idle,,,TRUE,,FALSE,6,Go Home,FALSE,FALSE,FALSE,FALSE,FALSE,FALSE,FALSE,FALSE,FALSE,FALSE,FALSE,FALSE,,,,,,FALSE,,,FALSE,FALSE,FALSE,FALSE,,FALSE,FALSE,FALSE,,,,,Calm,,,1.12.6,Mavic Mini,1SDCH7G0169R0K,1SFLH6Q0AB03DJ,1SRCH7F014TAHX,1U5X071EXP6C8G,174.3,0.1,68.8,10.204472,3.579104,0,18024,Mavic Mini,1SDCH7G0169R0K,1SFLH6Q0AB03DJ,1SRCH7F014TAHX,1U5X071EXP6C8G,DJI Fly,,1.12.6,BA9FA6F8-3ACB-7256-8308-84B74D2B7468,1SDCH7G0169R0K,,,,,,,,,
1/26/2024,46:29.5,3m 2.3s,182.3,6.972804045,79.91588424,0,0,0.3,59,0,0,0,0,0,0,0,0,0,2,-1.7,-17,343,,Starting Motors,Auto Fly,Takeoff (App Auto),14,5,TRUE,,Mavic Mini,TRUE,FALSE,,Smart,RC,TRUE,TRUE,FALSE,,,TRUE,,FALSE,FALSE,FALSE,FALSE,FALSE,FALSE,FALSE,FALSE,FALSE,FALSE,0,Follow Yaw,-5,0,-18,342,FALSE,FALSE,FALSE,FALSE,FALSE,FALSE,,TRUE,Normal,,100,1024,1024,1024,1024,1,FALSE,FALSE,FALSE,FALSE,FALSE,0,FALSE,FALSE,FALSE,FALSE,85,8.002,1767,2082,8.002,TRUE,4.001,4.001,,FALSE,FALSE,NA,98.8,98.7,98.7,,,,,,,,,Idle,,,TRUE,,FALSE,6,Go Home,FALSE,FALSE,FALSE,FALSE,FALSE,FALSE,FALSE,FALSE,FALSE,FALSE,FALSE,FALSE,,,,,,FALSE,,,FALSE,FALSE,FALSE,FALSE,,FALSE,FALSE,FALSE,,,,,Calm,,,1.12.6,Mavic Mini,1SDCH7G0169R0K,1SFLH6Q0AB03DJ,1SRCH7F014TAHX,1U5X071EXP6C8G,174.3,0.1,68.8,10.204472,3.579104,0,18024,Mavic Mini,1SDCH7G0169R0K,1SFLH6Q0AB03DJ,1SRCH7F014TAHX,1U5X071EXP6C8G,DJI Fly,,1.12.6,BA9FA6F8-3ACB-7256-8308-84B74D2B7468,1SDCH7G0169R0K,,,,,,,,,
1/26/2024,46:29.5,3m 2.4s,182.4,6.972804148,79.91588424,0,0,0.3,59,0,0,0,0,0,0,0,0,0,2,-1.7,-17,343,,Starting Motors,Auto Fly,Takeoff (App Auto),14,5,TRUE,,Mavic Mini,TRUE,FALSE,,Smart,RC,TRUE,TRUE,FALSE,,,TRUE,,FALSE,FALSE,FALSE,FALSE,FALSE,FALSE,FALSE,FALSE,FALSE,FALSE,0,Follow Yaw,-5,0,-18,342,FALSE,FALSE,FALSE,FALSE,FALSE,FALSE,,TRUE,Normal,,100,1024,1024,1024,1024,1,FALSE,FALSE,FALSE,FALSE,FALSE,0,FALSE,FALSE,FALSE,FALSE,85,8.002,1767,2082,8.002,TRUE,4.001,4.001,,FALSE,FALSE,NA,98.8,98.7,98.7,,,,,,,,,Idle,,,TRUE,,FALSE,6,Go Home,FALSE,FALSE,FALSE,FALSE,FALSE,FALSE,FALSE,FALSE,FALSE,FALSE,FALSE,FALSE,,,,,,FALSE,,,FALSE,FALSE,FALSE,FALSE,,FALSE,FALSE,FALSE,,,,,Calm,,,1.12.6,Mavic Mini,1SDCH7G0169R0K,1SFLH6Q0AB03DJ,1SRCH7F014TAHX,1U5X071EXP6C8G,174.3,0.1,68.8,10.204472,3.579104,0,18024,Mavic Mini,1SDCH7G0169R0K,1SFLH6Q0AB03DJ,1SRCH7F014TAHX,1U5X071EXP6C8G,DJI Fly,,1.12.6,BA9FA6F8-3ACB-7256-8308-84B74D2B7468,1SDCH7G0169R0K,,,,,,,,,
1/26/2024,46:29.6,3m 2.5s,182.5,6.972804198,79.9158842,0,0,0.3,59,0.1,0,0,0,0,0,0,0,0,2,-1.8,-16.9,343.1,,Starting Motors,Auto Fly,Takeoff (App Auto),14,5,TRUE,,Mavic Mini,TRUE,FALSE,,Smart,RC,TRUE,TRUE,FALSE,,,TRUE,,FALSE,FALSE,FALSE,FALSE,FALSE,FALSE,FALSE,FALSE,FALSE,FALSE,0,Follow Yaw,-5,0,-18,342,FALSE,FALSE,FALSE,FALSE,FALSE,FALSE,,TRUE,Normal,,100,1024,1024,1024,1024,1,FALSE,FALSE,FALSE,FALSE,FALSE,0,FALSE,FALSE,FALSE,FALSE,85,7.995,1767,2082,7.995,FALSE,3.999,3.996,0.003,FALSE,FALSE,NA,98.8,98.7,98.7,,,,,,,,,Idle,,,TRUE,,FALSE,6,Go Home,FALSE,FALSE,FALSE,FALSE,FALSE,FALSE,FALSE,FALSE,FALSE,FALSE,FALSE,FALSE,,,,,,FALSE,,,FALSE,FALSE,FALSE,FALSE,,FALSE,FALSE,FALSE,,,,,Calm,,,1.12.6,Mavic Mini,1SDCH7G0169R0K,1SFLH6Q0AB03DJ,1SRCH7F014TAHX,1U5X071EXP6C8G,174.3,0.1,68.8,10.204472,3.579104,0,18024,Mavic Mini,1SDCH7G0169R0K,1SFLH6Q0AB03DJ,1SRCH7F014TAHX,1U5X071EXP6C8G,DJI Fly,,1.12.6,BA9FA6F8-3ACB-7256-8308-84B74D2B7468,1SDCH7G0169R0K,,,,,,,,,
1/26/2024,46:29.7,3m 2.6s,182.6,6.97280425,79.91588415,0,0,0.3,59,0.1,0,0,0,0,0,0,0,0,2,-1.8,-17,343,,Starting Motors,Auto Fly,Takeoff (App Auto),14,5,TRUE,,Mavic Mini,TRUE,FALSE,,Smart,RC,TRUE,TRUE,FALSE,,,TRUE,,FALSE,FALSE,FALSE,FALSE,FALSE,FALSE,FALSE,FALSE,FALSE,FALSE,0,Follow Yaw,-5,0,-18,342,FALSE,FALSE,FALSE,FALSE,FALSE,FALSE,,TRUE,Normal,,100,1024,1024,1024,1024,1,FALSE,FALSE,FALSE,FALSE,FALSE,0,FALSE,FALSE,FALSE,FALSE,85,7.995,1767,2082,7.995,FALSE,3.999,3.996,0.003,FALSE,FALSE,NA,98.8,98.7,98.7,,,,,,,,,Idle,,,TRUE,,FALSE,6,Go Home,FALSE,FALSE,FALSE,FALSE,FALSE,FALSE,FALSE,FALSE,FALSE,FALSE,FALSE,FALSE,,,,,,FALSE,,,FALSE,FALSE,FALSE,FALSE,,FALSE,FALSE,FALSE,,,,,Calm,,,1.12.6,Mavic Mini,1SDCH7G0169R0K,1SFLH6Q0AB03DJ,1SRCH7F014TAHX,1U5X071EXP6C8G,174.3,0.1,68.8,10.204472,3.579104,0,18024,Mavic Mini,1SDCH7G0169R0K,1SFLH6Q0AB03DJ,1SRCH7F014TAHX,1U5X071EXP6C8G,DJI Fly,,1.12.6,BA9FA6F8-3ACB-7256-8308-84B74D2B7468,1SDCH7G0169R0K,,,,,,,,,
1/26/2024,46:29.8,3m 2.7s,182.7,6.972804298,79.91588411,0,0,0.3,59,0.1,0,0,0,0,0,0,0,0,2,-1.8,-17.1,342.9,,Starting Motors,Auto Fly,Takeoff (App Auto),14,5,TRUE,,Mavic Mini,TRUE,FALSE,,Smart,RC,TRUE,TRUE,FALSE,,,TRUE,,FALSE,FALSE,FALSE,FALSE,FALSE,FALSE,FALSE,FALSE,FALSE,FALSE,0,Follow Yaw,-5,0,-18,342,FALSE,FALSE,FALSE,FALSE,FALSE,FALSE,,TRUE,Normal,,100,1024,1024,1024,1024,1,FALSE,FALSE,FALSE,FALSE,FALSE,0,FALSE,FALSE,FALSE,FALSE,85,7.995,1767,2082,7.994,FALSE,3.999,3.996,0.003,FALSE,FALSE,NA,98.8,98.7,98.7,0,46,0,20,5,2789.9,697.49,,Idle,0,20,FALSE,5,TRUE,6,Go Home,FALSE,FALSE,FALSE,FALSE,FALSE,FALSE,FALSE,FALSE,FALSE,FALSE,FALSE,FALSE,6.973107695,79.91563727,142.2,,459.3,TRUE,1,1,FALSE,FALSE,FALSE,FALSE,,TRUE,FALSE,FALSE,Course Lock,131.2,,16.4,Calm,86,,1.12.6,Mavic Mini,1SDCH7G0169R0K,1SFLH6Q0AB03DJ,1SRCH7F014TAHX,1U5X071EXP6C8G,174.3,0.1,68.8,10.204472,3.579104,0,18024,Mavic Mini,1SDCH7G0169R0K,1SFLH6Q0AB03DJ,1SRCH7F014TAHX,1U5X071EXP6C8G,DJI Fly,,1.12.6,BA9FA6F8-3ACB-7256-8308-84B74D2B7468,1SDCH7G0169R0K,,,,,,,,Data Recorder File Index is 86.; Set Return to Home (RTH) altitude to 40 m (131 ft).; Set maximum flight altitude to 140 m (459 ft).,
1/26/2024,46:30.0,3m 2.8s,182.8,6.972804365,79.91588408,0,0,0.3,59,0.1,0,0,0,0,0,0,0,0,2,-1.8,-17,343,,Starting Motors,Auto Fly,Takeoff (App Auto),14,5,TRUE,,Mavic Mini,TRUE,FALSE,,Smart,RC,TRUE,TRUE,FALSE,,,TRUE,,FALSE,FALSE,FALSE,FALSE,FALSE,FALSE,FALSE,FALSE,FALSE,FALSE,0,Follow Yaw,-5,0,-18,342,FALSE,FALSE,FALSE,FALSE,FALSE,FALSE,,TRUE,Normal,,100,1024,1024,1024,1024,1,FALSE,FALSE,FALSE,FALSE,FALSE,0,FALSE,FALSE,FALSE,FALSE,85,7.995,1767,2082,7.994,FALSE,3.999,3.996,0.003,FALSE,FALSE,NA,98.8,98.7,98.7,0,46,0,20,5,2789.9,697.49,,Idle,0,20,FALSE,5,TRUE,6,Go Home,FALSE,FALSE,FALSE,FALSE,FALSE,FALSE,FALSE,FALSE,FALSE,FALSE,FALSE,FALSE,6.973107695,79.91563727,142.2,,459.3,TRUE,1,1,FALSE,FALSE,FALSE,FALSE,,TRUE,FALSE,FALSE,Course Lock,131.2,,16.4,Calm,86,,1.12.6,Mavic Mini,1SDCH7G0169R0K,1SFLH6Q0AB03DJ,1SRCH7F014TAHX,1U5X071EXP6C8G,174.3,0.1,68.8,10.204472,3.579104,0,18024,Mavic Mini,1SDCH7G0169R0K,1SFLH6Q0AB03DJ,1SRCH7F014TAHX,1U5X071EXP6C8G,DJI Fly,,1.12.6,BA9FA6F8-3ACB-7256-8308-84B74D2B7468,1SDCH7G0169R0K,,,,,,,,,
1/26/2024,46:30.0,3m 2.9s,182.9,6.97280441,79.91588403,0,0,0.3,59,0.2,0,0,0,0,0,0,0,0,2,-1.8,-17,343,,Starting Motors,Auto Fly,Takeoff (App Auto),14,5,TRUE,,Mavic Mini,TRUE,FALSE,,Smart,RC,TRUE,TRUE,FALSE,,,TRUE,,FALSE,FALSE,FALSE,FALSE,FALSE,FALSE,FALSE,FALSE,FALSE,FALSE,0,Follow Yaw,-5,0,-18.1,341.9,FALSE,FALSE,FALSE,FALSE,FALSE,FALSE,,TRUE,Normal,,100,1024,1024,1024,1024,1,FALSE,FALSE,FALSE,FALSE,FALSE,0,FALSE,FALSE,FALSE,FALSE,85,7.995,1767,2082,7.994,FALSE,3.999,3.996,0.003,FALSE,FALSE,NA,98.8,98.7,98.7,0,46,0,20,5,2789.9,697.49,,Idle,0,20,FALSE,5,TRUE,6,Go Home,FALSE,FALSE,FALSE,FALSE,FALSE,FALSE,FALSE,FALSE,FALSE,FALSE,FALSE,FALSE,6.973107695,79.91563727,142.2,,459.3,TRUE,1,1,FALSE,FALSE,FALSE,FALSE,,TRUE,FALSE,FALSE,Course Lock,131.2,,16.4,Calm,86,,1.12.6,Mavic Mini,1SDCH7G0169R0K,1SFLH6Q0AB03DJ,1SRCH7F014TAHX,1U5X071EXP6C8G,174.3,0.1,68.8,10.204472,3.579104,0,18024,Mavic Mini,1SDCH7G0169R0K,1SFLH6Q0AB03DJ,1SRCH7F014TAHX,1U5X071EXP6C8G,DJI Fly,,1.12.6,BA9FA6F8-3ACB-7256-8308-84B74D2B7468,1SDCH7G0169R0K,,,,,,,,,
1/26/2024,46:30.1,3m 3.0s,183,6.972804456,79.91588399,0,0,0.3,59,0.2,0,0,0,0,0,0,0,0,2,-1.8,-17,343,,Starting Motors,Auto Fly,Takeoff (App Auto),14,5,TRUE,,Mavic Mini,TRUE,FALSE,,Smart,RC,TRUE,TRUE,FALSE,,,TRUE,,FALSE,FALSE,FALSE,FALSE,FALSE,FALSE,FALSE,FALSE,FALSE,FALSE,0,Follow Yaw,-5,0,-18.1,341.9,FALSE,FALSE,FALSE,FALSE,FALSE,FALSE,,TRUE,Normal,,100,1024,1024,1024,1024,1,FALSE,FALSE,FALSE,FALSE,FALSE,0,FALSE,FALSE,FALSE,FALSE,85,7.995,1767,2082,7.994,FALSE,3.999,3.996,0.003,FALSE,FALSE,NA,98.8,98.7,98.7,0,46,0,20,5,2789.9,697.49,,Idle,0,20,FALSE,5,TRUE,6,Go Home,FALSE,FALSE,FALSE,FALSE,FALSE,FALSE,FALSE,FALSE,FALSE,FALSE,FALSE,FALSE,6.973107695,79.91563727,142.1,,459.3,TRUE,1,1,FALSE,FALSE,FALSE,FALSE,,TRUE,FALSE,FALSE,Course Lock,131.2,,16.4,Calm,86,,1.12.6,Mavic Mini,1SDCH7G0169R0K,1SFLH6Q0AB03DJ,1SRCH7F014TAHX,1U5X071EXP6C8G,174.3,0.1,68.8,10.204472,3.579104,0,18024,Mavic Mini,1SDCH7G0169R0K,1SFLH6Q0AB03DJ,1SRCH7F014TAHX,1U5X071EXP6C8G,DJI Fly,,1.12.6,BA9FA6F8-3ACB-7256-8308-84B74D2B7468,1SDCH7G0169R0K,,,,,,,,,
1/26/2024,46:30.2,3m 3.1s,183.1,6.972804499,79.91588394,0,0,0.3,59,0.2,0,0,0,0,0,0,0,0,2,-1.8,-17,343,,Auto Takeoff,Auto Fly,Takeoff (App Auto),14,5,TRUE,,Mavic Mini,TRUE,FALSE,,Smart,RC,TRUE,TRUE,FALSE,,,TRUE,,FALSE,FALSE,FALSE,FALSE,FALSE,FALSE,FALSE,FALSE,FALSE,FALSE,0,Follow Yaw,-5,0,-18.1,341.9,FALSE,FALSE,FALSE,FALSE,FALSE,FALSE,,TRUE,Normal,,100,1024,1024,1024,1024,1,FALSE,FALSE,FALSE,FALSE,FALSE,0,FALSE,FALSE,FALSE,FALSE,85,7.995,1767,2082,7.994,FALSE,3.999,3.996,0.003,FALSE,FALSE,NA,98.8,98.7,98.7,0,46,0,20,5,2789.9,697.49,,Idle,0,20,FALSE,5,TRUE,6,Go Home,FALSE,FALSE,FALSE,FALSE,FALSE,FALSE,FALSE,FALSE,FALSE,FALSE,FALSE,FALSE,6.973107695,79.91563727,142.1,,459.3,TRUE,1,1,FALSE,FALSE,FALSE,FALSE,,TRUE,FALSE,FALSE,Course Lock,131.2,,16.4,Calm,86,,1.12.6,Mavic Mini,1SDCH7G0169R0K,1SFLH6Q0AB03DJ,1SRCH7F014TAHX,1U5X071EXP6C8G,174.3,0.1,68.8,10.204472,3.579104,0,18024,Mavic Mini,1SDCH7G0169R0K,1SFLH6Q0AB03DJ,1SRCH7F014TAHX,1U5X071EXP6C8G,DJI Fly,,1.12.6,BA9FA6F8-3ACB-7256-8308-84B74D2B7468,1SDCH7G0169R0K,,,,,,,,Flight mode changed to Auto Takeoff.,
1/26/2024,46:30.3,3m 3.2s,183.2,6.972804544,79.91588389,0,0,0.3,59,0.2,0,0,0,0,0,0,0,0,2,-1.7,-17.1,342.9,,Auto Takeoff,Auto Fly,Takeoff (App Auto),14,5,TRUE,,Mavic Mini,TRUE,FALSE,,Smart,RC,TRUE,TRUE,FALSE,,,TRUE,,FALSE,FALSE,FALSE,FALSE,FALSE,FALSE,FALSE,FALSE,FALSE,FALSE,0,Follow Yaw,-5,0,-18.1,341.9,FALSE,FALSE,FALSE,FALSE,FALSE,FALSE,,TRUE,Normal,,100,1024,1024,1024,1024,1,FALSE,FALSE,FALSE,FALSE,FALSE,0,FALSE,FALSE,FALSE,FALSE,85,7.995,1767,2082,7.994,FALSE,3.999,3.996,0.003,FALSE,FALSE,NA,98.8,98.7,98.7,0,46,0,20,5,2789.9,697.49,,Idle,0,20,FALSE,5,TRUE,6,Go Home,FALSE,FALSE,FALSE,FALSE,FALSE,FALSE,FALSE,FALSE,FALSE,FALSE,FALSE,FALSE,6.973107695,79.91563727,142.1,,459.3,TRUE,1,1,FALSE,FALSE,FALSE,FALSE,,TRUE,FALSE,FALSE,Course Lock,131.2,,16.4,Calm,86,,1.12.6,Mavic Mini,1SDCH7G0169R0K,1SFLH6Q0AB03DJ,1SRCH7F014TAHX,1U5X071EXP6C8G,174.3,0.1,68.8,10.204472,3.579104,0,18024,Mavic Mini,1SDCH7G0169R0K,1SFLH6Q0AB03DJ,1SRCH7F014TAHX,1U5X071EXP6C8G,DJI Fly,,1.12.6,BA9FA6F8-3ACB-7256-8308-84B74D2B7468,1SDCH7G0169R0K,,,,,,,,,
1/26/2024,46:30.4,3m 3.3s,183.3,6.972804566,79.91588388,0,0,0.3,59,0.2,0,0,0,0,0,0,0,0,2,-1.8,-17,343,,Auto Takeoff,Auto Fly,Takeoff (App Auto),14,5,TRUE,,Mavic Mini,TRUE,FALSE,,Smart,RC,TRUE,TRUE,FALSE,,,TRUE,,FALSE,FALSE,FALSE,FALSE,FALSE,FALSE,FALSE,FALSE,FALSE,FALSE,0,Follow Yaw,-5,0,-18.1,341.9,FALSE,FALSE,FALSE,FALSE,FALSE,FALSE,,TRUE,Normal,,100,1024,1024,1024,1024,1,FALSE,FALSE,FALSE,FALSE,FALSE,0,FALSE,FALSE,FALSE,FALSE,85,7.995,1767,2082,7.994,FALSE,3.999,3.996,0.003,FALSE,FALSE,NA,98.8,98.7,98.7,0,46,0,20,5,2789.9,697.49,,Idle,0,20,FALSE,5,TRUE,6,Go Home,FALSE,FALSE,FALSE,FALSE,FALSE,FALSE,FALSE,FALSE,FALSE,FALSE,FALSE,FALSE,6.973107695,79.91563727,142.1,,459.3,TRUE,1,1,FALSE,FALSE,FALSE,FALSE,,TRUE,FALSE,FALSE,Course Lock,131.2,,16.4,Calm,86,,1.12.6,Mavic Mini,1SDCH7G0169R0K,1SFLH6Q0AB03DJ,1SRCH7F014TAHX,1U5X071EXP6C8G,174.3,0.1,68.8,10.204472,3.579104,0,18024,Mavic Mini,1SDCH7G0169R0K,1SFLH6Q0AB03DJ,1SRCH7F014TAHX,1U5X071EXP6C8G,DJI Fly,,1.12.6,BA9FA6F8-3ACB-7256-8308-84B74D2B7468,1SDCH7G0169R0K,,,,,,,,,
1/26/2024,46:30.5,3m 3.4s,183.4,6.972804559,79.91588389,0,0,0.3,59,0.2,0,0,0,0,0,0,0,0,2,-1.8,-17,343,,Auto Takeoff,Auto Fly,Takeoff (App Auto),14,5,TRUE,,Mavic Mini,TRUE,FALSE,,Smart,RC,TRUE,TRUE,FALSE,,,TRUE,,FALSE,FALSE,FALSE,FALSE,FALSE,FALSE,FALSE,FALSE,FALSE,FALSE,0,Follow Yaw,-5,0,-18.1,341.9,FALSE,FALSE,FALSE,FALSE,FALSE,FALSE,,TRUE,Normal,,100,1024,1024,1024,1024,1,FALSE,FALSE,FALSE,FALSE,FALSE,0,FALSE,FALSE,FALSE,FALSE,85,7.995,1767,2082,7.994,FALSE,3.999,3.996,0.003,FALSE,FALSE,NA,98.8,98.7,98.7,0,46,0,20,5,2789.9,697.49,,Idle,0,20,FALSE,5,TRUE,6,Go Home,FALSE,FALSE,FALSE,FALSE,FALSE,FALSE,FALSE,FALSE,FALSE,FALSE,FALSE,FALSE,6.973107695,79.91563727,142.1,,459.3,TRUE,1,1,FALSE,FALSE,FALSE,FALSE,,TRUE,FALSE,FALSE,Course Lock,131.2,,16.4,Calm,86,,1.12.6,Mavic Mini,1SDCH7G0169R0K,1SFLH6Q0AB03DJ,1SRCH7F014TAHX,1U5X071EXP6C8G,174.3,0.1,68.8,10.204472,3.579104,0,18024,Mavic Mini,1SDCH7G0169R0K,1SFLH6Q0AB03DJ,1SRCH7F014TAHX,1U5X071EXP6C8G,DJI Fly,,1.12.6,BA9FA6F8-3ACB-7256-8308-84B74D2B7468,1SDCH7G0169R0K,,,,,,,,,
1/26/2024,46:30.6,3m 3.5s,183.5,6.972804572,79.91588384,0,0,0.3,59,0.3,0,0,0,0,0,0,0,0,2,-1.7,-17.1,342.9,,Auto Takeoff,Auto Fly,Takeoff (App Auto),14,5,TRUE,,Mavic Mini,TRUE,FALSE,,Smart,RC,TRUE,TRUE,FALSE,,,TRUE,,FALSE,FALSE,FALSE,FALSE,FALSE,FALSE,FALSE,FALSE,FALSE,FALSE,0,Follow Yaw,-5,0,-18.1,341.9,FALSE,FALSE,FALSE,FALSE,FALSE,FALSE,,TRUE,Normal,,100,1024,1024,1024,1024,1,FALSE,FALSE,FALSE,FALSE,FALSE,0,FALSE,FALSE,FALSE,FALSE,85,7.995,1767,2082,7.994,FALSE,3.999,3.996,0.003,FALSE,FALSE,NA,98.8,98.7,98.7,0,46,0,20,5,2789.9,697.49,,Idle,0,20,FALSE,5,TRUE,6,Go Home,FALSE,FALSE,FALSE,FALSE,FALSE,FALSE,FALSE,FALSE,FALSE,FALSE,FALSE,FALSE,6.973107695,79.91563727,142.1,,459.3,TRUE,1,1,FALSE,FALSE,FALSE,FALSE,,TRUE,FALSE,FALSE,Course Lock,131.2,,16.4,Calm,86,,1.12.6,Mavic Mini,1SDCH7G0169R0K,1SFLH6Q0AB03DJ,1SRCH7F014TAHX,1U5X071EXP6C8G,174.3,0.1,68.8,10.204472,3.579104,0,18024,Mavic Mini,1SDCH7G0169R0K,1SFLH6Q0AB03DJ,1SRCH7F014TAHX,1U5X071EXP6C8G,DJI Fly,,1.12.6,BA9FA6F8-3ACB-7256-8308-84B74D2B7468,1SDCH7G0169R0K,,,,,,,,,
1/26/2024,46:30.7,3m 3.6s,183.6,6.972804599,79.91588375,0,0,0.3,59,0.3,0,0,0,0,0,0,0,0,1.9,-1.8,-17.3,342.7,,Auto Takeoff,Auto Fly,Takeoff (App Auto),14,5,TRUE,,Mavic Mini,TRUE,FALSE,,Smart,RC,TRUE,TRUE,FALSE,,,TRUE,,FALSE,FALSE,FALSE,FALSE,FALSE,FALSE,FALSE,FALSE,FALSE,FALSE,0,Follow Yaw,-5,0,-18.1,341.9,FALSE,FALSE,FALSE,FALSE,FALSE,FALSE,,TRUE,Normal,,100,1024,1024,1024,1024,1,FALSE,FALSE,FALSE,FALSE,FALSE,0,FALSE,FALSE,FALSE,FALSE,85,7.925,1767,2082,7.994,FALSE,3.966,3.959,0.007,FALSE,FALSE,NA,98.8,98.7,98.7,0,46,0,20,5,2789.9,697.49,,Idle,0,20,FALSE,5,TRUE,6,Go Home,FALSE,FALSE,FALSE,FALSE,FALSE,FALSE,FALSE,FALSE,FALSE,FALSE,FALSE,FALSE,6.973107695,79.91563727,142.1,,459.3,TRUE,1,1,FALSE,FALSE,FALSE,FALSE,,TRUE,FALSE,FALSE,Course Lock,131.2,,16.4,Calm,86,,1.12.6,Mavic Mini,1SDCH7G0169R0K,1SFLH6Q0AB03DJ,1SRCH7F014TAHX,1U5X071EXP6C8G,174.3,0.1,68.8,10.204472,3.579104,0,18024,Mavic Mini,1SDCH7G0169R0K,1SFLH6Q0AB03DJ,1SRCH7F014TAHX,1U5X071EXP6C8G,DJI Fly,,1.12.6,BA9FA6F8-3ACB-7256-8308-84B74D2B7468,1SDCH7G0169R0K,,,,,,,,,
1/26/2024,46:30.8,3m 3.7s,183.7,6.972804618,79.91588373,0,0,0.3,59,0.3,0,0,0,0,0,0,0,0,0.8,-1.7,-17.9,342.1,,Auto Takeoff,Auto Fly,Takeoff (App Auto),14,5,TRUE,,Mavic Mini,TRUE,FALSE,,Smart,RC,TRUE,TRUE,FALSE,,,TRUE,,FALSE,FALSE,FALSE,FALSE,FALSE,FALSE,FALSE,FALSE,FALSE,FALSE,0,Follow Yaw,-5,0,-18.1,341.9,FALSE,FALSE,FALSE,FALSE,FALSE,FALSE,,TRUE,Normal,,100,1024,1024,1024,1024,1,FALSE,FALSE,FALSE,FALSE,FALSE,0,FALSE,FALSE,FALSE,FALSE,85,7.925,1767,2082,7.962,FALSE,3.966,3.959,0.007,FALSE,FALSE,NA,98.8,98.7,98.7,0,46,0,20,5,2921.4,730.35,,Idle,0,20,FALSE,5,TRUE,6,Go Home,FALSE,FALSE,FALSE,FALSE,FALSE,FALSE,FALSE,FALSE,FALSE,FALSE,FALSE,FALSE,6.973107695,79.91563727,142,,459.3,TRUE,1,1,FALSE,FALSE,FALSE,FALSE,,TRUE,FALSE,FALSE,Course Lock,131.2,,16.4,Calm,86,,1.12.6,Mavic Mini,1SDCH7G0169R0K,1SFLH6Q0AB03DJ,1SRCH7F014TAHX,1U5X071EXP6C8G,174.3,0.1,68.8,10.204472,3.579104,0,18024,Mavic Mini,1SDCH7G0169R0K,1SFLH6Q0AB03DJ,1SRCH7F014TAHX,1U5X071EXP6C8G,DJI Fly,,1.12.6,BA9FA6F8-3ACB-7256-8308-84B74D2B7468,1SDCH7G0169R0K,,,,,,,,,
1/26/2024,46:31.0,3m 3.8s,183.8,6.972804655,79.91588368,0,0,0.3,59,0.3,0,0,0,0,0,0,0,0,-0.8,-1.3,-19.7,340.3,,Auto Takeoff,Auto Fly,Takeoff (App Auto),14,5,TRUE,,Mavic Mini,TRUE,FALSE,,Smart,RC,TRUE,TRUE,FALSE,,,TRUE,,FALSE,FALSE,FALSE,FALSE,FALSE,FALSE,FALSE,FALSE,FALSE,FALSE,0,Follow Yaw,-5,0,-18.2,341.8,FALSE,FALSE,FALSE,FALSE,FALSE,FALSE,,TRUE,Normal,,100,1024,1024,1024,1024,1,FALSE,FALSE,FALSE,FALSE,FALSE,0,FALSE,FALSE,FALSE,FALSE,85,7.925,1767,2082,7.962,FALSE,3.966,3.959,0.007,FALSE,FALSE,NA,98.8,98.7,98.7,0,46,0,20,5,2921.4,730.35,,Idle,0,20,FALSE,5,TRUE,6,Go Home,FALSE,FALSE,FALSE,FALSE,FALSE,FALSE,FALSE,FALSE,FALSE,FALSE,FALSE,FALSE,6.973107695,79.91563727,142,,459.3,TRUE,1,1,FALSE,FALSE,FALSE,FALSE,,TRUE,FALSE,FALSE,Course Lock,131.2,,16.4,Calm,86,,1.12.6,Mavic Mini,1SDCH7G0169R0K,1SFLH6Q0AB03DJ,1SRCH7F014TAHX,1U5X071EXP6C8G,174.3,0.1,68.8,10.204472,3.579104,0,18024,Mavic Mini,1SDCH7G0169R0K,1SFLH6Q0AB03DJ,1SRCH7F014TAHX,1U5X071EXP6C8G,DJI Fly,,1.12.6,BA9FA6F8-3ACB-7256-8308-84B74D2B7468,1SDCH7G0169R0K,,,,,,,,,
1/26/2024,46:31.1,3m 3.9s,183.9,6.97280469,79.91588359,0,0,0.3,59,0.4,0,0,0,0,0,0,-0.223694,0,0.4,-2,-21.5,338.5,,Auto Takeoff,Auto Fly,Takeoff (App Auto),14,5,TRUE,,Mavic Mini,TRUE,FALSE,,Smart,RC,FALSE,TRUE,FALSE,,,TRUE,,FALSE,FALSE,FALSE,FALSE,FALSE,FALSE,FALSE,FALSE,FALSE,FALSE,0,Follow Yaw,-5,0,-18.6,341.4,FALSE,FALSE,FALSE,FALSE,FALSE,FALSE,,TRUE,Normal,,100,1024,1024,1024,1024,1,FALSE,FALSE,FALSE,FALSE,FALSE,0,FALSE,FALSE,FALSE,FALSE,85,7.925,1767,2082,7.962,FALSE,3.966,3.959,0.007,FALSE,FALSE,NA,98.8,98.7,98.7,0,46,0,20,5,2921.4,730.35,,Idle,0,20,FALSE,5,TRUE,6,Go Home,FALSE,FALSE,FALSE,FALSE,FALSE,FALSE,FALSE,FALSE,FALSE,FALSE,FALSE,FALSE,6.973107695,79.91563727,142,,459.3,TRUE,1,1,FALSE,FALSE,FALSE,FALSE,,TRUE,FALSE,FALSE,Course Lock,131.2,,16.4,Calm,86,,1.12.6,Mavic Mini,1SDCH7G0169R0K,1SFLH6Q0AB03DJ,1SRCH7F014TAHX,1U5X071EXP6C8G,174.3,0.1,68.8,10.204472,3.579104,0,18024,Mavic Mini,1SDCH7G0169R0K,1SFLH6Q0AB03DJ,1SRCH7F014TAHX,1U5X071EXP6C8G,DJI Fly,,1.12.6,BA9FA6F8-3ACB-7256-8308-84B74D2B7468,1SDCH7G0169R0K,,,,,,,,,
1/26/2024,46:31.1,3m 4.0s,184,6.972804718,79.91588344,0,0,0.3,59,0.4,0.223694,0.223694,0,0,-0.223694,0,-0.671082,0,0,-0.5,-21.2,338.8,283.4,Auto Takeoff,Auto Fly,Takeoff (App Auto),14,5,TRUE,,Mavic Mini,TRUE,FALSE,,Smart,RC,FALSE,TRUE,FALSE,,,TRUE,,FALSE,FALSE,FALSE,FALSE,FALSE,FALSE,FALSE,FALSE,FALSE,FALSE,0,Follow Yaw,-5,0,-19,341,FALSE,FALSE,FALSE,FALSE,FALSE,FALSE,,TRUE,Normal,,100,1024,1024,1024,1024,1,FALSE,FALSE,FALSE,FALSE,FALSE,0,FALSE,FALSE,FALSE,FALSE,85,7.925,1767,2082,7.962,FALSE,3.966,3.959,0.007,FALSE,FALSE,NA,98.8,98.7,98.7,0,46,0,20,5,2921.4,730.35,,Idle,0,20,FALSE,5,TRUE,6,Go Home,FALSE,FALSE,FALSE,FALSE,FALSE,FALSE,FALSE,FALSE,FALSE,FALSE,FALSE,FALSE,6.973107695,79.91563727,141.9,,459.3,TRUE,1,1,FALSE,FALSE,FALSE,FALSE,,TRUE,FALSE,FALSE,Course Lock,131.2,,16.4,Calm,86,,1.12.6,Mavic Mini,1SDCH7G0169R0K,1SFLH6Q0AB03DJ,1SRCH7F014TAHX,1U5X071EXP6C8G,174.3,0.1,68.8,10.204472,3.579104,0,18024,Mavic Mini,1SDCH7G0169R0K,1SFLH6Q0AB03DJ,1SRCH7F014TAHX,1U5X071EXP6C8G,DJI Fly,,1.12.6,BA9FA6F8-3ACB-7256-8308-84B74D2B7468,1SDCH7G0169R0K,,,,,6.972766067,79.91590722,5,,
1/26/2024,46:31.2,3m 4.1s,184.1,6.9728048,79.91588325,0,0,0.6,59,0.5,0.223694,0.223694,0,0,-0.223694,0,-0.894776,0,1,1.1,-21.3,338.7,298.9,Auto Takeoff,Auto Fly,Takeoff (App Auto),14,5,TRUE,,Mavic Mini,TRUE,FALSE,,Smart,RC,FALSE,TRUE,FALSE,,,TRUE,,FALSE,FALSE,FALSE,FALSE,FALSE,FALSE,FALSE,FALSE,FALSE,FALSE,0,Follow Yaw,-5,0,-19.4,340.6,FALSE,FALSE,FALSE,FALSE,FALSE,FALSE,,TRUE,Normal,,100,1024,1024,1024,1024,1,FALSE,FALSE,FALSE,FALSE,FALSE,0,FALSE,FALSE,FALSE,FALSE,85,7.925,1767,2082,7.962,FALSE,3.966,3.959,0.007,FALSE,FALSE,NA,98.8,98.7,98.7,0,46,0,20,5,2921.4,730.35,,Idle,0,20,FALSE,5,TRUE,6,Go Home,FALSE,FALSE,FALSE,FALSE,FALSE,FALSE,FALSE,FALSE,FALSE,FALSE,FALSE,FALSE,6.973107695,79.91563727,141.9,,459.3,TRUE,1,1,FALSE,FALSE,FALSE,FALSE,,TRUE,FALSE,FALSE,Course Lock,131.2,,16.4,Calm,86,,1.12.6,Mavic Mini,1SDCH7G0169R0K,1SFLH6Q0AB03DJ,1SRCH7F014TAHX,1U5X071EXP6C8G,174.3,0.1,68.8,10.204472,3.579104,0,18024,Mavic Mini,1SDCH7G0169R0K,1SFLH6Q0AB03DJ,1SRCH7F014TAHX,1U5X071EXP6C8G,DJI Fly,,1.12.6,BA9FA6F8-3ACB-7256-8308-84B74D2B7468,1SDCH7G0169R0K,,,,,6.972766067,79.91590722,5,,
1/26/2024,46:31.3,3m 4.2s,184.2,6.972804828,79.91588309,0,0,0.6,59,0.5,0,0.223694,0,0,0,0,-1.342164,0,0.7,0.7,-21.3,338.7,,Auto Takeoff,Auto Fly,Takeoff (App Auto),14,5,TRUE,,Mavic Mini,TRUE,FALSE,,Smart,RC,FALSE,TRUE,FALSE,,,TRUE,,FALSE,FALSE,FALSE,FALSE,FALSE,FALSE,FALSE,FALSE,FALSE,FALSE,0,Follow Yaw,-5,0,-19.7,340.3,FALSE,FALSE,FALSE,FALSE,FALSE,FALSE,,TRUE,Normal,,100,1024,1024,1024,1024,1,FALSE,FALSE,FALSE,FALSE,FALSE,0,FALSE,FALSE,FALSE,FALSE,85,7.925,1767,2082,7.962,FALSE,3.966,3.959,0.007,FALSE,FALSE,NA,98.8,98.7,98.7,0,46,0,20,5,2921.4,730.35,,Idle,0,20,FALSE,5,TRUE,6,Go Home,FALSE,FALSE,FALSE,FALSE,FALSE,FALSE,FALSE,FALSE,FALSE,FALSE,FALSE,FALSE,6.973107695,79.91563727,141.8,,459.3,TRUE,1,1,FALSE,FALSE,FALSE,FALSE,,TRUE,FALSE,FALSE,Course Lock,131.2,,16.4,Calm,86,,1.12.6,Mavic Mini,1SDCH7G0169R0K,1SFLH6Q0AB03DJ,1SRCH7F014TAHX,1U5X071EXP6C8G,174.3,0.1,68.8,10.204472,3.579104,0,18024,Mavic Mini,1SDCH7G0169R0K,1SFLH6Q0AB03DJ,1SRCH7F014TAHX,1U5X071EXP6C8G,DJI Fly,,1.12.6,BA9FA6F8-3ACB-7256-8308-84B74D2B7468,1SDCH7G0169R0K,,,,,6.972766067,79.91590722,5,,
1/26/2024,46:31.4,3m 4.3s,184.3,6.972804829,79.91588295,0.3,0.3,0.6,59,0.6,0,0.223694,0,0,0,0,-1.565858,0,0.1,0.5,-21.3,338.7,,Auto Takeoff,Auto Fly,Takeoff (App Auto),14,5,TRUE,,Mavic Mini,TRUE,FALSE,,Smart,RC,FALSE,TRUE,FALSE,,,TRUE,,FALSE,FALSE,FALSE,FALSE,FALSE,FALSE,FALSE,FALSE,FALSE,FALSE,0,Follow Yaw,-5,0,-19.9,340.1,FALSE,FALSE,FALSE,FALSE,FALSE,FALSE,,TRUE,Normal,,100,1024,1024,1024,1024,1,FALSE,FALSE,FALSE,FALSE,FALSE,0,FALSE,FALSE,FALSE,FALSE,85,7.925,1767,2082,7.962,FALSE,3.966,3.959,0.007,FALSE,FALSE,NA,98.8,98.7,98.7,0,46,0,20,5,2921.4,730.35,,Idle,0,20,FALSE,5,TRUE,6,Go Home,FALSE,FALSE,FALSE,FALSE,FALSE,FALSE,FALSE,FALSE,FALSE,FALSE,FALSE,FALSE,6.973107695,79.91563727,141.8,,459.3,TRUE,1,1,FALSE,FALSE,FALSE,FALSE,,TRUE,FALSE,FALSE,Course Lock,131.2,,16.4,Calm,86,,1.12.6,Mavic Mini,1SDCH7G0169R0K,1SFLH6Q0AB03DJ,1SRCH7F014TAHX,1U5X071EXP6C8G,174.3,0.1,68.8,10.204472,3.579104,0,18024,Mavic Mini,1SDCH7G0169R0K,1SFLH6Q0AB03DJ,1SRCH7F014TAHX,1U5X071EXP6C8G,DJI Fly,,1.12.6,BA9FA6F8-3ACB-7256-8308-84B74D2B7468,1SDCH7G0169R0K,,,,,6.972766067,79.91590722,5,,
1/26/2024,46:31.5,3m 4.4s,184.4,6.972804813,79.9158828,0.3,0.3,0.9,59,0.7,0.223694,0.223694,0,0,-0.223694,0,-1.789552,0,-0.1,0.6,-21.3,338.7,262.3,Auto Takeoff,Auto Fly,Takeoff (App Auto),14,5,TRUE,,Mavic Mini,TRUE,FALSE,,Smart,RC,FALSE,TRUE,FALSE,,,TRUE,,FALSE,FALSE,FALSE,FALSE,FALSE,FALSE,FALSE,FALSE,FALSE,FALSE,0,Follow Yaw,-5,0,-20.1,339.9,FALSE,FALSE,FALSE,FALSE,FALSE,FALSE,,TRUE,Normal,,100,1024,1024,1024,1024,1,FALSE,FALSE,FALSE,FALSE,FALSE,0,FALSE,FALSE,FALSE,FALSE,85,7.925,1767,2082,7.962,FALSE,3.966,3.959,0.007,FALSE,FALSE,NA,98.8,98.7,98.7,0,46,0,20,5,2921.4,730.35,,Idle,0,20,FALSE,5,TRUE,6,Go Home,FALSE,FALSE,FALSE,FALSE,FALSE,FALSE,FALSE,FALSE,FALSE,FALSE,FALSE,FALSE,6.973107695,79.91563727,141.8,,459.3,TRUE,1,1,FALSE,FALSE,FALSE,FALSE,,TRUE,FALSE,FALSE,Course Lock,131.2,,16.4,Calm,86,,1.12.6,Mavic Mini,1SDCH7G0169R0K,1SFLH6Q0AB03DJ,1SRCH7F014TAHX,1U5X071EXP6C8G,174.3,0.1,68.8,10.204472,3.579104,0,18024,Mavic Mini,1SDCH7G0169R0K,1SFLH6Q0AB03DJ,1SRCH7F014TAHX,1U5X071EXP6C8G,DJI Fly,,1.12.6,BA9FA6F8-3ACB-7256-8308-84B74D2B7468,1SDCH7G0169R0K,,,,,6.972766067,79.91590722,5,,
1/26/2024,46:31.6,3m 4.5s,184.5,6.972804944,79.91588258,0.6,0.6,1.3,59,0.7,0.223694,0.223694,0,0,-0.223694,0,-2.013246,0,1,1.5,-21.5,338.5,307.9,Auto Takeoff,Auto Fly,Takeoff (App Auto),14,5,TRUE,,Mavic Mini,TRUE,FALSE,,Smart,RC,FALSE,TRUE,FALSE,,,TRUE,,FALSE,FALSE,FALSE,FALSE,FALSE,FALSE,FALSE,FALSE,FALSE,FALSE,0,Follow Yaw,-5,0,-20.3,339.7,FALSE,FALSE,FALSE,FALSE,FALSE,FALSE,,TRUE,Normal,,100,1024,1024,1024,1024,1,FALSE,FALSE,FALSE,FALSE,FALSE,0,FALSE,FALSE,FALSE,FALSE,85,7.925,1767,2082,7.962,FALSE,3.966,3.959,0.007,FALSE,FALSE,NA,98.8,98.7,98.7,0,46,0,20,5,2921.4,730.35,,Idle,0,20,FALSE,5,TRUE,6,Go Home,FALSE,FALSE,FALSE,FALSE,FALSE,FALSE,FALSE,FALSE,FALSE,FALSE,FALSE,FALSE,6.973107695,79.91563727,141.7,,459.3,TRUE,1,1,FALSE,FALSE,FALSE,FALSE,,TRUE,FALSE,FALSE,Course Lock,131.2,,16.4,Calm,86,,1.12.6,Mavic Mini,1SDCH7G0169R0K,1SFLH6Q0AB03DJ,1SRCH7F014TAHX,1U5X071EXP6C8G,174.3,0.1,68.8,10.204472,3.579104,0,18024,Mavic Mini,1SDCH7G0169R0K,1SFLH6Q0AB03DJ,1SRCH7F014TAHX,1U5X071EXP6C8G,DJI Fly,,1.12.6,BA9FA6F8-3ACB-7256-8308-84B74D2B7468,1SDCH7G0169R0K,,,,,6.972766067,79.91590722,5,,
1/26/2024,46:31.7,3m 4.6s,184.6,6.972805036,79.91588245,0.9,0.9,1.6,60,0.8,0,0.223694,0,0,0,0,-2.013246,0,1.3,1.6,-21.7,338.3,,Auto Takeoff,Auto Fly,Takeoff (App Auto),14,5,TRUE,,Mavic Mini,TRUE,FALSE,,Smart,RC,FALSE,TRUE,FALSE,,,TRUE,,FALSE,FALSE,FALSE,FALSE,FALSE,FALSE,FALSE,FALSE,FALSE,FALSE,0,Follow Yaw,-5,0,-20.5,339.5,FALSE,FALSE,FALSE,FALSE,FALSE,FALSE,,TRUE,Normal,,100,1024,1024,1024,1024,1,FALSE,FALSE,FALSE,FALSE,FALSE,0,FALSE,FALSE,FALSE,FALSE,85,7.925,1767,2082,7.962,FALSE,3.966,3.959,0.007,FALSE,FALSE,NA,98.8,98.7,98.7,0,46,0,20,5,2921.4,730.35,,Idle,0,20,FALSE,5,TRUE,6,Go Home,FALSE,FALSE,FALSE,FALSE,FALSE,FALSE,FALSE,FALSE,FALSE,FALSE,FALSE,FALSE,6.973107695,79.91563727,141.6,,459.3,TRUE,1,1,FALSE,FALSE,FALSE,FALSE,,TRUE,FALSE,FALSE,Course Lock,131.2,,16.4,Calm,86,,1.12.6,Mavic Mini,1SDCH7G0169R0K,1SFLH6Q0AB03DJ,1SRCH7F014TAHX,1U5X071EXP6C8G,174.3,0.1,68.8,10.204472,3.579104,0,18024,Mavic Mini,1SDCH7G0169R0K,1SFLH6Q0AB03DJ,1SRCH7F014TAHX,1U5X071EXP6C8G,DJI Fly,,1.12.6,BA9FA6F8-3ACB-7256-8308-84B74D2B7468,1SDCH7G0169R0K,,,,,6.972766067,79.91590722,5,,
1/26/2024,46:31.8,3m 4.7s,184.7,6.972805048,79.91588239,1.3,1.3,1.9,60,0.8,0,0.223694,0,0,0,0,-2.23694,0,1.2,1.9,-21.6,338.4,,Auto Takeoff,Auto Fly,Takeoff (App Auto),14,5,TRUE,,Mavic Mini,TRUE,FALSE,,Smart,RC,FALSE,TRUE,FALSE,,,TRUE,,FALSE,FALSE,FALSE,FALSE,FALSE,FALSE,FALSE,FALSE,FALSE,FALSE,0,Follow Yaw,-5,0,-20.7,339.3,FALSE,FALSE,FALSE,FALSE,FALSE,FALSE,,TRUE,Normal,,100,1024,1024,1024,1024,1,FALSE,FALSE,FALSE,FALSE,FALSE,0,FALSE,FALSE,FALSE,FALSE,85,7.925,1767,2082,7.964,FALSE,3.966,3.959,0.007,FALSE,FALSE,NA,98.8,98.7,98.7,0,0,0,0,5,2921.4,730.35,,Idle,0,20,FALSE,5,TRUE,6,Go Home,FALSE,FALSE,FALSE,FALSE,FALSE,FALSE,FALSE,FALSE,FALSE,FALSE,FALSE,FALSE,6.972804689,79.9158836,0.4,,459.3,TRUE,1,1,FALSE,FALSE,FALSE,FALSE,,TRUE,FALSE,FALSE,Course Lock,131.2,,16.4,Calm,86,,1.12.6,Mavic Mini,1SDCH7G0169R0K,1SFLH6Q0AB03DJ,1SRCH7F014TAHX,1U5X071EXP6C8G,174.3,0.1,68.8,10.204472,3.579104,0,18024,Mavic Mini,1SDCH7G0169R0K,1SFLH6Q0AB03DJ,1SRCH7F014TAHX,1U5X071EXP6C8G,DJI Fly,,1.12.6,BA9FA6F8-3ACB-7256-8308-84B74D2B7468,1SDCH7G0169R0K,,,,,6.972766067,79.91590722,5,Home Point Updated.,
1/26/2024,46:32.1,3m 4.8s,184.8,6.972804999,79.91588237,1.6,1.6,2.2,60,0.8,0,0.223694,0,0,0,0,-2.23694,0,0.4,2,-21.4,338.6,,Auto Takeoff,Auto Fly,Takeoff (App Auto),14,5,TRUE,,Mavic Mini,TRUE,FALSE,,Smart,RC,FALSE,TRUE,FALSE,,,TRUE,,FALSE,FALSE,FALSE,FALSE,FALSE,FALSE,FALSE,FALSE,FALSE,FALSE,0,Follow Yaw,-5,0,-20.9,339.1,FALSE,FALSE,FALSE,FALSE,FALSE,FALSE,,TRUE,Normal,,100,1024,1024,1024,1024,1,FALSE,FALSE,FALSE,FALSE,FALSE,0,FALSE,FALSE,FALSE,FALSE,85,7.788,1765,2082,7.964,FALSE,3.895,3.893,0.007,FALSE,FALSE,NA,98.8,98.7,98.7,0,0,0,0,5,2921.4,730.35,,Idle,0,20,FALSE,5,TRUE,6,Go Home,FALSE,FALSE,FALSE,FALSE,FALSE,FALSE,FALSE,FALSE,FALSE,FALSE,FALSE,FALSE,6.972804689,79.9158836,0.4,,459.3,TRUE,1,1,FALSE,FALSE,FALSE,FALSE,,TRUE,FALSE,FALSE,Course Lock,131.2,,16.4,Calm,86,,1.12.6,Mavic Mini,1SDCH7G0169R0K,1SFLH6Q0AB03DJ,1SRCH7F014TAHX,1U5X071EXP6C8G,174.3,0.1,68.8,10.204472,3.579104,0,18024,Mavic Mini,1SDCH7G0169R0K,1SFLH6Q0AB03DJ,1SRCH7F014TAHX,1U5X071EXP6C8G,DJI Fly,,1.12.6,BA9FA6F8-3ACB-7256-8308-84B74D2B7468,1SDCH7G0169R0K,,,,,6.972766067,79.91590722,5,,
1/26/2024,46:32.1,3m 4.9s,184.9,6.972805011,79.91588245,1.9,1.9,2.6,61,0.9,0,0.223694,0,0,0,0,-2.23694,0,1,2.2,-21.3,338.7,,Auto Takeoff,Auto Fly,Takeoff (App Auto),14,5,TRUE,,Mavic Mini,TRUE,FALSE,,Smart,RC,FALSE,TRUE,FALSE,,,TRUE,,FALSE,FALSE,FALSE,FALSE,FALSE,FALSE,FALSE,FALSE,FALSE,FALSE,0,Follow Yaw,-5,0,-21,339,FALSE,FALSE,FALSE,FALSE,FALSE,FALSE,,TRUE,Normal,,100,1024,1024,1024,1024,1,FALSE,FALSE,FALSE,FALSE,FALSE,0,FALSE,FALSE,FALSE,FALSE,85,7.788,1765,2082,7.964,FALSE,3.895,3.893,0.007,FALSE,FALSE,NA,98.8,98.7,98.7,0,0,0,0,5,2921.4,730.35,,Idle,0,20,FALSE,5,TRUE,6,Go Home,FALSE,FALSE,FALSE,FALSE,FALSE,FALSE,FALSE,FALSE,FALSE,FALSE,FALSE,FALSE,6.972804689,79.9158836,0.4,,459.3,TRUE,1,1,FALSE,FALSE,FALSE,FALSE,,TRUE,FALSE,FALSE,Course Lock,131.2,,16.4,Calm,86,,1.12.6,Mavic Mini,1SDCH7G0169R0K,1SFLH6Q0AB03DJ,1SRCH7F014TAHX,1U5X071EXP6C8G,174.3,0.1,68.8,10.204472,3.579104,0,18024,Mavic Mini,1SDCH7G0169R0K,1SFLH6Q0AB03DJ,1SRCH7F014TAHX,1U5X071EXP6C8G,DJI Fly,,1.12.6,BA9FA6F8-3ACB-7256-8308-84B74D2B7468,1SDCH7G0169R0K,,,,,6.972766067,79.91590722,5,,
1/26/2024,46:32.1,3m 5.0s,185,6.972805083,79.915883,2.2,2.2,2.9,61,1.1,0,0.223694,0,0,0,0,-2.23694,0,2.3,1.8,-21.2,338.8,,P-GPS,Auto Fly,,14,5,TRUE,,Mavic Mini,TRUE,FALSE,,Smart,RC,FALSE,TRUE,FALSE,,,TRUE,,FALSE,FALSE,FALSE,FALSE,FALSE,FALSE,FALSE,FALSE,FALSE,FALSE,0,Follow Yaw,-5,0,-21.1,338.9,FALSE,FALSE,FALSE,FALSE,FALSE,FALSE,,TRUE,Normal,,100,1024,1024,1024,1024,1,FALSE,FALSE,FALSE,FALSE,FALSE,0,FALSE,FALSE,FALSE,FALSE,85,7.788,1765,2082,7.964,FALSE,3.895,3.893,0.007,FALSE,FALSE,NA,98.8,98.7,98.7,0,0,0,0,5,2921.4,730.35,,Idle,0,20,FALSE,5,TRUE,6,Go Home,FALSE,FALSE,FALSE,FALSE,FALSE,FALSE,FALSE,FALSE,FALSE,FALSE,FALSE,FALSE,6.972804689,79.9158836,0.2,,459.3,TRUE,1,1,FALSE,FALSE,FALSE,FALSE,,TRUE,FALSE,FALSE,Course Lock,131.2,,16.4,Calm,86,,1.12.6,Mavic Mini,1SDCH7G0169R0K,1SFLH6Q0AB03DJ,1SRCH7F014TAHX,1U5X071EXP6C8G,174.3,0.1,68.8,10.204472,3.579104,0,18024,Mavic Mini,1SDCH7G0169R0K,1SFLH6Q0AB03DJ,1SRCH7F014TAHX,1U5X071EXP6C8G,DJI Fly,,1.12.6,BA9FA6F8-3ACB-7256-8308-84B74D2B7468,1SDCH7G0169R0K,,,,,6.972766067,79.91590722,5,Home Point updated. RTH altitude adjusted to 40 m! (Code: 120852).; Flight mode changed to P-GPS.,
1/26/2024,46:32.2,3m 5.1s,185.1,6.972805031,79.91588302,2.6,2.6,3.2,61,1.1,0,0.223694,0,0,0,0,-2.013246,0,1.9,2.7,-21.2,338.8,,P-GPS,Auto Fly,,14,5,TRUE,,Mavic Mini,TRUE,FALSE,,Smart,RC,FALSE,TRUE,FALSE,,,TRUE,,FALSE,FALSE,FALSE,FALSE,FALSE,FALSE,FALSE,FALSE,FALSE,FALSE,0,Follow Yaw,-5,0,-21.1,338.9,FALSE,FALSE,FALSE,FALSE,FALSE,FALSE,,TRUE,Normal,,100,1024,1024,1024,1024,1,FALSE,FALSE,FALSE,FALSE,FALSE,0,FALSE,FALSE,FALSE,FALSE,85,7.788,1765,2082,7.964,FALSE,3.895,3.893,0.007,FALSE,FALSE,NA,98.8,98.7,98.7,0,0,0,0,5,2921.4,730.35,,Idle,0,20,FALSE,5,TRUE,6,Go Home,FALSE,FALSE,FALSE,FALSE,FALSE,FALSE,FALSE,FALSE,FALSE,FALSE,FALSE,FALSE,6.972804689,79.9158836,0.2,,459.3,TRUE,1,1,FALSE,FALSE,FALSE,FALSE,,TRUE,FALSE,FALSE,Course Lock,131.2,,16.4,Calm,86,,1.12.6,Mavic Mini,1SDCH7G0169R0K,1SFLH6Q0AB03DJ,1SRCH7F014TAHX,1U5X071EXP6C8G,174.3,0.1,68.8,10.204472,3.579104,0,18024,Mavic Mini,1SDCH7G0169R0K,1SFLH6Q0AB03DJ,1SRCH7F014TAHX,1U5X071EXP6C8G,DJI Fly,,1.12.6,BA9FA6F8-3ACB-7256-8308-84B74D2B7468,1SDCH7G0169R0K,,,,,6.972766067,79.91590722,5,,
1/26/2024,46:32.3,3m 5.2s,185.2,6.972804884,79.91588295,2.6,2.6,3.6,61,1.2,0,0.223694,0,0,0,0,-1.565858,0,1.5,2.7,-21.1,338.9,,P-GPS,Auto Fly,,14,5,TRUE,,Mavic Mini,TRUE,FALSE,,Smart,RC,FALSE,TRUE,FALSE,,,TRUE,,FALSE,FALSE,FALSE,FALSE,FALSE,FALSE,FALSE,FALSE,FALSE,FALSE,0,Follow Yaw,-5,0,-21.2,338.8,FALSE,FALSE,FALSE,FALSE,FALSE,FALSE,,TRUE,Normal,,100,1024,1024,1024,1024,1,FALSE,FALSE,FALSE,FALSE,FALSE,0,FALSE,FALSE,FALSE,FALSE,85,7.788,1765,2082,7.964,FALSE,3.895,3.893,0.007,FALSE,FALSE,NA,98.8,98.7,98.7,0,0,0,0,5,2921.4,730.35,,Idle,0,20,FALSE,5,TRUE,6,Go Home,FALSE,FALSE,FALSE,FALSE,FALSE,FALSE,FALSE,FALSE,FALSE,FALSE,FALSE,FALSE,6.972804689,79.9158836,0.2,,459.3,TRUE,1,1,FALSE,FALSE,FALSE,FALSE,,TRUE,FALSE,FALSE,Course Lock,131.2,,16.4,Calm,86,,1.12.6,Mavic Mini,1SDCH7G0169R0K,1SFLH6Q0AB03DJ,1SRCH7F014TAHX,1U5X071EXP6C8G,174.3,0.1,68.8,10.204472,3.579104,0,18024,Mavic Mini,1SDCH7G0169R0K,1SFLH6Q0AB03DJ,1SRCH7F014TAHX,1U5X071EXP6C8G,DJI Fly,,1.12.6,BA9FA6F8-3ACB-7256-8308-84B74D2B7468,1SDCH7G0169R0K,,,,,6.972766067,79.91590722,5,,
1/26/2024,46:32.4,3m 5.3s,185.3,6.972804785,79.91588297,2.9,2.9,3.6,62,1.2,0,0.223694,0,0,0,0,-0.894776,0,1.9,2.2,-21.3,338.7,,P-GPS,Auto Fly,,14,5,TRUE,,Mavic Mini,TRUE,FALSE,,Smart,RC,FALSE,TRUE,FALSE,,,TRUE,,FALSE,FALSE,FALSE,FALSE,FALSE,FALSE,FALSE,FALSE,FALSE,FALSE,0,Follow Yaw,-5,0,-21.3,338.7,FALSE,FALSE,FALSE,FALSE,FALSE,FALSE,,TRUE,Normal,,100,1024,1024,1024,1024,1,FALSE,FALSE,FALSE,FALSE,FALSE,0,FALSE,FALSE,FALSE,FALSE,85,7.788,1765,2082,7.964,FALSE,3.895,3.893,0.007,FALSE,FALSE,NA,98.8,98.7,98.7,0,0,0,0,5,2921.4,730.35,,Idle,0,20,FALSE,5,TRUE,6,Go Home,FALSE,FALSE,FALSE,FALSE,FALSE,FALSE,FALSE,FALSE,FALSE,FALSE,FALSE,FALSE,6.972804689,79.9158836,0.2,,459.3,TRUE,1,1,FALSE,FALSE,FALSE,FALSE,,TRUE,FALSE,FALSE,Course Lock,131.2,,16.4,Calm,86,,1.12.6,Mavic Mini,1SDCH7G0169R0K,1SFLH6Q0AB03DJ,1SRCH7F014TAHX,1U5X071EXP6C8G,174.3,0.1,68.8,10.204472,3.579104,0,18024,Mavic Mini,1SDCH7G0169R0K,1SFLH6Q0AB03DJ,1SRCH7F014TAHX,1U5X071EXP6C8G,DJI Fly,,1.12.6,BA9FA6F8-3ACB-7256-8308-84B74D2B7468,1SDCH7G0169R0K,,,,,6.972766067,79.91590722,5,,
1/26/2024,46:32.5,3m 5.4s,185.4,6.972804595,79.91588284,2.9,2.9,3.9,62,1.3,0,0.223694,0,0,0,0,-0.447388,0,1.5,2.2,-21.4,338.6,,P-GPS,Auto Fly,,14,5,TRUE,,Mavic Mini,TRUE,FALSE,,Smart,RC,FALSE,TRUE,FALSE,,,TRUE,,FALSE,FALSE,FALSE,FALSE,FALSE,FALSE,FALSE,FALSE,FALSE,FALSE,0,Follow Yaw,-5,0,-21.3,338.7,FALSE,FALSE,FALSE,FALSE,FALSE,FALSE,,TRUE,Normal,,100,1024,1024,1024,1024,1,FALSE,FALSE,FALSE,FALSE,FALSE,0,FALSE,FALSE,FALSE,FALSE,85,7.788,1765,2082,7.964,FALSE,3.895,3.893,0.007,FALSE,FALSE,NA,98.8,98.7,98.7,0,0,0,0,5,2921.4,730.35,,Idle,0,20,FALSE,5,TRUE,6,Go Home,FALSE,FALSE,FALSE,FALSE,FALSE,FALSE,FALSE,FALSE,FALSE,FALSE,FALSE,FALSE,6.972804689,79.9158836,0.2,,459.3,TRUE,1,1,FALSE,FALSE,FALSE,FALSE,,TRUE,FALSE,FALSE,Course Lock,131.2,,16.4,Calm,86,,1.12.6,Mavic Mini,1SDCH7G0169R0K,1SFLH6Q0AB03DJ,1SRCH7F014TAHX,1U5X071EXP6C8G,174.3,0.1,68.8,10.204472,3.579104,0,18024,Mavic Mini,1SDCH7G0169R0K,1SFLH6Q0AB03DJ,1SRCH7F014TAHX,1U5X071EXP6C8G,DJI Fly,,1.12.6,BA9FA6F8-3ACB-7256-8308-84B74D2B7468,1SDCH7G0169R0K,,,,,6.972766067,79.91590722,5,,
1/26/2024,46:32.6,3m 5.5s,185.5,6.972804511,79.91588299,2.9,2.9,3.9,62,1.3,0,0.223694,0,0,0,0,-0.223694,0,1.5,1.9,-21.4,338.6,,P-GPS,Auto Fly,,14,5,TRUE,,Mavic Mini,TRUE,FALSE,,Smart,RC,FALSE,TRUE,FALSE,,,TRUE,,FALSE,FALSE,FALSE,FALSE,FALSE,FALSE,FALSE,FALSE,FALSE,FALSE,0,Follow Yaw,-5,0,-21.4,338.6,FALSE,FALSE,FALSE,FALSE,FALSE,FALSE,,TRUE,Normal,,100,1024,1024,1024,1024,1,FALSE,FALSE,FALSE,FALSE,FALSE,0,FALSE,FALSE,FALSE,FALSE,85,7.788,1765,2082,7.964,FALSE,3.895,3.893,0.007,FALSE,FALSE,NA,98.8,98.7,98.7,0,0,0,0,5,2921.4,730.35,,Idle,0,20,FALSE,5,TRUE,6,Go Home,FALSE,FALSE,FALSE,FALSE,FALSE,FALSE,FALSE,FALSE,FALSE,FALSE,FALSE,FALSE,6.972804689,79.9158836,0.2,,459.3,TRUE,1,1,FALSE,FALSE,FALSE,FALSE,,TRUE,FALSE,FALSE,Course Lock,131.2,,16.4,Calm,86,,1.12.6,Mavic Mini,1SDCH7G0169R0K,1SFLH6Q0AB03DJ,1SRCH7F014TAHX,1U5X071EXP6C8G,174.3,0.1,68.8,10.204472,3.579104,0,18024,Mavic Mini,1SDCH7G0169R0K,1SFLH6Q0AB03DJ,1SRCH7F014TAHX,1U5X071EXP6C8G,DJI Fly,,1.12.6,BA9FA6F8-3ACB-7256-8308-84B74D2B7468,1SDCH7G0169R0K,,,,,6.972766067,79.91590722,5,,
1/26/2024,46:32.7,3m 5.6s,185.6,6.972804405,79.9158832,2.9,2.9,3.9,62,1.4,0.316351,0.316351,-0.223694,0,0.223694,0.223694,0,0,0.8,1.4,-21.3,338.7,122.9,P-GPS,Auto Fly,,14,5,TRUE,,Mavic Mini,TRUE,FALSE,,Smart,RC,FALSE,TRUE,FALSE,,,TRUE,,FALSE,FALSE,FALSE,FALSE,FALSE,FALSE,FALSE,FALSE,FALSE,FALSE,0,Follow Yaw,-5,0,-21.5,338.5,FALSE,FALSE,FALSE,FALSE,FALSE,FALSE,,TRUE,Normal,,100,1024,1024,1024,1024,1,FALSE,FALSE,FALSE,FALSE,FALSE,0,FALSE,FALSE,FALSE,FALSE,85,7.788,1765,2082,7.964,FALSE,3.895,3.893,0.007,FALSE,FALSE,NA,98.8,98.7,98.7,0,0,0,0,5,2921.4,730.35,,Idle,0,20,FALSE,5,TRUE,6,Go Home,FALSE,FALSE,FALSE,FALSE,FALSE,FALSE,FALSE,FALSE,FALSE,FALSE,FALSE,FALSE,6.972804689,79.9158836,0.1,,459.3,TRUE,1,1,FALSE,FALSE,FALSE,FALSE,,TRUE,FALSE,FALSE,Course Lock,131.2,,16.4,Calm,86,,1.12.6,Mavic Mini,1SDCH7G0169R0K,1SFLH6Q0AB03DJ,1SRCH7F014TAHX,1U5X071EXP6C8G,174.3,0.1,68.8,10.204472,3.579104,0,18024,Mavic Mini,1SDCH7G0169R0K,1SFLH6Q0AB03DJ,1SRCH7F014TAHX,1U5X071EXP6C8G,DJI Fly,,1.12.6,BA9FA6F8-3ACB-7256-8308-84B74D2B7468,1SDCH7G0169R0K,,,,,6.972766067,79.91590722,5,,
1/26/2024,46:32.8,3m 5.7s,185.7,6.972804305,79.91588341,2.9,2.9,3.9,62,1.5,0.316351,0.316351,-0.223694,0,0.223694,0.223694,0,0,0.6,1.3,-21.2,338.8,122.4,P-GPS,Auto Fly,,14,5,TRUE,,Mavic Mini,TRUE,FALSE,,Smart,RC,FALSE,TRUE,FALSE,,,TRUE,,FALSE,FALSE,FALSE,FALSE,FALSE,FALSE,FALSE,FALSE,FALSE,FALSE,0,Follow Yaw,-5,0,-21.5,338.5,FALSE,FALSE,FALSE,FALSE,FALSE,FALSE,,TRUE,Normal,,100,1024,1024,1024,1024,1,FALSE,FALSE,FALSE,FALSE,FALSE,0,FALSE,FALSE,FALSE,FALSE,85,7.788,1765,2082,7.791,FALSE,3.895,3.893,0.007,FALSE,FALSE,NA,98.8,98.7,98.7,0,0,0,0,5,3502.7,875.67,,Idle,0,20,FALSE,5,TRUE,6,Go Home,FALSE,FALSE,FALSE,FALSE,FALSE,FALSE,FALSE,FALSE,FALSE,FALSE,FALSE,FALSE,6.972804689,79.9158836,0.1,,459.3,TRUE,1,1,FALSE,FALSE,FALSE,FALSE,,TRUE,FALSE,FALSE,Course Lock,131.2,,16.4,Calm,86,,1.12.6,Mavic Mini,1SDCH7G0169R0K,1SFLH6Q0AB03DJ,1SRCH7F014TAHX,1U5X071EXP6C8G,174.3,0.1,68.8,10.204472,3.579104,0,18024,Mavic Mini,1SDCH7G0169R0K,1SFLH6Q0AB03DJ,1SRCH7F014TAHX,1U5X071EXP6C8G,DJI Fly,,1.12.6,BA9FA6F8-3ACB-7256-8308-84B74D2B7468,1SDCH7G0169R0K,,,,,6.972766067,79.91590722,5,,
1/26/2024,46:32.9,3m 5.8s,185.8,6.972804304,79.91588375,2.9,2.9,3.9,62,1.6,0.316351,0.316351,-0.223694,0,0.223694,0.223694,0,0,-0.2,1.1,-21.2,338.8,90.3,P-GPS,Auto Fly,,14,5,TRUE,,Mavic Mini,TRUE,FALSE,,Smart,RC,FALSE,TRUE,FALSE,,,TRUE,,FALSE,FALSE,FALSE,FALSE,FALSE,FALSE,FALSE,FALSE,FALSE,FALSE,0,Follow Yaw,-5,0,-21.5,338.5,FALSE,FALSE,FALSE,FALSE,FALSE,FALSE,,TRUE,Normal,,100,1024,1024,1024,1024,1,FALSE,FALSE,FALSE,FALSE,FALSE,0,FALSE,FALSE,FALSE,FALSE,85,7.788,1765,2082,7.791,FALSE,3.895,3.893,0.007,FALSE,FALSE,NA,98.8,98.7,98.7,0,0,0,0,5,3502.7,875.67,,Idle,0,20,FALSE,5,TRUE,6,Go Home,FALSE,FALSE,FALSE,FALSE,FALSE,FALSE,FALSE,FALSE,FALSE,FALSE,FALSE,FALSE,6.972804689,79.9158836,0.1,,459.3,TRUE,1,1,FALSE,FALSE,FALSE,FALSE,,TRUE,FALSE,FALSE,Course Lock,131.2,,16.4,Calm,86,,1.12.6,Mavic Mini,1SDCH7G0169R0K,1SFLH6Q0AB03DJ,1SRCH7F014TAHX,1U5X071EXP6C8G,174.3,0.1,68.8,10.204472,3.579104,0,18024,Mavic Mini,1SDCH7G0169R0K,1SFLH6Q0AB03DJ,1SRCH7F014TAHX,1U5X071EXP6C8G,DJI Fly,,1.12.6,BA9FA6F8-3ACB-7256-8308-84B74D2B7468,1SDCH7G0169R0K,,,,,6.972766067,79.91590722,5,,
1/26/2024,46:33.1,3m 5.9s,185.9,6.972804166,79.91588395,2.9,2.9,3.9,62,1.7,0.316351,0.316351,-0.223694,0,0.223694,0.223694,0,0,-0.4,0.9,-21.2,338.8,132.7,P-GPS,Auto Fly,,14,5,TRUE,,Mavic Mini,TRUE,FALSE,,Smart,RC,FALSE,TRUE,FALSE,,,TRUE,,FALSE,FALSE,FALSE,FALSE,FALSE,FALSE,FALSE,FALSE,FALSE,FALSE,0,Follow Yaw,-5,0,-21.6,338.4,FALSE,FALSE,FALSE,FALSE,FALSE,FALSE,,TRUE,Normal,,100,1024,1024,1024,1024,1,FALSE,FALSE,FALSE,FALSE,FALSE,0,FALSE,FALSE,FALSE,FALSE,85,7.818,1765,2082,7.791,FALSE,3.911,3.907,0.007,FALSE,FALSE,NA,98.8,98.7,98.7,0,0,0,0,5,3502.7,875.67,,Idle,0,20,FALSE,5,TRUE,6,Go Home,FALSE,FALSE,FALSE,FALSE,FALSE,FALSE,FALSE,FALSE,FALSE,FALSE,FALSE,FALSE,6.972804689,79.9158836,0.2,,459.3,TRUE,1,1,FALSE,FALSE,FALSE,FALSE,,TRUE,FALSE,FALSE,Course Lock,131.2,,16.4,Calm,86,,1.12.6,Mavic Mini,1SDCH7G0169R0K,1SFLH6Q0AB03DJ,1SRCH7F014TAHX,1U5X071EXP6C8G,174.3,0.1,68.8,10.204472,3.579104,0,18024,Mavic Mini,1SDCH7G0169R0K,1SFLH6Q0AB03DJ,1SRCH7F014TAHX,1U5X071EXP6C8G,DJI Fly,,1.12.6,BA9FA6F8-3ACB-7256-8308-84B74D2B7468,1SDCH7G0169R0K,,,,,6.972766067,79.91590722,5,,
1/26/2024,46:33.1,3m 6.0s,186,6.972803998,79.91588414,2.9,2.9,3.9,62,1.8,0.316351,0.316351,-0.223694,0,0.223694,0.223694,0,0,-0.9,0.8,-21.1,338.9,138,P-GPS,Auto Fly,,14,5,TRUE,,Mavic Mini,TRUE,FALSE,,Smart,RC,FALSE,TRUE,FALSE,,,TRUE,,FALSE,FALSE,FALSE,FALSE,FALSE,FALSE,FALSE,FALSE,FALSE,FALSE,0,Follow Yaw,-5,0,-21.6,338.4,FALSE,FALSE,FALSE,FALSE,FALSE,FALSE,,TRUE,Normal,,100,1024,1024,1024,1024,1,FALSE,FALSE,FALSE,FALSE,FALSE,0,FALSE,FALSE,FALSE,FALSE,85,7.818,1764,2082,7.791,FALSE,3.911,3.907,0.007,FALSE,FALSE,NA,98.8,98.7,98.7,0,0,0,0,5,3502.7,875.67,,Idle,0,20,FALSE,5,TRUE,6,Go Home,FALSE,FALSE,FALSE,FALSE,FALSE,FALSE,FALSE,FALSE,FALSE,FALSE,FALSE,FALSE,6.972804689,79.9158836,0.3,,459.3,TRUE,1,1,FALSE,FALSE,FALSE,FALSE,,TRUE,FALSE,FALSE,Course Lock,131.2,,16.4,Calm,86,,1.12.6,Mavic Mini,1SDCH7G0169R0K,1SFLH6Q0AB03DJ,1SRCH7F014TAHX,1U5X071EXP6C8G,174.3,0.1,68.8,10.204472,3.579104,0,18024,Mavic Mini,1SDCH7G0169R0K,1SFLH6Q0AB03DJ,1SRCH7F014TAHX,1U5X071EXP6C8G,DJI Fly,,1.12.6,BA9FA6F8-3ACB-7256-8308-84B74D2B7468,1SDCH7G0169R0K,,,,,6.972766067,79.91590722,5,,
1/26/2024,46:33.3,3m 6.1s,186.1,6.972803854,79.9158843,2.6,2.9,3.9,61,1.9,0.316351,0.316351,-0.223694,0,0.223694,0.223694,0,0,-0.7,0.6,-21.1,338.9,140.8,P-GPS,Auto Fly,,14,5,TRUE,,Mavic Mini,TRUE,FALSE,,Smart,RC,FALSE,TRUE,FALSE,,,TRUE,,FALSE,FALSE,FALSE,FALSE,FALSE,FALSE,FALSE,FALSE,FALSE,FALSE,0,Follow Yaw,-5,0,-21.6,338.4,FALSE,FALSE,FALSE,FALSE,FALSE,FALSE,,TRUE,Normal,,100,1024,1024,1024,1024,1,FALSE,FALSE,FALSE,FALSE,FALSE,0,FALSE,FALSE,FALSE,FALSE,85,7.818,1764,2082,7.791,FALSE,3.911,3.907,0.007,FALSE,FALSE,NA,98.8,98.7,98.7,0,0,0,0,5,3502.7,875.67,,Idle,0,20,FALSE,5,TRUE,6,Go Home,FALSE,FALSE,FALSE,FALSE,FALSE,FALSE,FALSE,FALSE,FALSE,FALSE,FALSE,FALSE,6.972804689,79.9158836,0.3,,459.3,TRUE,1,1,FALSE,FALSE,FALSE,FALSE,,TRUE,FALSE,FALSE,Course Lock,131.2,,16.4,Calm,86,,1.12.6,Mavic Mini,1SDCH7G0169R0K,1SFLH6Q0AB03DJ,1SRCH7F014TAHX,1U5X071EXP6C8G,174.3,0.1,68.8,10.204472,3.579104,0,18024,Mavic Mini,1SDCH7G0169R0K,1SFLH6Q0AB03DJ,1SRCH7F014TAHX,1U5X071EXP6C8G,DJI Fly,,1.12.6,BA9FA6F8-3ACB-7256-8308-84B74D2B7468,1SDCH7G0169R0K,,,,,6.972766067,79.91590722,5,,
1/26/2024,46:33.4,3m 6.2s,186.2,6.972803681,79.91588432,2.6,2.9,3.9,61,2,0.316351,0.316351,-0.223694,0,0.223694,0.223694,0,0,-1.1,0.4,-20.7,339.3,174.1,P-GPS,Auto Fly,,14,5,TRUE,,Mavic Mini,TRUE,FALSE,,Smart,RC,FALSE,TRUE,FALSE,,,TRUE,,FALSE,FALSE,FALSE,FALSE,FALSE,FALSE,FALSE,FALSE,FALSE,FALSE,0,Follow Yaw,-5,0,-21.6,338.4,FALSE,FALSE,FALSE,FALSE,FALSE,FALSE,,TRUE,Normal,,100,1024,1024,1024,1024,1,FALSE,FALSE,FALSE,FALSE,FALSE,0,FALSE,FALSE,FALSE,FALSE,85,7.818,1764,2082,7.791,FALSE,3.911,3.907,0.007,FALSE,FALSE,NA,98.8,98.7,98.7,0,0,0,0,5,3502.7,875.67,,Idle,0,20,FALSE,5,TRUE,6,Go Home,FALSE,FALSE,FALSE,FALSE,FALSE,FALSE,FALSE,FALSE,FALSE,FALSE,FALSE,FALSE,6.972804689,79.9158836,0.4,,459.3,TRUE,1,1,FALSE,FALSE,FALSE,FALSE,,TRUE,FALSE,FALSE,Course Lock,131.2,,16.4,Calm,86,,1.12.6,Mavic Mini,1SDCH7G0169R0K,1SFLH6Q0AB03DJ,1SRCH7F014TAHX,1U5X071EXP6C8G,174.3,0.1,68.8,10.204472,3.579104,0,18024,Mavic Mini,1SDCH7G0169R0K,1SFLH6Q0AB03DJ,1SRCH7F014TAHX,1U5X071EXP6C8G,DJI Fly,,1.12.6,BA9FA6F8-3ACB-7256-8308-84B74D2B7468,1SDCH7G0169R0K,,,,,6.972766067,79.91590722,5,,
1/26/2024,46:33.5,3m 6.3s,186.3,6.972803598,79.91588447,2.6,2.9,3.9,61,2,0.316351,0.316351,-0.223694,0,0.223694,0.223694,0,0,-2.5,-0.5,-20.4,339.6,125.8,P-GPS,Auto Fly,,14,5,TRUE,,Mavic Mini,TRUE,FALSE,,Smart,RC,FALSE,TRUE,FALSE,,,TRUE,,FALSE,FALSE,FALSE,FALSE,FALSE,FALSE,FALSE,FALSE,FALSE,FALSE,0,Follow Yaw,-5,0,-21.6,338.4,FALSE,FALSE,FALSE,FALSE,FALSE,FALSE,,TRUE,Normal,,100,1024,1024,1024,1024,1,FALSE,FALSE,FALSE,FALSE,FALSE,0,FALSE,FALSE,FALSE,FALSE,85,7.818,1764,2082,7.791,FALSE,3.911,3.907,0.007,FALSE,FALSE,NA,98.8,98.7,98.7,0,0,0,0,5,3502.7,875.67,,Idle,0,20,FALSE,5,TRUE,6,Go Home,FALSE,FALSE,FALSE,FALSE,FALSE,FALSE,FALSE,FALSE,FALSE,FALSE,FALSE,FALSE,6.972804689,79.9158836,0.5,,459.3,TRUE,1,1,FALSE,FALSE,FALSE,FALSE,,TRUE,FALSE,FALSE,Course Lock,131.2,,16.4,Calm,86,,1.12.6,Mavic Mini,1SDCH7G0169R0K,1SFLH6Q0AB03DJ,1SRCH7F014TAHX,1U5X071EXP6C8G,174.3,0.1,68.8,10.204472,3.579104,0,18024,Mavic Mini,1SDCH7G0169R0K,1SFLH6Q0AB03DJ,1SRCH7F014TAHX,1U5X071EXP6C8G,DJI Fly,,1.12.6,BA9FA6F8-3ACB-7256-8308-84B74D2B7468,1SDCH7G0169R0K,,,,,6.972766067,79.91590722,5,,
1/26/2024,46:33.5,3m 6.4s,186.4,6.972803558,79.91588463,2.6,2.9,3.9,61,2.1,0.316351,0.316351,-0.223694,0,0.223694,0.223694,0,0,-2.8,-0.8,-20.3,339.7,107.6,P-GPS,Auto Fly,,14,5,TRUE,,Mavic Mini,TRUE,FALSE,,Smart,RC,FALSE,TRUE,FALSE,,,TRUE,,FALSE,FALSE,FALSE,FALSE,FALSE,FALSE,FALSE,FALSE,FALSE,FALSE,0,Follow Yaw,-5,0,-21.6,338.4,FALSE,FALSE,FALSE,FALSE,FALSE,FALSE,,TRUE,Normal,,100,1024,1024,1024,1024,1,FALSE,FALSE,FALSE,FALSE,FALSE,0,FALSE,FALSE,FALSE,FALSE,85,7.818,1764,2082,7.791,FALSE,3.911,3.907,0.007,FALSE,FALSE,NA,98.8,98.7,98.7,0,0,0,0,5,3502.7,875.67,,Idle,0,20,FALSE,5,TRUE,6,Go Home,FALSE,FALSE,FALSE,FALSE,FALSE,FALSE,FALSE,FALSE,FALSE,FALSE,FALSE,FALSE,6.972804689,79.9158836,0.5,,459.3,TRUE,1,1,FALSE,FALSE,FALSE,FALSE,,TRUE,FALSE,FALSE,Course Lock,131.2,,16.4,Calm,86,,1.12.6,Mavic Mini,1SDCH7G0169R0K,1SFLH6Q0AB03DJ,1SRCH7F014TAHX,1U5X071EXP6C8G,174.3,0.1,68.8,10.204472,3.579104,0,18024,Mavic Mini,1SDCH7G0169R0K,1SFLH6Q0AB03DJ,1SRCH7F014TAHX,1U5X071EXP6C8G,DJI Fly,,1.12.6,BA9FA6F8-3ACB-7256-8308-84B74D2B7468,1SDCH7G0169R0K,,,,,6.972766067,79.91590722,5,,
1/26/2024,46:33.6,3m 6.5s,186.5,6.972803532,79.91588476,2.6,2.9,3.9,61,2.1,0.316351,0.316351,-0.223694,0,0.223694,0.223694,0,0,-2.6,-0.6,-20.1,339.9,104,P-GPS,Auto Fly,,14,5,TRUE,,Mavic Mini,TRUE,FALSE,,Smart,RC,FALSE,TRUE,FALSE,,,TRUE,,FALSE,FALSE,FALSE,FALSE,FALSE,FALSE,FALSE,FALSE,FALSE,FALSE,0,Follow Yaw,-5,0,-21.6,338.4,FALSE,FALSE,FALSE,FALSE,FALSE,FALSE,,TRUE,Normal,,100,1024,1024,1024,1024,1,FALSE,FALSE,FALSE,FALSE,FALSE,0,FALSE,FALSE,FALSE,FALSE,85,7.818,1764,2082,7.791,FALSE,3.911,3.907,0.007,FALSE,FALSE,NA,98.8,98.7,98.7,0,0,0,0,5,3502.7,875.67,,Idle,0,20,FALSE,5,TRUE,6,Go Home,FALSE,FALSE,FALSE,FALSE,FALSE,FALSE,FALSE,FALSE,FALSE,FALSE,FALSE,FALSE,6.972804689,79.9158836,0.5,,459.3,TRUE,1,1,FALSE,FALSE,FALSE,FALSE,,TRUE,FALSE,FALSE,Course Lock,131.2,,16.4,Calm,86,,1.12.6,Mavic Mini,1SDCH7G0169R0K,1SFLH6Q0AB03DJ,1SRCH7F014TAHX,1U5X071EXP6C8G,174.3,0.1,68.8,10.204472,3.579104,0,18024,Mavic Mini,1SDCH7G0169R0K,1SFLH6Q0AB03DJ,1SRCH7F014TAHX,1U5X071EXP6C8G,DJI Fly,,1.12.6,BA9FA6F8-3ACB-7256-8308-84B74D2B7468,1SDCH7G0169R0K,,,,,6.972766067,79.91590722,5,,
1/26/2024,46:33.7,3m 6.6s,186.6,6.972803519,79.91588487,2.6,2.9,3.9,61,2.2,0,0.316351,0,0,0,0.223694,0,0,-2.1,-0.2,-20.2,339.8,,P-GPS,Auto Fly,,14,5,TRUE,,Mavic Mini,TRUE,FALSE,,Smart,RC,FALSE,TRUE,FALSE,,,TRUE,,FALSE,FALSE,FALSE,FALSE,FALSE,FALSE,FALSE,FALSE,FALSE,FALSE,0,Follow Yaw,-5,0,-21.6,338.4,FALSE,FALSE,FALSE,FALSE,FALSE,FALSE,,TRUE,Normal,,100,1024,1024,1024,1024,1,FALSE,FALSE,FALSE,FALSE,FALSE,0,FALSE,FALSE,FALSE,FALSE,85,7.818,1764,2082,7.791,FALSE,3.911,3.907,0.007,FALSE,FALSE,NA,98.8,98.7,98.7,0,0,0,0,5,3502.7,875.67,,Idle,0,20,FALSE,5,TRUE,6,Go Home,FALSE,FALSE,FALSE,FALSE,FALSE,FALSE,FALSE,FALSE,FALSE,FALSE,FALSE,FALSE,6.972804689,79.9158836,0.6,,459.3,TRUE,1,1,FALSE,FALSE,FALSE,FALSE,,TRUE,FALSE,FALSE,Course Lock,131.2,,16.4,Calm,86,,1.12.6,Mavic Mini,1SDCH7G0169R0K,1SFLH6Q0AB03DJ,1SRCH7F014TAHX,1U5X071EXP6C8G,174.3,0.1,68.8,10.204472,3.579104,0,18024,Mavic Mini,1SDCH7G0169R0K,1SFLH6Q0AB03DJ,1SRCH7F014TAHX,1U5X071EXP6C8G,DJI Fly,,1.12.6,BA9FA6F8-3ACB-7256-8308-84B74D2B7468,1SDCH7G0169R0K,,,,,6.972766067,79.91590722,5,,
1/26/2024,46:33.8,3m 6.7s,186.7,6.972803686,79.91588501,2.6,2.9,3.9,61,2.2,0,0.316351,0,0,0,0.223694,0,0,-1.9,-0.1,-20.2,339.8,,P-GPS,Auto Fly,,14,5,TRUE,,Mavic Mini,TRUE,FALSE,,Smart,RC,FALSE,TRUE,FALSE,,,TRUE,,FALSE,FALSE,FALSE,FALSE,FALSE,FALSE,FALSE,FALSE,FALSE,FALSE,0,Follow Yaw,-5,0,-21.6,338.4,FALSE,FALSE,FALSE,FALSE,FALSE,FALSE,,TRUE,Normal,,100,1024,1024,1024,1024,1,FALSE,FALSE,FALSE,FALSE,FALSE,0,FALSE,FALSE,FALSE,FALSE,85,7.818,1764,2082,7.831,FALSE,3.911,3.907,0.007,FALSE,FALSE,NA,98.8,98.7,98.7,0,0,0,0,5,4889.2,1222.31,,Idle,0,20,FALSE,5,TRUE,6,Go Home,FALSE,FALSE,FALSE,FALSE,FALSE,FALSE,FALSE,FALSE,FALSE,FALSE,FALSE,FALSE,6.972804689,79.9158836,0.6,,459.3,TRUE,1,1,FALSE,FALSE,FALSE,FALSE,,TRUE,FALSE,FALSE,Course Lock,131.2,,16.4,Calm,86,,1.12.6,Mavic Mini,1SDCH7G0169R0K,1SFLH6Q0AB03DJ,1SRCH7F014TAHX,1U5X071EXP6C8G,174.3,0.1,68.8,10.204472,3.579104,0,18024,Mavic Mini,1SDCH7G0169R0K,1SFLH6Q0AB03DJ,1SRCH7F014TAHX,1U5X071EXP6C8G,DJI Fly,,1.12.6,BA9FA6F8-3ACB-7256-8308-84B74D2B7468,1SDCH7G0169R0K,,,,,6.972766067,79.91590722,5,,
1/26/2024,46:33.9,3m 6.8s,186.8,6.972803626,79.91588506,2.6,2.9,3.9,61,2.3,0,0.316351,0,0,0,0.223694,0,0,-1.8,0.3,-20.2,339.8,,P-GPS,Auto Fly,,14,5,TRUE,,Mavic Mini,TRUE,FALSE,,Smart,RC,FALSE,TRUE,FALSE,,,TRUE,,FALSE,FALSE,FALSE,FALSE,FALSE,FALSE,FALSE,FALSE,FALSE,FALSE,0,Follow Yaw,-5,0,-21.6,338.4,FALSE,FALSE,FALSE,FALSE,FALSE,FALSE,,TRUE,Normal,,100,1024,1024,1024,1024,1,FALSE,FALSE,FALSE,FALSE,FALSE,0,FALSE,FALSE,FALSE,FALSE,85,7.818,1764,2082,7.831,FALSE,3.911,3.907,0.007,FALSE,FALSE,NA,98.8,98.7,98.7,0,0,0,0,5,4889.2,1222.31,,Idle,0,20,FALSE,5,TRUE,6,Go Home,FALSE,FALSE,FALSE,FALSE,FALSE,FALSE,FALSE,FALSE,FALSE,FALSE,FALSE,FALSE,6.972804689,79.9158836,0.6,,459.3,TRUE,1,1,FALSE,FALSE,FALSE,FALSE,,TRUE,FALSE,FALSE,Course Lock,131.2,,16.4,Calm,86,,1.12.6,Mavic Mini,1SDCH7G0169R0K,1SFLH6Q0AB03DJ,1SRCH7F014TAHX,1U5X071EXP6C8G,174.3,0.1,68.8,10.204472,3.579104,0,18024,Mavic Mini,1SDCH7G0169R0K,1SFLH6Q0AB03DJ,1SRCH7F014TAHX,1U5X071EXP6C8G,DJI Fly,,1.12.6,BA9FA6F8-3ACB-7256-8308-84B74D2B7468,1SDCH7G0169R0K,,,,,6.972766067,79.91590722,5,,
1/26/2024,46:34.0,3m 6.9s,186.9,6.972803584,79.91588505,2.6,2.9,3.9,61,2.3,0,0.316351,0,0,0,0.223694,0,0,-1.5,0.6,-20.1,339.9,,P-GPS,Auto Fly,,14,5,TRUE,,Mavic Mini,TRUE,FALSE,,Smart,RC,FALSE,TRUE,FALSE,,,TRUE,,FALSE,FALSE,FALSE,FALSE,FALSE,FALSE,FALSE,FALSE,FALSE,FALSE,0,Follow Yaw,-5,0,-21.6,338.4,FALSE,FALSE,FALSE,FALSE,FALSE,FALSE,,TRUE,Normal,,100,1024,1024,1024,1024,1,FALSE,FALSE,FALSE,FALSE,FALSE,0,FALSE,FALSE,FALSE,FALSE,85,7.818,1764,2082,7.831,FALSE,3.911,3.907,0.007,FALSE,FALSE,NA,98.8,98.7,98.7,0,0,0,0,5,4889.2,1222.31,,Idle,0,20,FALSE,5,TRUE,6,Go Home,FALSE,FALSE,FALSE,FALSE,FALSE,FALSE,FALSE,FALSE,FALSE,FALSE,FALSE,FALSE,6.972804689,79.9158836,0.6,,459.3,TRUE,1,1,FALSE,FALSE,FALSE,FALSE,,TRUE,FALSE,FALSE,Course Lock,131.2,,16.4,Calm,86,,1.12.6,Mavic Mini,1SDCH7G0169R0K,1SFLH6Q0AB03DJ,1SRCH7F014TAHX,1U5X071EXP6C8G,174.3,0.1,68.8,10.204472,3.579104,0,18024,Mavic Mini,1SDCH7G0169R0K,1SFLH6Q0AB03DJ,1SRCH7F014TAHX,1U5X071EXP6C8G,DJI Fly,,1.12.6,BA9FA6F8-3ACB-7256-8308-84B74D2B7468,1SDCH7G0169R0K,,,,,6.972766067,79.91590722,5,,
1/26/2024,46:34.1,3m 7.0s,187,6.972803555,79.91588499,2.6,2.9,3.9,61,2.3,0,0.316351,0,0,0,0.223694,0,0,-1.1,0.7,-20.2,339.8,,P-GPS,Auto Fly,,14,5,TRUE,,Mavic Mini,TRUE,FALSE,,Smart,RC,FALSE,TRUE,FALSE,,,TRUE,,FALSE,FALSE,FALSE,FALSE,FALSE,FALSE,FALSE,FALSE,FALSE,FALSE,0,Follow Yaw,-5,0,-21.6,338.4,FALSE,FALSE,FALSE,FALSE,FALSE,FALSE,,TRUE,Normal,,100,1024,1024,1024,1024,1,FALSE,FALSE,FALSE,FALSE,FALSE,0,FALSE,FALSE,FALSE,FALSE,85,7.818,1764,2082,7.831,FALSE,3.911,3.907,0.007,FALSE,FALSE,NA,98.8,98.7,98.7,0,0,0,0,5,4889.2,1222.31,,Idle,0,20,FALSE,5,TRUE,6,Go Home,FALSE,FALSE,FALSE,FALSE,FALSE,FALSE,FALSE,FALSE,FALSE,FALSE,FALSE,FALSE,6.972804689,79.9158836,0.6,,459.3,TRUE,1,1,FALSE,FALSE,FALSE,FALSE,,TRUE,FALSE,FALSE,Course Lock,131.2,,16.4,Calm,86,,1.12.6,Mavic Mini,1SDCH7G0169R0K,1SFLH6Q0AB03DJ,1SRCH7F014TAHX,1U5X071EXP6C8G,174.3,0.1,68.8,10.204472,3.579104,0,18024,Mavic Mini,1SDCH7G0169R0K,1SFLH6Q0AB03DJ,1SRCH7F014TAHX,1U5X071EXP6C8G,DJI Fly,,1.12.6,BA9FA6F8-3ACB-7256-8308-84B74D2B7468,1SDCH7G0169R0K,,,,,6.972766067,79.91590722,5,,
1/26/2024,46:34.2,3m 7.1s,187.1,6.972803584,79.91588486,2.6,2.9,3.9,61,2.4,0,0.316351,0,0,0,0.223694,0,0,-1,1.1,-20.1,339.9,,P-GPS,Auto Fly,,14,5,TRUE,,Mavic Mini,TRUE,FALSE,,Smart,RC,FALSE,TRUE,FALSE,,,TRUE,,FALSE,FALSE,FALSE,FALSE,FALSE,FALSE,FALSE,FALSE,FALSE,FALSE,0,Follow Yaw,-5,0,-21.6,338.4,FALSE,FALSE,FALSE,FALSE,FALSE,FALSE,,TRUE,Normal,,100,1024,1024,1024,1024,1,FALSE,FALSE,FALSE,FALSE,FALSE,0,FALSE,FALSE,FALSE,FALSE,85,7.806,1762,2082,7.831,FALSE,3.903,3.903,0.007,FALSE,FALSE,NA,98.8,98.7,98.7,0,0,0,0,5,4889.2,1222.31,,Idle,0,20,FALSE,5,TRUE,6,Go Home,FALSE,FALSE,FALSE,FALSE,FALSE,FALSE,FALSE,FALSE,FALSE,FALSE,FALSE,FALSE,6.972804689,79.9158836,0.6,,459.3,TRUE,1,1,FALSE,FALSE,FALSE,FALSE,,TRUE,FALSE,FALSE,Course Lock,131.2,,16.4,Calm,86,,1.12.6,Mavic Mini,1SDCH7G0169R0K,1SFLH6Q0AB03DJ,1SRCH7F014TAHX,1U5X071EXP6C8G,174.3,0.1,68.8,10.204472,3.579104,0,18024,Mavic Mini,1SDCH7G0169R0K,1SFLH6Q0AB03DJ,1SRCH7F014TAHX,1U5X071EXP6C8G,DJI Fly,,1.12.6,BA9FA6F8-3ACB-7256-8308-84B74D2B7468,1SDCH7G0169R0K,,,,,6.972766067,79.91590722,5,,
1/26/2024,46:34.3,3m 7.2s,187.2,6.97280363,79.91588483,2.6,2.9,3.9,61,2.4,0,0.316351,0,0,0,0.223694,0,0,-1.2,1.2,-20.1,339.9,,P-GPS,Auto Fly,,14,5,TRUE,,Mavic Mini,TRUE,FALSE,,Smart,RC,FALSE,TRUE,FALSE,,,TRUE,,FALSE,FALSE,FALSE,FALSE,FALSE,FALSE,FALSE,FALSE,FALSE,FALSE,0,Follow Yaw,-5,0,-21.6,338.4,FALSE,FALSE,FALSE,FALSE,FALSE,FALSE,,TRUE,Normal,,100,1024,1024,1024,1024,1,FALSE,FALSE,FALSE,FALSE,FALSE,0,FALSE,FALSE,FALSE,FALSE,85,7.806,1762,2082,7.831,FALSE,3.903,3.903,0.007,FALSE,FALSE,NA,98.8,98.7,98.7,0,0,0,0,5,4889.2,1222.31,,Idle,0,20,FALSE,5,TRUE,6,Go Home,FALSE,FALSE,FALSE,FALSE,FALSE,FALSE,FALSE,FALSE,FALSE,FALSE,FALSE,FALSE,6.972804689,79.9158836,0.5,,459.3,TRUE,1,1,FALSE,FALSE,FALSE,FALSE,,TRUE,FALSE,FALSE,Course Lock,131.2,,16.4,Calm,86,,1.12.6,Mavic Mini,1SDCH7G0169R0K,1SFLH6Q0AB03DJ,1SRCH7F014TAHX,1U5X071EXP6C8G,174.3,0.1,68.8,10.204472,3.579104,0,18024,Mavic Mini,1SDCH7G0169R0K,1SFLH6Q0AB03DJ,1SRCH7F014TAHX,1U5X071EXP6C8G,DJI Fly,,1.12.6,BA9FA6F8-3ACB-7256-8308-84B74D2B7468,1SDCH7G0169R0K,,,,,6.972766067,79.91590722,5,,
