CUSTOM.date [local],CUSTOM.updateTime [local],OSD.flyTime,OSD.flyTime [s],OSD.latitude,OSD.longitude,OSD.height [ft],OSD.heightMax [ft],OSD.vpsHeight [ft],OSD.altitude [ft],OSD.mileage [ft],OSD.hSpeed [MPH],OSD.hSpeedMax [MPH],OSD.xSpeed [MPH],OSD.xSpeedMax [MPH],OSD.ySpeed [MPH],OSD.ySpeedMax [MPH],OSD.zSpeed [MPH],OSD.zSpeedMax [MPH],OSD.pitch,OSD.roll,OSD.yaw,OSD.yaw [360],OSD.directionOfTravel,OSD.flycState,OSD.flycCommand,OSD.flightAction,OSD.gpsNum,OSD.gpsLevel,OSD.isGPSUsed,OSD.nonGPSCause,OSD.droneType,OSD.isSwaveWork,OSD.waveError,OSD.goHomeStatus,OSD.batteryType,OSD.ctrlDevice,OSD.isOnGround,OSD.isMotorOn,OSD.isMotorBlocked,OSD.motorStartFailedCause,OSD.motorFailReason,OSD.isImuPreheated,OSD.imuInitFailReason,OSD.isAcceletorOverRange,OSD.isBarometerDeadInAir,OSD.isCompassError,OSD.isGoHomeHeightModified,OSD.canIOCWork,OSD.isNotEnoughForce,OSD.isOutOfLimit,OSD.isPropellerCatapult,OSD.isVibrating,OSD.isVisionUsed,OSD.voltageWarning,GIMBAL.mode,GIMBAL.pitch,GIMBAL.roll,GIMBAL.yaw,GIMBAL.yaw [360],GIMBAL.isPitchAtLimit,GIMBAL.isRollAtLimit,GIMBAL.isYawAtLimit,GIMBAL.isStuck,CAMERA.isPhoto,CAMERA.isVideo,CAMERA.filename,CAMERA.sdCardIsInserted,CAMERA.sdCardState,RC.downlinkSignal,RC.uplinkSignal,RC.aileron,RC.elevator,RC.throttle,RC.rudder,RC.mode,RC.goHomeDepressed,RC.recordDepressed,RC.shutterDepressed,RC.playbackDepressed,RC.wheelDepressed,RC.wheelOffset,RC.custom1Depressed,RC.custom2Depressed,RC.custom3Depressed,RC.custom4Depressed,BATTERY.chargeLevel,BATTERY.currentPV [V],BATTERY.currentCapacity [mAh],BATTERY.fullCapacity [mAh],BATTERY.voltage [V],BATTERY.isCellVoltageEstimated,BATTERY.cellVoltage1 [V],BATTERY.cellVoltage2 [V],BATTERY.maxCellVoltageDeviation,BATTERY.isCellVoltageDeviationHigh,BATTERY.isVoltageLow,BATTERY.current [A],BATTERY.temperature [F],BATTERY.minTemperature [F],BATTERY.maxTemperature [F],BATTERY.usefulTime [s],BATTERY.goHomeTime [s],BATTERY.landTime [s],BATTERY.goHomeBattery,BATTERY.landBattery,BATTERY.safeFlyRadius,BATTERY.volumeConsume,BATTERY.status,BATTERY.goHomeStatus,BATTERY.goHomeCountdown,BATTERY.lowWarning,BATTERY.lowWarningGoHome,BATTERY.seriousLowWarning,BATTERY.seriousLowWarningLanding,BATTERY.timesCharged,MC.failSafeAction,MC.isObstacleAvoidanceEnabled,MC.isCollisionAvoidanceEnabled,MC.isRthObstacleAvoidanceEnabled,MC.isBraking,MC.isAvoidingObstacle,MC.isAvoidingActiveObstacle,MC.isAscentLimitedByObstacle,MC.isLandingConfirmationNeeded,MC.atLowAltitudeLimit,MC.atDistanceLimit,MC.atAirportAltitudeLimit,MC.atAirportBoundary,HOME.latitude,HOME.longitude,HOME.distance [ft],HOME.height [ft],HOME.heightLimit [ft],HOME.isHomeRecord,HOME.goHomeMode,HOME.aircraftHeadDirection,HOME.isDynamicHomePointEnabled,HOME.isReachedLimitDistance,HOME.isReachedLimitHeight,HOME.isCompassCalibrating,HOME.compassCalibrationState,HOME.isMultipleFlightModeEnabled,HOME.isBeginnerMode,HOME.isIOCEnabled,HOME.iocMode,HOME.goHomeHeight [ft],HOME.courseLockAngle,HOME.forceLandingHeight [ft],HOME.wind,HOME.dataRecorderFileIndex,RECOVER.appType,RECOVER.appVersion,RECOVER.aircraftName,RECOVER.aircraftSerial,RECOVER.cameraSerial,RECOVER.rcSerial,RECOVER.batterySerial,DETAILS.totalTime [s],DETAILS.totalDistance [ft],DETAILS.maxHeight [ft],DETAILS.maxHorizontalSpeed [MPH],DETAILS.maxVerticalSpeed [MPH],DETAILS.photoNum,DETAILS.videoTime [s],DETAILS.aircraftName,DETAILS.aircraftSerial,DETAILS.cameraSerial,DETAILS.rcSerial,DETAILS.batterySerial,DETAILS.appName,DETAILS.appType,DETAILS.appVersion,DETAILS.guid,SERIAL.flightController,SERIAL.camera,SERIAL.gimbal,SERIAL.rc,SERIAL.battery,APPGPS.latitude,APPGPS.longitude,APPGPS.accuracy,APP.tip,APP.warning
2/25/2024,29:00.6,13m 3.4s,783.4,6.972861674,79.9159318,0,0,,57,0,0,0,0,0,0,0,0,0,5,2.3,-29,331,,Starting Motors,Other,Takeoff (RC Assisted),16,5,TRUE,,Mavic Mini,FALSE,FALSE,,Smart,RC,TRUE,TRUE,FALSE,,,TRUE,,FALSE,FALSE,FALSE,FALSE,FALSE,FALSE,FALSE,FALSE,FALSE,FALSE,0,Follow Yaw,0,0,-20.7,339.3,FALSE,FALSE,FALSE,FALSE,FALSE,FALSE,,TRUE,Normal,,,364,364,364,1684,1,FALSE,FALSE,FALSE,FALSE,FALSE,0,FALSE,FALSE,FALSE,FALSE,44,7.368,889,2050,7.368,TRUE,3.684,3.684,,FALSE,FALSE,NA,119.3,119.3,119.3,,,,,,,,,Idle,,,TRUE,,FALSE,11,Go Home,FALSE,FALSE,FALSE,FALSE,FALSE,FALSE,FALSE,FALSE,FALSE,FALSE,FALSE,FALSE,,,,,,FALSE,,,FALSE,FALSE,FALSE,FALSE,,FALSE,FALSE,FALSE,,,,,Calm,,,1.12.8,Mavic Mini,1SDCH7G0169R0K,1SFLH6Q0AB03DJ,1SRCH7F014TAHX,1U5X071EXP5ZJG,75.5,0.2,59,12.819008,4.697574,0,2552,Mavic Mini,1SDCH7G0169R0K,1SFLH6Q0AB03DJ,1SRCH7F014TAHX,1U5X071EXP5ZJG,DJI Fly,,1.12.8,8B531F96-A082-C3E3-2C29-FF988D997279,1SDCH7G0169R0K,,,,,,,,Flight mode changed to Starting Motors.,
2/25/2024,15:57.4,13m 3.5s,783.5,6.972861638,79.91593177,0,0,,57,0,0,0,0,0,0,0,0,0,5,2.3,-29,331,,Starting Motors,Other,Takeoff (RC Assisted),16,5,TRUE,,Mavic Mini,FALSE,FALSE,,Smart,RC,TRUE,TRUE,FALSE,,,TRUE,,FALSE,FALSE,FALSE,FALSE,FALSE,FALSE,FALSE,FALSE,FALSE,FALSE,0,Follow Yaw,0,0,-20.7,339.3,FALSE,FALSE,FALSE,FALSE,FALSE,FALSE,,TRUE,Normal,,,364,364,364,1684,1,FALSE,FALSE,FALSE,FALSE,FALSE,0,FALSE,FALSE,FALSE,FALSE,44,7.368,889,2050,7.368,TRUE,3.684,3.684,,FALSE,FALSE,NA,119.3,119.3,119.3,0,0,0,0,5,3017.3,754.34,,Idle,0,20,FALSE,5,TRUE,11,Go Home,FALSE,FALSE,FALSE,FALSE,FALSE,FALSE,FALSE,FALSE,FALSE,FALSE,FALSE,FALSE,6.972864339,79.91593037,1.1,207.9,328,TRUE,1,1,FALSE,FALSE,FALSE,FALSE,,TRUE,FALSE,FALSE,Course Lock,49.2,,16.4,Calm,37,,1.12.8,Mavic Mini,1SDCH7G0169R0K,1SFLH6Q0AB03DJ,1SRCH7F014TAHX,1U5X071EXP5ZJG,75.5,0.2,59,12.819008,4.697574,0,2552,Mavic Mini,1SDCH7G0169R0K,1SFLH6Q0AB03DJ,1SRCH7F014TAHX,1U5X071EXP5ZJG,DJI Fly,,1.12.8,8B531F96-A082-C3E3-2C29-FF988D997279,1SDCH7G0169R0K,,,,,,,,Data Recorder File Index is 37.; Set Return to Home (RTH) altitude to 15 m (49 ft).; Set maximum flight altitude to 100 m (328 ft).,
2/25/2024,15:57.5,13m 3.6s,783.6,6.972861583,79.91593176,0,0,,57,0,0,0,0,0,0,0,0,0,5,2.3,-29,331,,Starting Motors,Other,Takeoff (RC Assisted),16,5,TRUE,,Mavic Mini,FALSE,FALSE,,Smart,RC,TRUE,TRUE,FALSE,,,TRUE,,FALSE,FALSE,FALSE,FALSE,FALSE,FALSE,FALSE,FALSE,FALSE,FALSE,0,Follow Yaw,0,0,-20.7,339.3,FALSE,FALSE,FALSE,FALSE,FALSE,FALSE,,TRUE,Normal,,,727,685,364,1684,1,FALSE,FALSE,FALSE,FALSE,FALSE,0,FALSE,FALSE,FALSE,FALSE,44,7.368,889,2050,7.368,TRUE,3.684,3.684,,FALSE,FALSE,NA,119.3,119.3,119.3,0,0,0,0,5,3017.3,754.34,,Idle,0,20,FALSE,5,TRUE,11,Go Home,FALSE,FALSE,FALSE,FALSE,FALSE,FALSE,FALSE,FALSE,FALSE,FALSE,FALSE,FALSE,6.972864339,79.91593037,1.1,207.9,328,TRUE,1,1,FALSE,FALSE,FALSE,FALSE,,TRUE,FALSE,FALSE,Course Lock,49.2,,16.4,Calm,37,,1.12.8,Mavic Mini,1SDCH7G0169R0K,1SFLH6Q0AB03DJ,1SRCH7F014TAHX,1U5X071EXP5ZJG,75.5,0.2,59,12.819008,4.697574,0,2552,Mavic Mini,1SDCH7G0169R0K,1SFLH6Q0AB03DJ,1SRCH7F014TAHX,1U5X071EXP5ZJG,DJI Fly,,1.12.8,8B531F96-A082-C3E3-2C29-FF988D997279,1SDCH7G0169R0K,,,,,,,,,
2/25/2024,15:57.5,13m 3.7s,783.7,6.972861534,79.91593171,0,0,0.3,57,0,0,0,0,0,0,0,0,0,5,2.4,-29,331,,Starting Motors,Other,Takeoff (RC Assisted),16,5,TRUE,,Mavic Mini,TRUE,FALSE,,Smart,RC,TRUE,TRUE,FALSE,,,TRUE,,FALSE,FALSE,FALSE,FALSE,FALSE,FALSE,FALSE,FALSE,FALSE,FALSE,0,Follow Yaw,0,0,-20.7,339.3,FALSE,FALSE,FALSE,FALSE,FALSE,FALSE,,TRUE,Normal,,,989,961,364,1649,1,FALSE,FALSE,FALSE,FALSE,FALSE,0,FALSE,FALSE,FALSE,FALSE,44,7.368,889,2050,7.368,TRUE,3.684,3.684,,FALSE,FALSE,NA,119.3,119.3,119.3,0,0,0,0,5,3017.3,754.34,,Idle,0,20,FALSE,5,TRUE,11,Go Home,FALSE,FALSE,FALSE,FALSE,FALSE,FALSE,FALSE,FALSE,FALSE,FALSE,FALSE,FALSE,6.972864339,79.91593037,1.1,207.9,328,TRUE,1,1,FALSE,FALSE,FALSE,FALSE,,TRUE,FALSE,FALSE,Course Lock,49.2,,16.4,Calm,37,,1.12.8,Mavic Mini,1SDCH7G0169R0K,1SFLH6Q0AB03DJ,1SRCH7F014TAHX,1U5X071EXP5ZJG,75.5,0.2,59,12.819008,4.697574,0,2552,Mavic Mini,1SDCH7G0169R0K,1SFLH6Q0AB03DJ,1SRCH7F014TAHX,1U5X071EXP5ZJG,DJI Fly,,1.12.8,8B531F96-A082-C3E3-2C29-FF988D997279,1SDCH7G0169R0K,,,,,,,,,
2/25/2024,15:57.6,13m 3.8s,783.8,6.972861565,79.91593176,0,0,0.3,57,0,0,0,0,0,0,0,0,0,5,2.5,-29,331,,Starting Motors,Other,Takeoff (RC Assisted),16,5,TRUE,,Mavic Mini,TRUE,FALSE,,Smart,RC,TRUE,TRUE,FALSE,,,TRUE,,FALSE,FALSE,FALSE,FALSE,FALSE,FALSE,FALSE,FALSE,FALSE,FALSE,0,Follow Yaw,0,0,-20.7,339.3,FALSE,FALSE,FALSE,FALSE,FALSE,FALSE,,TRUE,Normal,,100,1024,1024,985,1050,1,FALSE,FALSE,FALSE,FALSE,FALSE,0,FALSE,FALSE,FALSE,FALSE,44,7.368,889,2050,7.368,TRUE,3.684,3.684,,FALSE,FALSE,NA,119.3,119.3,119.3,0,0,0,0,5,3017.3,754.34,,Idle,0,20,FALSE,5,TRUE,11,Go Home,FALSE,FALSE,FALSE,FALSE,FALSE,FALSE,FALSE,FALSE,FALSE,FALSE,FALSE,FALSE,6.972864339,79.91593037,1.1,207.9,328,TRUE,1,1,FALSE,FALSE,FALSE,FALSE,,TRUE,FALSE,FALSE,Course Lock,49.2,,16.4,Calm,37,,1.12.8,Mavic Mini,1SDCH7G0169R0K,1SFLH6Q0AB03DJ,1SRCH7F014TAHX,1U5X071EXP5ZJG,75.5,0.2,59,12.819008,4.697574,0,2552,Mavic Mini,1SDCH7G0169R0K,1SFLH6Q0AB03DJ,1SRCH7F014TAHX,1U5X071EXP5ZJG,DJI Fly,,1.12.8,8B531F96-A082-C3E3-2C29-FF988D997279,1SDCH7G0169R0K,,,,,,,,,
2/25/2024,15:57.7,13m 3.9s,783.9,6.972861551,79.91593176,0,0,0.3,57,0,0,0,0,0,0,0,0,0,5,2.5,-29,331,,Starting Motors,Other,Takeoff (RC Assisted),16,5,TRUE,,Mavic Mini,TRUE,FALSE,,Smart,RC,TRUE,TRUE,FALSE,,,TRUE,,FALSE,FALSE,FALSE,FALSE,FALSE,FALSE,FALSE,FALSE,FALSE,FALSE,0,Follow Yaw,0,0,-20.7,339.3,FALSE,FALSE,FALSE,FALSE,FALSE,FALSE,,TRUE,Normal,,100,1024,1024,1024,1024,1,FALSE,FALSE,FALSE,FALSE,FALSE,0,FALSE,FALSE,FALSE,FALSE,44,7.368,889,2050,7.368,TRUE,3.684,3.684,,FALSE,FALSE,NA,119.3,119.3,119.3,0,0,0,0,5,3017.3,754.34,,Idle,0,20,FALSE,5,TRUE,11,Go Home,FALSE,FALSE,FALSE,FALSE,FALSE,FALSE,FALSE,FALSE,FALSE,FALSE,FALSE,FALSE,6.972864339,79.91593037,1.1,207.9,328,TRUE,1,1,FALSE,FALSE,FALSE,FALSE,,TRUE,FALSE,FALSE,Course Lock,49.2,,16.4,Calm,37,,1.12.8,Mavic Mini,1SDCH7G0169R0K,1SFLH6Q0AB03DJ,1SRCH7F014TAHX,1U5X071EXP5ZJG,75.5,0.2,59,12.819008,4.697574,0,2552,Mavic Mini,1SDCH7G0169R0K,1SFLH6Q0AB03DJ,1SRCH7F014TAHX,1U5X071EXP5ZJG,DJI Fly,,1.12.8,8B531F96-A082-C3E3-2C29-FF988D997279,1SDCH7G0169R0K,,,,,,,,,
2/25/2024,15:57.8,13m 4.0s,784,6.972861511,79.91593173,0,0,0.3,57,0,0,0,0,0,0,0,0,0,5,2.4,-29,331,,Starting Motors,Other,Takeoff (RC Assisted),16,5,TRUE,,Mavic Mini,TRUE,FALSE,,Smart,RC,TRUE,TRUE,FALSE,,,TRUE,,FALSE,FALSE,FALSE,FALSE,FALSE,FALSE,FALSE,FALSE,FALSE,FALSE,0,Follow Yaw,0,0,-20.7,339.3,FALSE,FALSE,FALSE,FALSE,FALSE,FALSE,,TRUE,Normal,,100,1024,1024,1024,1024,1,FALSE,FALSE,FALSE,FALSE,FALSE,0,FALSE,FALSE,FALSE,FALSE,44,7.368,889,2050,7.368,TRUE,3.684,3.684,,FALSE,FALSE,NA,119.3,119.3,119.3,0,0,0,0,5,3017.3,754.34,,Idle,0,20,FALSE,5,TRUE,11,Go Home,FALSE,FALSE,FALSE,FALSE,FALSE,FALSE,FALSE,FALSE,FALSE,FALSE,FALSE,FALSE,6.972864339,79.91593037,1.1,207.9,328,TRUE,1,1,FALSE,FALSE,FALSE,FALSE,,TRUE,FALSE,FALSE,Course Lock,49.2,,16.4,Calm,37,,1.12.8,Mavic Mini,1SDCH7G0169R0K,1SFLH6Q0AB03DJ,1SRCH7F014TAHX,1U5X071EXP5ZJG,75.5,0.2,59,12.819008,4.697574,0,2552,Mavic Mini,1SDCH7G0169R0K,1SFLH6Q0AB03DJ,1SRCH7F014TAHX,1U5X071EXP5ZJG,DJI Fly,,1.12.8,8B531F96-A082-C3E3-2C29-FF988D997279,1SDCH7G0169R0K,,,,,,,,,
2/25/2024,15:57.9,13m 4.1s,784.1,6.97286154,79.91593187,0,0,0.3,57,0.1,0,0,0,0,0,0,0,0,5,2.4,-29,331,,Starting Motors,Other,Takeoff (RC Assisted),16,5,TRUE,,Mavic Mini,TRUE,FALSE,,Smart,RC,TRUE,TRUE,FALSE,,,TRUE,,FALSE,FALSE,FALSE,FALSE,FALSE,FALSE,FALSE,FALSE,FALSE,FALSE,0,Follow Yaw,0,0,-20.8,339.2,FALSE,FALSE,FALSE,FALSE,FALSE,FALSE,,TRUE,Normal,,100,1024,1024,1024,1024,1,FALSE,FALSE,FALSE,FALSE,FALSE,0,FALSE,FALSE,FALSE,FALSE,44,7.368,889,2050,7.368,TRUE,3.684,3.684,,FALSE,FALSE,NA,119.3,119.3,119.3,0,0,0,0,5,3017.3,754.34,,Idle,0,20,FALSE,5,TRUE,11,Go Home,FALSE,FALSE,FALSE,FALSE,FALSE,FALSE,FALSE,FALSE,FALSE,FALSE,FALSE,FALSE,6.972864339,79.91593037,1.1,207.9,328,TRUE,1,1,FALSE,FALSE,FALSE,FALSE,,TRUE,FALSE,FALSE,Course Lock,49.2,,16.4,Calm,37,,1.12.8,Mavic Mini,1SDCH7G0169R0K,1SFLH6Q0AB03DJ,1SRCH7F014TAHX,1U5X071EXP5ZJG,75.5,0.2,59,12.819008,4.697574,0,2552,Mavic Mini,1SDCH7G0169R0K,1SFLH6Q0AB03DJ,1SRCH7F014TAHX,1U5X071EXP5ZJG,DJI Fly,,1.12.8,8B531F96-A082-C3E3-2C29-FF988D997279,1SDCH7G0169R0K,,,,,,,,,
2/25/2024,15:58.0,13m 4.2s,784.2,6.972861524,79.91593191,0,0,0.3,57,0.1,0,0,0,0,0,0,0,0,5,2.4,-29.1,330.9,,Starting Motors,Other,Takeoff (RC Assisted),16,5,TRUE,,Mavic Mini,TRUE,FALSE,,Smart,RC,TRUE,TRUE,FALSE,,,TRUE,,FALSE,FALSE,FALSE,FALSE,FALSE,FALSE,FALSE,FALSE,FALSE,FALSE,0,Follow Yaw,0,0,-20.8,339.2,FALSE,FALSE,FALSE,FALSE,FALSE,FALSE,,TRUE,Normal,,100,1024,1024,1024,1024,1,FALSE,FALSE,FALSE,FALSE,FALSE,0,FALSE,FALSE,FALSE,FALSE,44,7.368,889,2050,7.368,TRUE,3.684,3.684,,FALSE,FALSE,NA,119.3,119.3,119.3,0,0,0,0,5,3017.3,754.34,,Idle,0,20,FALSE,5,TRUE,11,Go Home,FALSE,FALSE,FALSE,FALSE,FALSE,FALSE,FALSE,FALSE,FALSE,FALSE,FALSE,FALSE,6.972864339,79.91593037,1.1,207.9,328,TRUE,1,1,FALSE,FALSE,FALSE,FALSE,,TRUE,FALSE,FALSE,Course Lock,49.2,,16.4,Calm,37,,1.12.8,Mavic Mini,1SDCH7G0169R0K,1SFLH6Q0AB03DJ,1SRCH7F014TAHX,1U5X071EXP5ZJG,75.5,0.2,59,12.819008,4.697574,0,2552,Mavic Mini,1SDCH7G0169R0K,1SFLH6Q0AB03DJ,1SRCH7F014TAHX,1U5X071EXP5ZJG,DJI Fly,,1.12.8,8B531F96-A082-C3E3-2C29-FF988D997279,1SDCH7G0169R0K,,,,,,,,,
2/25/2024,15:58.2,13m 4.3s,784.3,6.972861517,79.91593193,0,0,0.3,57,0.1,0,0,0,0,0,0,0,0,5,2.4,-29.1,330.9,,Starting Motors,Other,Takeoff (RC Assisted),16,5,TRUE,,Mavic Mini,TRUE,FALSE,,Smart,RC,TRUE,TRUE,FALSE,,,TRUE,,FALSE,FALSE,FALSE,FALSE,FALSE,FALSE,FALSE,FALSE,FALSE,FALSE,0,Follow Yaw,0,0,-20.8,339.2,FALSE,FALSE,FALSE,FALSE,FALSE,FALSE,,TRUE,Normal,,100,1024,1024,1024,1024,1,FALSE,FALSE,FALSE,FALSE,FALSE,0,FALSE,FALSE,FALSE,FALSE,44,7.332,889,2050,7.368,FALSE,3.677,3.655,0.022,FALSE,FALSE,NA,119.3,119.3,119.3,0,0,0,0,5,3017.3,754.34,,Idle,0,20,FALSE,5,TRUE,11,Go Home,FALSE,FALSE,FALSE,FALSE,FALSE,FALSE,FALSE,FALSE,FALSE,FALSE,FALSE,FALSE,6.972864339,79.91593037,1.1,207.9,328,TRUE,1,1,FALSE,FALSE,FALSE,FALSE,,TRUE,FALSE,FALSE,Course Lock,49.2,,16.4,Calm,37,,1.12.8,Mavic Mini,1SDCH7G0169R0K,1SFLH6Q0AB03DJ,1SRCH7F014TAHX,1U5X071EXP5ZJG,75.5,0.2,59,12.819008,4.697574,0,2552,Mavic Mini,1SDCH7G0169R0K,1SFLH6Q0AB03DJ,1SRCH7F014TAHX,1U5X071EXP5ZJG,DJI Fly,,1.12.8,8B531F96-A082-C3E3-2C29-FF988D997279,1SDCH7G0169R0K,,,,,,,,,
2/25/2024,15:58.2,13m 4.4s,784.4,6.972861513,79.91593195,0,0,0.3,57,0.1,0,0,0,0,0,0,0,0,5,2.3,-29.1,330.9,,Starting Motors,Other,Takeoff (RC Assisted),16,5,TRUE,,Mavic Mini,TRUE,FALSE,,Smart,RC,TRUE,TRUE,FALSE,,,TRUE,,FALSE,FALSE,FALSE,FALSE,FALSE,FALSE,FALSE,FALSE,FALSE,FALSE,0,Follow Yaw,0,0,-20.8,339.2,FALSE,FALSE,FALSE,FALSE,FALSE,FALSE,,TRUE,Normal,,100,1024,1024,1024,1024,1,FALSE,FALSE,FALSE,FALSE,FALSE,0,FALSE,FALSE,FALSE,FALSE,44,7.332,889,2050,7.368,FALSE,3.677,3.655,0.022,FALSE,FALSE,NA,119.3,119.3,119.3,0,0,0,0,5,3017.3,754.34,,Idle,0,20,FALSE,5,TRUE,11,Go Home,FALSE,FALSE,FALSE,FALSE,FALSE,FALSE,FALSE,FALSE,FALSE,FALSE,FALSE,FALSE,6.972864339,79.91593037,1.1,207.9,328,TRUE,1,1,FALSE,FALSE,FALSE,FALSE,,TRUE,FALSE,FALSE,Course Lock,49.2,,16.4,Calm,37,,1.12.8,Mavic Mini,1SDCH7G0169R0K,1SFLH6Q0AB03DJ,1SRCH7F014TAHX,1U5X071EXP5ZJG,75.5,0.2,59,12.819008,4.697574,0,2552,Mavic Mini,1SDCH7G0169R0K,1SFLH6Q0AB03DJ,1SRCH7F014TAHX,1U5X071EXP5ZJG,DJI Fly,,1.12.8,8B531F96-A082-C3E3-2C29-FF988D997279,1SDCH7G0169R0K,,,,,,,,,
2/25/2024,15:58.3,13m 4.5s,784.5,6.972861561,79.91593194,0,0,0.3,57,0.1,0,0,0,0,0,0,0,0,5,2.3,-29,331,,Manual Takeoff,Other,Takeoff (RC Assisted),16,5,TRUE,,Mavic Mini,TRUE,FALSE,,Smart,RC,TRUE,TRUE,FALSE,,,TRUE,,FALSE,FALSE,FALSE,FALSE,FALSE,FALSE,FALSE,FALSE,FALSE,FALSE,0,Follow Yaw,0,0,-20.8,339.2,FALSE,FALSE,FALSE,FALSE,FALSE,FALSE,,TRUE,Normal,,100,1024,1024,1024,1024,1,FALSE,FALSE,FALSE,FALSE,FALSE,0,FALSE,FALSE,FALSE,FALSE,44,7.332,889,2050,7.361,FALSE,3.677,3.655,0.022,FALSE,FALSE,NA,119.3,119.3,119.3,0,0,0,0,5,3033.4,758.35,,Idle,0,20,FALSE,5,TRUE,11,Go Home,FALSE,FALSE,FALSE,FALSE,FALSE,FALSE,FALSE,FALSE,FALSE,FALSE,FALSE,FALSE,6.972864339,79.91593037,1.1,207.9,328,TRUE,1,1,FALSE,FALSE,FALSE,FALSE,,TRUE,FALSE,FALSE,Course Lock,49.2,,16.4,Calm,37,,1.12.8,Mavic Mini,1SDCH7G0169R0K,1SFLH6Q0AB03DJ,1SRCH7F014TAHX,1U5X071EXP5ZJG,75.5,0.2,59,12.819008,4.697574,0,2552,Mavic Mini,1SDCH7G0169R0K,1SFLH6Q0AB03DJ,1SRCH7F014TAHX,1U5X071EXP5ZJG,DJI Fly,,1.12.8,8B531F96-A082-C3E3-2C29-FF988D997279,1SDCH7G0169R0K,,,,,,,,Flight mode changed to Manual Takeoff.,
2/25/2024,15:58.4,13m 4.6s,784.6,6.972861563,79.91593194,0,0,0.3,57,0.1,0,0,0,0,0,0,0,0,5,2.3,-29.1,330.9,,Manual Takeoff,Other,Takeoff (RC Assisted),16,5,TRUE,,Mavic Mini,TRUE,FALSE,,Smart,RC,TRUE,TRUE,FALSE,,,TRUE,,FALSE,FALSE,FALSE,FALSE,FALSE,FALSE,FALSE,FALSE,FALSE,FALSE,0,Follow Yaw,0,0,-20.8,339.2,FALSE,FALSE,FALSE,FALSE,FALSE,FALSE,,TRUE,Normal,,100,1024,1024,1024,1024,1,FALSE,FALSE,FALSE,FALSE,FALSE,0,FALSE,FALSE,FALSE,FALSE,44,7.332,889,2050,7.361,FALSE,3.677,3.655,0.022,FALSE,FALSE,NA,119.3,119.3,119.3,0,0,0,0,5,3033.4,758.35,,Idle,0,20,FALSE,5,TRUE,11,Go Home,FALSE,FALSE,FALSE,FALSE,FALSE,FALSE,FALSE,FALSE,FALSE,FALSE,FALSE,FALSE,6.972864339,79.91593037,1.1,207.9,328,TRUE,1,1,FALSE,FALSE,FALSE,FALSE,,TRUE,FALSE,FALSE,Course Lock,49.2,,16.4,Calm,37,,1.12.8,Mavic Mini,1SDCH7G0169R0K,1SFLH6Q0AB03DJ,1SRCH7F014TAHX,1U5X071EXP5ZJG,75.5,0.2,59,12.819008,4.697574,0,2552,Mavic Mini,1SDCH7G0169R0K,1SFLH6Q0AB03DJ,1SRCH7F014TAHX,1U5X071EXP5ZJG,DJI Fly,,1.12.8,8B531F96-A082-C3E3-2C29-FF988D997279,1SDCH7G0169R0K,,,,,,,,,
2/25/2024,15:58.6,13m 4.7s,784.7,6.972861566,79.91593194,0,0,0.3,57,0.1,0,0,0,0,0,0,0,0,5,2.3,-29.1,330.9,,Manual Takeoff,Other,Takeoff (RC Assisted),16,5,TRUE,,Mavic Mini,TRUE,FALSE,,Smart,RC,TRUE,TRUE,FALSE,,,TRUE,,FALSE,FALSE,FALSE,FALSE,FALSE,FALSE,FALSE,FALSE,FALSE,FALSE,0,Follow Yaw,0,0,-20.8,339.2,FALSE,FALSE,FALSE,FALSE,FALSE,FALSE,,TRUE,Normal,,100,1024,1024,1024,1024,1,FALSE,FALSE,FALSE,FALSE,FALSE,0,FALSE,FALSE,FALSE,FALSE,44,7.332,889,2050,7.361,FALSE,3.677,3.655,0.022,FALSE,FALSE,NA,119.3,119.3,119.3,0,0,0,0,5,3033.4,758.35,,Idle,0,20,FALSE,5,TRUE,11,Go Home,FALSE,FALSE,FALSE,FALSE,FALSE,FALSE,FALSE,FALSE,FALSE,FALSE,FALSE,FALSE,6.972864339,79.91593037,1.1,207.9,328,TRUE,1,1,FALSE,FALSE,FALSE,FALSE,,TRUE,FALSE,FALSE,Course Lock,49.2,,16.4,Calm,37,,1.12.8,Mavic Mini,1SDCH7G0169R0K,1SFLH6Q0AB03DJ,1SRCH7F014TAHX,1U5X071EXP5ZJG,75.5,0.2,59,12.819008,4.697574,0,2552,Mavic Mini,1SDCH7G0169R0K,1SFLH6Q0AB03DJ,1SRCH7F014TAHX,1U5X071EXP5ZJG,DJI Fly,,1.12.8,8B531F96-A082-C3E3-2C29-FF988D997279,1SDCH7G0169R0K,,,,,,,,,
2/25/2024,15:58.7,13m 4.8s,784.8,6.972861568,79.91593193,0,0,0.3,57,0.1,0,0,0,0,0,0,0,0,5,2.3,-29.1,330.9,,Manual Takeoff,Other,Takeoff (RC Assisted),16,5,TRUE,,Mavic Mini,TRUE,FALSE,,Smart,RC,TRUE,TRUE,FALSE,,,TRUE,,FALSE,FALSE,FALSE,FALSE,FALSE,FALSE,FALSE,FALSE,FALSE,FALSE,0,Follow Yaw,0,0,-20.8,339.2,FALSE,FALSE,FALSE,FALSE,FALSE,FALSE,,TRUE,Normal,,100,1024,1024,1024,1024,1,FALSE,FALSE,FALSE,FALSE,FALSE,0,FALSE,FALSE,FALSE,FALSE,44,7.332,889,2050,7.361,FALSE,3.677,3.655,0.022,FALSE,FALSE,NA,119.3,119.3,119.3,0,0,0,0,5,3033.4,758.35,,Idle,0,20,FALSE,5,TRUE,11,Go Home,FALSE,FALSE,FALSE,FALSE,FALSE,FALSE,FALSE,FALSE,FALSE,FALSE,FALSE,FALSE,6.972864339,79.91593037,1.1,207.9,328,TRUE,1,1,FALSE,FALSE,FALSE,FALSE,,TRUE,FALSE,FALSE,Course Lock,49.2,,16.4,Calm,37,,1.12.8,Mavic Mini,1SDCH7G0169R0K,1SFLH6Q0AB03DJ,1SRCH7F014TAHX,1U5X071EXP5ZJG,75.5,0.2,59,12.819008,4.697574,0,2552,Mavic Mini,1SDCH7G0169R0K,1SFLH6Q0AB03DJ,1SRCH7F014TAHX,1U5X071EXP5ZJG,DJI Fly,,1.12.8,8B531F96-A082-C3E3-2C29-FF988D997279,1SDCH7G0169R0K,,,,,,,,,
2/25/2024,15:58.8,13m 4.9s,784.9,6.972861589,79.9159319,0,0,0.3,57,0.2,0,0,0,0,0,0,0,0,5,2.3,-29.1,330.9,,Manual Takeoff,Other,Takeoff (RC Assisted),16,5,TRUE,,Mavic Mini,TRUE,FALSE,,Smart,RC,TRUE,TRUE,FALSE,,,TRUE,,FALSE,FALSE,FALSE,FALSE,FALSE,FALSE,FALSE,FALSE,FALSE,FALSE,0,Follow Yaw,0,0,-20.8,339.2,FALSE,FALSE,FALSE,FALSE,FALSE,FALSE,,TRUE,Normal,,100,1024,1024,1024,1024,1,FALSE,FALSE,FALSE,FALSE,FALSE,0,FALSE,FALSE,FALSE,FALSE,44,7.332,889,2050,7.361,FALSE,3.677,3.655,0.022,FALSE,FALSE,NA,119.3,119.3,119.3,0,0,0,0,5,3033.4,758.35,,Idle,0,20,FALSE,5,TRUE,11,Go Home,FALSE,FALSE,FALSE,FALSE,FALSE,FALSE,FALSE,FALSE,FALSE,FALSE,FALSE,FALSE,6.972864339,79.91593037,1.1,207.9,328,TRUE,1,1,FALSE,FALSE,FALSE,FALSE,,TRUE,FALSE,FALSE,Course Lock,49.2,,16.4,Calm,37,,1.12.8,Mavic Mini,1SDCH7G0169R0K,1SFLH6Q0AB03DJ,1SRCH7F014TAHX,1U5X071EXP5ZJG,75.5,0.2,59,12.819008,4.697574,0,2552,Mavic Mini,1SDCH7G0169R0K,1SFLH6Q0AB03DJ,1SRCH7F014TAHX,1U5X071EXP5ZJG,DJI Fly,,1.12.8,8B531F96-A082-C3E3-2C29-FF988D997279,1SDCH7G0169R0K,,,,,,,,,
2/25/2024,15:58.9,13m 5.0s,785,6.972861587,79.91593189,0,0,0.3,57,0.2,0,0,0,0,0,0,0,0,5,2.3,-29.1,330.9,,Manual Takeoff,Other,Takeoff (RC Assisted),16,5,TRUE,,Mavic Mini,TRUE,FALSE,,Smart,RC,TRUE,TRUE,FALSE,,,TRUE,,FALSE,FALSE,FALSE,FALSE,FALSE,FALSE,FALSE,FALSE,FALSE,FALSE,0,Follow Yaw,0,0,-20.8,339.2,FALSE,FALSE,FALSE,FALSE,FALSE,FALSE,,TRUE,Normal,,100,1024,1024,1024,1024,1,FALSE,FALSE,FALSE,FALSE,FALSE,0,FALSE,FALSE,FALSE,FALSE,44,7.332,889,2050,7.361,FALSE,3.677,3.655,0.022,FALSE,FALSE,NA,119.3,119.3,119.3,0,0,0,0,5,3033.4,758.35,,Idle,0,20,FALSE,5,TRUE,11,Go Home,FALSE,FALSE,FALSE,FALSE,FALSE,FALSE,FALSE,FALSE,FALSE,FALSE,FALSE,FALSE,6.972864339,79.91593037,1.1,207.9,328,TRUE,1,1,FALSE,FALSE,FALSE,FALSE,,TRUE,FALSE,FALSE,Course Lock,49.2,,16.4,Calm,37,,1.12.8,Mavic Mini,1SDCH7G0169R0K,1SFLH6Q0AB03DJ,1SRCH7F014TAHX,1U5X071EXP5ZJG,75.5,0.2,59,12.819008,4.697574,0,2552,Mavic Mini,1SDCH7G0169R0K,1SFLH6Q0AB03DJ,1SRCH7F014TAHX,1U5X071EXP5ZJG,DJI Fly,,1.12.8,8B531F96-A082-C3E3-2C29-FF988D997279,1SDCH7G0169R0K,,,,,,,,,
2/25/2024,15:59.0,13m 5.1s,785.1,6.972861584,79.91593189,0,0,0.3,57,0.2,0,0,0,0,0,0,0,0,5,2.3,-29.1,330.9,,Manual Takeoff,Other,Takeoff (RC Assisted),16,5,TRUE,,Mavic Mini,TRUE,FALSE,,Smart,RC,TRUE,TRUE,FALSE,,,TRUE,,FALSE,FALSE,FALSE,FALSE,FALSE,FALSE,FALSE,FALSE,FALSE,FALSE,0,Follow Yaw,0,0,-20.8,339.2,FALSE,FALSE,FALSE,FALSE,FALSE,FALSE,,TRUE,Normal,,100,1024,1024,1024,1024,1,FALSE,FALSE,FALSE,FALSE,FALSE,0,FALSE,FALSE,FALSE,FALSE,44,7.332,889,2050,7.361,FALSE,3.677,3.655,0.022,FALSE,FALSE,NA,119.3,119.3,119.3,0,0,0,0,5,3033.4,758.35,,Idle,0,20,FALSE,5,TRUE,11,Go Home,FALSE,FALSE,FALSE,FALSE,FALSE,FALSE,FALSE,FALSE,FALSE,FALSE,FALSE,FALSE,6.972864339,79.91593037,1.1,207.9,328,TRUE,1,1,FALSE,FALSE,FALSE,FALSE,,TRUE,FALSE,FALSE,Course Lock,49.2,,16.4,Calm,37,,1.12.8,Mavic Mini,1SDCH7G0169R0K,1SFLH6Q0AB03DJ,1SRCH7F014TAHX,1U5X071EXP5ZJG,75.5,0.2,59,12.819008,4.697574,0,2552,Mavic Mini,1SDCH7G0169R0K,1SFLH6Q0AB03DJ,1SRCH7F014TAHX,1U5X071EXP5ZJG,DJI Fly,,1.12.8,8B531F96-A082-C3E3-2C29-FF988D997279,1SDCH7G0169R0K,,,,,,,,,
2/25/2024,15:59.1,13m 5.2s,785.2,6.972861579,79.91593188,0,0,0.3,57,0.2,0,0,0,0,0,0,0,0,5,2.3,-29.1,330.9,,Manual Takeoff,Other,Takeoff (RC Assisted),16,5,TRUE,,Mavic Mini,TRUE,FALSE,,Smart,RC,TRUE,TRUE,FALSE,,,TRUE,,FALSE,FALSE,FALSE,FALSE,FALSE,FALSE,FALSE,FALSE,FALSE,FALSE,0,Follow Yaw,0,0,-20.8,339.2,FALSE,FALSE,FALSE,FALSE,FALSE,FALSE,,TRUE,Normal,,100,1024,1024,1024,1024,1,FALSE,FALSE,FALSE,FALSE,FALSE,0,FALSE,FALSE,FALSE,FALSE,44,7.332,889,2050,7.361,FALSE,3.677,3.655,0.022,FALSE,FALSE,NA,119.3,119.3,119.3,0,0,0,0,5,3033.4,758.35,,Idle,0,20,FALSE,5,TRUE,11,Go Home,FALSE,FALSE,FALSE,FALSE,FALSE,FALSE,FALSE,FALSE,FALSE,FALSE,FALSE,FALSE,6.972864339,79.91593037,1.1,207.9,328,TRUE,1,1,FALSE,FALSE,FALSE,FALSE,,TRUE,FALSE,FALSE,Course Lock,49.2,,16.4,Calm,37,,1.12.8,Mavic Mini,1SDCH7G0169R0K,1SFLH6Q0AB03DJ,1SRCH7F014TAHX,1U5X071EXP5ZJG,75.5,0.2,59,12.819008,4.697574,0,2552,Mavic Mini,1SDCH7G0169R0K,1SFLH6Q0AB03DJ,1SRCH7F014TAHX,1U5X071EXP5ZJG,DJI Fly,,1.12.8,8B531F96-A082-C3E3-2C29-FF988D997279,1SDCH7G0169R0K,,,,,,,,,
2/25/2024,15:59.2,13m 5.3s,785.3,6.972861541,79.91593188,0,0,0.3,57,0.2,0,0,0,0,0,0,0,0,5,2.3,-29.1,330.9,,Manual Takeoff,Other,Takeoff (RC Assisted),16,5,TRUE,,Mavic Mini,TRUE,FALSE,,Smart,RC,TRUE,TRUE,FALSE,,,TRUE,,FALSE,FALSE,FALSE,FALSE,FALSE,FALSE,FALSE,FALSE,FALSE,FALSE,0,Follow Yaw,0,0,-20.8,339.2,FALSE,FALSE,FALSE,FALSE,FALSE,FALSE,,TRUE,Normal,,100,1024,1024,1024,1024,1,FALSE,FALSE,FALSE,FALSE,FALSE,0,FALSE,FALSE,FALSE,FALSE,44,7.332,889,2050,7.361,FALSE,3.677,3.655,0.022,FALSE,FALSE,NA,119.3,119.3,119.3,0,0,0,0,5,3033.4,758.35,,Idle,0,20,FALSE,5,TRUE,11,Go Home,FALSE,FALSE,FALSE,FALSE,FALSE,FALSE,FALSE,FALSE,FALSE,FALSE,FALSE,FALSE,6.972864339,79.91593037,1.1,207.9,328,TRUE,1,1,FALSE,FALSE,FALSE,FALSE,,TRUE,FALSE,FALSE,Course Lock,49.2,,16.4,Calm,37,,1.12.8,Mavic Mini,1SDCH7G0169R0K,1SFLH6Q0AB03DJ,1SRCH7F014TAHX,1U5X071EXP5ZJG,75.5,0.2,59,12.819008,4.697574,0,2552,Mavic Mini,1SDCH7G0169R0K,1SFLH6Q0AB03DJ,1SRCH7F014TAHX,1U5X071EXP5ZJG,DJI Fly,,1.12.8,8B531F96-A082-C3E3-2C29-FF988D997279,1SDCH7G0169R0K,,,,,,,,,
2/25/2024,15:59.3,13m 5.4s,785.4,6.972861426,79.91593188,0,0,0.3,57,0.2,0,0,0,0,0,0,0,0,5,2.3,-29.1,330.9,,Manual Takeoff,Other,Takeoff (RC Assisted),16,5,TRUE,,Mavic Mini,TRUE,FALSE,,Smart,RC,TRUE,TRUE,FALSE,,,TRUE,,FALSE,FALSE,FALSE,FALSE,FALSE,FALSE,FALSE,FALSE,FALSE,FALSE,0,Follow Yaw,0,0,-20.8,339.2,FALSE,FALSE,FALSE,FALSE,FALSE,FALSE,,TRUE,Normal,,100,1024,1024,1024,1024,1,FALSE,FALSE,FALSE,FALSE,FALSE,0,FALSE,FALSE,FALSE,FALSE,44,7.359,888,2050,7.361,FALSE,3.681,3.679,0.022,FALSE,FALSE,NA,119.3,119.3,119.3,0,0,0,0,5,3033.4,758.35,,Idle,0,20,FALSE,5,TRUE,11,Go Home,FALSE,FALSE,FALSE,FALSE,FALSE,FALSE,FALSE,FALSE,FALSE,FALSE,FALSE,FALSE,6.972864339,79.91593037,1.1,207.9,328,TRUE,1,1,FALSE,FALSE,FALSE,FALSE,,TRUE,FALSE,FALSE,Course Lock,49.2,,16.4,Calm,37,,1.12.8,Mavic Mini,1SDCH7G0169R0K,1SFLH6Q0AB03DJ,1SRCH7F014TAHX,1U5X071EXP5ZJG,75.5,0.2,59,12.819008,4.697574,0,2552,Mavic Mini,1SDCH7G0169R0K,1SFLH6Q0AB03DJ,1SRCH7F014TAHX,1U5X071EXP5ZJG,DJI Fly,,1.12.8,8B531F96-A082-C3E3-2C29-FF988D997279,1SDCH7G0169R0K,,,,,6.972816107,79.91596263,5,,
2/25/2024,15:59.3,13m 5.5s,785.5,6.972861394,79.91593188,0,0,0.3,57,0.2,0,0,0,0,0,0,0,0,5,2.3,-29,331,,Manual Takeoff,Other,Takeoff (RC Assisted),16,5,TRUE,,Mavic Mini,TRUE,FALSE,,Smart,RC,TRUE,TRUE,FALSE,,,TRUE,,FALSE,FALSE,FALSE,FALSE,FALSE,FALSE,FALSE,FALSE,FALSE,FALSE,0,Follow Yaw,0,0,-20.8,339.2,FALSE,FALSE,FALSE,FALSE,FALSE,FALSE,,TRUE,Normal,,100,1024,1024,1024,1024,1,FALSE,FALSE,FALSE,FALSE,FALSE,0,FALSE,FALSE,FALSE,FALSE,44,7.359,888,2050,7.346,FALSE,3.681,3.679,0.022,FALSE,FALSE,NA,119.3,119.3,119.3,0,0,0,0,5,3121.4,780.36,,Idle,0,20,FALSE,5,TRUE,11,Go Home,FALSE,FALSE,FALSE,FALSE,FALSE,FALSE,FALSE,FALSE,FALSE,FALSE,FALSE,FALSE,6.972864339,79.91593037,1.2,207.9,328,TRUE,1,1,FALSE,FALSE,FALSE,FALSE,,TRUE,FALSE,FALSE,Course Lock,49.2,,16.4,Calm,37,,1.12.8,Mavic Mini,1SDCH7G0169R0K,1SFLH6Q0AB03DJ,1SRCH7F014TAHX,1U5X071EXP5ZJG,75.5,0.2,59,12.819008,4.697574,0,2552,Mavic Mini,1SDCH7G0169R0K,1SFLH6Q0AB03DJ,1SRCH7F014TAHX,1U5X071EXP5ZJG,DJI Fly,,1.12.8,8B531F96-A082-C3E3-2C29-FF988D997279,1SDCH7G0169R0K,,,,,6.972816107,79.91596263,5,,
2/25/2024,15:59.4,13m 5.6s,785.6,6.972861373,79.91593188,0,0,0.3,57,0.2,0,0,0,0,0,0,0,0,5,2.3,-29.1,330.9,,Manual Takeoff,Other,Takeoff (RC Assisted),16,5,TRUE,,Mavic Mini,TRUE,FALSE,,Smart,RC,TRUE,TRUE,FALSE,,,TRUE,,FALSE,FALSE,FALSE,FALSE,FALSE,FALSE,FALSE,FALSE,FALSE,FALSE,0,Follow Yaw,0,0,-20.8,339.2,FALSE,FALSE,FALSE,FALSE,FALSE,FALSE,,TRUE,Normal,,100,1024,1024,1024,1024,1,FALSE,FALSE,FALSE,FALSE,FALSE,0,FALSE,FALSE,FALSE,FALSE,44,7.359,888,2050,7.346,FALSE,3.681,3.679,0.022,FALSE,FALSE,NA,119.3,119.3,119.3,0,0,0,0,5,3121.4,780.36,,Idle,0,20,FALSE,5,TRUE,11,Go Home,FALSE,FALSE,FALSE,FALSE,FALSE,FALSE,FALSE,FALSE,FALSE,FALSE,FALSE,FALSE,6.972864339,79.91593037,1.2,207.9,328,TRUE,1,1,FALSE,FALSE,FALSE,FALSE,,TRUE,FALSE,FALSE,Course Lock,49.2,,16.4,Calm,37,,1.12.8,Mavic Mini,1SDCH7G0169R0K,1SFLH6Q0AB03DJ,1SRCH7F014TAHX,1U5X071EXP5ZJG,75.5,0.2,59,12.819008,4.697574,0,2552,Mavic Mini,1SDCH7G0169R0K,1SFLH6Q0AB03DJ,1SRCH7F014TAHX,1U5X071EXP5ZJG,DJI Fly,,1.12.8,8B531F96-A082-C3E3-2C29-FF988D997279,1SDCH7G0169R0K,,,,,6.972816107,79.91596263,5,,
2/25/2024,15:59.5,13m 5.7s,785.7,6.972861366,79.91593188,0,0,0.3,57,0.2,0,0,0,0,0,0,0,0,5,2.3,-29.1,330.9,,Manual Takeoff,Other,Takeoff (RC Assisted),16,5,TRUE,,Mavic Mini,TRUE,FALSE,,Smart,RC,TRUE,TRUE,FALSE,,,TRUE,,FALSE,FALSE,FALSE,FALSE,FALSE,FALSE,FALSE,FALSE,FALSE,FALSE,0,Follow Yaw,0,0,-20.8,339.2,FALSE,FALSE,FALSE,FALSE,FALSE,FALSE,,TRUE,Normal,,100,1024,1024,1054,1024,1,FALSE,FALSE,FALSE,FALSE,FALSE,0,FALSE,FALSE,FALSE,FALSE,44,7.359,888,2050,7.346,FALSE,3.681,3.679,0.022,FALSE,FALSE,NA,119.3,119.3,119.3,0,0,0,0,5,3121.4,780.36,,Idle,0,20,FALSE,5,TRUE,11,Go Home,FALSE,FALSE,FALSE,FALSE,FALSE,FALSE,FALSE,FALSE,FALSE,FALSE,FALSE,FALSE,6.972864339,79.91593037,1.2,207.9,328,TRUE,1,1,FALSE,FALSE,FALSE,FALSE,,TRUE,FALSE,FALSE,Course Lock,49.2,,16.4,Calm,37,,1.12.8,Mavic Mini,1SDCH7G0169R0K,1SFLH6Q0AB03DJ,1SRCH7F014TAHX,1U5X071EXP5ZJG,75.5,0.2,59,12.819008,4.697574,0,2552,Mavic Mini,1SDCH7G0169R0K,1SFLH6Q0AB03DJ,1SRCH7F014TAHX,1U5X071EXP5ZJG,DJI Fly,,1.12.8,8B531F96-A082-C3E3-2C29-FF988D997279,1SDCH7G0169R0K,,,,,6.972816107,79.91596263,5,,
2/25/2024,15:59.6,13m 5.8s,785.8,6.972861413,79.91593189,0,0,0.3,57,0.3,0,0,0,0,0,0,0,0,5,2.3,-29.1,330.9,,Manual Takeoff,Other,Takeoff (RC Assisted),16,5,TRUE,,Mavic Mini,TRUE,FALSE,,Smart,RC,TRUE,TRUE,FALSE,,,TRUE,,FALSE,FALSE,FALSE,FALSE,FALSE,FALSE,FALSE,FALSE,FALSE,FALSE,0,Follow Yaw,0,0,-20.8,339.2,FALSE,FALSE,FALSE,FALSE,FALSE,FALSE,,TRUE,Normal,,100,1024,1024,1126,1024,1,FALSE,FALSE,FALSE,FALSE,FALSE,0,FALSE,FALSE,FALSE,FALSE,44,7.359,888,2050,7.346,FALSE,3.681,3.679,0.022,FALSE,FALSE,NA,119.3,119.3,119.3,0,0,0,0,5,3121.4,780.36,,Idle,0,20,FALSE,5,TRUE,11,Go Home,FALSE,FALSE,FALSE,FALSE,FALSE,FALSE,FALSE,FALSE,FALSE,FALSE,FALSE,FALSE,6.972864339,79.91593037,1.2,207.9,328,TRUE,1,1,FALSE,FALSE,FALSE,FALSE,,TRUE,FALSE,FALSE,Course Lock,49.2,,16.4,Calm,37,,1.12.8,Mavic Mini,1SDCH7G0169R0K,1SFLH6Q0AB03DJ,1SRCH7F014TAHX,1U5X071EXP5ZJG,75.5,0.2,59,12.819008,4.697574,0,2552,Mavic Mini,1SDCH7G0169R0K,1SFLH6Q0AB03DJ,1SRCH7F014TAHX,1U5X071EXP5ZJG,DJI Fly,,1.12.8,8B531F96-A082-C3E3-2C29-FF988D997279,1SDCH7G0169R0K,,,,,6.972816107,79.91596263,5,,
2/25/2024,15:59.7,13m 5.9s,785.9,6.972861418,79.91593189,0,0,0.3,57,0.3,0,0,0,0,0,0,0,0,5,2.3,-29.1,330.9,,Manual Takeoff,Other,Takeoff (RC Assisted),16,5,TRUE,,Mavic Mini,TRUE,FALSE,,Smart,RC,TRUE,TRUE,FALSE,,,TRUE,,FALSE,FALSE,FALSE,FALSE,FALSE,FALSE,FALSE,FALSE,FALSE,FALSE,0,Follow Yaw,0,0,-20.8,339.2,FALSE,FALSE,FALSE,FALSE,FALSE,FALSE,,TRUE,Normal,,100,1024,1024,1243,1024,1,FALSE,FALSE,FALSE,FALSE,FALSE,0,FALSE,FALSE,FALSE,FALSE,44,7.359,888,2050,7.346,FALSE,3.681,3.679,0.022,FALSE,FALSE,NA,119.3,119.3,119.3,0,0,0,0,5,3121.4,780.36,,Idle,0,20,FALSE,5,TRUE,11,Go Home,FALSE,FALSE,FALSE,FALSE,FALSE,FALSE,FALSE,FALSE,FALSE,FALSE,FALSE,FALSE,6.972864339,79.91593037,1.1,207.9,328,TRUE,1,1,FALSE,FALSE,FALSE,FALSE,,TRUE,FALSE,FALSE,Course Lock,49.2,,16.4,Calm,37,,1.12.8,Mavic Mini,1SDCH7G0169R0K,1SFLH6Q0AB03DJ,1SRCH7F014TAHX,1U5X071EXP5ZJG,75.5,0.2,59,12.819008,4.697574,0,2552,Mavic Mini,1SDCH7G0169R0K,1SFLH6Q0AB03DJ,1SRCH7F014TAHX,1U5X071EXP5ZJG,DJI Fly,,1.12.8,8B531F96-A082-C3E3-2C29-FF988D997279,1SDCH7G0169R0K,,,,,6.972816107,79.91596263,5,,
2/25/2024,15:59.9,13m 6.0s,786,6.972861424,79.91593189,0,0,0.3,57,0.3,0,0,0,0,0,0,0,0,4.8,1.8,-29.1,330.9,,Manual Takeoff,Other,Takeoff (RC Assisted),16,5,TRUE,,Mavic Mini,TRUE,FALSE,,Smart,RC,TRUE,TRUE,FALSE,,,TRUE,,FALSE,FALSE,FALSE,FALSE,FALSE,FALSE,FALSE,FALSE,FALSE,FALSE,0,Follow Yaw,0,0,-20.8,339.2,FALSE,FALSE,FALSE,FALSE,FALSE,FALSE,,TRUE,Normal,,100,1024,1024,1306,1024,1,FALSE,FALSE,FALSE,FALSE,FALSE,0,FALSE,FALSE,FALSE,FALSE,44,7.359,888,2050,7.346,FALSE,3.681,3.679,0.022,FALSE,FALSE,NA,119.3,119.3,119.3,0,0,0,0,5,3121.4,780.36,,Idle,0,20,FALSE,5,TRUE,11,Go Home,FALSE,FALSE,FALSE,FALSE,FALSE,FALSE,FALSE,FALSE,FALSE,FALSE,FALSE,FALSE,6.972864339,79.91593037,1.1,207.9,328,TRUE,1,1,FALSE,FALSE,FALSE,FALSE,,TRUE,FALSE,FALSE,Course Lock,49.2,,16.4,Calm,37,,1.12.8,Mavic Mini,1SDCH7G0169R0K,1SFLH6Q0AB03DJ,1SRCH7F014TAHX,1U5X071EXP5ZJG,75.5,0.2,59,12.819008,4.697574,0,2552,Mavic Mini,1SDCH7G0169R0K,1SFLH6Q0AB03DJ,1SRCH7F014TAHX,1U5X071EXP5ZJG,DJI Fly,,1.12.8,8B531F96-A082-C3E3-2C29-FF988D997279,1SDCH7G0169R0K,,,,,6.972816107,79.91596263,5,,
2/25/2024,16:00.0,13m 6.1s,786.1,6.972861428,79.91593188,0,0,0.3,57,0.3,0,0,0,0,0,0,0,0,4.4,0.4,-29.2,330.8,,Manual Takeoff,Other,Takeoff (RC Assisted),16,5,TRUE,,Mavic Mini,TRUE,FALSE,,Smart,RC,TRUE,TRUE,FALSE,,,TRUE,,FALSE,FALSE,FALSE,FALSE,FALSE,FALSE,FALSE,FALSE,FALSE,FALSE,0,Follow Yaw,0,0,-20.8,339.2,FALSE,FALSE,FALSE,FALSE,FALSE,FALSE,,TRUE,Normal,,100,1024,1024,1365,1024,1,FALSE,FALSE,FALSE,FALSE,FALSE,0,FALSE,FALSE,FALSE,FALSE,44,7.359,888,2050,7.346,FALSE,3.681,3.679,0.022,FALSE,FALSE,NA,119.3,119.3,119.3,0,0,0,0,5,3121.4,780.36,,Idle,0,20,FALSE,5,TRUE,11,Go Home,FALSE,FALSE,FALSE,FALSE,FALSE,FALSE,FALSE,FALSE,FALSE,FALSE,FALSE,FALSE,6.972864339,79.91593037,1.1,207.9,328,TRUE,1,1,FALSE,FALSE,FALSE,FALSE,,TRUE,FALSE,FALSE,Course Lock,49.2,,16.4,Calm,37,,1.12.8,Mavic Mini,1SDCH7G0169R0K,1SFLH6Q0AB03DJ,1SRCH7F014TAHX,1U5X071EXP5ZJG,75.5,0.2,59,12.819008,4.697574,0,2552,Mavic Mini,1SDCH7G0169R0K,1SFLH6Q0AB03DJ,1SRCH7F014TAHX,1U5X071EXP5ZJG,DJI Fly,,1.12.8,8B531F96-A082-C3E3-2C29-FF988D997279,1SDCH7G0169R0K,,,,,6.972816107,79.91596263,5,,
2/25/2024,16:00.1,13m 6.2s,786.2,6.972861479,79.91593188,0,0,0.3,57,0.3,0,0,0,0,0,0,0,0,4.3,-0.1,-29.2,330.8,,Manual Takeoff,Other,Takeoff (RC Assisted),16,5,TRUE,,Mavic Mini,TRUE,FALSE,,Smart,RC,TRUE,TRUE,FALSE,,,TRUE,,FALSE,FALSE,FALSE,FALSE,FALSE,FALSE,FALSE,FALSE,FALSE,FALSE,0,Follow Yaw,0,0,-20.8,339.2,FALSE,FALSE,FALSE,FALSE,FALSE,FALSE,,TRUE,Normal,,100,1024,1024,1476,1024,1,FALSE,FALSE,FALSE,FALSE,FALSE,0,FALSE,FALSE,FALSE,FALSE,44,7.359,888,2050,7.346,FALSE,3.681,3.679,0.022,FALSE,FALSE,NA,119.3,119.3,119.3,0,0,0,0,5,3121.4,780.36,,Idle,0,20,FALSE,5,TRUE,11,Go Home,FALSE,FALSE,FALSE,FALSE,FALSE,FALSE,FALSE,FALSE,FALSE,FALSE,FALSE,FALSE,6.972864339,79.91593037,1.1,207.9,328,TRUE,1,1,FALSE,FALSE,FALSE,FALSE,,TRUE,FALSE,FALSE,Course Lock,49.2,,16.4,Calm,37,,1.12.8,Mavic Mini,1SDCH7G0169R0K,1SFLH6Q0AB03DJ,1SRCH7F014TAHX,1U5X071EXP5ZJG,75.5,0.2,59,12.819008,4.697574,0,2552,Mavic Mini,1SDCH7G0169R0K,1SFLH6Q0AB03DJ,1SRCH7F014TAHX,1U5X071EXP5ZJG,DJI Fly,,1.12.8,8B531F96-A082-C3E3-2C29-FF988D997279,1SDCH7G0169R0K,,,,,6.972816107,79.91596263,5,,
2/25/2024,16:00.1,13m 6.3s,786.3,6.972861445,79.91593187,0,0,0.3,57,0.3,0,0,0,0,0,0,0,0,4.3,-0.2,-29.2,330.8,,Manual Takeoff,Other,Takeoff (RC Assisted),16,5,TRUE,,Mavic Mini,TRUE,FALSE,,Smart,RC,TRUE,TRUE,FALSE,,,TRUE,,FALSE,FALSE,FALSE,FALSE,FALSE,FALSE,FALSE,FALSE,FALSE,FALSE,0,Follow Yaw,0,0,-20.8,339.2,FALSE,FALSE,FALSE,FALSE,FALSE,FALSE,,TRUE,Normal,,100,1024,1024,1569,1024,1,FALSE,FALSE,FALSE,FALSE,FALSE,0,FALSE,FALSE,FALSE,FALSE,44,7.359,888,2050,7.346,FALSE,3.681,3.679,0.022,FALSE,FALSE,NA,119.3,119.3,119.3,0,0,0,0,5,3121.4,780.36,,Idle,0,20,FALSE,5,TRUE,11,Go Home,FALSE,FALSE,FALSE,FALSE,FALSE,FALSE,FALSE,FALSE,FALSE,FALSE,FALSE,FALSE,6.972864339,79.91593037,1.1,207.9,328,TRUE,1,1,FALSE,FALSE,FALSE,FALSE,,TRUE,FALSE,FALSE,Course Lock,49.2,,16.4,Calm,37,,1.12.8,Mavic Mini,1SDCH7G0169R0K,1SFLH6Q0AB03DJ,1SRCH7F014TAHX,1U5X071EXP5ZJG,75.5,0.2,59,12.819008,4.697574,0,2552,Mavic Mini,1SDCH7G0169R0K,1SFLH6Q0AB03DJ,1SRCH7F014TAHX,1U5X071EXP5ZJG,DJI Fly,,1.12.8,8B531F96-A082-C3E3-2C29-FF988D997279,1SDCH7G0169R0K,,,,,6.972816107,79.91596263,5,,
2/25/2024,16:00.2,13m 6.4s,786.4,6.972861391,79.91593186,0,0,0.3,57,0.3,0,0,0,0,0,0,0,0,4.3,-0.4,-29.4,330.6,,Manual Takeoff,Other,Takeoff (RC Assisted),16,5,TRUE,,Mavic Mini,TRUE,FALSE,,Smart,RC,TRUE,TRUE,FALSE,,,TRUE,,FALSE,FALSE,FALSE,FALSE,FALSE,FALSE,FALSE,FALSE,FALSE,FALSE,0,Follow Yaw,0,0,-20.8,339.2,FALSE,FALSE,FALSE,FALSE,FALSE,FALSE,,TRUE,Normal,,100,1024,1024,1569,1024,1,FALSE,FALSE,FALSE,FALSE,FALSE,0,FALSE,FALSE,FALSE,FALSE,44,7.359,888,2050,7.346,FALSE,3.681,3.679,0.022,FALSE,FALSE,NA,119.3,119.3,119.3,0,0,0,0,5,3121.4,780.36,,Idle,0,20,FALSE,5,TRUE,11,Go Home,FALSE,FALSE,FALSE,FALSE,FALSE,FALSE,FALSE,FALSE,FALSE,FALSE,FALSE,FALSE,6.972864339,79.91593037,1.2,207.9,328,TRUE,1,1,FALSE,FALSE,FALSE,FALSE,,TRUE,FALSE,FALSE,Course Lock,49.2,,16.4,Calm,37,,1.12.8,Mavic Mini,1SDCH7G0169R0K,1SFLH6Q0AB03DJ,1SRCH7F014TAHX,1U5X071EXP5ZJG,75.5,0.2,59,12.819008,4.697574,0,2552,Mavic Mini,1SDCH7G0169R0K,1SFLH6Q0AB03DJ,1SRCH7F014TAHX,1U5X071EXP5ZJG,DJI Fly,,1.12.8,8B531F96-A082-C3E3-2C29-FF988D997279,1SDCH7G0169R0K,,,,,6.972816107,79.91596263,5,,
2/25/2024,16:00.3,13m 6.5s,786.5,6.972861357,79.91593185,0,0,0.3,57,0.3,0,0,0,0,0,0,0,0,4,-0.7,-29.9,330.1,,Manual Takeoff,Other,Takeoff (RC Assisted),16,5,TRUE,,Mavic Mini,TRUE,FALSE,,Smart,RC,TRUE,TRUE,FALSE,,,TRUE,,FALSE,FALSE,FALSE,FALSE,FALSE,FALSE,FALSE,FALSE,FALSE,FALSE,0,Follow Yaw,0,0,-20.9,339.1,FALSE,FALSE,FALSE,FALSE,FALSE,FALSE,,TRUE,Normal,,100,1024,1024,1663,1024,1,FALSE,FALSE,FALSE,FALSE,FALSE,0,FALSE,FALSE,FALSE,FALSE,44,7.297,888,2050,7.331,FALSE,3.651,3.646,0.022,FALSE,FALSE,NA,119.3,119.3,119.3,0,0,0,0,5,3121.4,780.36,,Idle,0,20,FALSE,5,TRUE,11,Go Home,FALSE,FALSE,FALSE,FALSE,FALSE,FALSE,FALSE,FALSE,FALSE,FALSE,FALSE,FALSE,6.972864339,79.91593037,1.2,207.9,328,TRUE,1,1,FALSE,FALSE,FALSE,FALSE,,TRUE,FALSE,FALSE,Course Lock,49.2,,16.4,Calm,37,,1.12.8,Mavic Mini,1SDCH7G0169R0K,1SFLH6Q0AB03DJ,1SRCH7F014TAHX,1U5X071EXP5ZJG,75.5,0.2,59,12.819008,4.697574,0,2552,Mavic Mini,1SDCH7G0169R0K,1SFLH6Q0AB03DJ,1SRCH7F014TAHX,1U5X071EXP5ZJG,DJI Fly,,1.12.8,8B531F96-A082-C3E3-2C29-FF988D997279,1SDCH7G0169R0K,,,,,6.972816107,79.91596263,5,,
2/25/2024,16:00.4,13m 6.6s,786.6,6.972861283,79.91593184,0,0,0.3,57,0.4,0,0,0,0,0,0,0,0,2,-1.5,-30.1,329.9,,Manual Takeoff,Other,Takeoff (RC Assisted),16,5,TRUE,,Mavic Mini,TRUE,FALSE,,Smart,RC,TRUE,TRUE,FALSE,,,TRUE,,FALSE,FALSE,FALSE,FALSE,FALSE,FALSE,FALSE,FALSE,FALSE,FALSE,0,Follow Yaw,0,0,-21.1,338.9,FALSE,FALSE,FALSE,FALSE,FALSE,FALSE,,TRUE,Normal,,100,1024,1024,1684,1024,1,FALSE,FALSE,FALSE,FALSE,FALSE,0,FALSE,FALSE,FALSE,FALSE,44,7.297,888,2050,7.331,FALSE,3.651,3.646,0.022,FALSE,FALSE,NA,119.3,119.3,119.3,0,0,0,0,5,3121.4,780.36,,Idle,0,20,FALSE,5,TRUE,11,Go Home,FALSE,FALSE,FALSE,FALSE,FALSE,FALSE,FALSE,FALSE,FALSE,FALSE,FALSE,FALSE,6.972864339,79.91593037,1.2,207.9,328,TRUE,1,1,FALSE,FALSE,FALSE,FALSE,,TRUE,FALSE,FALSE,Course Lock,49.2,,16.4,Calm,37,,1.12.8,Mavic Mini,1SDCH7G0169R0K,1SFLH6Q0AB03DJ,1SRCH7F014TAHX,1U5X071EXP5ZJG,75.5,0.2,59,12.819008,4.697574,0,2552,Mavic Mini,1SDCH7G0169R0K,1SFLH6Q0AB03DJ,1SRCH7F014TAHX,1U5X071EXP5ZJG,DJI Fly,,1.12.8,8B531F96-A082-C3E3-2C29-FF988D997279,1SDCH7G0169R0K,,,,,6.972816107,79.91596263,5,,
2/25/2024,16:00.6,13m 6.7s,786.7,6.972861277,79.91593182,0,0,0.3,57,0.4,0,0,0,0,0,0,0,0,-0.6,-2.2,-30.6,329.4,,Manual Takeoff,Other,Takeoff (RC Assisted),16,5,TRUE,,Mavic Mini,TRUE,FALSE,,Smart,RC,TRUE,TRUE,FALSE,,,TRUE,,FALSE,FALSE,FALSE,FALSE,FALSE,FALSE,FALSE,FALSE,FALSE,FALSE,0,Follow Yaw,0,0,-21.4,338.6,FALSE,FALSE,FALSE,FALSE,FALSE,FALSE,,TRUE,Normal,,100,1024,1024,1684,1024,1,FALSE,FALSE,FALSE,FALSE,FALSE,0,FALSE,FALSE,FALSE,FALSE,44,7.297,888,2050,7.331,FALSE,3.651,3.646,0.022,FALSE,FALSE,NA,119.3,119.3,119.3,0,0,0,0,5,3121.4,780.36,,Idle,0,20,FALSE,5,TRUE,11,Go Home,FALSE,FALSE,FALSE,FALSE,FALSE,FALSE,FALSE,FALSE,FALSE,FALSE,FALSE,FALSE,6.972864339,79.91593037,1.2,207.9,328,TRUE,1,1,FALSE,FALSE,FALSE,FALSE,,TRUE,FALSE,FALSE,Course Lock,49.2,,16.4,Calm,37,,1.12.8,Mavic Mini,1SDCH7G0169R0K,1SFLH6Q0AB03DJ,1SRCH7F014TAHX,1U5X071EXP5ZJG,75.5,0.2,59,12.819008,4.697574,0,2552,Mavic Mini,1SDCH7G0169R0K,1SFLH6Q0AB03DJ,1SRCH7F014TAHX,1U5X071EXP5ZJG,DJI Fly,,1.12.8,8B531F96-A082-C3E3-2C29-FF988D997279,1SDCH7G0169R0K,,,,,6.972816107,79.91596263,5,,
2/25/2024,16:00.6,13m 6.8s,786.8,6.972861272,79.91593175,0,0,0.3,57,0.4,0.223694,0.223694,0,0,-0.223694,0,0,0,-0.9,-2.8,-31.9,328.1,265,Manual Takeoff,Other,Takeoff (RC Assisted),16,5,TRUE,,Mavic Mini,TRUE,FALSE,,Smart,RC,TRUE,TRUE,FALSE,,,TRUE,,FALSE,FALSE,FALSE,FALSE,FALSE,FALSE,FALSE,FALSE,FALSE,FALSE,0,Follow Yaw,0,0,-22.2,337.8,FALSE,FALSE,FALSE,FALSE,FALSE,FALSE,,TRUE,Normal,,100,1024,1024,1684,1024,1,FALSE,FALSE,FALSE,FALSE,FALSE,0,FALSE,FALSE,FALSE,FALSE,44,7.297,888,2050,7.331,FALSE,3.651,3.646,0.022,FALSE,FALSE,NA,119.3,119.3,119.3,0,0,0,0,5,3121.4,780.36,,Idle,0,20,FALSE,5,TRUE,11,Go Home,FALSE,FALSE,FALSE,FALSE,FALSE,FALSE,FALSE,FALSE,FALSE,FALSE,FALSE,FALSE,6.972864339,79.91593037,1.2,207.9,328,TRUE,1,1,FALSE,FALSE,FALSE,FALSE,,TRUE,FALSE,FALSE,Course Lock,49.2,,16.4,Calm,37,,1.12.8,Mavic Mini,1SDCH7G0169R0K,1SFLH6Q0AB03DJ,1SRCH7F014TAHX,1U5X071EXP5ZJG,75.5,0.2,59,12.819008,4.697574,0,2552,Mavic Mini,1SDCH7G0169R0K,1SFLH6Q0AB03DJ,1SRCH7F014TAHX,1U5X071EXP5ZJG,DJI Fly,,1.12.8,8B531F96-A082-C3E3-2C29-FF988D997279,1SDCH7G0169R0K,,,,,6.972816107,79.91596263,5,,
2/25/2024,16:00.7,13m 6.9s,786.9,6.972861268,79.91593162,0,0,0.3,57,0.4,0.223694,0.223694,0,0,-0.223694,0,-0.223694,0,-1.3,-2.1,-32.7,327.3,267.4,P-GPS,Other,,16,5,TRUE,,Mavic Mini,TRUE,FALSE,,Smart,RC,FALSE,TRUE,FALSE,,,TRUE,,FALSE,FALSE,FALSE,FALSE,FALSE,FALSE,FALSE,FALSE,FALSE,FALSE,0,Follow Yaw,0,0,-23.3,336.7,FALSE,FALSE,FALSE,FALSE,FALSE,FALSE,,TRUE,Normal,,100,1024,1024,1684,1024,1,FALSE,FALSE,FALSE,FALSE,FALSE,0,FALSE,FALSE,FALSE,FALSE,44,7.297,888,2050,7.331,FALSE,3.651,3.646,0.022,FALSE,FALSE,NA,119.3,119.3,119.3,0,0,0,0,5,3121.4,780.36,,Idle,0,20,FALSE,5,TRUE,11,Go Home,FALSE,FALSE,FALSE,FALSE,FALSE,FALSE,FALSE,FALSE,FALSE,FALSE,FALSE,FALSE,6.972864339,79.91593037,1.2,207.9,328,TRUE,1,1,FALSE,FALSE,FALSE,FALSE,,TRUE,FALSE,FALSE,Course Lock,49.2,,16.4,Calm,37,,1.12.8,Mavic Mini,1SDCH7G0169R0K,1SFLH6Q0AB03DJ,1SRCH7F014TAHX,1U5X071EXP5ZJG,75.5,0.2,59,12.819008,4.697574,0,2552,Mavic Mini,1SDCH7G0169R0K,1SFLH6Q0AB03DJ,1SRCH7F014TAHX,1U5X071EXP5ZJG,DJI Fly,,1.12.8,8B531F96-A082-C3E3-2C29-FF988D997279,1SDCH7G0169R0K,,,,,6.972816107,79.91596263,5,Flight mode changed to P-GPS.,
2/25/2024,16:00.8,13m 7.0s,787,6.972861272,79.91593141,0,0,0.3,57,0.5,0.447388,0.447388,0,0,-0.447388,0,-0.671082,0,1.2,-0.6,-32.9,327.1,271.3,P-GPS,Other,,16,5,TRUE,,Mavic Mini,TRUE,FALSE,,Smart,RC,FALSE,TRUE,FALSE,,,TRUE,,FALSE,FALSE,FALSE,FALSE,FALSE,FALSE,FALSE,FALSE,FALSE,FALSE,0,Follow Yaw,0,0,-23.5,336.5,FALSE,FALSE,FALSE,FALSE,FALSE,FALSE,,TRUE,Normal,,100,1024,1024,1684,1024,1,FALSE,FALSE,FALSE,FALSE,FALSE,0,FALSE,FALSE,FALSE,FALSE,44,7.297,888,2050,7.331,FALSE,3.651,3.646,0.022,FALSE,FALSE,NA,119.3,119.3,119.3,0,0,0,0,5,3121.4,780.36,,Idle,0,20,FALSE,5,TRUE,11,Go Home,FALSE,FALSE,FALSE,FALSE,FALSE,FALSE,FALSE,FALSE,FALSE,FALSE,FALSE,FALSE,6.972864339,79.91593037,1.1,207.9,328,TRUE,1,1,FALSE,FALSE,FALSE,FALSE,,TRUE,FALSE,FALSE,Course Lock,49.2,,16.4,Calm,37,,1.12.8,Mavic Mini,1SDCH7G0169R0K,1SFLH6Q0AB03DJ,1SRCH7F014TAHX,1U5X071EXP5ZJG,75.5,0.2,59,12.819008,4.697574,0,2552,Mavic Mini,1SDCH7G0169R0K,1SFLH6Q0AB03DJ,1SRCH7F014TAHX,1U5X071EXP5ZJG,DJI Fly,,1.12.8,8B531F96-A082-C3E3-2C29-FF988D997279,1SDCH7G0169R0K,,,,,6.972816107,79.91596263,5,,
2/25/2024,16:00.9,13m 7.1s,787.1,6.972861312,79.91593118,0,0,0.6,57,0.6,0.447388,0.447388,0,0,-0.447388,0,-1.11847,0,2.1,1.1,-32.5,327.5,282.4,P-GPS,Other,,16,5,TRUE,,Mavic Mini,TRUE,FALSE,,Smart,RC,FALSE,TRUE,FALSE,,,TRUE,,FALSE,FALSE,FALSE,FALSE,FALSE,FALSE,FALSE,FALSE,FALSE,FALSE,0,Follow Yaw,0,0,-23.5,336.5,FALSE,FALSE,FALSE,FALSE,FALSE,FALSE,,TRUE,Normal,,100,1024,1024,1684,1024,1,FALSE,FALSE,FALSE,FALSE,FALSE,0,FALSE,FALSE,FALSE,FALSE,44,7.297,888,2050,7.331,FALSE,3.651,3.646,0.022,FALSE,FALSE,NA,119.3,119.3,119.3,0,0,0,0,5,3121.4,780.36,,Idle,0,20,FALSE,5,TRUE,11,Go Home,FALSE,FALSE,FALSE,FALSE,FALSE,FALSE,FALSE,FALSE,FALSE,FALSE,FALSE,FALSE,6.972864339,79.91593037,1.1,207.9,328,TRUE,1,1,FALSE,FALSE,FALSE,FALSE,,TRUE,FALSE,FALSE,Course Lock,49.2,,16.4,Calm,37,,1.12.8,Mavic Mini,1SDCH7G0169R0K,1SFLH6Q0AB03DJ,1SRCH7F014TAHX,1U5X071EXP5ZJG,75.5,0.2,59,12.819008,4.697574,0,2552,Mavic Mini,1SDCH7G0169R0K,1SFLH6Q0AB03DJ,1SRCH7F014TAHX,1U5X071EXP5ZJG,DJI Fly,,1.12.8,8B531F96-A082-C3E3-2C29-FF988D997279,1SDCH7G0169R0K,,,,,6.972816107,79.91596263,5,,
2/25/2024,16:01.0,13m 7.2s,787.2,6.972861277,79.91593091,0.3,0.3,0.6,57,0.7,0.447388,0.447388,0,0,-0.447388,0,-1.789552,0,2.2,2.2,-32.2,327.8,260.6,P-GPS,Other,,16,5,TRUE,,Mavic Mini,TRUE,FALSE,,Smart,RC,FALSE,TRUE,FALSE,,,TRUE,,FALSE,FALSE,FALSE,FALSE,FALSE,FALSE,FALSE,FALSE,FALSE,FALSE,0,Follow Yaw,0,0,-23.5,336.5,FALSE,FALSE,FALSE,FALSE,FALSE,FALSE,,TRUE,Normal,,100,1024,1024,1684,1024,1,FALSE,FALSE,FALSE,FALSE,FALSE,0,FALSE,FALSE,FALSE,FALSE,44,7.297,888,2050,7.331,FALSE,3.651,3.646,0.022,FALSE,FALSE,NA,119.3,119.3,119.3,0,0,0,0,5,3121.4,780.36,,Idle,0,20,FALSE,5,TRUE,11,Go Home,FALSE,FALSE,FALSE,FALSE,FALSE,FALSE,FALSE,FALSE,FALSE,FALSE,FALSE,FALSE,6.972864339,79.91593037,1.1,207.9,328,TRUE,1,1,FALSE,FALSE,FALSE,FALSE,,TRUE,FALSE,FALSE,Course Lock,49.2,,16.4,Calm,37,,1.12.8,Mavic Mini,1SDCH7G0169R0K,1SFLH6Q0AB03DJ,1SRCH7F014TAHX,1U5X071EXP5ZJG,75.5,0.2,59,12.819008,4.697574,0,2552,Mavic Mini,1SDCH7G0169R0K,1SFLH6Q0AB03DJ,1SRCH7F014TAHX,1U5X071EXP5ZJG,DJI Fly,,1.12.8,8B531F96-A082-C3E3-2C29-FF988D997279,1SDCH7G0169R0K,,,,,6.972816107,79.91596263,5,,
2/25/2024,16:01.2,13m 7.3s,787.3,6.972861242,79.91593068,0.6,0.6,0.9,58,0.8,0.223694,0.447388,0,0,-0.223694,0,-2.23694,0,2,2,-32.1,327.9,258.5,P-GPS,Other,,16,5,TRUE,,Mavic Mini,TRUE,FALSE,,Smart,RC,FALSE,TRUE,FALSE,,,TRUE,,FALSE,FALSE,FALSE,FALSE,FALSE,FALSE,FALSE,FALSE,FALSE,FALSE,0,Follow Yaw,0,0,-23.5,336.5,FALSE,FALSE,FALSE,FALSE,FALSE,FALSE,,TRUE,Normal,,100,1024,1024,1684,1024,1,FALSE,FALSE,FALSE,FALSE,FALSE,0,FALSE,FALSE,FALSE,FALSE,44,7.297,888,2050,7.331,FALSE,3.651,3.646,0.022,FALSE,FALSE,NA,119.3,119.3,119.3,0,0,0,0,5,3121.4,780.36,,Idle,0,20,FALSE,5,TRUE,11,Go Home,FALSE,FALSE,FALSE,FALSE,FALSE,FALSE,FALSE,FALSE,FALSE,FALSE,FALSE,FALSE,6.972864339,79.91593037,1.1,207.9,328,TRUE,1,1,FALSE,FALSE,FALSE,FALSE,,TRUE,FALSE,FALSE,Course Lock,49.2,,16.4,Calm,37,,1.12.8,Mavic Mini,1SDCH7G0169R0K,1SFLH6Q0AB03DJ,1SRCH7F014TAHX,1U5X071EXP5ZJG,75.5,0.2,59,12.819008,4.697574,0,2552,Mavic Mini,1SDCH7G0169R0K,1SFLH6Q0AB03DJ,1SRCH7F014TAHX,1U5X071EXP5ZJG,DJI Fly,,1.12.8,8B531F96-A082-C3E3-2C29-FF988D997279,1SDCH7G0169R0K,,,,,6.972816107,79.91596263,5,,
2/25/2024,16:01.3,13m 7.4s,787.4,6.972861214,79.91593047,0.9,0.9,1.6,58,0.9,0.223694,0.447388,0,0,-0.223694,0,-2.908022,0,2.3,1.1,-31.9,328.1,260.1,P-GPS,Other,,16,5,TRUE,,Mavic Mini,TRUE,FALSE,,Smart,RC,FALSE,TRUE,FALSE,,,TRUE,,FALSE,FALSE,FALSE,FALSE,FALSE,FALSE,FALSE,FALSE,FALSE,FALSE,0,Follow Yaw,0,0,-23.5,336.5,FALSE,FALSE,FALSE,FALSE,FALSE,FALSE,,TRUE,Normal,,100,1024,1024,1684,1024,1,FALSE,FALSE,FALSE,FALSE,FALSE,0,FALSE,FALSE,FALSE,FALSE,44,7.297,888,2050,7.331,FALSE,3.651,3.646,0.022,FALSE,FALSE,NA,119.3,119.3,119.3,0,0,0,0,5,3121.4,780.36,,Idle,0,20,FALSE,5,TRUE,11,Go Home,FALSE,FALSE,FALSE,FALSE,FALSE,FALSE,FALSE,FALSE,FALSE,FALSE,FALSE,FALSE,6.972864339,79.91593037,1.1,207.9,328,TRUE,1,1,FALSE,FALSE,FALSE,FALSE,,TRUE,FALSE,FALSE,Course Lock,49.2,,16.4,Calm,37,,1.12.8,Mavic Mini,1SDCH7G0169R0K,1SFLH6Q0AB03DJ,1SRCH7F014TAHX,1U5X071EXP5ZJG,75.5,0.2,59,12.819008,4.697574,0,2552,Mavic Mini,1SDCH7G0169R0K,1SFLH6Q0AB03DJ,1SRCH7F014TAHX,1U5X071EXP5ZJG,DJI Fly,,1.12.8,8B531F96-A082-C3E3-2C29-FF988D997279,1SDCH7G0169R0K,,,,,6.97281661,79.91595534,5,,
2/25/2024,16:01.4,13m 7.5s,787.5,6.972861157,79.91593019,1.6,1.6,1.9,59,1,0.223694,0.447388,0,0,-0.223694,0,-3.35541,0,3.3,1.3,-32,328,255.4,P-GPS,Other,,16,5,TRUE,,Mavic Mini,TRUE,FALSE,,Smart,RC,FALSE,TRUE,FALSE,,,TRUE,,FALSE,FALSE,FALSE,FALSE,FALSE,FALSE,FALSE,FALSE,FALSE,FALSE,0,Follow Yaw,0,0,-23.5,336.5,FALSE,FALSE,FALSE,FALSE,FALSE,FALSE,,TRUE,Normal,,100,1024,1024,1684,1024,1,FALSE,FALSE,FALSE,FALSE,FALSE,0,FALSE,FALSE,FALSE,FALSE,44,7.297,888,2050,7.304,FALSE,3.651,3.646,0.022,FALSE,FALSE,NA,119.3,119.3,119.3,0,0,4,0,5,3288.4,822.12,,Idle,0,20,FALSE,5,TRUE,11,Go Home,FALSE,FALSE,FALSE,FALSE,FALSE,FALSE,FALSE,FALSE,FALSE,FALSE,FALSE,FALSE,6.972861269,79.91593165,0.5,207.9,328,TRUE,1,1,FALSE,FALSE,FALSE,FALSE,,TRUE,FALSE,FALSE,Course Lock,49.2,,16.4,Calm,37,,1.12.8,Mavic Mini,1SDCH7G0169R0K,1SFLH6Q0AB03DJ,1SRCH7F014TAHX,1U5X071EXP5ZJG,75.5,0.2,59,12.819008,4.697574,0,2552,Mavic Mini,1SDCH7G0169R0K,1SFLH6Q0AB03DJ,1SRCH7F014TAHX,1U5X071EXP5ZJG,DJI Fly,,1.12.8,8B531F96-A082-C3E3-2C29-FF988D997279,1SDCH7G0169R0K,,,,,6.97281661,79.91595534,5,Home Point Updated.,
2/25/2024,16:01.5,13m 7.6s,787.6,6.972861147,79.91593007,1.9,1.9,2.6,59,1,0,0.447388,0,0,0,0,-4.026492,0,1.5,1.9,-32,328,,P-GPS,Other,,16,5,TRUE,,Mavic Mini,TRUE,FALSE,,Smart,RC,FALSE,TRUE,FALSE,,,TRUE,,FALSE,FALSE,FALSE,FALSE,FALSE,FALSE,FALSE,FALSE,FALSE,FALSE,0,Follow Yaw,0,0,-23.5,336.5,FALSE,FALSE,FALSE,FALSE,FALSE,FALSE,,TRUE,Normal,,100,1024,1024,1684,1024,1,FALSE,FALSE,FALSE,FALSE,FALSE,0,FALSE,FALSE,FALSE,FALSE,44,7.297,888,2050,7.304,FALSE,3.651,3.646,0.022,FALSE,FALSE,NA,119.3,119.3,119.3,0,0,4,0,5,3288.4,822.12,,Idle,0,20,FALSE,5,TRUE,11,Go Home,FALSE,FALSE,FALSE,FALSE,FALSE,FALSE,FALSE,FALSE,FALSE,FALSE,FALSE,FALSE,6.972861269,79.91593165,0.5,207.9,328,TRUE,1,1,FALSE,FALSE,FALSE,FALSE,,TRUE,FALSE,FALSE,Course Lock,49.2,,16.4,Calm,37,,1.12.8,Mavic Mini,1SDCH7G0169R0K,1SFLH6Q0AB03DJ,1SRCH7F014TAHX,1U5X071EXP5ZJG,75.5,0.2,59,12.819008,4.697574,0,2552,Mavic Mini,1SDCH7G0169R0K,1SFLH6Q0AB03DJ,1SRCH7F014TAHX,1U5X071EXP5ZJG,DJI Fly,,1.12.8,8B531F96-A082-C3E3-2C29-FF988D997279,1SDCH7G0169R0K,,,,,6.97281661,79.91595534,5,,
2/25/2024,16:01.6,13m 7.7s,787.7,6.972861127,79.91593,2.6,2.6,3.2,60,1,0,0.447388,0,0,0,0,-4.47388,0,0.6,2.5,-32,328,,P-GPS,Other,,16,5,TRUE,,Mavic Mini,TRUE,FALSE,,Smart,RC,FALSE,TRUE,FALSE,,,TRUE,,FALSE,FALSE,FALSE,FALSE,FALSE,FALSE,FALSE,FALSE,FALSE,FALSE,0,Follow Yaw,0,0,-23.5,336.5,FALSE,FALSE,FALSE,FALSE,FALSE,FALSE,,TRUE,Normal,,100,1024,1024,1684,1024,1,FALSE,FALSE,FALSE,FALSE,FALSE,0,FALSE,FALSE,FALSE,FALSE,44,7.104,886,2050,7.304,FALSE,3.553,3.551,0.022,FALSE,FALSE,NA,119.3,119.3,119.3,0,0,4,0,5,3288.4,822.12,,Idle,0,20,FALSE,5,TRUE,11,Go Home,FALSE,FALSE,FALSE,FALSE,FALSE,FALSE,FALSE,FALSE,FALSE,FALSE,FALSE,FALSE,6.972861269,79.91593165,0.6,207.9,328,TRUE,1,1,FALSE,FALSE,FALSE,FALSE,,TRUE,FALSE,FALSE,Course Lock,49.2,,16.4,Calm,37,,1.12.8,Mavic Mini,1SDCH7G0169R0K,1SFLH6Q0AB03DJ,1SRCH7F014TAHX,1U5X071EXP5ZJG,75.5,0.2,59,12.819008,4.697574,0,2552,Mavic Mini,1SDCH7G0169R0K,1SFLH6Q0AB03DJ,1SRCH7F014TAHX,1U5X071EXP5ZJG,DJI Fly,,1.12.8,8B531F96-A082-C3E3-2C29-FF988D997279,1SDCH7G0169R0K,,,,,6.97281661,79.91595534,5,,
2/25/2024,16:01.6,13m 7.8s,787.8,6.972861112,79.91592996,3.2,3.2,3.9,60,1.1,0,0.447388,0,0,0,0,-4.47388,0,0.3,1.7,-32.2,327.8,,P-GPS,Other,,17,5,TRUE,,Mavic Mini,TRUE,FALSE,,Smart,RC,FALSE,TRUE,FALSE,,,TRUE,,FALSE,FALSE,FALSE,FALSE,FALSE,FALSE,FALSE,FALSE,FALSE,FALSE,0,Follow Yaw,0,0,-23.5,336.5,FALSE,FALSE,FALSE,FALSE,FALSE,FALSE,,TRUE,Normal,,100,1024,1024,1684,1024,1,FALSE,FALSE,FALSE,FALSE,FALSE,0,FALSE,FALSE,FALSE,FALSE,44,7.104,886,2050,7.304,FALSE,3.553,3.551,0.022,FALSE,FALSE,NA,119.3,119.3,119.3,0,0,4,0,5,3288.4,822.12,,Idle,0,20,FALSE,5,TRUE,11,Go Home,FALSE,FALSE,FALSE,FALSE,FALSE,FALSE,FALSE,FALSE,FALSE,FALSE,FALSE,FALSE,6.972861269,79.91593165,0.6,207.9,328,TRUE,1,1,FALSE,FALSE,FALSE,FALSE,,TRUE,FALSE,FALSE,Course Lock,49.2,,16.4,Calm,37,,1.12.8,Mavic Mini,1SDCH7G0169R0K,1SFLH6Q0AB03DJ,1SRCH7F014TAHX,1U5X071EXP5ZJG,75.5,0.2,59,12.819008,4.697574,0,2552,Mavic Mini,1SDCH7G0169R0K,1SFLH6Q0AB03DJ,1SRCH7F014TAHX,1U5X071EXP5ZJG,DJI Fly,,1.12.8,8B531F96-A082-C3E3-2C29-FF988D997279,1SDCH7G0169R0K,,,,,6.97281661,79.91595534,5,,
2/25/2024,16:01.7,13m 7.9s,787.9,6.972861237,79.91593016,3.9,3.9,4.5,61,1.1,0,0.447388,0,0,0,0,-4.697574,0,-0.1,1.6,-32.3,327.7,,P-GPS,Other,,17,5,TRUE,,Mavic Mini,TRUE,FALSE,,Smart,RC,FALSE,TRUE,FALSE,,,TRUE,,FALSE,FALSE,FALSE,FALSE,FALSE,FALSE,FALSE,FALSE,FALSE,FALSE,0,Follow Yaw,0,0,-23.5,336.5,FALSE,FALSE,FALSE,FALSE,FALSE,FALSE,,TRUE,Normal,,100,1024,1024,1684,1024,1,FALSE,FALSE,FALSE,FALSE,FALSE,0,FALSE,FALSE,FALSE,FALSE,44,7.104,886,2050,7.304,FALSE,3.553,3.551,0.022,FALSE,FALSE,NA,119.3,119.3,119.3,0,0,4,0,5,3288.4,822.12,,Idle,0,20,FALSE,5,TRUE,11,Go Home,FALSE,FALSE,FALSE,FALSE,FALSE,FALSE,FALSE,FALSE,FALSE,FALSE,FALSE,FALSE,6.972861269,79.91593165,0.5,207.9,328,TRUE,1,1,FALSE,FALSE,FALSE,FALSE,,TRUE,FALSE,FALSE,Course Lock,49.2,,16.4,Calm,37,,1.12.8,Mavic Mini,1SDCH7G0169R0K,1SFLH6Q0AB03DJ,1SRCH7F014TAHX,1U5X071EXP5ZJG,75.5,0.2,59,12.819008,4.697574,0,2552,Mavic Mini,1SDCH7G0169R0K,1SFLH6Q0AB03DJ,1SRCH7F014TAHX,1U5X071EXP5ZJG,DJI Fly,,1.12.8,8B531F96-A082-C3E3-2C29-FF988D997279,1SDCH7G0169R0K,,,,,6.97281661,79.91595534,5,,
2/25/2024,16:01.8,13m 8.0s,788,6.972861265,79.91593026,4.5,4.5,5.2,62,1.2,0,0.447388,0,0,0,0,-4.697574,0,-0.6,1.6,-32.3,327.7,,P-GPS,Other,,18,5,TRUE,,Mavic Mini,TRUE,FALSE,,Smart,RC,FALSE,TRUE,FALSE,,,TRUE,,FALSE,FALSE,FALSE,FALSE,FALSE,FALSE,FALSE,FALSE,FALSE,FALSE,0,Follow Yaw,0,0,-23.5,336.5,FALSE,FALSE,FALSE,FALSE,FALSE,FALSE,,TRUE,Normal,,100,1024,1024,1607,1024,1,FALSE,FALSE,FALSE,FALSE,FALSE,0,FALSE,FALSE,FALSE,FALSE,44,7.104,886,2050,7.304,FALSE,3.553,3.551,0.022,FALSE,FALSE,NA,119.3,119.3,119.3,0,0,4,0,5,3288.4,822.12,,Idle,0,20,FALSE,5,TRUE,11,Go Home,FALSE,FALSE,FALSE,FALSE,FALSE,FALSE,FALSE,FALSE,FALSE,FALSE,FALSE,FALSE,6.972861269,79.91593165,0.5,207.9,328,TRUE,1,1,FALSE,FALSE,FALSE,FALSE,,TRUE,FALSE,FALSE,Course Lock,49.2,,16.4,Calm,37,,1.12.8,Mavic Mini,1SDCH7G0169R0K,1SFLH6Q0AB03DJ,1SRCH7F014TAHX,1U5X071EXP5ZJG,75.5,0.2,59,12.819008,4.697574,0,2552,Mavic Mini,1SDCH7G0169R0K,1SFLH6Q0AB03DJ,1SRCH7F014TAHX,1U5X071EXP5ZJG,DJI Fly,,1.12.8,8B531F96-A082-C3E3-2C29-FF988D997279,1SDCH7G0169R0K,,,,,6.97281661,79.91595534,5,,
2/25/2024,16:01.9,13m 8.1s,788.1,6.972861258,79.9159303,5.2,5.2,5.9,62,1.2,0,0.447388,0,0,0,0,-4.697574,0,-0.1,1.8,-32.3,327.7,,P-GPS,Other,,18,5,TRUE,,Mavic Mini,TRUE,FALSE,,Smart,RC,FALSE,TRUE,FALSE,,,TRUE,,FALSE,FALSE,FALSE,FALSE,FALSE,FALSE,FALSE,FALSE,FALSE,FALSE,0,Follow Yaw,0,0,-23.5,336.5,FALSE,FALSE,FALSE,FALSE,FALSE,FALSE,,TRUE,Normal,,100,1024,1024,1367,1024,1,FALSE,FALSE,FALSE,FALSE,FALSE,0,FALSE,FALSE,FALSE,FALSE,44,7.104,886,2050,7.304,FALSE,3.553,3.551,0.022,FALSE,FALSE,NA,119.3,119.3,119.3,0,0,4,0,5,3288.4,822.12,,Idle,0,20,FALSE,5,TRUE,11,Go Home,FALSE,FALSE,FALSE,FALSE,FALSE,FALSE,FALSE,FALSE,FALSE,FALSE,FALSE,FALSE,6.972861269,79.91593165,0.4,207.9,328,TRUE,1,1,FALSE,FALSE,FALSE,FALSE,,TRUE,FALSE,FALSE,Course Lock,49.2,,16.4,Calm,37,,1.12.8,Mavic Mini,1SDCH7G0169R0K,1SFLH6Q0AB03DJ,1SRCH7F014TAHX,1U5X071EXP5ZJG,75.5,0.2,59,12.819008,4.697574,0,2552,Mavic Mini,1SDCH7G0169R0K,1SFLH6Q0AB03DJ,1SRCH7F014TAHX,1U5X071EXP5ZJG,DJI Fly,,1.12.8,8B531F96-A082-C3E3-2C29-FF988D997279,1SDCH7G0169R0K,,,,,6.97281661,79.91595534,5,,
2/25/2024,16:02.0,13m 8.2s,788.2,6.972861241,79.91593033,5.9,5.9,6.8,63,1.2,0,0.447388,0,0,0,0,-4.697574,0,-0.3,1.8,-32.4,327.6,,P-GPS,Other,,18,5,TRUE,,Mavic Mini,TRUE,FALSE,,Smart,RC,FALSE,TRUE,FALSE,,,TRUE,,FALSE,FALSE,FALSE,FALSE,FALSE,FALSE,FALSE,FALSE,FALSE,FALSE,0,Follow Yaw,0,0,-23.5,336.5,FALSE,FALSE,FALSE,FALSE,FALSE,FALSE,,TRUE,Normal,,100,1024,1024,1323,1024,1,FALSE,FALSE,FALSE,FALSE,FALSE,0,FALSE,FALSE,FALSE,FALSE,44,7.104,886,2050,7.304,FALSE,3.553,3.551,0.022,FALSE,FALSE,NA,119.3,119.3,119.3,0,0,4,0,5,3288.4,822.12,,Idle,0,20,FALSE,5,TRUE,11,Go Home,FALSE,FALSE,FALSE,FALSE,FALSE,FALSE,FALSE,FALSE,FALSE,FALSE,FALSE,FALSE,6.972861269,79.91593165,0.4,207.9,328,TRUE,1,1,FALSE,FALSE,FALSE,FALSE,,TRUE,FALSE,FALSE,Course Lock,49.2,,16.4,Calm,37,,1.12.8,Mavic Mini,1SDCH7G0169R0K,1SFLH6Q0AB03DJ,1SRCH7F014TAHX,1U5X071EXP5ZJG,75.5,0.2,59,12.819008,4.697574,0,2552,Mavic Mini,1SDCH7G0169R0K,1SFLH6Q0AB03DJ,1SRCH7F014TAHX,1U5X071EXP5ZJG,DJI Fly,,1.12.8,8B531F96-A082-C3E3-2C29-FF988D997279,1SDCH7G0169R0K,,,,,6.97281661,79.91595534,5,,
2/25/2024,16:02.2,13m 8.3s,788.3,6.972861332,79.91593039,6.5,6.5,7.5,63,1.2,0,0.447388,0,0,0,0,-4.47388,0,0,1.6,-32.4,327.6,,P-GPS,Other,,18,5,TRUE,,Mavic Mini,TRUE,FALSE,,Smart,RC,FALSE,TRUE,FALSE,,,TRUE,,FALSE,FALSE,FALSE,FALSE,FALSE,FALSE,FALSE,FALSE,FALSE,FALSE,0,Follow Yaw,0,0,-23.5,336.5,FALSE,FALSE,FALSE,FALSE,FALSE,FALSE,,TRUE,Normal,,100,1024,1024,1324,1024,1,FALSE,FALSE,FALSE,FALSE,FALSE,0,FALSE,FALSE,FALSE,FALSE,44,7.104,886,2050,7.304,FALSE,3.553,3.551,0.022,FALSE,FALSE,NA,119.3,119.3,119.3,0,0,4,0,5,3288.4,822.12,,Idle,0,20,FALSE,5,TRUE,11,Go Home,FALSE,FALSE,FALSE,FALSE,FALSE,FALSE,FALSE,FALSE,FALSE,FALSE,FALSE,FALSE,6.972861269,79.91593165,0.4,207.9,328,TRUE,1,1,FALSE,FALSE,FALSE,FALSE,,TRUE,FALSE,FALSE,Course Lock,49.2,,16.4,Calm,37,,1.12.8,Mavic Mini,1SDCH7G0169R0K,1SFLH6Q0AB03DJ,1SRCH7F014TAHX,1U5X071EXP5ZJG,75.5,0.2,59,12.819008,4.697574,0,2552,Mavic Mini,1SDCH7G0169R0K,1SFLH6Q0AB03DJ,1SRCH7F014TAHX,1U5X071EXP5ZJG,DJI Fly,,1.12.8,8B531F96-A082-C3E3-2C29-FF988D997279,1SDCH7G0169R0K,,,,,6.97281661,79.91595534,5,,
2/25/2024,16:02.3,13m 8.4s,788.4,6.97286145,79.91593049,6.8,6.8,8.2,64,1.3,0,0.447388,0,0,0,0,-4.026492,0,0.2,1.4,-32.3,327.7,,P-GPS,Other,,17,5,TRUE,,Mavic Mini,TRUE,FALSE,,Smart,RC,FALSE,TRUE,FALSE,,,TRUE,,FALSE,FALSE,FALSE,FALSE,FALSE,FALSE,FALSE,FALSE,FALSE,FALSE,0,Follow Yaw,0,0,-23.5,336.5,FALSE,FALSE,FALSE,FALSE,FALSE,FALSE,,TRUE,Normal,,100,1024,1024,1324,1024,1,FALSE,FALSE,FALSE,FALSE,FALSE,0,FALSE,FALSE,FALSE,FALSE,44,7.104,886,2050,7.304,FALSE,3.553,3.551,0.022,FALSE,FALSE,NA,119.3,119.3,119.3,0,0,4,0,5,3288.4,822.12,,Idle,0,20,FALSE,5,TRUE,11,Go Home,FALSE,FALSE,FALSE,FALSE,FALSE,FALSE,FALSE,FALSE,FALSE,FALSE,FALSE,FALSE,6.972861269,79.91593165,0.4,207.9,328,TRUE,1,1,FALSE,FALSE,FALSE,FALSE,,TRUE,FALSE,FALSE,Course Lock,49.2,,16.4,Calm,37,,1.12.8,Mavic Mini,1SDCH7G0169R0K,1SFLH6Q0AB03DJ,1SRCH7F014TAHX,1U5X071EXP5ZJG,75.5,0.2,59,12.819008,4.697574,0,2552,Mavic Mini,1SDCH7G0169R0K,1SFLH6Q0AB03DJ,1SRCH7F014TAHX,1U5X071EXP5ZJG,DJI Fly,,1.12.8,8B531F96-A082-C3E3-2C29-FF988D997279,1SDCH7G0169R0K,,,,,6.97281661,79.91595534,5,,
2/25/2024,16:02.4,13m 8.5s,788.5,6.972861626,79.91593064,7.5,7.5,8.5,64,1.4,0,0.447388,0,0,0,0,-3.35541,0,0.3,0.6,-32.1,327.9,,P-GPS,Other,,17,5,TRUE,,Mavic Mini,TRUE,FALSE,,Smart,RC,FALSE,TRUE,FALSE,,,TRUE,,FALSE,FALSE,FALSE,FALSE,FALSE,FALSE,FALSE,FALSE,FALSE,FALSE,0,Follow Yaw,0,0,-23.5,336.5,FALSE,FALSE,FALSE,FALSE,FALSE,FALSE,,TRUE,Normal,,100,1024,1024,1310,1024,1,FALSE,FALSE,FALSE,FALSE,FALSE,0,FALSE,FALSE,FALSE,FALSE,44,7.104,886,2050,7.153,FALSE,3.553,3.551,0.022,FALSE,FALSE,NA,119.3,119.3,119.3,0,0,4,0,5,3968.7,992.19,,Idle,0,20,FALSE,5,TRUE,11,Go Home,FALSE,FALSE,FALSE,FALSE,FALSE,FALSE,FALSE,FALSE,FALSE,FALSE,FALSE,FALSE,6.972861269,79.91593165,0.3,207.9,328,TRUE,1,1,FALSE,FALSE,FALSE,FALSE,,TRUE,FALSE,FALSE,Course Lock,49.2,,16.4,Calm,37,,1.12.8,Mavic Mini,1SDCH7G0169R0K,1SFLH6Q0AB03DJ,1SRCH7F014TAHX,1U5X071EXP5ZJG,75.5,0.2,59,12.819008,4.697574,0,2552,Mavic Mini,1SDCH7G0169R0K,1SFLH6Q0AB03DJ,1SRCH7F014TAHX,1U5X071EXP5ZJG,DJI Fly,,1.12.8,8B531F96-A082-C3E3-2C29-FF988D997279,1SDCH7G0169R0K,,,,,6.97281661,79.91595534,5,,
2/25/2024,16:02.5,13m 8.6s,788.6,6.972861837,79.91593082,7.8,7.8,9.1,65,1.5,0,0.447388,0,0,0,0,-2.684328,0,0.2,0.2,-32.1,327.9,,P-GPS,Other,,18,5,TRUE,,Mavic Mini,TRUE,FALSE,,Smart,RC,FALSE,TRUE,FALSE,,,TRUE,,FALSE,FALSE,FALSE,FALSE,FALSE,FALSE,FALSE,FALSE,FALSE,FALSE,0,Follow Yaw,0,0,-23.5,336.5,FALSE,FALSE,FALSE,FALSE,FALSE,FALSE,,TRUE,Normal,,100,1024,1024,1308,1024,1,FALSE,FALSE,FALSE,FALSE,FALSE,0,FALSE,FALSE,FALSE,FALSE,44,7.104,886,2050,7.153,FALSE,3.553,3.551,0.022,FALSE,FALSE,NA,119.3,119.3,119.3,0,0,4,0,5,3968.7,992.19,,Idle,0,20,FALSE,5,TRUE,11,Go Home,FALSE,FALSE,FALSE,FALSE,FALSE,FALSE,FALSE,FALSE,FALSE,FALSE,FALSE,FALSE,6.972861269,79.91593165,0.3,207.9,328,TRUE,1,1,FALSE,FALSE,FALSE,FALSE,,TRUE,FALSE,FALSE,Course Lock,49.2,,16.4,Calm,37,,1.12.8,Mavic Mini,1SDCH7G0169R0K,1SFLH6Q0AB03DJ,1SRCH7F014TAHX,1U5X071EXP5ZJG,75.5,0.2,59,12.819008,4.697574,0,2552,Mavic Mini,1SDCH7G0169R0K,1SFLH6Q0AB03DJ,1SRCH7F014TAHX,1U5X071EXP5ZJG,DJI Fly,,1.12.8,8B531F96-A082-C3E3-2C29-FF988D997279,1SDCH7G0169R0K,,,,,6.97281661,79.91595534,5,,
