CUSTOM.date [local],CUSTOM.updateTime [local],OSD.flyTime,OSD.flyTime [s],OSD.latitude,OSD.longitude,OSD.height [ft],OSD.heightMax [ft],OSD.vpsHeight [ft],OSD.altitude [ft],OSD.mileage [ft],OSD.hSpeed [MPH],OSD.hSpeedMax [MPH],OSD.xSpeed [MPH],OSD.xSpeedMax [MPH],OSD.ySpeed [MPH],OSD.ySpeedMax [MPH],OSD.zSpeed [MPH],OSD.zSpeedMax [MPH],OSD.pitch,OSD.roll,OSD.yaw,OSD.yaw [360],OSD.directionOfTravel,OSD.flycState,OSD.flycCommand,OSD.flightAction,OSD.gpsNum,OSD.gpsLevel,OSD.isGPSUsed,OSD.nonGPSCause,OSD.droneType,OSD.isSwaveWork,OSD.waveError,OSD.goHomeStatus,OSD.batteryType,OSD.ctrlDevice,OSD.isOnGround,OSD.isMotorOn,OSD.isMotorBlocked,OSD.motorStartFailedCause,OSD.motorFailReason,OSD.isImuPreheated,OSD.imuInitFailReason,OSD.isAcceletorOverRange,OSD.isBarometerDeadInAir,OSD.isCompassError,OSD.isGoHomeHeightModified,OSD.canIOCWork,OSD.isNotEnoughForce,OSD.isOutOfLimit,OSD.isPropellerCatapult,OSD.isVibrating,OSD.isVisionUsed,OSD.voltageWarning,GIMBAL.mode,GIMBAL.pitch,GIMBAL.roll,GIMBAL.yaw,GIMBAL.yaw [360],GIMBAL.isPitchAtLimit,GIMBAL.isRollAtLimit,GIMBAL.isYawAtLimit,GIMBAL.isStuck,CAMERA.isPhoto,CAMERA.isVideo,CAMERA.filename,CAMERA.sdCardIsInserted,CAMERA.sdCardState,RC.downlinkSignal,RC.uplinkSignal,RC.aileron,RC.elevator,RC.throttle,RC.rudder,RC.mode,RC.goHomeDepressed,RC.recordDepressed,RC.shutterDepressed,RC.playbackDepressed,RC.wheelDepressed,RC.wheelOffset,RC.custom1Depressed,RC.custom2Depressed,RC.custom3Depressed,RC.custom4Depressed,BATTERY.chargeLevel,BATTERY.currentPV [V],BATTERY.currentCapacity [mAh],BATTERY.fullCapacity [mAh],BATTERY.voltage [V],BATTERY.isCellVoltageEstimated,BATTERY.cellVoltage1 [V],BATTERY.cellVoltage2 [V],BATTERY.maxCellVoltageDeviation,BATTERY.isCellVoltageDeviationHigh,BATTERY.isVoltageLow,BATTERY.current [A],BATTERY.temperature [F],BATTERY.minTemperature [F],BATTERY.maxTemperature [F],BATTERY.usefulTime [s],BATTERY.goHomeTime [s],BATTERY.landTime [s],BATTERY.goHomeBattery,BATTERY.landBattery,BATTERY.safeFlyRadius,BATTERY.volumeConsume,BATTERY.status,BATTERY.goHomeStatus,BATTERY.goHomeCountdown,BATTERY.lowWarning,BATTERY.lowWarningGoHome,BATTERY.seriousLowWarning,BATTERY.seriousLowWarningLanding,BATTERY.timesCharged,MC.failSafeAction,MC.isObstacleAvoidanceEnabled,MC.isCollisionAvoidanceEnabled,MC.isRthObstacleAvoidanceEnabled,MC.isBraking,MC.isAvoidingObstacle,MC.isAvoidingActiveObstacle,MC.isAscentLimitedByObstacle,MC.isLandingConfirmationNeeded,MC.atLowAltitudeLimit,MC.atDistanceLimit,MC.atAirportAltitudeLimit,MC.atAirportBoundary,HOME.latitude,HOME.longitude,HOME.distance [ft],HOME.height [ft],HOME.heightLimit [ft],HOME.isHomeRecord,HOME.goHomeMode,HOME.aircraftHeadDirection,HOME.isDynamicHomePointEnabled,HOME.isReachedLimitDistance,HOME.isReachedLimitHeight,HOME.isCompassCalibrating,HOME.compassCalibrationState,HOME.isMultipleFlightModeEnabled,HOME.isBeginnerMode,HOME.isIOCEnabled,HOME.iocMode,HOME.goHomeHeight [ft],HOME.courseLockAngle,HOME.forceLandingHeight [ft],HOME.wind,HOME.dataRecorderFileIndex,RECOVER.appType,RECOVER.appVersion,RECOVER.aircraftName,RECOVER.aircraftSerial,RECOVER.cameraSerial,RECOVER.rcSerial,RECOVER.batterySerial,DETAILS.totalTime [s],DETAILS.totalDistance [ft],DETAILS.maxHeight [ft],DETAILS.maxHorizontalSpeed [MPH],DETAILS.maxVerticalSpeed [MPH],DETAILS.photoNum,DETAILS.videoTime [s],DETAILS.aircraftName,DETAILS.aircraftSerial,DETAILS.cameraSerial,DETAILS.rcSerial,DETAILS.batterySerial,DETAILS.appName,DETAILS.appType,DETAILS.appVersion,DETAILS.guid,SERIAL.flightController,SERIAL.camera,SERIAL.gimbal,SERIAL.rc,SERIAL.battery,APPGPS.latitude,APPGPS.longitude,APPGPS.accuracy,APP.tip,APP.warning
2/14/2024,11:30.4,1m 29.9s,89.9,6.974255917,79.9140091,0,0,0.6,50,0,0,0,0,0,0,0,0,0,-2,-0.1,-51.4,308.6,,Starting Motors,Other,Takeoff (RC Assisted),13,5,TRUE,,Mavic Mini,FALSE,FALSE,,Smart,RC,TRUE,TRUE,FALSE,,,TRUE,,FALSE,FALSE,FALSE,FALSE,FALSE,FALSE,FALSE,FALSE,FALSE,FALSE,0,Follow Yaw,0,0,-40.3,319.7,FALSE,FALSE,FALSE,FALSE,FALSE,FALSE,,TRUE,Normal,,,1024,1024,1024,1024,2,FALSE,FALSE,FALSE,FALSE,FALSE,0,FALSE,FALSE,FALSE,FALSE,90,8.028,1935,2138,8.028,FALSE,4.017,4.011,0.006,FALSE,FALSE,NA,92.5,92.4,92.4,,,,,,,,,Idle,,,TRUE,,FALSE,5,Go Home,FALSE,FALSE,FALSE,FALSE,FALSE,FALSE,FALSE,FALSE,FALSE,FALSE,FALSE,FALSE,,,,,,FALSE,,,FALSE,FALSE,FALSE,FALSE,,FALSE,FALSE,FALSE,,,,,Calm,,,1.12.8,Mavic Mini,1SDCH7G0169R0K,1SFLH6Q0AB03DJ,1SRCH7F014TAHX,1U5X071EXP6C9Y,97.2,0.2,9.8,5.241374,2.23694,0,0,Mavic Mini,1SDCH7G0169R0K,1SFLH6Q0AB03DJ,1SRCH7F014TAHX,1U5X071EXP6C9Y,DJI Fly,,1.12.8,BDEB1FD3-67A5-0499-C395-306A497AC0AB,1SDCH7G0169R0K,,,,,,,,Flight mode changed to Starting Motors.,
2/14/2024,10:00.7,1m 30.0s,90,6.974255914,79.91400911,0,0,0.6,50,0,0,0,0,0,0,0,0,0,-2,-0.1,-51.4,308.6,,Starting Motors,Other,Takeoff (RC Assisted),13,5,TRUE,,Mavic Mini,FALSE,FALSE,,Smart,RC,TRUE,TRUE,FALSE,,,TRUE,,FALSE,FALSE,FALSE,FALSE,FALSE,FALSE,FALSE,FALSE,FALSE,FALSE,0,Follow Yaw,0,0,-40.3,319.7,FALSE,FALSE,FALSE,FALSE,FALSE,FALSE,,TRUE,Normal,,,1024,1024,1024,1024,2,FALSE,FALSE,FALSE,FALSE,FALSE,0,FALSE,FALSE,FALSE,FALSE,90,8.028,1935,2138,8.028,FALSE,4.017,4.011,0.006,FALSE,FALSE,NA,92.5,92.4,92.4,,,,,,,,,Idle,,,TRUE,,FALSE,5,Go Home,FALSE,FALSE,FALSE,FALSE,FALSE,FALSE,FALSE,FALSE,FALSE,FALSE,FALSE,FALSE,,,,,,FALSE,,,FALSE,FALSE,FALSE,FALSE,,FALSE,FALSE,FALSE,,,,,Calm,,,1.12.8,Mavic Mini,1SDCH7G0169R0K,1SFLH6Q0AB03DJ,1SRCH7F014TAHX,1U5X071EXP6C9Y,97.2,0.2,9.8,5.241374,2.23694,0,0,Mavic Mini,1SDCH7G0169R0K,1SFLH6Q0AB03DJ,1SRCH7F014TAHX,1U5X071EXP6C9Y,DJI Fly,,1.12.8,BDEB1FD3-67A5-0499-C395-306A497AC0AB,1SDCH7G0169R0K,,,,,,,,,
2/14/2024,10:00.7,1m 30.1s,90.1,6.974255992,79.91400918,0,0,0.3,50,0,0,0,0,0,0,0,0,0,-2,-0.1,-51.4,308.6,,Starting Motors,Other,Takeoff (RC Assisted),13,5,TRUE,,Mavic Mini,TRUE,FALSE,,Smart,RC,TRUE,TRUE,FALSE,,,TRUE,,FALSE,FALSE,FALSE,FALSE,FALSE,FALSE,FALSE,FALSE,FALSE,FALSE,0,Follow Yaw,0,0,-40.3,319.7,FALSE,FALSE,FALSE,FALSE,FALSE,FALSE,,TRUE,Normal,,,1024,1024,1024,1024,2,FALSE,FALSE,FALSE,FALSE,FALSE,0,FALSE,FALSE,FALSE,FALSE,90,8.028,1935,2138,8.028,FALSE,4.017,4.011,0.006,FALSE,FALSE,NA,92.5,92.4,92.4,,,,,,,,,Idle,,,TRUE,,FALSE,5,Go Home,FALSE,FALSE,FALSE,FALSE,FALSE,FALSE,FALSE,FALSE,FALSE,FALSE,FALSE,FALSE,,,,,,FALSE,,,FALSE,FALSE,FALSE,FALSE,,FALSE,FALSE,FALSE,,,,,Calm,,,1.12.8,Mavic Mini,1SDCH7G0169R0K,1SFLH6Q0AB03DJ,1SRCH7F014TAHX,1U5X071EXP6C9Y,97.2,0.2,9.8,5.241374,2.23694,0,0,Mavic Mini,1SDCH7G0169R0K,1SFLH6Q0AB03DJ,1SRCH7F014TAHX,1U5X071EXP6C9Y,DJI Fly,,1.12.8,BDEB1FD3-67A5-0499-C395-306A497AC0AB,1SDCH7G0169R0K,,,,,,,,,
2/14/2024,10:00.8,1m 30.2s,90.2,6.974255995,79.91400923,0,0,0.3,50,0,0,0,0,0,0,0,0,0,-2,-0.2,-51.4,308.6,,Starting Motors,Other,Takeoff (RC Assisted),13,5,TRUE,,Mavic Mini,TRUE,FALSE,,Smart,RC,TRUE,TRUE,FALSE,,,TRUE,,FALSE,FALSE,FALSE,FALSE,FALSE,FALSE,FALSE,FALSE,FALSE,FALSE,0,Follow Yaw,0,0,-40.3,319.7,FALSE,FALSE,FALSE,FALSE,FALSE,FALSE,,TRUE,Normal,,,1024,1024,1024,1024,2,FALSE,FALSE,FALSE,FALSE,FALSE,0,FALSE,FALSE,FALSE,FALSE,90,8.028,1935,2138,8.028,FALSE,4.017,4.011,0.006,FALSE,FALSE,NA,92.5,92.4,92.4,,,,,,,,,Idle,,,TRUE,,FALSE,5,Go Home,FALSE,FALSE,FALSE,FALSE,FALSE,FALSE,FALSE,FALSE,FALSE,FALSE,FALSE,FALSE,,,,,,FALSE,,,FALSE,FALSE,FALSE,FALSE,,FALSE,FALSE,FALSE,,,,,Calm,,,1.12.8,Mavic Mini,1SDCH7G0169R0K,1SFLH6Q0AB03DJ,1SRCH7F014TAHX,1U5X071EXP6C9Y,97.2,0.2,9.8,5.241374,2.23694,0,0,Mavic Mini,1SDCH7G0169R0K,1SFLH6Q0AB03DJ,1SRCH7F014TAHX,1U5X071EXP6C9Y,DJI Fly,,1.12.8,BDEB1FD3-67A5-0499-C395-306A497AC0AB,1SDCH7G0169R0K,,,,,,,,,
2/14/2024,10:00.9,1m 30.3s,90.3,6.974255997,79.91400926,0,0,0.3,50,0,0,0,0,0,0,0,0,0,-2,-0.2,-51.4,308.6,,Starting Motors,Other,Takeoff (RC Assisted),13,5,TRUE,,Mavic Mini,TRUE,FALSE,,Smart,RC,TRUE,TRUE,FALSE,,,TRUE,,FALSE,FALSE,FALSE,FALSE,FALSE,FALSE,FALSE,FALSE,FALSE,FALSE,0,Follow Yaw,0,0,-40.3,319.7,FALSE,FALSE,FALSE,FALSE,FALSE,FALSE,,TRUE,Normal,,100,1024,1024,1024,1024,2,FALSE,FALSE,FALSE,FALSE,FALSE,0,FALSE,FALSE,FALSE,FALSE,90,8.028,1935,2138,8.013,FALSE,4.017,4.011,0.006,FALSE,FALSE,NA,92.5,92.4,92.4,0,1,0,0,5,2517.9,629.49,,Idle,0,20,FALSE,5,TRUE,5,Go Home,FALSE,FALSE,FALSE,FALSE,FALSE,FALSE,FALSE,FALSE,FALSE,FALSE,FALSE,FALSE,6.974256829,79.91400553,1.3,143,328,TRUE,1,1,FALSE,FALSE,FALSE,FALSE,,TRUE,FALSE,FALSE,Course Lock,246,,16.4,Calm,25,,1.12.8,Mavic Mini,1SDCH7G0169R0K,1SFLH6Q0AB03DJ,1SRCH7F014TAHX,1U5X071EXP6C9Y,97.2,0.2,9.8,5.241374,2.23694,0,0,Mavic Mini,1SDCH7G0169R0K,1SFLH6Q0AB03DJ,1SRCH7F014TAHX,1U5X071EXP6C9Y,DJI Fly,,1.12.8,BDEB1FD3-67A5-0499-C395-306A497AC0AB,1SDCH7G0169R0K,,,,,,,,Data Recorder File Index is 25.; Set Return to Home (RTH) altitude to 75 m (246 ft).; Set maximum flight altitude to 100 m (328 ft).,
2/14/2024,10:01.1,1m 30.4s,90.4,6.974255999,79.91400927,0,0,0.3,50,0,0,0,0,0,0,0,0,0,-2,-0.2,-51.4,308.6,,Starting Motors,Other,Takeoff (RC Assisted),13,5,TRUE,,Mavic Mini,TRUE,FALSE,,Smart,RC,TRUE,TRUE,FALSE,,,TRUE,,FALSE,FALSE,FALSE,FALSE,FALSE,FALSE,FALSE,FALSE,FALSE,FALSE,0,Follow Yaw,0,0,-40.3,319.7,FALSE,FALSE,FALSE,FALSE,FALSE,FALSE,,TRUE,Normal,,100,1024,1024,1024,1024,2,FALSE,FALSE,FALSE,FALSE,FALSE,0,FALSE,FALSE,FALSE,FALSE,90,8.028,1935,2138,8.013,FALSE,4.017,4.011,0.006,FALSE,FALSE,NA,92.5,92.4,92.4,0,1,0,0,5,2517.9,629.49,,Idle,0,20,FALSE,5,TRUE,5,Go Home,FALSE,FALSE,FALSE,FALSE,FALSE,FALSE,FALSE,FALSE,FALSE,FALSE,FALSE,FALSE,6.974256829,79.91400553,1.3,143,328,TRUE,1,1,FALSE,FALSE,FALSE,FALSE,,TRUE,FALSE,FALSE,Course Lock,246,,16.4,Calm,25,,1.12.8,Mavic Mini,1SDCH7G0169R0K,1SFLH6Q0AB03DJ,1SRCH7F014TAHX,1U5X071EXP6C9Y,97.2,0.2,9.8,5.241374,2.23694,0,0,Mavic Mini,1SDCH7G0169R0K,1SFLH6Q0AB03DJ,1SRCH7F014TAHX,1U5X071EXP6C9Y,DJI Fly,,1.12.8,BDEB1FD3-67A5-0499-C395-306A497AC0AB,1SDCH7G0169R0K,,,,,,,,,
2/14/2024,10:01.2,1m 30.5s,90.5,6.974256,79.91400927,0,0,0.3,50,0,0,0,0,0,0,0,0,0,-2,-0.3,-51.4,308.6,,Starting Motors,Other,Takeoff (RC Assisted),13,5,TRUE,,Mavic Mini,TRUE,FALSE,,Smart,RC,TRUE,TRUE,FALSE,,,TRUE,,FALSE,FALSE,FALSE,FALSE,FALSE,FALSE,FALSE,FALSE,FALSE,FALSE,0,Follow Yaw,0,0,-40.3,319.7,FALSE,FALSE,FALSE,FALSE,FALSE,FALSE,,TRUE,Normal,,100,1024,1024,1024,1024,2,FALSE,FALSE,FALSE,FALSE,FALSE,0,FALSE,FALSE,FALSE,FALSE,90,8.028,1935,2138,8.013,FALSE,4.017,4.011,0.006,FALSE,FALSE,NA,92.5,92.4,92.4,0,1,0,0,5,2517.9,629.49,,Idle,0,20,FALSE,5,TRUE,5,Go Home,FALSE,FALSE,FALSE,FALSE,FALSE,FALSE,FALSE,FALSE,FALSE,FALSE,FALSE,FALSE,6.974256829,79.91400553,1.3,143,328,TRUE,1,1,FALSE,FALSE,FALSE,FALSE,,TRUE,FALSE,FALSE,Course Lock,246,,16.4,Calm,25,,1.12.8,Mavic Mini,1SDCH7G0169R0K,1SFLH6Q0AB03DJ,1SRCH7F014TAHX,1U5X071EXP6C9Y,97.2,0.2,9.8,5.241374,2.23694,0,0,Mavic Mini,1SDCH7G0169R0K,1SFLH6Q0AB03DJ,1SRCH7F014TAHX,1U5X071EXP6C9Y,DJI Fly,,1.12.8,BDEB1FD3-67A5-0499-C395-306A497AC0AB,1SDCH7G0169R0K,,,,,,,,,
2/14/2024,10:01.3,1m 30.6s,90.6,6.974256031,79.91400917,0,0,0.3,50,0.1,0,0,0,0,0,0,0,0,-2,-0.3,-51.4,308.6,,Starting Motors,Other,Takeoff (RC Assisted),13,5,TRUE,,Mavic Mini,TRUE,FALSE,,Smart,RC,TRUE,TRUE,FALSE,,,TRUE,,FALSE,FALSE,FALSE,FALSE,FALSE,FALSE,FALSE,FALSE,FALSE,FALSE,0,Follow Yaw,0,0,-40.3,319.7,FALSE,FALSE,FALSE,FALSE,FALSE,FALSE,,TRUE,Normal,,100,1024,1024,1024,1024,2,FALSE,FALSE,FALSE,FALSE,FALSE,0,FALSE,FALSE,FALSE,FALSE,90,8.028,1935,2138,8.013,FALSE,4.017,4.011,0.006,FALSE,FALSE,NA,92.5,92.4,92.4,0,1,0,0,5,2517.9,629.49,,Idle,0,20,FALSE,5,TRUE,5,Go Home,FALSE,FALSE,FALSE,FALSE,FALSE,FALSE,FALSE,FALSE,FALSE,FALSE,FALSE,FALSE,6.974256829,79.91400553,1.3,143,328,TRUE,1,1,FALSE,FALSE,FALSE,FALSE,,TRUE,FALSE,FALSE,Course Lock,246,,16.4,Calm,25,,1.12.8,Mavic Mini,1SDCH7G0169R0K,1SFLH6Q0AB03DJ,1SRCH7F014TAHX,1U5X071EXP6C9Y,97.2,0.2,9.8,5.241374,2.23694,0,0,Mavic Mini,1SDCH7G0169R0K,1SFLH6Q0AB03DJ,1SRCH7F014TAHX,1U5X071EXP6C9Y,DJI Fly,,1.12.8,BDEB1FD3-67A5-0499-C395-306A497AC0AB,1SDCH7G0169R0K,,,,,,,,,
2/14/2024,10:01.4,1m 30.7s,90.7,6.974256029,79.91400916,0,0,0.3,50,0.1,0,0,0,0,0,0,0,0,-1.9,-0.2,-51.4,308.6,,Starting Motors,Other,Takeoff (RC Assisted),13,5,TRUE,,Mavic Mini,TRUE,FALSE,,Smart,RC,TRUE,TRUE,FALSE,,,TRUE,,FALSE,FALSE,FALSE,FALSE,FALSE,FALSE,FALSE,FALSE,FALSE,FALSE,0,Follow Yaw,0,0,-40.3,319.7,FALSE,FALSE,FALSE,FALSE,FALSE,FALSE,,TRUE,Normal,,100,1024,1024,1024,1024,2,FALSE,FALSE,FALSE,FALSE,FALSE,0,FALSE,FALSE,FALSE,FALSE,90,8.028,1935,2138,8.013,FALSE,4.017,4.011,0.006,FALSE,FALSE,NA,92.5,92.4,92.4,0,1,0,0,5,2517.9,629.49,,Idle,0,20,FALSE,5,TRUE,5,Go Home,FALSE,FALSE,FALSE,FALSE,FALSE,FALSE,FALSE,FALSE,FALSE,FALSE,FALSE,FALSE,6.974256829,79.91400553,1.3,143,328,TRUE,1,1,FALSE,FALSE,FALSE,FALSE,,TRUE,FALSE,FALSE,Course Lock,246,,16.4,Calm,25,,1.12.8,Mavic Mini,1SDCH7G0169R0K,1SFLH6Q0AB03DJ,1SRCH7F014TAHX,1U5X071EXP6C9Y,97.2,0.2,9.8,5.241374,2.23694,0,0,Mavic Mini,1SDCH7G0169R0K,1SFLH6Q0AB03DJ,1SRCH7F014TAHX,1U5X071EXP6C9Y,DJI Fly,,1.12.8,BDEB1FD3-67A5-0499-C395-306A497AC0AB,1SDCH7G0169R0K,,,,,,,,,
2/14/2024,10:01.5,1m 30.8s,90.8,6.974256027,79.9140092,0,0,0.3,50,0.1,0,0,0,0,0,0,0,0,-2,-0.3,-51.4,308.6,,Starting Motors,Other,Takeoff (RC Assisted),13,5,TRUE,,Mavic Mini,TRUE,FALSE,,Smart,RC,TRUE,TRUE,FALSE,,,TRUE,,FALSE,FALSE,FALSE,FALSE,FALSE,FALSE,FALSE,FALSE,FALSE,FALSE,0,Follow Yaw,0,0,-40.3,319.7,FALSE,FALSE,FALSE,FALSE,FALSE,FALSE,,TRUE,Normal,,100,1024,1024,1024,1024,2,FALSE,FALSE,FALSE,FALSE,FALSE,0,FALSE,FALSE,FALSE,FALSE,90,8.028,1935,2138,8.013,FALSE,4.017,4.011,0.006,FALSE,FALSE,NA,92.5,92.4,92.4,0,1,0,0,5,2517.9,629.49,,Idle,0,20,FALSE,5,TRUE,5,Go Home,FALSE,FALSE,FALSE,FALSE,FALSE,FALSE,FALSE,FALSE,FALSE,FALSE,FALSE,FALSE,6.974256829,79.91400553,1.3,143,328,TRUE,1,1,FALSE,FALSE,FALSE,FALSE,,TRUE,FALSE,FALSE,Course Lock,246,,16.4,Calm,25,,1.12.8,Mavic Mini,1SDCH7G0169R0K,1SFLH6Q0AB03DJ,1SRCH7F014TAHX,1U5X071EXP6C9Y,97.2,0.2,9.8,5.241374,2.23694,0,0,Mavic Mini,1SDCH7G0169R0K,1SFLH6Q0AB03DJ,1SRCH7F014TAHX,1U5X071EXP6C9Y,DJI Fly,,1.12.8,BDEB1FD3-67A5-0499-C395-306A497AC0AB,1SDCH7G0169R0K,,,,,,,,,
2/14/2024,10:01.6,1m 30.9s,90.9,6.974256024,79.91400924,0,0,0.3,50,0.1,0,0,0,0,0,0,0,0,-2,-0.3,-51.4,308.6,,Starting Motors,Other,Takeoff (RC Assisted),13,5,TRUE,,Mavic Mini,TRUE,FALSE,,Smart,RC,TRUE,TRUE,FALSE,,,TRUE,,FALSE,FALSE,FALSE,FALSE,FALSE,FALSE,FALSE,FALSE,FALSE,FALSE,0,Follow Yaw,0,0,-40.3,319.7,FALSE,FALSE,FALSE,FALSE,FALSE,FALSE,,TRUE,Normal,,100,1024,1024,1024,1024,2,FALSE,FALSE,FALSE,FALSE,FALSE,0,FALSE,FALSE,FALSE,FALSE,90,8.028,1935,2138,8.013,FALSE,4.017,4.011,0.006,FALSE,FALSE,NA,92.5,92.4,92.4,0,1,0,0,5,2517.9,629.49,,Idle,0,20,FALSE,5,TRUE,5,Go Home,FALSE,FALSE,FALSE,FALSE,FALSE,FALSE,FALSE,FALSE,FALSE,FALSE,FALSE,FALSE,6.974256829,79.91400553,1.3,143,328,TRUE,1,1,FALSE,FALSE,FALSE,FALSE,,TRUE,FALSE,FALSE,Course Lock,246,,16.4,Calm,25,,1.12.8,Mavic Mini,1SDCH7G0169R0K,1SFLH6Q0AB03DJ,1SRCH7F014TAHX,1U5X071EXP6C9Y,97.2,0.2,9.8,5.241374,2.23694,0,0,Mavic Mini,1SDCH7G0169R0K,1SFLH6Q0AB03DJ,1SRCH7F014TAHX,1U5X071EXP6C9Y,DJI Fly,,1.12.8,BDEB1FD3-67A5-0499-C395-306A497AC0AB,1SDCH7G0169R0K,,,,,,,,,
2/14/2024,10:01.7,1m 31.0s,91,6.974256044,79.91400928,0,0,0.3,50,0.1,0,0,0,0,0,0,0,0,-2,-0.2,-51.4,308.6,,Manual Takeoff,Other,Takeoff (RC Assisted),13,5,TRUE,,Mavic Mini,TRUE,FALSE,,Smart,RC,TRUE,TRUE,FALSE,,,TRUE,,FALSE,FALSE,FALSE,FALSE,FALSE,FALSE,FALSE,FALSE,FALSE,FALSE,0,Follow Yaw,0,0,-40.3,319.7,FALSE,FALSE,FALSE,FALSE,FALSE,FALSE,,TRUE,Normal,,100,1024,1024,1024,1024,2,FALSE,FALSE,FALSE,FALSE,FALSE,0,FALSE,FALSE,FALSE,FALSE,90,8.028,1935,2138,8.013,FALSE,4.017,4.011,0.006,FALSE,FALSE,NA,92.5,92.4,92.4,0,1,0,0,5,2517.9,629.49,,Idle,0,20,FALSE,5,TRUE,5,Go Home,FALSE,FALSE,FALSE,FALSE,FALSE,FALSE,FALSE,FALSE,FALSE,FALSE,FALSE,FALSE,6.974256829,79.91400553,1.3,143,328,TRUE,1,1,FALSE,FALSE,FALSE,FALSE,,TRUE,FALSE,FALSE,Course Lock,246,,16.4,Calm,25,,1.12.8,Mavic Mini,1SDCH7G0169R0K,1SFLH6Q0AB03DJ,1SRCH7F014TAHX,1U5X071EXP6C9Y,97.2,0.2,9.8,5.241374,2.23694,0,0,Mavic Mini,1SDCH7G0169R0K,1SFLH6Q0AB03DJ,1SRCH7F014TAHX,1U5X071EXP6C9Y,DJI Fly,,1.12.8,BDEB1FD3-67A5-0499-C395-306A497AC0AB,1SDCH7G0169R0K,,,,,,,,Flight mode changed to Manual Takeoff.,
2/14/2024,10:01.7,1m 31.1s,91.1,6.974256041,79.91400929,0,0,0.3,50,0.1,0,0,0,0,0,0,0,0,-1.9,-0.2,-51.5,308.5,,Manual Takeoff,Other,Takeoff (RC Assisted),13,5,TRUE,,Mavic Mini,TRUE,FALSE,,Smart,RC,TRUE,TRUE,FALSE,,,TRUE,,FALSE,FALSE,FALSE,FALSE,FALSE,FALSE,FALSE,FALSE,FALSE,FALSE,0,Follow Yaw,0,0,-40.3,319.7,FALSE,FALSE,FALSE,FALSE,FALSE,FALSE,,TRUE,Normal,,100,1024,1024,1024,1024,2,FALSE,FALSE,FALSE,FALSE,FALSE,0,FALSE,FALSE,FALSE,FALSE,90,7.977,1934,2138,8.013,FALSE,3.992,3.985,0.007,FALSE,FALSE,NA,92.5,92.4,92.4,0,1,0,0,5,2517.9,629.49,,Idle,0,20,FALSE,5,TRUE,5,Go Home,FALSE,FALSE,FALSE,FALSE,FALSE,FALSE,FALSE,FALSE,FALSE,FALSE,FALSE,FALSE,6.974256829,79.91400553,1.3,143,328,TRUE,1,1,FALSE,FALSE,FALSE,FALSE,,TRUE,FALSE,FALSE,Course Lock,246,,16.4,Calm,25,,1.12.8,Mavic Mini,1SDCH7G0169R0K,1SFLH6Q0AB03DJ,1SRCH7F014TAHX,1U5X071EXP6C9Y,97.2,0.2,9.8,5.241374,2.23694,0,0,Mavic Mini,1SDCH7G0169R0K,1SFLH6Q0AB03DJ,1SRCH7F014TAHX,1U5X071EXP6C9Y,DJI Fly,,1.12.8,BDEB1FD3-67A5-0499-C395-306A497AC0AB,1SDCH7G0169R0K,,,,,,,,,
2/14/2024,10:01.8,1m 31.2s,91.2,6.974256038,79.91400934,0,0,0.3,50,0.1,0,0,0,0,0,0,0,0,-2,-0.2,-51.4,308.6,,Manual Takeoff,Other,Takeoff (RC Assisted),13,5,TRUE,,Mavic Mini,TRUE,FALSE,,Smart,RC,TRUE,TRUE,FALSE,,,TRUE,,FALSE,FALSE,FALSE,FALSE,FALSE,FALSE,FALSE,FALSE,FALSE,FALSE,0,Follow Yaw,0,0,-40.3,319.7,FALSE,FALSE,FALSE,FALSE,FALSE,FALSE,,TRUE,Normal,,100,1024,1024,1024,1024,2,FALSE,FALSE,FALSE,FALSE,FALSE,0,FALSE,FALSE,FALSE,FALSE,90,7.977,1934,2138,8.013,FALSE,3.992,3.985,0.007,FALSE,FALSE,NA,92.5,92.4,92.4,0,1,0,0,5,2517.9,629.49,,Idle,0,20,FALSE,5,TRUE,5,Go Home,FALSE,FALSE,FALSE,FALSE,FALSE,FALSE,FALSE,FALSE,FALSE,FALSE,FALSE,FALSE,6.974256829,79.91400553,1.4,143,328,TRUE,1,1,FALSE,FALSE,FALSE,FALSE,,TRUE,FALSE,FALSE,Course Lock,246,,16.4,Calm,25,,1.12.8,Mavic Mini,1SDCH7G0169R0K,1SFLH6Q0AB03DJ,1SRCH7F014TAHX,1U5X071EXP6C9Y,97.2,0.2,9.8,5.241374,2.23694,0,0,Mavic Mini,1SDCH7G0169R0K,1SFLH6Q0AB03DJ,1SRCH7F014TAHX,1U5X071EXP6C9Y,DJI Fly,,1.12.8,BDEB1FD3-67A5-0499-C395-306A497AC0AB,1SDCH7G0169R0K,,,,,,,,,
2/14/2024,10:01.9,1m 31.3s,91.3,6.974256035,79.91400939,0,0,0.3,50,0.1,0,0,0,0,0,0,0,0,-2,-0.2,-51.4,308.6,,Manual Takeoff,Other,Takeoff (RC Assisted),13,5,TRUE,,Mavic Mini,TRUE,FALSE,,Smart,RC,TRUE,TRUE,FALSE,,,TRUE,,FALSE,FALSE,FALSE,FALSE,FALSE,FALSE,FALSE,FALSE,FALSE,FALSE,0,Follow Yaw,0,0,-40.3,319.7,FALSE,FALSE,FALSE,FALSE,FALSE,FALSE,,TRUE,Normal,,100,1024,1024,1067,1024,2,FALSE,FALSE,FALSE,FALSE,FALSE,0,FALSE,FALSE,FALSE,FALSE,90,7.977,1934,2138,8.016,FALSE,3.992,3.985,0.007,FALSE,FALSE,NA,92.5,92.4,92.4,0,1,0,0,5,2566.8,641.7,,Idle,0,20,FALSE,5,TRUE,5,Go Home,FALSE,FALSE,FALSE,FALSE,FALSE,FALSE,FALSE,FALSE,FALSE,FALSE,FALSE,FALSE,6.974256829,79.91400553,1.4,143,328,TRUE,1,1,FALSE,FALSE,FALSE,FALSE,,TRUE,FALSE,FALSE,Course Lock,246,,16.4,Calm,25,,1.12.8,Mavic Mini,1SDCH7G0169R0K,1SFLH6Q0AB03DJ,1SRCH7F014TAHX,1U5X071EXP6C9Y,97.2,0.2,9.8,5.241374,2.23694,0,0,Mavic Mini,1SDCH7G0169R0K,1SFLH6Q0AB03DJ,1SRCH7F014TAHX,1U5X071EXP6C9Y,DJI Fly,,1.12.8,BDEB1FD3-67A5-0499-C395-306A497AC0AB,1SDCH7G0169R0K,,,,,,,,,
2/14/2024,10:02.0,1m 31.4s,91.4,6.974256051,79.91400955,0,0,0.3,50,0.2,0,0,0,0,0,0,0,0,-2,-0.2,-51.4,308.6,,Manual Takeoff,Other,Takeoff (RC Assisted),13,5,TRUE,,Mavic Mini,TRUE,FALSE,,Smart,RC,TRUE,TRUE,FALSE,,,TRUE,,FALSE,FALSE,FALSE,FALSE,FALSE,FALSE,FALSE,FALSE,FALSE,FALSE,0,Follow Yaw,0,0,-40.3,319.7,FALSE,FALSE,FALSE,FALSE,FALSE,FALSE,,TRUE,Normal,,100,1024,1024,1124,1024,2,FALSE,FALSE,FALSE,FALSE,FALSE,0,FALSE,FALSE,FALSE,FALSE,90,7.977,1934,2138,8.016,FALSE,3.992,3.985,0.007,FALSE,FALSE,NA,92.5,92.4,92.4,0,1,0,0,5,2566.8,641.7,,Idle,0,20,FALSE,5,TRUE,5,Go Home,FALSE,FALSE,FALSE,FALSE,FALSE,FALSE,FALSE,FALSE,FALSE,FALSE,FALSE,FALSE,6.974256829,79.91400553,1.4,143,328,TRUE,1,1,FALSE,FALSE,FALSE,FALSE,,TRUE,FALSE,FALSE,Course Lock,246,,16.4,Calm,25,,1.12.8,Mavic Mini,1SDCH7G0169R0K,1SFLH6Q0AB03DJ,1SRCH7F014TAHX,1U5X071EXP6C9Y,97.2,0.2,9.8,5.241374,2.23694,0,0,Mavic Mini,1SDCH7G0169R0K,1SFLH6Q0AB03DJ,1SRCH7F014TAHX,1U5X071EXP6C9Y,DJI Fly,,1.12.8,BDEB1FD3-67A5-0499-C395-306A497AC0AB,1SDCH7G0169R0K,,,,,,,,,
2/14/2024,10:02.1,1m 31.5s,91.5,6.974256049,79.9140096,0,0,0.3,50,0.2,0,0,0,0,0,0,0,0,-2,-0.2,-51.4,308.6,,Manual Takeoff,Other,Takeoff (RC Assisted),13,5,TRUE,,Mavic Mini,TRUE,FALSE,,Smart,RC,TRUE,TRUE,FALSE,,,TRUE,,FALSE,FALSE,FALSE,FALSE,FALSE,FALSE,FALSE,FALSE,FALSE,FALSE,0,Follow Yaw,0,0,-40.3,319.7,FALSE,FALSE,FALSE,FALSE,FALSE,FALSE,,TRUE,Normal,,100,1024,1024,1176,1024,2,FALSE,FALSE,FALSE,FALSE,FALSE,0,FALSE,FALSE,FALSE,FALSE,90,7.977,1934,2138,8.016,FALSE,3.992,3.985,0.007,FALSE,FALSE,NA,92.5,92.4,92.4,0,1,0,0,5,2566.8,641.7,,Idle,0,20,FALSE,5,TRUE,5,Go Home,FALSE,FALSE,FALSE,FALSE,FALSE,FALSE,FALSE,FALSE,FALSE,FALSE,FALSE,FALSE,6.974256829,79.91400553,1.5,143,328,TRUE,1,1,FALSE,FALSE,FALSE,FALSE,,TRUE,FALSE,FALSE,Course Lock,246,,16.4,Calm,25,,1.12.8,Mavic Mini,1SDCH7G0169R0K,1SFLH6Q0AB03DJ,1SRCH7F014TAHX,1U5X071EXP6C9Y,97.2,0.2,9.8,5.241374,2.23694,0,0,Mavic Mini,1SDCH7G0169R0K,1SFLH6Q0AB03DJ,1SRCH7F014TAHX,1U5X071EXP6C9Y,DJI Fly,,1.12.8,BDEB1FD3-67A5-0499-C395-306A497AC0AB,1SDCH7G0169R0K,,,,,,,,,
2/14/2024,10:02.2,1m 31.6s,91.6,6.974256047,79.91400961,0,0,0.3,50,0.2,0,0,0,0,0,0,0,0,-1.9,-0.3,-51.4,308.6,,Manual Takeoff,Other,Takeoff (RC Assisted),13,5,TRUE,,Mavic Mini,TRUE,FALSE,,Smart,RC,TRUE,TRUE,FALSE,,,TRUE,,FALSE,FALSE,FALSE,FALSE,FALSE,FALSE,FALSE,FALSE,FALSE,FALSE,0,Follow Yaw,0,0,-40.3,319.7,FALSE,FALSE,FALSE,FALSE,FALSE,FALSE,,TRUE,Normal,,100,1024,1024,1242,1024,2,FALSE,FALSE,FALSE,FALSE,FALSE,0,FALSE,FALSE,FALSE,FALSE,90,7.977,1934,2138,8.016,FALSE,3.992,3.985,0.007,FALSE,FALSE,NA,92.5,92.4,92.4,0,1,0,0,5,2566.8,641.7,,Idle,0,20,FALSE,5,TRUE,5,Go Home,FALSE,FALSE,FALSE,FALSE,FALSE,FALSE,FALSE,FALSE,FALSE,FALSE,FALSE,FALSE,6.974256829,79.91400553,1.5,143,328,TRUE,1,1,FALSE,FALSE,FALSE,FALSE,,TRUE,FALSE,FALSE,Course Lock,246,,16.4,Calm,25,,1.12.8,Mavic Mini,1SDCH7G0169R0K,1SFLH6Q0AB03DJ,1SRCH7F014TAHX,1U5X071EXP6C9Y,97.2,0.2,9.8,5.241374,2.23694,0,0,Mavic Mini,1SDCH7G0169R0K,1SFLH6Q0AB03DJ,1SRCH7F014TAHX,1U5X071EXP6C9Y,DJI Fly,,1.12.8,BDEB1FD3-67A5-0499-C395-306A497AC0AB,1SDCH7G0169R0K,,,,,,,,,
2/14/2024,10:02.3,1m 31.7s,91.7,6.974256044,79.91400962,0,0,0.3,50,0.2,0,0,0,0,0,0,0,0,-1.9,-0.4,-51.4,308.6,,Manual Takeoff,Other,Takeoff (RC Assisted),13,5,TRUE,,Mavic Mini,TRUE,FALSE,,Smart,RC,TRUE,TRUE,FALSE,,,TRUE,,FALSE,FALSE,FALSE,FALSE,FALSE,FALSE,FALSE,FALSE,FALSE,FALSE,0,Follow Yaw,0,0,-40.3,319.7,FALSE,FALSE,FALSE,FALSE,FALSE,FALSE,,TRUE,Normal,,100,1024,1024,1283,1024,2,FALSE,FALSE,FALSE,FALSE,FALSE,0,FALSE,FALSE,FALSE,FALSE,90,7.977,1934,2138,8.016,FALSE,3.992,3.985,0.007,FALSE,FALSE,NA,92.5,92.4,92.4,0,1,0,0,5,2566.8,641.7,,Idle,0,20,FALSE,5,TRUE,5,Go Home,FALSE,FALSE,FALSE,FALSE,FALSE,FALSE,FALSE,FALSE,FALSE,FALSE,FALSE,FALSE,6.974256829,79.91400553,1.5,143,328,TRUE,1,1,FALSE,FALSE,FALSE,FALSE,,TRUE,FALSE,FALSE,Course Lock,246,,16.4,Calm,25,,1.12.8,Mavic Mini,1SDCH7G0169R0K,1SFLH6Q0AB03DJ,1SRCH7F014TAHX,1U5X071EXP6C9Y,97.2,0.2,9.8,5.241374,2.23694,0,0,Mavic Mini,1SDCH7G0169R0K,1SFLH6Q0AB03DJ,1SRCH7F014TAHX,1U5X071EXP6C9Y,DJI Fly,,1.12.8,BDEB1FD3-67A5-0499-C395-306A497AC0AB,1SDCH7G0169R0K,,,,,,,,,
2/14/2024,10:02.4,1m 31.8s,91.8,6.974256042,79.9140095,0,0,0.3,50,0.3,0,0,0,0,0,0,0,0,-1.7,-0.4,-51.3,308.7,,Manual Takeoff,Other,Takeoff (RC Assisted),13,5,TRUE,,Mavic Mini,TRUE,FALSE,,Smart,RC,TRUE,TRUE,FALSE,,,TRUE,,FALSE,FALSE,FALSE,FALSE,FALSE,FALSE,FALSE,FALSE,FALSE,FALSE,0,Follow Yaw,0,0,-40.3,319.7,FALSE,FALSE,FALSE,FALSE,FALSE,FALSE,,TRUE,Normal,,100,1024,1024,1302,1024,2,FALSE,FALSE,FALSE,FALSE,FALSE,0,FALSE,FALSE,FALSE,FALSE,90,7.977,1934,2138,8.016,FALSE,3.992,3.985,0.007,FALSE,FALSE,NA,92.5,92.4,92.4,0,1,0,0,5,2566.8,641.7,,Idle,0,20,FALSE,5,TRUE,5,Go Home,FALSE,FALSE,FALSE,FALSE,FALSE,FALSE,FALSE,FALSE,FALSE,FALSE,FALSE,FALSE,6.974256829,79.91400553,1.4,143,328,TRUE,1,1,FALSE,FALSE,FALSE,FALSE,,TRUE,FALSE,FALSE,Course Lock,246,,16.4,Calm,25,,1.12.8,Mavic Mini,1SDCH7G0169R0K,1SFLH6Q0AB03DJ,1SRCH7F014TAHX,1U5X071EXP6C9Y,97.2,0.2,9.8,5.241374,2.23694,0,0,Mavic Mini,1SDCH7G0169R0K,1SFLH6Q0AB03DJ,1SRCH7F014TAHX,1U5X071EXP6C9Y,DJI Fly,,1.12.8,BDEB1FD3-67A5-0499-C395-306A497AC0AB,1SDCH7G0169R0K,,,,,,,,,
2/14/2024,10:02.6,1m 31.9s,91.9,6.974256037,79.9140095,0,0,0.3,50,0.3,0,0,0,0,0,0,0,0,-1.8,-0.5,-51.5,308.5,,Manual Takeoff,Other,Takeoff (RC Assisted),13,5,TRUE,,Mavic Mini,TRUE,FALSE,,Smart,RC,TRUE,TRUE,FALSE,,,TRUE,,FALSE,FALSE,FALSE,FALSE,FALSE,FALSE,FALSE,FALSE,FALSE,FALSE,0,Follow Yaw,0,0,-40.3,319.7,FALSE,FALSE,FALSE,FALSE,FALSE,FALSE,,TRUE,Normal,,100,1024,1024,1321,1024,2,FALSE,FALSE,FALSE,FALSE,FALSE,0,FALSE,FALSE,FALSE,FALSE,90,7.977,1934,2138,8.016,FALSE,3.992,3.985,0.007,FALSE,FALSE,NA,92.5,92.4,92.4,0,1,0,0,5,2566.8,641.7,,Idle,0,20,FALSE,5,TRUE,5,Go Home,FALSE,FALSE,FALSE,FALSE,FALSE,FALSE,FALSE,FALSE,FALSE,FALSE,FALSE,FALSE,6.974256829,79.91400553,1.4,143,328,TRUE,1,1,FALSE,FALSE,FALSE,FALSE,,TRUE,FALSE,FALSE,Course Lock,246,,16.4,Calm,25,,1.12.8,Mavic Mini,1SDCH7G0169R0K,1SFLH6Q0AB03DJ,1SRCH7F014TAHX,1U5X071EXP6C9Y,97.2,0.2,9.8,5.241374,2.23694,0,0,Mavic Mini,1SDCH7G0169R0K,1SFLH6Q0AB03DJ,1SRCH7F014TAHX,1U5X071EXP6C9Y,DJI Fly,,1.12.8,BDEB1FD3-67A5-0499-C395-306A497AC0AB,1SDCH7G0169R0K,,,,,6.974232439,79.9140099,5,,
2/14/2024,10:02.7,1m 32.0s,92,6.974256033,79.91400954,0,0,0.3,50,0.3,0,0,0,0,0,0,0,0,-1.8,-0.7,-51.7,308.3,,Manual Takeoff,Other,Takeoff (RC Assisted),13,5,TRUE,,Mavic Mini,TRUE,FALSE,,Smart,RC,TRUE,TRUE,FALSE,,,TRUE,,FALSE,FALSE,FALSE,FALSE,FALSE,FALSE,FALSE,FALSE,FALSE,FALSE,0,Follow Yaw,0,0,-40.4,319.6,FALSE,FALSE,FALSE,FALSE,FALSE,FALSE,,TRUE,Normal,,100,1024,1024,1321,1024,2,FALSE,FALSE,FALSE,FALSE,FALSE,0,FALSE,FALSE,FALSE,FALSE,90,7.977,1934,2138,8.016,FALSE,3.992,3.985,0.007,FALSE,FALSE,NA,92.5,92.4,92.4,0,1,0,0,5,2566.8,641.7,,Idle,0,20,FALSE,5,TRUE,5,Go Home,FALSE,FALSE,FALSE,FALSE,FALSE,FALSE,FALSE,FALSE,FALSE,FALSE,FALSE,FALSE,6.974256829,79.91400553,1.4,143,328,TRUE,1,1,FALSE,FALSE,FALSE,FALSE,,TRUE,FALSE,FALSE,Course Lock,246,,16.4,Calm,25,,1.12.8,Mavic Mini,1SDCH7G0169R0K,1SFLH6Q0AB03DJ,1SRCH7F014TAHX,1U5X071EXP6C9Y,97.2,0.2,9.8,5.241374,2.23694,0,0,Mavic Mini,1SDCH7G0169R0K,1SFLH6Q0AB03DJ,1SRCH7F014TAHX,1U5X071EXP6C9Y,DJI Fly,,1.12.8,BDEB1FD3-67A5-0499-C395-306A497AC0AB,1SDCH7G0169R0K,,,,,6.974232439,79.9140099,5,,
2/14/2024,10:02.8,1m 32.1s,92.1,6.97425603,79.91400957,0,0,0.3,50,0.3,0,0,0,0,0,0,0,0,-1.7,-0.8,-52.1,307.9,,Manual Takeoff,Other,Takeoff (RC Assisted),13,5,TRUE,,Mavic Mini,TRUE,FALSE,,Smart,RC,TRUE,TRUE,FALSE,,,TRUE,,FALSE,FALSE,FALSE,FALSE,FALSE,FALSE,FALSE,FALSE,FALSE,FALSE,0,Follow Yaw,0,0,-40.6,319.4,FALSE,FALSE,FALSE,FALSE,FALSE,FALSE,,TRUE,Normal,,100,1024,1024,1368,1024,2,FALSE,FALSE,FALSE,FALSE,FALSE,0,FALSE,FALSE,FALSE,FALSE,90,7.977,1934,2138,8.016,FALSE,3.992,3.985,0.007,FALSE,FALSE,NA,92.5,92.4,92.4,0,1,0,0,5,2566.8,641.7,,Idle,0,20,FALSE,5,TRUE,5,Go Home,FALSE,FALSE,FALSE,FALSE,FALSE,FALSE,FALSE,FALSE,FALSE,FALSE,FALSE,FALSE,6.974256829,79.91400553,1.4,143,328,TRUE,1,1,FALSE,FALSE,FALSE,FALSE,,TRUE,FALSE,FALSE,Course Lock,246,,16.4,Calm,25,,1.12.8,Mavic Mini,1SDCH7G0169R0K,1SFLH6Q0AB03DJ,1SRCH7F014TAHX,1U5X071EXP6C9Y,97.2,0.2,9.8,5.241374,2.23694,0,0,Mavic Mini,1SDCH7G0169R0K,1SFLH6Q0AB03DJ,1SRCH7F014TAHX,1U5X071EXP6C9Y,DJI Fly,,1.12.8,BDEB1FD3-67A5-0499-C395-306A497AC0AB,1SDCH7G0169R0K,,,,,6.974232439,79.9140099,5,,
2/14/2024,10:02.9,1m 32.2s,92.2,6.974256036,79.91400956,0,0,0.3,50,0.3,0,0,0,0,0,0,0,0,-1.2,-1.2,-52.9,307.1,,Manual Takeoff,Other,Takeoff (RC Assisted),13,5,TRUE,,Mavic Mini,TRUE,FALSE,,Smart,RC,TRUE,TRUE,FALSE,,,TRUE,,FALSE,FALSE,FALSE,FALSE,FALSE,FALSE,FALSE,FALSE,FALSE,FALSE,0,Follow Yaw,0,0,-41.1,318.9,FALSE,FALSE,FALSE,FALSE,FALSE,FALSE,,TRUE,Normal,,100,1024,1024,1408,1024,2,FALSE,FALSE,FALSE,FALSE,FALSE,0,FALSE,FALSE,FALSE,FALSE,90,7.953,1934,2138,8.016,FALSE,3.983,3.97,0.013,FALSE,FALSE,NA,92.5,92.4,92.4,0,1,0,0,5,2566.8,641.7,,Idle,0,20,FALSE,5,TRUE,5,Go Home,FALSE,FALSE,FALSE,FALSE,FALSE,FALSE,FALSE,FALSE,FALSE,FALSE,FALSE,FALSE,6.974256829,79.91400553,1.4,143,328,TRUE,1,1,FALSE,FALSE,FALSE,FALSE,,TRUE,FALSE,FALSE,Course Lock,246,,16.4,Calm,25,,1.12.8,Mavic Mini,1SDCH7G0169R0K,1SFLH6Q0AB03DJ,1SRCH7F014TAHX,1U5X071EXP6C9Y,97.2,0.2,9.8,5.241374,2.23694,0,0,Mavic Mini,1SDCH7G0169R0K,1SFLH6Q0AB03DJ,1SRCH7F014TAHX,1U5X071EXP6C9Y,DJI Fly,,1.12.8,BDEB1FD3-67A5-0499-C395-306A497AC0AB,1SDCH7G0169R0K,,,,,6.974232439,79.9140099,5,,
2/14/2024,10:03.0,1m 32.3s,92.3,6.974256057,79.91400952,0,0,0.3,50,0.3,0,0,0,0,0,0,0,0,-0.6,-1.7,-54.1,305.9,,Manual Takeoff,Other,Takeoff (RC Assisted),13,5,TRUE,,Mavic Mini,TRUE,FALSE,,Smart,RC,TRUE,TRUE,FALSE,,,TRUE,,FALSE,FALSE,FALSE,FALSE,FALSE,FALSE,FALSE,FALSE,FALSE,FALSE,0,Follow Yaw,0,0,-42.1,317.9,FALSE,FALSE,FALSE,FALSE,FALSE,FALSE,,TRUE,Normal,,100,1024,1024,1413,1024,2,FALSE,FALSE,FALSE,FALSE,FALSE,0,FALSE,FALSE,FALSE,FALSE,90,7.953,1934,2138,7.935,FALSE,3.983,3.97,0.013,FALSE,FALSE,NA,92.5,92.4,92.4,0,1,0,0,5,2769.9,692.47,,Idle,0,20,FALSE,5,TRUE,5,Go Home,FALSE,FALSE,FALSE,FALSE,FALSE,FALSE,FALSE,FALSE,FALSE,FALSE,FALSE,FALSE,6.974256829,79.91400553,1.4,143,328,TRUE,1,1,FALSE,FALSE,FALSE,FALSE,,TRUE,FALSE,FALSE,Course Lock,246,,16.4,Calm,25,,1.12.8,Mavic Mini,1SDCH7G0169R0K,1SFLH6Q0AB03DJ,1SRCH7F014TAHX,1U5X071EXP6C9Y,97.2,0.2,9.8,5.241374,2.23694,0,0,Mavic Mini,1SDCH7G0169R0K,1SFLH6Q0AB03DJ,1SRCH7F014TAHX,1U5X071EXP6C9Y,DJI Fly,,1.12.8,BDEB1FD3-67A5-0499-C395-306A497AC0AB,1SDCH7G0169R0K,,,,,6.974232439,79.9140099,5,,
2/14/2024,10:03.1,1m 32.4s,92.4,6.974256065,79.91400946,0,0,0.3,50,0.3,0.223694,0.223694,0,0,-0.223694,0,-0.223694,0,-1.4,-2.1,-55.6,304.4,280.3,Manual Takeoff,Other,Takeoff (RC Assisted),13,5,TRUE,,Mavic Mini,TRUE,FALSE,,Smart,RC,FALSE,TRUE,FALSE,,,TRUE,,FALSE,FALSE,FALSE,FALSE,FALSE,FALSE,FALSE,FALSE,FALSE,FALSE,0,Follow Yaw,0,0,-43.5,316.5,FALSE,FALSE,FALSE,FALSE,FALSE,FALSE,,TRUE,Normal,,100,1024,1024,1414,1024,2,FALSE,FALSE,FALSE,FALSE,FALSE,0,FALSE,FALSE,FALSE,FALSE,90,7.953,1934,2138,7.935,FALSE,3.983,3.97,0.013,FALSE,FALSE,NA,92.5,92.4,92.4,0,1,0,0,5,2769.9,692.47,,Idle,0,20,FALSE,5,TRUE,5,Go Home,FALSE,FALSE,FALSE,FALSE,FALSE,FALSE,FALSE,FALSE,FALSE,FALSE,FALSE,FALSE,6.974256829,79.91400553,1.4,143,328,TRUE,1,1,FALSE,FALSE,FALSE,FALSE,,TRUE,FALSE,FALSE,Course Lock,246,,16.4,Calm,25,,1.12.8,Mavic Mini,1SDCH7G0169R0K,1SFLH6Q0AB03DJ,1SRCH7F014TAHX,1U5X071EXP6C9Y,97.2,0.2,9.8,5.241374,2.23694,0,0,Mavic Mini,1SDCH7G0169R0K,1SFLH6Q0AB03DJ,1SRCH7F014TAHX,1U5X071EXP6C9Y,DJI Fly,,1.12.8,BDEB1FD3-67A5-0499-C395-306A497AC0AB,1SDCH7G0169R0K,,,,,6.974232439,79.9140099,5,,
2/14/2024,10:03.2,1m 32.5s,92.5,6.974256064,79.91400934,0,0,0.3,50,0.4,0.447388,0.447388,0,0,-0.447388,0,-0.447388,0,-0.9,-0.5,-55.8,304.2,269.1,Tripod,Other,,13,5,TRUE,,Mavic Mini,TRUE,FALSE,,Smart,RC,FALSE,TRUE,FALSE,,,TRUE,,FALSE,FALSE,FALSE,FALSE,FALSE,FALSE,FALSE,FALSE,FALSE,FALSE,0,Follow Yaw,0,0,-44.2,315.8,FALSE,FALSE,FALSE,FALSE,FALSE,FALSE,,TRUE,Normal,,100,1024,1024,1415,1024,2,FALSE,FALSE,FALSE,FALSE,FALSE,0,FALSE,FALSE,FALSE,FALSE,90,7.953,1934,2138,7.935,FALSE,3.983,3.97,0.013,FALSE,FALSE,NA,92.5,92.4,92.4,0,1,0,0,5,2769.9,692.47,,Idle,0,20,FALSE,5,TRUE,5,Go Home,FALSE,FALSE,FALSE,FALSE,FALSE,FALSE,FALSE,FALSE,FALSE,FALSE,FALSE,FALSE,6.974256829,79.91400553,1.4,143,328,TRUE,1,1,FALSE,FALSE,FALSE,FALSE,,TRUE,FALSE,FALSE,Course Lock,246,,16.4,Calm,25,,1.12.8,Mavic Mini,1SDCH7G0169R0K,1SFLH6Q0AB03DJ,1SRCH7F014TAHX,1U5X071EXP6C9Y,97.2,0.2,9.8,5.241374,2.23694,0,0,Mavic Mini,1SDCH7G0169R0K,1SFLH6Q0AB03DJ,1SRCH7F014TAHX,1U5X071EXP6C9Y,DJI Fly,,1.12.8,BDEB1FD3-67A5-0499-C395-306A497AC0AB,1SDCH7G0169R0K,,,,,6.974232439,79.9140099,5,Flight mode changed to Tripod.,
2/14/2024,10:03.2,1m 32.6s,92.6,6.974256064,79.91400912,0,0,0.3,50,0.5,0.447388,0.447388,0,0,-0.447388,0,-0.671082,0,1.8,0.1,-55.4,304.6,270.2,Tripod,Other,,13,5,TRUE,,Mavic Mini,TRUE,FALSE,,Smart,RC,FALSE,TRUE,FALSE,,,TRUE,,FALSE,FALSE,FALSE,FALSE,FALSE,FALSE,FALSE,FALSE,FALSE,FALSE,0,Follow Yaw,0,0,-44.2,315.8,FALSE,FALSE,FALSE,FALSE,FALSE,FALSE,,TRUE,Normal,,100,1024,1024,1419,1024,2,FALSE,FALSE,FALSE,FALSE,FALSE,0,FALSE,FALSE,FALSE,FALSE,90,7.953,1934,2138,7.935,FALSE,3.983,3.97,0.013,FALSE,FALSE,NA,92.5,92.4,92.4,0,1,0,0,5,2769.9,692.47,,Idle,0,20,FALSE,5,TRUE,5,Go Home,FALSE,FALSE,FALSE,FALSE,FALSE,FALSE,FALSE,FALSE,FALSE,FALSE,FALSE,FALSE,6.974256829,79.91400553,1.3,143,328,TRUE,1,1,FALSE,FALSE,FALSE,FALSE,,TRUE,FALSE,FALSE,Course Lock,246,,16.4,Calm,25,,1.12.8,Mavic Mini,1SDCH7G0169R0K,1SFLH6Q0AB03DJ,1SRCH7F014TAHX,1U5X071EXP6C9Y,97.2,0.2,9.8,5.241374,2.23694,0,0,Mavic Mini,1SDCH7G0169R0K,1SFLH6Q0AB03DJ,1SRCH7F014TAHX,1U5X071EXP6C9Y,DJI Fly,,1.12.8,BDEB1FD3-67A5-0499-C395-306A497AC0AB,1SDCH7G0169R0K,,,,,6.974232439,79.9140099,5,,
2/14/2024,10:03.3,1m 32.7s,92.7,6.974256091,79.91400894,0,0,0.6,50,0.5,0.447388,0.447388,0,0,-0.447388,0,-1.11847,0,2.9,1.1,-55.3,304.7,280.2,Tripod,Other,,13,5,TRUE,,Mavic Mini,TRUE,FALSE,,Smart,RC,FALSE,TRUE,FALSE,,,TRUE,,FALSE,FALSE,FALSE,FALSE,FALSE,FALSE,FALSE,FALSE,FALSE,FALSE,0,Follow Yaw,0,0,-44.2,315.8,FALSE,FALSE,FALSE,FALSE,FALSE,FALSE,,TRUE,Normal,,100,1024,1024,1436,1024,2,FALSE,FALSE,FALSE,FALSE,FALSE,0,FALSE,FALSE,FALSE,FALSE,90,7.953,1934,2138,7.935,FALSE,3.983,3.97,0.013,FALSE,FALSE,NA,92.5,92.4,92.4,0,1,0,0,5,2769.9,692.47,,Idle,0,20,FALSE,5,TRUE,5,Go Home,FALSE,FALSE,FALSE,FALSE,FALSE,FALSE,FALSE,FALSE,FALSE,FALSE,FALSE,FALSE,6.974256829,79.91400553,1.2,143,328,TRUE,1,1,FALSE,FALSE,FALSE,FALSE,,TRUE,FALSE,FALSE,Course Lock,246,,16.4,Calm,25,,1.12.8,Mavic Mini,1SDCH7G0169R0K,1SFLH6Q0AB03DJ,1SRCH7F014TAHX,1U5X071EXP6C9Y,97.2,0.2,9.8,5.241374,2.23694,0,0,Mavic Mini,1SDCH7G0169R0K,1SFLH6Q0AB03DJ,1SRCH7F014TAHX,1U5X071EXP6C9Y,DJI Fly,,1.12.8,BDEB1FD3-67A5-0499-C395-306A497AC0AB,1SDCH7G0169R0K,,,,,6.974232439,79.9140099,5,,
2/14/2024,10:03.4,1m 32.8s,92.8,6.974256112,79.91400875,0.3,0.3,0.6,50,0.6,0.447388,0.447388,0,0,-0.447388,0,-1.11847,0,3.1,1.2,-55.2,304.8,278.5,Tripod,Other,,13,5,TRUE,,Mavic Mini,TRUE,FALSE,,Smart,RC,FALSE,TRUE,FALSE,,,TRUE,,FALSE,FALSE,FALSE,FALSE,FALSE,FALSE,FALSE,FALSE,FALSE,FALSE,0,Follow Yaw,0,0,-44.2,315.8,FALSE,FALSE,FALSE,FALSE,FALSE,FALSE,,TRUE,Normal,,100,1024,1024,1438,1024,2,FALSE,FALSE,FALSE,FALSE,FALSE,0,FALSE,FALSE,FALSE,FALSE,90,7.953,1934,2138,7.935,FALSE,3.983,3.97,0.013,FALSE,FALSE,NA,92.5,92.4,92.4,0,1,0,0,5,2769.9,692.47,,Idle,0,20,FALSE,5,TRUE,5,Go Home,FALSE,FALSE,FALSE,FALSE,FALSE,FALSE,FALSE,FALSE,FALSE,FALSE,FALSE,FALSE,6.974256829,79.91400553,1.1,143,328,TRUE,1,1,FALSE,FALSE,FALSE,FALSE,,TRUE,FALSE,FALSE,Course Lock,246,,16.4,Calm,25,,1.12.8,Mavic Mini,1SDCH7G0169R0K,1SFLH6Q0AB03DJ,1SRCH7F014TAHX,1U5X071EXP6C9Y,97.2,0.2,9.8,5.241374,2.23694,0,0,Mavic Mini,1SDCH7G0169R0K,1SFLH6Q0AB03DJ,1SRCH7F014TAHX,1U5X071EXP6C9Y,DJI Fly,,1.12.8,BDEB1FD3-67A5-0499-C395-306A497AC0AB,1SDCH7G0169R0K,,,,,6.974232439,79.9140099,5,,
2/14/2024,10:03.5,1m 32.9s,92.9,6.974256139,79.9140086,0.3,0.3,0.9,50,0.7,0.223694,0.447388,0,0,-0.223694,0,-1.342164,0,2.8,1,-55.2,304.8,283,Tripod,Other,,13,5,TRUE,,Mavic Mini,TRUE,FALSE,,Smart,RC,FALSE,TRUE,FALSE,,,TRUE,,FALSE,FALSE,FALSE,FALSE,FALSE,FALSE,FALSE,FALSE,FALSE,FALSE,0,Follow Yaw,0,0,-44.2,315.8,FALSE,FALSE,FALSE,FALSE,FALSE,FALSE,,TRUE,Normal,,100,1024,1024,1459,1024,2,FALSE,FALSE,FALSE,FALSE,FALSE,0,FALSE,FALSE,FALSE,FALSE,90,7.953,1934,2138,7.935,FALSE,3.983,3.97,0.013,FALSE,FALSE,NA,92.5,92.4,92.4,0,1,0,0,5,2769.9,692.47,,Idle,0,20,FALSE,5,TRUE,5,Go Home,FALSE,FALSE,FALSE,FALSE,FALSE,FALSE,FALSE,FALSE,FALSE,FALSE,FALSE,FALSE,6.974256829,79.91400553,1.1,143,328,TRUE,1,1,FALSE,FALSE,FALSE,FALSE,,TRUE,FALSE,FALSE,Course Lock,246,,16.4,Calm,25,,1.12.8,Mavic Mini,1SDCH7G0169R0K,1SFLH6Q0AB03DJ,1SRCH7F014TAHX,1U5X071EXP6C9Y,97.2,0.2,9.8,5.241374,2.23694,0,0,Mavic Mini,1SDCH7G0169R0K,1SFLH6Q0AB03DJ,1SRCH7F014TAHX,1U5X071EXP6C9Y,DJI Fly,,1.12.8,BDEB1FD3-67A5-0499-C395-306A497AC0AB,1SDCH7G0169R0K,,,,,6.974232439,79.9140099,5,,
2/14/2024,10:03.6,1m 33.0s,93,6.974256176,79.91400842,0.6,0.6,1.3,51,0.7,0.223694,0.447388,0,0,-0.223694,0,-1.342164,0,2.9,1.2,-55.2,304.8,285.1,Tripod,Other,,13,5,TRUE,,Mavic Mini,TRUE,FALSE,,Smart,RC,FALSE,TRUE,FALSE,,,TRUE,,FALSE,FALSE,FALSE,FALSE,FALSE,FALSE,FALSE,FALSE,FALSE,FALSE,0,Follow Yaw,0,0,-44.2,315.8,FALSE,FALSE,FALSE,FALSE,FALSE,FALSE,,TRUE,Normal,,100,1024,1024,1459,1024,2,FALSE,FALSE,FALSE,FALSE,FALSE,0,FALSE,FALSE,FALSE,FALSE,90,7.953,1934,2138,7.935,FALSE,3.983,3.97,0.013,FALSE,FALSE,NA,92.5,92.4,92.4,0,1,0,0,5,2769.9,692.47,,Idle,0,20,FALSE,5,TRUE,5,Go Home,FALSE,FALSE,FALSE,FALSE,FALSE,FALSE,FALSE,FALSE,FALSE,FALSE,FALSE,FALSE,6.974256829,79.91400553,1,143,328,TRUE,1,1,FALSE,FALSE,FALSE,FALSE,,TRUE,FALSE,FALSE,Course Lock,246,,16.4,Calm,25,,1.12.8,Mavic Mini,1SDCH7G0169R0K,1SFLH6Q0AB03DJ,1SRCH7F014TAHX,1U5X071EXP6C9Y,97.2,0.2,9.8,5.241374,2.23694,0,0,Mavic Mini,1SDCH7G0169R0K,1SFLH6Q0AB03DJ,1SRCH7F014TAHX,1U5X071EXP6C9Y,DJI Fly,,1.12.8,BDEB1FD3-67A5-0499-C395-306A497AC0AB,1SDCH7G0169R0K,,,,,6.974232439,79.9140099,5,,
2/14/2024,10:03.8,1m 33.1s,93.1,6.97425623,79.91400818,0.6,0.6,1.3,51,0.8,0.223694,0.447388,0,0,-0.223694,0,-1.565858,0,2.8,0.7,-55.2,304.8,285.9,Tripod,Other,,13,5,TRUE,,Mavic Mini,TRUE,FALSE,,Smart,RC,FALSE,TRUE,FALSE,,,TRUE,,FALSE,FALSE,FALSE,FALSE,FALSE,FALSE,FALSE,FALSE,FALSE,FALSE,0,Follow Yaw,0,0,-44.2,315.8,FALSE,FALSE,FALSE,FALSE,FALSE,FALSE,,TRUE,Normal,,100,1024,1024,1468,1024,2,FALSE,FALSE,FALSE,FALSE,FALSE,0,FALSE,FALSE,FALSE,FALSE,90,7.953,1934,2138,7.935,FALSE,3.983,3.97,0.013,FALSE,FALSE,NA,92.5,92.4,92.4,0,1,0,0,5,2769.9,692.47,,Idle,0,20,FALSE,5,TRUE,5,Go Home,FALSE,FALSE,FALSE,FALSE,FALSE,FALSE,FALSE,FALSE,FALSE,FALSE,FALSE,FALSE,6.974256829,79.91400553,0.9,143,328,TRUE,1,1,FALSE,FALSE,FALSE,FALSE,,TRUE,FALSE,FALSE,Course Lock,246,,16.4,Calm,25,,1.12.8,Mavic Mini,1SDCH7G0169R0K,1SFLH6Q0AB03DJ,1SRCH7F014TAHX,1U5X071EXP6C9Y,97.2,0.2,9.8,5.241374,2.23694,0,0,Mavic Mini,1SDCH7G0169R0K,1SFLH6Q0AB03DJ,1SRCH7F014TAHX,1U5X071EXP6C9Y,DJI Fly,,1.12.8,BDEB1FD3-67A5-0499-C395-306A497AC0AB,1SDCH7G0169R0K,,,,,6.974232439,79.9140099,5,,
2/14/2024,10:03.9,1m 33.2s,93.2,6.974256387,79.91400803,0.9,0.9,1.6,51,0.9,0,0.447388,0,0,0,0,-1.565858,0,2.7,0.2,-55.3,304.7,,Tripod,Other,,13,5,TRUE,,Mavic Mini,TRUE,FALSE,,Smart,RC,FALSE,TRUE,FALSE,,,TRUE,,FALSE,FALSE,FALSE,FALSE,FALSE,FALSE,FALSE,FALSE,FALSE,FALSE,0,Follow Yaw,0,0,-44.2,315.8,FALSE,FALSE,FALSE,FALSE,FALSE,FALSE,,TRUE,Normal,,100,1024,1024,1467,1024,2,FALSE,FALSE,FALSE,FALSE,FALSE,0,FALSE,FALSE,FALSE,FALSE,90,7.953,1934,2138,7.935,FALSE,3.983,3.97,0.013,FALSE,FALSE,NA,92.5,92.4,92.4,0,1,0,0,5,2769.9,692.47,,Idle,0,20,FALSE,5,TRUE,5,Go Home,FALSE,FALSE,FALSE,FALSE,FALSE,FALSE,FALSE,FALSE,FALSE,FALSE,FALSE,FALSE,6.974256829,79.91400553,0.9,143,328,TRUE,1,1,FALSE,FALSE,FALSE,FALSE,,TRUE,FALSE,FALSE,Course Lock,246,,16.4,Calm,25,,1.12.8,Mavic Mini,1SDCH7G0169R0K,1SFLH6Q0AB03DJ,1SRCH7F014TAHX,1U5X071EXP6C9Y,97.2,0.2,9.8,5.241374,2.23694,0,0,Mavic Mini,1SDCH7G0169R0K,1SFLH6Q0AB03DJ,1SRCH7F014TAHX,1U5X071EXP6C9Y,DJI Fly,,1.12.8,BDEB1FD3-67A5-0499-C395-306A497AC0AB,1SDCH7G0169R0K,,,,,6.974232439,79.9140099,5,,
2/14/2024,10:04.0,1m 33.3s,93.3,6.974256527,79.9140079,1.3,1.3,1.9,51,1,0,0.447388,0,0,0,0,-1.789552,0,2.7,0.3,-55.4,304.6,,Tripod,Other,,13,5,TRUE,,Mavic Mini,TRUE,FALSE,,Smart,RC,FALSE,TRUE,FALSE,,,TRUE,,FALSE,FALSE,FALSE,FALSE,FALSE,FALSE,FALSE,FALSE,FALSE,FALSE,0,Follow Yaw,0,0,-44.2,315.8,FALSE,FALSE,FALSE,FALSE,FALSE,FALSE,,TRUE,Normal,,100,1024,1024,1465,1024,2,FALSE,FALSE,FALSE,FALSE,FALSE,0,FALSE,FALSE,FALSE,FALSE,90,7.794,1934,2138,7.948,FALSE,3.902,3.892,0.013,FALSE,FALSE,NA,92.5,92.4,92.4,0,0,0,0,5,2769.9,692.47,,Idle,0,20,FALSE,5,TRUE,5,Go Home,FALSE,FALSE,FALSE,FALSE,FALSE,FALSE,FALSE,FALSE,FALSE,FALSE,FALSE,FALSE,6.974256066,79.91400944,0.5,143,328,TRUE,1,1,FALSE,FALSE,FALSE,FALSE,,TRUE,FALSE,FALSE,Course Lock,246,,16.4,Calm,25,,1.12.8,Mavic Mini,1SDCH7G0169R0K,1SFLH6Q0AB03DJ,1SRCH7F014TAHX,1U5X071EXP6C9Y,97.2,0.2,9.8,5.241374,2.23694,0,0,Mavic Mini,1SDCH7G0169R0K,1SFLH6Q0AB03DJ,1SRCH7F014TAHX,1U5X071EXP6C9Y,DJI Fly,,1.12.8,BDEB1FD3-67A5-0499-C395-306A497AC0AB,1SDCH7G0169R0K,,,,,6.974232439,79.9140099,5,Home Point updated. RTH altitude adjusted to 75 m! (Code: 120852).,
2/14/2024,10:04.1,1m 33.4s,93.4,6.974256545,79.91400781,1.6,1.6,2.2,52,1,0,0.447388,0,0,0,0,-1.789552,0,2.7,0.4,-55.5,304.5,,Tripod,Other,,13,5,TRUE,,Mavic Mini,TRUE,FALSE,,Smart,RC,FALSE,TRUE,FALSE,,,TRUE,,FALSE,FALSE,FALSE,FALSE,FALSE,FALSE,FALSE,FALSE,FALSE,FALSE,0,Follow Yaw,0,0,-44.2,315.8,FALSE,FALSE,FALSE,FALSE,FALSE,FALSE,,TRUE,Normal,,100,1024,1024,1460,1024,2,FALSE,FALSE,FALSE,FALSE,FALSE,0,FALSE,FALSE,FALSE,FALSE,90,7.794,1932,2138,7.948,FALSE,3.902,3.892,0.013,FALSE,FALSE,NA,92.5,92.4,92.4,0,0,0,0,5,2769.9,692.47,,Idle,0,20,FALSE,5,TRUE,5,Go Home,FALSE,FALSE,FALSE,FALSE,FALSE,FALSE,FALSE,FALSE,FALSE,FALSE,FALSE,FALSE,6.974256066,79.91400944,0.6,143,328,TRUE,1,1,FALSE,FALSE,FALSE,FALSE,,TRUE,FALSE,FALSE,Course Lock,246,,16.4,Calm,25,,1.12.8,Mavic Mini,1SDCH7G0169R0K,1SFLH6Q0AB03DJ,1SRCH7F014TAHX,1U5X071EXP6C9Y,97.2,0.2,9.8,5.241374,2.23694,0,0,Mavic Mini,1SDCH7G0169R0K,1SFLH6Q0AB03DJ,1SRCH7F014TAHX,1U5X071EXP6C9Y,DJI Fly,,1.12.8,BDEB1FD3-67A5-0499-C395-306A497AC0AB,1SDCH7G0169R0K,,,,,6.974232439,79.9140099,5,,
2/14/2024,10:04.2,1m 33.5s,93.5,6.974256572,79.91400773,1.6,1.6,2.6,52,1,0,0.447388,0,0,0,0,-1.789552,0,3.2,0.2,-55.5,304.5,,Tripod,Other,,13,5,TRUE,,Mavic Mini,TRUE,FALSE,,Smart,RC,FALSE,TRUE,FALSE,,,TRUE,,FALSE,FALSE,FALSE,FALSE,FALSE,FALSE,FALSE,FALSE,FALSE,FALSE,0,Follow Yaw,0,0,-44.2,315.8,FALSE,FALSE,FALSE,FALSE,FALSE,FALSE,,TRUE,Normal,,100,1024,1024,1449,1024,2,FALSE,FALSE,FALSE,FALSE,FALSE,0,FALSE,FALSE,FALSE,FALSE,90,7.794,1932,2138,7.948,FALSE,3.902,3.892,0.013,FALSE,FALSE,NA,92.5,92.4,92.4,0,0,0,0,5,2769.9,692.47,,Idle,0,20,FALSE,5,TRUE,5,Go Home,FALSE,FALSE,FALSE,FALSE,FALSE,FALSE,FALSE,FALSE,FALSE,FALSE,FALSE,FALSE,6.974256066,79.91400944,0.6,143,328,TRUE,1,1,FALSE,FALSE,FALSE,FALSE,,TRUE,FALSE,FALSE,Course Lock,246,,16.4,Calm,25,,1.12.8,Mavic Mini,1SDCH7G0169R0K,1SFLH6Q0AB03DJ,1SRCH7F014TAHX,1U5X071EXP6C9Y,97.2,0.2,9.8,5.241374,2.23694,0,0,Mavic Mini,1SDCH7G0169R0K,1SFLH6Q0AB03DJ,1SRCH7F014TAHX,1U5X071EXP6C9Y,DJI Fly,,1.12.8,BDEB1FD3-67A5-0499-C395-306A497AC0AB,1SDCH7G0169R0K,,,,,6.974232439,79.9140099,5,,
2/14/2024,10:04.3,1m 33.6s,93.6,6.974256714,79.91400763,1.9,1.9,2.9,52,1.1,0,0.447388,0,0,0,0,-1.789552,0,3.2,0.3,-55.5,304.5,,Tripod,Other,,13,5,TRUE,,Mavic Mini,TRUE,FALSE,,Smart,RC,FALSE,TRUE,FALSE,,,TRUE,,FALSE,FALSE,FALSE,FALSE,FALSE,FALSE,FALSE,FALSE,FALSE,FALSE,0,Follow Yaw,0,0,-44.2,315.8,FALSE,FALSE,FALSE,FALSE,FALSE,FALSE,,TRUE,Normal,,100,1024,1024,1411,1024,2,FALSE,FALSE,FALSE,FALSE,FALSE,0,FALSE,FALSE,FALSE,FALSE,90,7.794,1932,2138,7.948,FALSE,3.902,3.892,0.013,FALSE,FALSE,NA,92.5,92.4,92.4,0,0,0,0,5,2769.9,692.47,,Idle,0,20,FALSE,5,TRUE,5,Go Home,FALSE,FALSE,FALSE,FALSE,FALSE,FALSE,FALSE,FALSE,FALSE,FALSE,FALSE,FALSE,6.974256066,79.91400944,0.6,143,328,TRUE,1,1,FALSE,FALSE,FALSE,FALSE,,TRUE,FALSE,FALSE,Course Lock,246,,16.4,Calm,25,,1.12.8,Mavic Mini,1SDCH7G0169R0K,1SFLH6Q0AB03DJ,1SRCH7F014TAHX,1U5X071EXP6C9Y,97.2,0.2,9.8,5.241374,2.23694,0,0,Mavic Mini,1SDCH7G0169R0K,1SFLH6Q0AB03DJ,1SRCH7F014TAHX,1U5X071EXP6C9Y,DJI Fly,,1.12.8,BDEB1FD3-67A5-0499-C395-306A497AC0AB,1SDCH7G0169R0K,,,,,6.974232439,79.9140099,5,,
2/14/2024,10:04.4,1m 33.7s,93.7,6.974256845,79.91400755,2.2,2.2,3.2,52,1.1,0,0.447388,0,0,0,0,-1.789552,0,3.6,0.1,-55.5,304.5,,Tripod,Other,,13,5,TRUE,,Mavic Mini,TRUE,FALSE,,Smart,RC,FALSE,TRUE,FALSE,,,TRUE,,FALSE,FALSE,FALSE,FALSE,FALSE,FALSE,FALSE,FALSE,FALSE,FALSE,0,Follow Yaw,0,0,-44.2,315.8,FALSE,FALSE,FALSE,FALSE,FALSE,FALSE,,TRUE,Normal,,100,1024,1024,1262,1024,2,FALSE,FALSE,FALSE,FALSE,FALSE,0,FALSE,FALSE,FALSE,FALSE,90,7.794,1932,2138,7.948,FALSE,3.902,3.892,0.013,FALSE,FALSE,NA,92.5,92.4,92.4,0,0,0,0,5,2769.9,692.47,,Idle,0,20,FALSE,5,TRUE,5,Go Home,FALSE,FALSE,FALSE,FALSE,FALSE,FALSE,FALSE,FALSE,FALSE,FALSE,FALSE,FALSE,6.974256066,79.91400944,0.7,143,328,TRUE,1,1,FALSE,FALSE,FALSE,FALSE,,TRUE,FALSE,FALSE,Course Lock,246,,16.4,Calm,25,,1.12.8,Mavic Mini,1SDCH7G0169R0K,1SFLH6Q0AB03DJ,1SRCH7F014TAHX,1U5X071EXP6C9Y,97.2,0.2,9.8,5.241374,2.23694,0,0,Mavic Mini,1SDCH7G0169R0K,1SFLH6Q0AB03DJ,1SRCH7F014TAHX,1U5X071EXP6C9Y,DJI Fly,,1.12.8,BDEB1FD3-67A5-0499-C395-306A497AC0AB,1SDCH7G0169R0K,,,,,6.974232439,79.9140099,5,,
2/14/2024,10:04.5,1m 33.8s,93.8,6.974256908,79.91400746,2.6,2.6,3.6,53,1.2,0,0.447388,0,0,0,0,-1.789552,0,3.3,0,-55.5,304.5,,Tripod,Other,,13,5,TRUE,,Mavic Mini,TRUE,FALSE,,Smart,RC,FALSE,TRUE,FALSE,,,TRUE,,FALSE,FALSE,FALSE,FALSE,FALSE,FALSE,FALSE,FALSE,FALSE,FALSE,0,Follow Yaw,0,0,-44.2,315.8,FALSE,FALSE,FALSE,FALSE,FALSE,FALSE,,TRUE,Normal,,100,1024,1024,1262,1024,2,FALSE,FALSE,FALSE,FALSE,FALSE,0,FALSE,FALSE,FALSE,FALSE,90,7.794,1932,2138,7.948,FALSE,3.902,3.892,0.013,FALSE,FALSE,NA,92.5,92.4,92.4,0,0,0,0,5,2769.9,692.47,,Idle,0,20,FALSE,5,TRUE,5,Go Home,FALSE,FALSE,FALSE,FALSE,FALSE,FALSE,FALSE,FALSE,FALSE,FALSE,FALSE,FALSE,6.974256066,79.91400944,0.7,143,328,TRUE,1,1,FALSE,FALSE,FALSE,FALSE,,TRUE,FALSE,FALSE,Course Lock,246,,16.4,Calm,25,,1.12.8,Mavic Mini,1SDCH7G0169R0K,1SFLH6Q0AB03DJ,1SRCH7F014TAHX,1U5X071EXP6C9Y,97.2,0.2,9.8,5.241374,2.23694,0,0,Mavic Mini,1SDCH7G0169R0K,1SFLH6Q0AB03DJ,1SRCH7F014TAHX,1U5X071EXP6C9Y,DJI Fly,,1.12.8,BDEB1FD3-67A5-0499-C395-306A497AC0AB,1SDCH7G0169R0K,,,,,6.974232439,79.9140099,5,,
2/14/2024,10:04.6,1m 33.9s,93.9,6.974256957,79.9140074,2.6,2.6,3.9,53,1.2,0,0.447388,0,0,0,0,-1.789552,0,2.9,0.1,-55.4,304.6,,Tripod,Other,,13,5,TRUE,,Mavic Mini,TRUE,FALSE,,Smart,RC,FALSE,TRUE,FALSE,,,TRUE,,FALSE,FALSE,FALSE,FALSE,FALSE,FALSE,FALSE,FALSE,FALSE,FALSE,0,Follow Yaw,0,0,-44.2,315.8,FALSE,FALSE,FALSE,FALSE,FALSE,FALSE,,TRUE,Normal,,100,1024,1024,1024,1024,2,FALSE,FALSE,FALSE,FALSE,FALSE,0,FALSE,FALSE,FALSE,FALSE,90,7.794,1932,2138,7.948,FALSE,3.902,3.892,0.013,FALSE,FALSE,NA,92.5,92.4,92.4,0,0,0,0,5,2769.9,692.47,,Idle,0,20,FALSE,5,TRUE,5,Go Home,FALSE,FALSE,FALSE,FALSE,FALSE,FALSE,FALSE,FALSE,FALSE,FALSE,FALSE,FALSE,6.974256066,79.91400944,0.8,143,328,TRUE,1,1,FALSE,FALSE,FALSE,FALSE,,TRUE,FALSE,FALSE,Course Lock,246,,16.4,Calm,25,,1.12.8,Mavic Mini,1SDCH7G0169R0K,1SFLH6Q0AB03DJ,1SRCH7F014TAHX,1U5X071EXP6C9Y,97.2,0.2,9.8,5.241374,2.23694,0,0,Mavic Mini,1SDCH7G0169R0K,1SFLH6Q0AB03DJ,1SRCH7F014TAHX,1U5X071EXP6C9Y,DJI Fly,,1.12.8,BDEB1FD3-67A5-0499-C395-306A497AC0AB,1SDCH7G0169R0K,,,,,6.974232439,79.9140099,5,,
2/14/2024,10:04.6,1m 34.0s,94,6.974256924,79.91400726,2.9,2.9,3.9,53,1.3,0,0.447388,0,0,0,0,-1.565858,0,2.6,0.1,-55.4,304.6,,Tripod,Other,,13,5,TRUE,,Mavic Mini,TRUE,FALSE,,Smart,RC,FALSE,TRUE,FALSE,,,TRUE,,FALSE,FALSE,FALSE,FALSE,FALSE,FALSE,FALSE,FALSE,FALSE,FALSE,0,Follow Yaw,0,0,-44.2,315.8,FALSE,FALSE,FALSE,FALSE,FALSE,FALSE,,TRUE,Normal,,100,1024,1024,1024,1024,2,FALSE,FALSE,FALSE,FALSE,FALSE,0,FALSE,FALSE,FALSE,FALSE,90,7.794,1932,2138,7.948,FALSE,3.902,3.892,0.013,FALSE,FALSE,NA,92.5,92.4,92.4,0,0,0,0,5,2769.9,692.47,,Idle,0,20,FALSE,5,TRUE,5,Go Home,FALSE,FALSE,FALSE,FALSE,FALSE,FALSE,FALSE,FALSE,FALSE,FALSE,FALSE,FALSE,6.974256066,79.91400944,0.8,143,328,TRUE,1,1,FALSE,FALSE,FALSE,FALSE,,TRUE,FALSE,FALSE,Course Lock,246,,16.4,Calm,25,,1.12.8,Mavic Mini,1SDCH7G0169R0K,1SFLH6Q0AB03DJ,1SRCH7F014TAHX,1U5X071EXP6C9Y,97.2,0.2,9.8,5.241374,2.23694,0,0,Mavic Mini,1SDCH7G0169R0K,1SFLH6Q0AB03DJ,1SRCH7F014TAHX,1U5X071EXP6C9Y,DJI Fly,,1.12.8,BDEB1FD3-67A5-0499-C395-306A497AC0AB,1SDCH7G0169R0K,,,,,6.974232439,79.9140099,5,,
2/14/2024,10:04.7,1m 34.1s,94.1,6.974256949,79.91400723,3.2,3.2,4.2,53,1.3,0,0.447388,0,0,0,0,-1.342164,0,2.5,0.2,-55.4,304.6,,Tripod,Other,,12,5,TRUE,,Mavic Mini,TRUE,FALSE,,Smart,RC,FALSE,TRUE,FALSE,,,TRUE,,FALSE,FALSE,FALSE,FALSE,FALSE,FALSE,FALSE,FALSE,FALSE,FALSE,0,Follow Yaw,0,0,-44.2,315.8,FALSE,FALSE,FALSE,FALSE,FALSE,FALSE,,TRUE,Normal,,100,1024,1024,1024,1024,2,FALSE,FALSE,FALSE,FALSE,FALSE,0,FALSE,FALSE,FALSE,FALSE,90,7.794,1932,2138,7.948,FALSE,3.902,3.892,0.013,FALSE,FALSE,NA,92.5,92.4,92.4,0,0,0,0,5,2769.9,692.47,,Idle,0,20,FALSE,5,TRUE,5,Go Home,FALSE,FALSE,FALSE,FALSE,FALSE,FALSE,FALSE,FALSE,FALSE,FALSE,FALSE,FALSE,6.974256066,79.91400944,0.8,143,328,TRUE,1,1,FALSE,FALSE,FALSE,FALSE,,TRUE,FALSE,FALSE,Course Lock,246,,16.4,Calm,25,,1.12.8,Mavic Mini,1SDCH7G0169R0K,1SFLH6Q0AB03DJ,1SRCH7F014TAHX,1U5X071EXP6C9Y,97.2,0.2,9.8,5.241374,2.23694,0,0,Mavic Mini,1SDCH7G0169R0K,1SFLH6Q0AB03DJ,1SRCH7F014TAHX,1U5X071EXP6C9Y,DJI Fly,,1.12.8,BDEB1FD3-67A5-0499-C395-306A497AC0AB,1SDCH7G0169R0K,,,,,6.974232439,79.9140099,5,,
2/14/2024,10:04.8,1m 34.2s,94.2,6.974257015,79.91400729,3.2,3.2,4.5,53,1.3,0,0.447388,0,0,0,0,-0.894776,0,2.5,0.2,-55.4,304.6,,Tripod,Other,,12,5,TRUE,,Mavic Mini,TRUE,FALSE,,Smart,RC,FALSE,TRUE,FALSE,,,TRUE,,FALSE,FALSE,FALSE,FALSE,FALSE,FALSE,FALSE,FALSE,FALSE,FALSE,0,Follow Yaw,0,0,-44.2,315.8,FALSE,FALSE,FALSE,FALSE,FALSE,FALSE,,TRUE,Normal,,100,1024,1024,1024,967,2,FALSE,FALSE,FALSE,FALSE,FALSE,0,FALSE,FALSE,FALSE,FALSE,90,7.794,1932,2138,7.948,FALSE,3.902,3.892,0.013,FALSE,FALSE,NA,92.5,92.4,92.4,0,0,0,0,5,2769.9,692.47,,Idle,0,20,FALSE,5,TRUE,5,Go Home,FALSE,FALSE,FALSE,FALSE,FALSE,FALSE,FALSE,FALSE,FALSE,FALSE,FALSE,FALSE,6.974256066,79.91400944,0.8,143,328,TRUE,1,1,FALSE,FALSE,FALSE,FALSE,,TRUE,FALSE,FALSE,Course Lock,246,,16.4,Calm,25,,1.12.8,Mavic Mini,1SDCH7G0169R0K,1SFLH6Q0AB03DJ,1SRCH7F014TAHX,1U5X071EXP6C9Y,97.2,0.2,9.8,5.241374,2.23694,0,0,Mavic Mini,1SDCH7G0169R0K,1SFLH6Q0AB03DJ,1SRCH7F014TAHX,1U5X071EXP6C9Y,DJI Fly,,1.12.8,BDEB1FD3-67A5-0499-C395-306A497AC0AB,1SDCH7G0169R0K,,,,,6.974232439,79.9140099,5,,
2/14/2024,10:04.9,1m 34.3s,94.3,6.974257084,79.91400735,3.2,3.2,4.5,53,1.3,0,0.447388,0,0,0,0,-0.447388,0,2.6,0,-55.4,304.6,,Tripod,Other,,13,5,TRUE,,Mavic Mini,TRUE,FALSE,,Smart,RC,FALSE,TRUE,FALSE,,,TRUE,,FALSE,FALSE,FALSE,FALSE,FALSE,FALSE,FALSE,FALSE,FALSE,FALSE,0,Follow Yaw,0,0,-44.2,315.8,FALSE,FALSE,FALSE,FALSE,FALSE,FALSE,,TRUE,Normal,,100,1024,1024,1024,768,2,FALSE,FALSE,FALSE,FALSE,FALSE,0,FALSE,FALSE,FALSE,FALSE,90,7.794,1932,2138,7.815,FALSE,3.902,3.892,0.013,FALSE,FALSE,NA,92.5,92.4,92.4,0,0,0,0,5,3468.9,867.23,,Idle,0,20,FALSE,5,TRUE,5,Go Home,FALSE,FALSE,FALSE,FALSE,FALSE,FALSE,FALSE,FALSE,FALSE,FALSE,FALSE,FALSE,6.974256066,79.91400944,0.8,143,328,TRUE,1,1,FALSE,FALSE,FALSE,FALSE,,TRUE,FALSE,FALSE,Course Lock,246,,16.4,Calm,25,,1.12.8,Mavic Mini,1SDCH7G0169R0K,1SFLH6Q0AB03DJ,1SRCH7F014TAHX,1U5X071EXP6C9Y,97.2,0.2,9.8,5.241374,2.23694,0,0,Mavic Mini,1SDCH7G0169R0K,1SFLH6Q0AB03DJ,1SRCH7F014TAHX,1U5X071EXP6C9Y,DJI Fly,,1.12.8,BDEB1FD3-67A5-0499-C395-306A497AC0AB,1SDCH7G0169R0K,,,,,6.974232439,79.9140099,5,,
2/14/2024,10:05.0,1m 34.4s,94.4,6.974257324,79.9140075,3.2,3.2,4.5,53,1.4,0,0.447388,0,0,0,0,-0.223694,0,2.8,-0.3,-55.4,304.6,,Tripod,Other,,13,5,TRUE,,Mavic Mini,TRUE,FALSE,,Smart,RC,FALSE,TRUE,FALSE,,,TRUE,,FALSE,FALSE,FALSE,FALSE,FALSE,FALSE,FALSE,FALSE,FALSE,FALSE,0,Follow Yaw,0,0,-44.2,315.8,FALSE,FALSE,FALSE,FALSE,FALSE,FALSE,,TRUE,Normal,,100,1024,1024,1024,632,2,FALSE,FALSE,FALSE,FALSE,FALSE,0,FALSE,FALSE,FALSE,FALSE,90,7.827,1932,2138,7.815,FALSE,3.919,3.909,0.013,FALSE,FALSE,NA,92.5,92.4,92.4,0,0,0,0,5,3468.9,867.23,,Idle,0,20,FALSE,5,TRUE,5,Go Home,FALSE,FALSE,FALSE,FALSE,FALSE,FALSE,FALSE,FALSE,FALSE,FALSE,FALSE,FALSE,6.974256066,79.91400944,0.8,143,328,TRUE,1,1,FALSE,FALSE,FALSE,FALSE,,TRUE,FALSE,FALSE,Course Lock,246,,16.4,Calm,25,,1.12.8,Mavic Mini,1SDCH7G0169R0K,1SFLH6Q0AB03DJ,1SRCH7F014TAHX,1U5X071EXP6C9Y,97.2,0.2,9.8,5.241374,2.23694,0,0,Mavic Mini,1SDCH7G0169R0K,1SFLH6Q0AB03DJ,1SRCH7F014TAHX,1U5X071EXP6C9Y,DJI Fly,,1.12.8,BDEB1FD3-67A5-0499-C395-306A497AC0AB,1SDCH7G0169R0K,,,,,6.974232439,79.9140099,5,,
2/14/2024,10:05.1,1m 34.5s,94.5,6.974257424,79.91400752,3.2,3.2,4.5,53,1.5,0,0.447388,0,0,0,0,0,0,2.8,-0.4,-55.4,304.6,,Tripod,Other,,14,5,TRUE,,Mavic Mini,TRUE,FALSE,,Smart,RC,FALSE,TRUE,FALSE,,,TRUE,,FALSE,FALSE,FALSE,FALSE,FALSE,FALSE,FALSE,FALSE,FALSE,FALSE,0,Follow Yaw,0,0,-44.2,315.8,FALSE,FALSE,FALSE,FALSE,FALSE,FALSE,,TRUE,Normal,,100,1024,1024,1024,531,2,FALSE,FALSE,FALSE,FALSE,FALSE,0,FALSE,FALSE,FALSE,FALSE,90,7.827,1931,2138,7.815,FALSE,3.919,3.909,0.013,FALSE,FALSE,NA,92.7,92.4,92.6,0,0,0,0,5,3468.9,867.23,,Idle,0,20,FALSE,5,TRUE,5,Go Home,FALSE,FALSE,FALSE,FALSE,FALSE,FALSE,FALSE,FALSE,FALSE,FALSE,FALSE,FALSE,6.974256066,79.91400944,0.8,143,328,TRUE,1,1,FALSE,FALSE,FALSE,FALSE,,TRUE,FALSE,FALSE,Course Lock,246,,16.4,Calm,25,,1.12.8,Mavic Mini,1SDCH7G0169R0K,1SFLH6Q0AB03DJ,1SRCH7F014TAHX,1U5X071EXP6C9Y,97.2,0.2,9.8,5.241374,2.23694,0,0,Mavic Mini,1SDCH7G0169R0K,1SFLH6Q0AB03DJ,1SRCH7F014TAHX,1U5X071EXP6C9Y,DJI Fly,,1.12.8,BDEB1FD3-67A5-0499-C395-306A497AC0AB,1SDCH7G0169R0K,,,,,6.974232439,79.9140099,5,,
2/14/2024,10:05.3,1m 34.6s,94.6,6.974257539,79.91400759,3.2,3.2,4.5,53,1.5,0,0.447388,0,0,0,0,0,0,2.9,-0.6,-55.4,304.6,,Tripod,Other,,14,5,TRUE,,Mavic Mini,TRUE,FALSE,,Smart,RC,FALSE,TRUE,FALSE,,,TRUE,,FALSE,FALSE,FALSE,FALSE,FALSE,FALSE,FALSE,FALSE,FALSE,FALSE,0,Follow Yaw,0,0,-44.5,315.5,FALSE,FALSE,FALSE,FALSE,FALSE,FALSE,,TRUE,Normal,,100,1024,1024,1024,430,2,FALSE,FALSE,FALSE,FALSE,FALSE,0,FALSE,FALSE,FALSE,FALSE,90,7.827,1931,2138,7.815,FALSE,3.919,3.909,0.013,FALSE,FALSE,NA,92.7,92.4,92.6,0,0,0,0,5,3468.9,867.23,,Idle,0,20,FALSE,5,TRUE,5,Go Home,FALSE,FALSE,FALSE,FALSE,FALSE,FALSE,FALSE,FALSE,FALSE,FALSE,FALSE,FALSE,6.974256066,79.91400944,0.8,143,328,TRUE,1,1,FALSE,FALSE,FALSE,FALSE,,TRUE,FALSE,FALSE,Course Lock,246,,16.4,Calm,25,,1.12.8,Mavic Mini,1SDCH7G0169R0K,1SFLH6Q0AB03DJ,1SRCH7F014TAHX,1U5X071EXP6C9Y,97.2,0.2,9.8,5.241374,2.23694,0,0,Mavic Mini,1SDCH7G0169R0K,1SFLH6Q0AB03DJ,1SRCH7F014TAHX,1U5X071EXP6C9Y,DJI Fly,,1.12.8,BDEB1FD3-67A5-0499-C395-306A497AC0AB,1SDCH7G0169R0K,,,,,6.974232439,79.9140099,5,,
2/14/2024,10:05.4,1m 34.7s,94.7,6.974257636,79.91400766,3.2,3.2,4.5,53,1.6,0,0.447388,0,0,0,0,0,0,2.9,-0.7,-55.6,304.4,,Tripod,Other,,14,5,TRUE,,Mavic Mini,TRUE,FALSE,,Smart,RC,FALSE,TRUE,FALSE,,,TRUE,,FALSE,FALSE,FALSE,FALSE,FALSE,FALSE,FALSE,FALSE,FALSE,FALSE,0,Follow Yaw,0,0,-45,315,FALSE,FALSE,FALSE,FALSE,FALSE,FALSE,,TRUE,Normal,,100,1024,1024,1024,375,2,FALSE,FALSE,FALSE,FALSE,FALSE,0,FALSE,FALSE,FALSE,FALSE,90,7.827,1931,2138,7.815,FALSE,3.919,3.909,0.013,FALSE,FALSE,NA,92.7,92.4,92.6,0,0,0,0,5,3468.9,867.23,,Idle,0,20,FALSE,5,TRUE,5,Go Home,FALSE,FALSE,FALSE,FALSE,FALSE,FALSE,FALSE,FALSE,FALSE,FALSE,FALSE,FALSE,6.974256066,79.91400944,0.8,143,328,TRUE,1,1,FALSE,FALSE,FALSE,FALSE,,TRUE,FALSE,FALSE,Course Lock,246,,16.4,Calm,25,,1.12.8,Mavic Mini,1SDCH7G0169R0K,1SFLH6Q0AB03DJ,1SRCH7F014TAHX,1U5X071EXP6C9Y,97.2,0.2,9.8,5.241374,2.23694,0,0,Mavic Mini,1SDCH7G0169R0K,1SFLH6Q0AB03DJ,1SRCH7F014TAHX,1U5X071EXP6C9Y,DJI Fly,,1.12.8,BDEB1FD3-67A5-0499-C395-306A497AC0AB,1SDCH7G0169R0K,,,,,6.974232439,79.9140099,5,,
2/14/2024,10:05.5,1m 34.8s,94.8,6.974257587,79.91400788,3.2,3.2,4.5,53,1.7,0,0.447388,0,0,0,0,0,0,3,-0.7,-55.9,304.1,,Tripod,Other,,14,5,TRUE,,Mavic Mini,TRUE,FALSE,,Smart,RC,FALSE,TRUE,FALSE,,,TRUE,,FALSE,FALSE,FALSE,FALSE,FALSE,FALSE,FALSE,FALSE,FALSE,FALSE,0,Follow Yaw,0,0,-46,314,FALSE,FALSE,FALSE,FALSE,FALSE,FALSE,,TRUE,Normal,,100,1024,1024,1024,375,2,FALSE,FALSE,FALSE,FALSE,FALSE,0,FALSE,FALSE,FALSE,FALSE,90,7.827,1931,2138,7.815,FALSE,3.919,3.909,0.013,FALSE,FALSE,NA,92.7,92.4,92.6,0,0,0,0,5,3468.9,867.23,,Idle,0,20,FALSE,5,TRUE,5,Go Home,FALSE,FALSE,FALSE,FALSE,FALSE,FALSE,FALSE,FALSE,FALSE,FALSE,FALSE,FALSE,6.974256066,79.91400944,0.7,143,328,TRUE,1,1,FALSE,FALSE,FALSE,FALSE,,TRUE,FALSE,FALSE,Course Lock,246,,16.4,Calm,25,,1.12.8,Mavic Mini,1SDCH7G0169R0K,1SFLH6Q0AB03DJ,1SRCH7F014TAHX,1U5X071EXP6C9Y,97.2,0.2,9.8,5.241374,2.23694,0,0,Mavic Mini,1SDCH7G0169R0K,1SFLH6Q0AB03DJ,1SRCH7F014TAHX,1U5X071EXP6C9Y,DJI Fly,,1.12.8,BDEB1FD3-67A5-0499-C395-306A497AC0AB,1SDCH7G0169R0K,,,,,6.974232439,79.9140099,5,,
2/14/2024,10:05.6,1m 34.9s,94.9,6.974257578,79.91400795,3.2,3.2,4.5,53,1.7,0,0.447388,0,0,0,0,0,0,3.1,-0.6,-56.5,303.5,,Tripod,Other,,14,5,TRUE,,Mavic Mini,TRUE,FALSE,,Smart,RC,FALSE,TRUE,FALSE,,,TRUE,,FALSE,FALSE,FALSE,FALSE,FALSE,FALSE,FALSE,FALSE,FALSE,FALSE,0,Follow Yaw,0,0,-47.4,312.6,FALSE,FALSE,FALSE,FALSE,FALSE,FALSE,,TRUE,Normal,,100,1024,1024,1024,364,2,FALSE,FALSE,FALSE,FALSE,FALSE,0,FALSE,FALSE,FALSE,FALSE,90,7.827,1931,2138,7.815,FALSE,3.919,3.909,0.013,FALSE,FALSE,NA,92.7,92.4,92.6,0,0,0,0,5,3468.9,867.23,,Idle,0,20,FALSE,5,TRUE,5,Go Home,FALSE,FALSE,FALSE,FALSE,FALSE,FALSE,FALSE,FALSE,FALSE,FALSE,FALSE,FALSE,6.974256066,79.91400944,0.7,143,328,TRUE,1,1,FALSE,FALSE,FALSE,FALSE,,TRUE,FALSE,FALSE,Course Lock,246,,16.4,Calm,25,,1.12.8,Mavic Mini,1SDCH7G0169R0K,1SFLH6Q0AB03DJ,1SRCH7F014TAHX,1U5X071EXP6C9Y,97.2,0.2,9.8,5.241374,2.23694,0,0,Mavic Mini,1SDCH7G0169R0K,1SFLH6Q0AB03DJ,1SRCH7F014TAHX,1U5X071EXP6C9Y,DJI Fly,,1.12.8,BDEB1FD3-67A5-0499-C395-306A497AC0AB,1SDCH7G0169R0K,,,,,6.974232439,79.9140099,5,,
2/14/2024,10:05.7,1m 35.0s,95,6.974257571,79.91400792,3.2,3.2,4.5,53,1.7,0,0.447388,0,0,0,0,0,0,2.9,-0.7,-57.5,302.5,,Tripod,Other,,14,5,TRUE,,Mavic Mini,TRUE,FALSE,,Smart,RC,FALSE,TRUE,FALSE,,,TRUE,,FALSE,FALSE,FALSE,FALSE,FALSE,FALSE,FALSE,FALSE,FALSE,FALSE,0,Follow Yaw,0,0,-49.2,310.8,FALSE,FALSE,FALSE,FALSE,FALSE,FALSE,,TRUE,Normal,,100,1024,1024,1024,364,2,FALSE,FALSE,FALSE,FALSE,FALSE,0,FALSE,FALSE,FALSE,FALSE,90,7.827,1931,2138,7.815,FALSE,3.919,3.909,0.013,FALSE,FALSE,NA,92.7,92.4,92.6,0,0,0,0,5,3468.9,867.23,,Idle,0,20,FALSE,5,TRUE,5,Go Home,FALSE,FALSE,FALSE,FALSE,FALSE,FALSE,FALSE,FALSE,FALSE,FALSE,FALSE,FALSE,6.974256066,79.91400944,0.7,143,328,TRUE,1,1,FALSE,FALSE,FALSE,FALSE,,TRUE,FALSE,FALSE,Course Lock,246,,16.4,Calm,25,,1.12.8,Mavic Mini,1SDCH7G0169R0K,1SFLH6Q0AB03DJ,1SRCH7F014TAHX,1U5X071EXP6C9Y,97.2,0.2,9.8,5.241374,2.23694,0,0,Mavic Mini,1SDCH7G0169R0K,1SFLH6Q0AB03DJ,1SRCH7F014TAHX,1U5X071EXP6C9Y,DJI Fly,,1.12.8,BDEB1FD3-67A5-0499-C395-306A497AC0AB,1SDCH7G0169R0K,,,,,6.974232439,79.9140099,5,,
2/14/2024,10:05.8,1m 35.1s,95.1,6.974257558,79.9140079,3.2,3.2,4.5,53,1.7,0,0.447388,0,0,0,0,0,0,2.9,-0.7,-59,301,,Tripod,Other,,14,5,TRUE,,Mavic Mini,TRUE,FALSE,,Smart,RC,FALSE,TRUE,FALSE,,,TRUE,,FALSE,FALSE,FALSE,FALSE,FALSE,FALSE,FALSE,FALSE,FALSE,FALSE,0,Follow Yaw,0,0,-51.3,308.7,FALSE,FALSE,FALSE,FALSE,FALSE,FALSE,,TRUE,Normal,,100,1024,1024,1024,364,2,FALSE,FALSE,FALSE,FALSE,FALSE,0,FALSE,FALSE,FALSE,FALSE,90,7.827,1931,2138,7.815,FALSE,3.919,3.909,0.013,FALSE,FALSE,NA,92.7,92.4,92.6,0,0,0,0,5,3468.9,867.23,,Idle,0,20,FALSE,5,TRUE,5,Go Home,FALSE,FALSE,FALSE,FALSE,FALSE,FALSE,FALSE,FALSE,FALSE,FALSE,FALSE,FALSE,6.974256066,79.91400944,0.7,143,328,TRUE,1,1,FALSE,FALSE,FALSE,FALSE,,TRUE,FALSE,FALSE,Course Lock,246,,16.4,Calm,25,,1.12.8,Mavic Mini,1SDCH7G0169R0K,1SFLH6Q0AB03DJ,1SRCH7F014TAHX,1U5X071EXP6C9Y,97.2,0.2,9.8,5.241374,2.23694,0,0,Mavic Mini,1SDCH7G0169R0K,1SFLH6Q0AB03DJ,1SRCH7F014TAHX,1U5X071EXP6C9Y,DJI Fly,,1.12.8,BDEB1FD3-67A5-0499-C395-306A497AC0AB,1SDCH7G0169R0K,,,,,6.974232439,79.9140099,5,,
2/14/2024,10:05.8,1m 35.2s,95.2,6.974257485,79.91400781,3.2,3.2,4.5,53,1.7,0,0.447388,0,0,0,0,0,0,3,-0.8,-60.8,299.2,,Tripod,Other,,14,5,TRUE,,Mavic Mini,TRUE,FALSE,,Smart,RC,FALSE,TRUE,FALSE,,,TRUE,,FALSE,FALSE,FALSE,FALSE,FALSE,FALSE,FALSE,FALSE,FALSE,FALSE,0,Follow Yaw,0,0,-53.6,306.4,FALSE,FALSE,FALSE,FALSE,FALSE,FALSE,,TRUE,Normal,,100,1024,1024,1024,364,2,FALSE,FALSE,FALSE,FALSE,FALSE,0,FALSE,FALSE,FALSE,FALSE,90,7.827,1931,2138,7.815,FALSE,3.919,3.909,0.013,FALSE,FALSE,NA,92.7,92.4,92.6,0,0,0,0,5,3468.9,867.23,,Idle,0,20,FALSE,5,TRUE,5,Go Home,FALSE,FALSE,FALSE,FALSE,FALSE,FALSE,FALSE,FALSE,FALSE,FALSE,FALSE,FALSE,6.974256066,79.91400944,0.7,143,328,TRUE,1,1,FALSE,FALSE,FALSE,FALSE,,TRUE,FALSE,FALSE,Course Lock,246,,16.4,Calm,25,,1.12.8,Mavic Mini,1SDCH7G0169R0K,1SFLH6Q0AB03DJ,1SRCH7F014TAHX,1U5X071EXP6C9Y,97.2,0.2,9.8,5.241374,2.23694,0,0,Mavic Mini,1SDCH7G0169R0K,1SFLH6Q0AB03DJ,1SRCH7F014TAHX,1U5X071EXP6C9Y,DJI Fly,,1.12.8,BDEB1FD3-67A5-0499-C395-306A497AC0AB,1SDCH7G0169R0K,,,,,6.974232439,79.9140099,5,,
