CUSTOM.date [local],CUSTOM.updateTime [local],OSD.flyTime,OSD.flyTime [s],OSD.latitude,OSD.longitude,OSD.height [ft],OSD.heightMax [ft],OSD.vpsHeight [ft],OSD.altitude [ft],OSD.mileage [ft],OSD.hSpeed [MPH],OSD.hSpeedMax [MPH],OSD.xSpeed [MPH],OSD.xSpeedMax [MPH],OSD.ySpeed [MPH],OSD.ySpeedMax [MPH],OSD.zSpeed [MPH],OSD.zSpeedMax [MPH],OSD.pitch,OSD.roll,OSD.yaw,OSD.yaw [360],OSD.directionOfTravel,OSD.flycState,OSD.flycCommand,OSD.flightAction,OSD.gpsNum,OSD.gpsLevel,OSD.isGPSUsed,OSD.nonGPSCause,OSD.droneType,OSD.isSwaveWork,OSD.waveError,OSD.goHomeStatus,OSD.batteryType,OSD.ctrlDevice,OSD.isOnGround,OSD.isMotorOn,OSD.isMotorBlocked,OSD.motorStartFailedCause,OSD.motorFailReason,OSD.isImuPreheated,OSD.imuInitFailReason,OSD.isAcceletorOverRange,OSD.isBarometerDeadInAir,OSD.isCompassError,OSD.isGoHomeHeightModified,OSD.canIOCWork,OSD.isNotEnoughForce,OSD.isOutOfLimit,OSD.isPropellerCatapult,OSD.isVibrating,OSD.isVisionUsed,OSD.voltageWarning,GIMBAL.mode,GIMBAL.pitch,GIMBAL.roll,GIMBAL.yaw,GIMBAL.yaw [360],GIMBAL.isPitchAtLimit,GIMBAL.isRollAtLimit,GIMBAL.isYawAtLimit,GIMBAL.isStuck,CAMERA.isPhoto,CAMERA.isVideo,CAMERA.filename,CAMERA.sdCardIsInserted,CAMERA.sdCardState,RC.downlinkSignal,RC.uplinkSignal,RC.aileron,RC.elevator,RC.throttle,RC.rudder,RC.mode,RC.goHomeDepressed,RC.recordDepressed,RC.shutterDepressed,RC.playbackDepressed,RC.wheelDepressed,RC.wheelOffset,RC.custom1Depressed,RC.custom2Depressed,RC.custom3Depressed,RC.custom4Depressed,BATTERY.chargeLevel,BATTERY.currentPV [V],BATTERY.currentCapacity [mAh],BATTERY.fullCapacity [mAh],BATTERY.voltage [V],BATTERY.isCellVoltageEstimated,BATTERY.cellVoltage1 [V],BATTERY.cellVoltage2 [V],BATTERY.maxCellVoltageDeviation,BATTERY.isCellVoltageDeviationHigh,BATTERY.isVoltageLow,BATTERY.current [A],BATTERY.temperature [F],BATTERY.minTemperature [F],BATTERY.maxTemperature [F],BATTERY.usefulTime [s],BATTERY.goHomeTime [s],BATTERY.landTime [s],BATTERY.goHomeBattery,BATTERY.landBattery,BATTERY.safeFlyRadius,BATTERY.volumeConsume,BATTERY.status,BATTERY.goHomeStatus,BATTERY.goHomeCountdown,BATTERY.lowWarning,BATTERY.lowWarningGoHome,BATTERY.seriousLowWarning,BATTERY.seriousLowWarningLanding,BATTERY.timesCharged,MC.failSafeAction,MC.isObstacleAvoidanceEnabled,MC.isCollisionAvoidanceEnabled,MC.isRthObstacleAvoidanceEnabled,MC.isBraking,MC.isAvoidingObstacle,MC.isAvoidingActiveObstacle,MC.isAscentLimitedByObstacle,MC.isLandingConfirmationNeeded,MC.atLowAltitudeLimit,MC.atDistanceLimit,MC.atAirportAltitudeLimit,MC.atAirportBoundary,HOME.latitude,HOME.longitude,HOME.distance [ft],HOME.height [ft],HOME.heightLimit [ft],HOME.isHomeRecord,HOME.goHomeMode,HOME.aircraftHeadDirection,HOME.isDynamicHomePointEnabled,HOME.isReachedLimitDistance,HOME.isReachedLimitHeight,HOME.isCompassCalibrating,HOME.compassCalibrationState,HOME.isMultipleFlightModeEnabled,HOME.isBeginnerMode,HOME.isIOCEnabled,HOME.iocMode,HOME.goHomeHeight [ft],HOME.courseLockAngle,HOME.forceLandingHeight [ft],HOME.wind,HOME.dataRecorderFileIndex,RECOVER.appType,RECOVER.appVersion,RECOVER.aircraftName,RECOVER.aircraftSerial,RECOVER.cameraSerial,RECOVER.rcSerial,RECOVER.batterySerial,DETAILS.totalTime [s],DETAILS.totalDistance [ft],DETAILS.maxHeight [ft],DETAILS.maxHorizontalSpeed [MPH],DETAILS.maxVerticalSpeed [MPH],DETAILS.photoNum,DETAILS.videoTime [s],DETAILS.aircraftName,DETAILS.aircraftSerial,DETAILS.cameraSerial,DETAILS.rcSerial,DETAILS.batterySerial,DETAILS.appName,DETAILS.appType,DETAILS.appVersion,DETAILS.guid,SERIAL.flightController,SERIAL.camera,SERIAL.gimbal,SERIAL.rc,SERIAL.battery,APPGPS.latitude,APPGPS.longitude,APPGPS.accuracy,APP.tip,APP.warning
3/2/2024,11:14.7,15m 31.5s,931.5,6.972886002,79.9159413,0,0,0.3,57,0,0,0,0,0,0,0,0,0,2.2,-0.2,35.1,35.1,,Starting Motors,Auto Fly,Takeoff (RC Assisted),15,5,TRUE,,Mavic Mini,FALSE,FALSE,,Smart,RC,TRUE,TRUE,FALSE,,,TRUE,,FALSE,FALSE,FALSE,FALSE,FALSE,FALSE,FALSE,FALSE,FALSE,FALSE,0,Follow Yaw,0,0,39.1,39.1,FALSE,FALSE,FALSE,FALSE,FALSE,FALSE,,FALSE,Normal,,,1024,1024,1024,1024,1,FALSE,FALSE,FALSE,FALSE,FALSE,0,FALSE,FALSE,FALSE,FALSE,31,7.179,641,2075,7.179,TRUE,3.59,3.59,,FALSE,FALSE,NA,121.1,121.1,121.1,,,,,,,,,Idle,,,TRUE,,FALSE,7,Hover,FALSE,FALSE,FALSE,FALSE,FALSE,FALSE,FALSE,FALSE,FALSE,FALSE,FALSE,FALSE,,,,,,FALSE,,,FALSE,FALSE,FALSE,FALSE,,FALSE,FALSE,FALSE,,,,,Calm,,,,,,,,,105.9,0.2,3.2,6.239496,1.789552,0,0,Mavic Mini,1SDCH7G0169R0K,1SFLH6Q0AB03DJ,1SRCH7F014TAHX,1U5X071EXP6C8G,DJI Fly,,1.12.8,A888A3BC-ABD2-F3C3-1A40-095D8802E474,1SDCH7G0169R0K,,,,,,,,Flight mode changed to Starting Motors.,
3/2/2024,11:14.8,15m 31.6s,931.6,6.972886002,79.91594124,0,0,0.3,57,0,0,0,0,0,0,0,0,0,2.2,-0.2,35.1,35.1,,Starting Motors,Auto Fly,Takeoff (RC Assisted),16,5,TRUE,,Mavic Mini,FALSE,FALSE,,Smart,RC,TRUE,TRUE,FALSE,,,TRUE,,FALSE,FALSE,FALSE,FALSE,FALSE,FALSE,FALSE,FALSE,FALSE,FALSE,0,Follow Yaw,0,0,39.1,39.1,FALSE,FALSE,FALSE,FALSE,FALSE,FALSE,,FALSE,Normal,,,1024,1024,1024,1024,1,FALSE,FALSE,FALSE,FALSE,FALSE,0,FALSE,FALSE,FALSE,FALSE,31,7.179,641,2075,7.179,TRUE,3.59,3.59,,FALSE,FALSE,NA,121.1,121.1,121.1,,,,,,,,,Idle,,,TRUE,,FALSE,7,Hover,FALSE,FALSE,FALSE,FALSE,FALSE,FALSE,FALSE,FALSE,FALSE,FALSE,FALSE,FALSE,,,,,,FALSE,,,FALSE,FALSE,FALSE,FALSE,,FALSE,FALSE,FALSE,,,,,Calm,,,,,,,,,105.9,0.2,3.2,6.239496,1.789552,0,0,Mavic Mini,1SDCH7G0169R0K,1SFLH6Q0AB03DJ,1SRCH7F014TAHX,1U5X071EXP6C8G,DJI Fly,,1.12.8,A888A3BC-ABD2-F3C3-1A40-095D8802E474,1SDCH7G0169R0K,,,,,,,,,
3/2/2024,55:43.2,15m 31.7s,931.7,6.972885949,79.91594123,0,0,0.3,57,0,0,0,0,0,0,0,0,0,2.2,-0.2,35.1,35.1,,Starting Motors,Auto Fly,Takeoff (RC Assisted),16,5,TRUE,,Mavic Mini,FALSE,FALSE,,Smart,RC,TRUE,TRUE,FALSE,,,TRUE,,FALSE,FALSE,FALSE,FALSE,FALSE,FALSE,FALSE,FALSE,FALSE,FALSE,0,Follow Yaw,0,0,39.1,39.1,FALSE,FALSE,FALSE,FALSE,FALSE,FALSE,,TRUE,Normal,,,1024,1024,1024,1024,1,FALSE,FALSE,FALSE,FALSE,FALSE,0,FALSE,FALSE,FALSE,FALSE,31,7.179,641,2075,7.179,TRUE,3.59,3.59,,FALSE,FALSE,NA,121.1,121.1,121.1,,,,,,,,,Idle,,,TRUE,,FALSE,7,Go Home,FALSE,FALSE,FALSE,FALSE,FALSE,FALSE,FALSE,FALSE,FALSE,FALSE,FALSE,FALSE,,,,,,FALSE,,,FALSE,FALSE,FALSE,FALSE,,FALSE,FALSE,FALSE,,,,,Calm,,,1.12.8,Mavic Mini,1SDCH7G0169R0K,1SFLH6Q0AB03DJ,1SRCH7F014TAHX,1U5X071EXP6C8G,105.9,0.2,3.2,6.239496,1.789552,0,0,Mavic Mini,1SDCH7G0169R0K,1SFLH6Q0AB03DJ,1SRCH7F014TAHX,1U5X071EXP6C8G,DJI Fly,,1.12.8,A888A3BC-ABD2-F3C3-1A40-095D8802E474,1SDCH7G0169R0K,,,,,6.97283681,79.91590479,5,,
3/2/2024,55:43.3,15m 31.8s,931.8,6.972885901,79.91594122,0,0,0.3,57,0,0,0,0,0,0,0,0,0,2.2,-0.2,35.1,35.1,,Starting Motors,Auto Fly,Takeoff (RC Assisted),16,5,TRUE,,Mavic Mini,TRUE,FALSE,,Smart,RC,TRUE,TRUE,FALSE,,,TRUE,,FALSE,FALSE,FALSE,FALSE,FALSE,FALSE,FALSE,FALSE,FALSE,FALSE,0,Follow Yaw,0,0,39.1,39.1,FALSE,FALSE,FALSE,FALSE,FALSE,FALSE,,TRUE,Normal,,,1024,1024,1024,1024,1,FALSE,FALSE,FALSE,FALSE,FALSE,0,FALSE,FALSE,FALSE,FALSE,31,7.179,641,2075,7.179,TRUE,3.59,3.59,,FALSE,FALSE,NA,121.1,121.1,121.1,,,,,,,,,Idle,,,TRUE,,FALSE,7,Go Home,FALSE,FALSE,FALSE,FALSE,FALSE,FALSE,FALSE,FALSE,FALSE,FALSE,FALSE,FALSE,,,,,,FALSE,,,FALSE,FALSE,FALSE,FALSE,,FALSE,FALSE,FALSE,,,,,Calm,,,1.12.8,Mavic Mini,1SDCH7G0169R0K,1SFLH6Q0AB03DJ,1SRCH7F014TAHX,1U5X071EXP6C8G,105.9,0.2,3.2,6.239496,1.789552,0,0,Mavic Mini,1SDCH7G0169R0K,1SFLH6Q0AB03DJ,1SRCH7F014TAHX,1U5X071EXP6C8G,DJI Fly,,1.12.8,A888A3BC-ABD2-F3C3-1A40-095D8802E474,1SDCH7G0169R0K,,,,,6.97283681,79.91590479,5,,
3/2/2024,55:43.4,15m 31.9s,931.9,6.972885883,79.91594122,0,0,0.3,57,0,0,0,0,0,0,0,0,0,2.2,-0.2,35.1,35.1,,Starting Motors,Auto Fly,Takeoff (RC Assisted),16,5,TRUE,,Mavic Mini,TRUE,FALSE,,Smart,RC,TRUE,TRUE,FALSE,,,TRUE,,FALSE,FALSE,FALSE,FALSE,FALSE,FALSE,FALSE,FALSE,FALSE,FALSE,0,Follow Yaw,0,0,39.1,39.1,FALSE,FALSE,FALSE,FALSE,FALSE,FALSE,,TRUE,Normal,,,1024,1024,1024,1024,1,FALSE,FALSE,FALSE,FALSE,FALSE,0,FALSE,FALSE,FALSE,FALSE,31,7.176,641,2075,7.176,FALSE,3.591,3.585,0.006,FALSE,FALSE,NA,121.1,121.1,121.1,,,,,,,,,Idle,,,TRUE,,FALSE,7,Go Home,FALSE,FALSE,FALSE,FALSE,FALSE,FALSE,FALSE,FALSE,FALSE,FALSE,FALSE,FALSE,,,,,,FALSE,,,FALSE,FALSE,FALSE,FALSE,,FALSE,FALSE,FALSE,,,,,Calm,,,1.12.8,Mavic Mini,1SDCH7G0169R0K,1SFLH6Q0AB03DJ,1SRCH7F014TAHX,1U5X071EXP6C8G,105.9,0.2,3.2,6.239496,1.789552,0,0,Mavic Mini,1SDCH7G0169R0K,1SFLH6Q0AB03DJ,1SRCH7F014TAHX,1U5X071EXP6C8G,DJI Fly,,1.12.8,A888A3BC-ABD2-F3C3-1A40-095D8802E474,1SDCH7G0169R0K,,,,,6.97283681,79.91590479,5,,
3/2/2024,55:43.5,15m 32.0s,932,6.972885869,79.91594122,0,0,0.3,57,0,0,0,0,0,0,0,0,0,2.3,-0.2,35.1,35.1,,Starting Motors,Auto Fly,Takeoff (RC Assisted),15,5,TRUE,,Mavic Mini,TRUE,FALSE,,Smart,RC,TRUE,TRUE,FALSE,,,TRUE,,FALSE,FALSE,FALSE,FALSE,FALSE,FALSE,FALSE,FALSE,FALSE,FALSE,0,Follow Yaw,0,0,39.1,39.1,FALSE,FALSE,FALSE,FALSE,FALSE,FALSE,,TRUE,Normal,,100,1024,1024,1024,1024,1,FALSE,FALSE,FALSE,FALSE,FALSE,0,FALSE,FALSE,FALSE,FALSE,31,7.176,641,2075,7.168,FALSE,3.591,3.585,0.006,FALSE,FALSE,NA,121.1,121.1,121.1,0,1,0,0,5,2495.1,623.79,,Idle,0,20,FALSE,5,TRUE,7,Go Home,FALSE,FALSE,FALSE,FALSE,FALSE,FALSE,FALSE,FALSE,FALSE,FALSE,FALSE,FALSE,6.972885817,79.915932,3.3,122.9,328,TRUE,1,1,FALSE,FALSE,FALSE,FALSE,,TRUE,FALSE,FALSE,Course Lock,49.2,14.3,16.4,Calm,40,,1.12.8,Mavic Mini,1SDCH7G0169R0K,1SFLH6Q0AB03DJ,1SRCH7F014TAHX,1U5X071EXP6C8G,105.9,0.2,3.2,6.239496,1.789552,0,0,Mavic Mini,1SDCH7G0169R0K,1SFLH6Q0AB03DJ,1SRCH7F014TAHX,1U5X071EXP6C8G,DJI Fly,,1.12.8,A888A3BC-ABD2-F3C3-1A40-095D8802E474,1SDCH7G0169R0K,,,,,6.97283681,79.91590479,5,Data Recorder File Index is 40.; Set Return to Home (RTH) altitude to 15 m (49 ft).; Set maximum flight altitude to 100 m (328 ft).,
3/2/2024,55:43.6,15m 32.1s,932.1,6.972885824,79.91594131,0,0,0.3,57,0,0,0,0,0,0,0,0,0,2.2,-0.3,35,35,,Starting Motors,Auto Fly,Takeoff (RC Assisted),15,5,TRUE,,Mavic Mini,TRUE,FALSE,,Smart,RC,TRUE,TRUE,FALSE,,,TRUE,,FALSE,FALSE,FALSE,FALSE,FALSE,FALSE,FALSE,FALSE,FALSE,FALSE,0,Follow Yaw,0,0,39.1,39.1,FALSE,FALSE,FALSE,FALSE,FALSE,FALSE,,TRUE,Normal,,100,1024,1024,1024,1024,1,FALSE,FALSE,FALSE,FALSE,FALSE,0,FALSE,FALSE,FALSE,FALSE,31,7.176,641,2075,7.168,FALSE,3.591,3.585,0.006,FALSE,FALSE,NA,121.1,121.1,121.1,0,1,0,0,5,2495.1,623.79,,Idle,0,20,FALSE,5,TRUE,7,Go Home,FALSE,FALSE,FALSE,FALSE,FALSE,FALSE,FALSE,FALSE,FALSE,FALSE,FALSE,FALSE,6.972885817,79.915932,3.3,122.9,328,TRUE,1,1,FALSE,FALSE,FALSE,FALSE,,TRUE,FALSE,FALSE,Course Lock,49.2,14.3,16.4,Calm,40,,1.12.8,Mavic Mini,1SDCH7G0169R0K,1SFLH6Q0AB03DJ,1SRCH7F014TAHX,1U5X071EXP6C8G,105.9,0.2,3.2,6.239496,1.789552,0,0,Mavic Mini,1SDCH7G0169R0K,1SFLH6Q0AB03DJ,1SRCH7F014TAHX,1U5X071EXP6C8G,DJI Fly,,1.12.8,A888A3BC-ABD2-F3C3-1A40-095D8802E474,1SDCH7G0169R0K,,,,,6.97283681,79.91590479,5,,
3/2/2024,55:43.7,15m 32.2s,932.2,6.972885825,79.91594131,0,0,0.3,57,0,0,0,0,0,0,0,0,0,2.2,-0.3,35,35,,Starting Motors,Auto Fly,Takeoff (RC Assisted),15,5,TRUE,,Mavic Mini,TRUE,FALSE,,Smart,RC,TRUE,TRUE,FALSE,,,TRUE,,FALSE,FALSE,FALSE,FALSE,FALSE,FALSE,FALSE,FALSE,FALSE,FALSE,0,Follow Yaw,0,0,39.1,39.1,FALSE,FALSE,FALSE,FALSE,FALSE,FALSE,,TRUE,Normal,,100,1024,1024,1024,1024,1,FALSE,FALSE,FALSE,FALSE,FALSE,0,FALSE,FALSE,FALSE,FALSE,31,7.176,641,2075,7.168,FALSE,3.591,3.585,0.006,FALSE,FALSE,NA,121.1,121.1,121.1,0,1,0,0,5,2495.1,623.79,,Idle,0,20,FALSE,5,TRUE,7,Go Home,FALSE,FALSE,FALSE,FALSE,FALSE,FALSE,FALSE,FALSE,FALSE,FALSE,FALSE,FALSE,6.972885817,79.915932,3.3,122.9,328,TRUE,1,1,FALSE,FALSE,FALSE,FALSE,,TRUE,FALSE,FALSE,Course Lock,49.2,14.3,16.4,Calm,40,,1.12.8,Mavic Mini,1SDCH7G0169R0K,1SFLH6Q0AB03DJ,1SRCH7F014TAHX,1U5X071EXP6C8G,105.9,0.2,3.2,6.239496,1.789552,0,0,Mavic Mini,1SDCH7G0169R0K,1SFLH6Q0AB03DJ,1SRCH7F014TAHX,1U5X071EXP6C8G,DJI Fly,,1.12.8,A888A3BC-ABD2-F3C3-1A40-095D8802E474,1SDCH7G0169R0K,,,,,6.97283681,79.91590479,5,,
3/2/2024,55:43.8,15m 32.3s,932.3,6.972885828,79.91594132,0,0,0.3,57,0,0,0,0,0,0,0,0,0,2.3,-0.2,35,35,,Starting Motors,Auto Fly,Takeoff (RC Assisted),15,5,TRUE,,Mavic Mini,TRUE,FALSE,,Smart,RC,TRUE,TRUE,FALSE,,,TRUE,,FALSE,FALSE,FALSE,FALSE,FALSE,FALSE,FALSE,FALSE,FALSE,FALSE,0,Follow Yaw,0,0,39.1,39.1,FALSE,FALSE,FALSE,FALSE,FALSE,FALSE,,TRUE,Normal,,100,1024,1024,1024,1024,1,FALSE,FALSE,FALSE,FALSE,FALSE,0,FALSE,FALSE,FALSE,FALSE,31,7.176,641,2075,7.168,FALSE,3.591,3.585,0.006,FALSE,FALSE,NA,121.1,121.1,121.1,0,1,0,0,5,2495.1,623.79,,Idle,0,20,FALSE,5,TRUE,7,Go Home,FALSE,FALSE,FALSE,FALSE,FALSE,FALSE,FALSE,FALSE,FALSE,FALSE,FALSE,FALSE,6.972885817,79.915932,3.3,122.9,328,TRUE,1,1,FALSE,FALSE,FALSE,FALSE,,TRUE,FALSE,FALSE,Course Lock,49.2,14.3,16.4,Calm,40,,1.12.8,Mavic Mini,1SDCH7G0169R0K,1SFLH6Q0AB03DJ,1SRCH7F014TAHX,1U5X071EXP6C8G,105.9,0.2,3.2,6.239496,1.789552,0,0,Mavic Mini,1SDCH7G0169R0K,1SFLH6Q0AB03DJ,1SRCH7F014TAHX,1U5X071EXP6C8G,DJI Fly,,1.12.8,A888A3BC-ABD2-F3C3-1A40-095D8802E474,1SDCH7G0169R0K,,,,,6.97283681,79.91590479,5,,
3/2/2024,55:43.9,15m 32.4s,932.4,6.972885832,79.91594131,0,0,0.3,57,0,0,0,0,0,0,0,0,0,2.3,-0.3,35,35,,Starting Motors,Auto Fly,Takeoff (RC Assisted),15,5,TRUE,,Mavic Mini,TRUE,FALSE,,Smart,RC,TRUE,TRUE,FALSE,,,TRUE,,FALSE,FALSE,FALSE,FALSE,FALSE,FALSE,FALSE,FALSE,FALSE,FALSE,0,Follow Yaw,0,0,39.1,39.1,FALSE,FALSE,FALSE,FALSE,FALSE,FALSE,,TRUE,Normal,,100,1024,1024,1024,1024,1,FALSE,FALSE,FALSE,FALSE,FALSE,0,FALSE,FALSE,FALSE,FALSE,31,7.176,641,2075,7.168,FALSE,3.591,3.585,0.006,FALSE,FALSE,NA,121.1,121.1,121.1,0,1,0,0,5,2495.1,623.79,,Idle,0,20,FALSE,5,TRUE,7,Go Home,FALSE,FALSE,FALSE,FALSE,FALSE,FALSE,FALSE,FALSE,FALSE,FALSE,FALSE,FALSE,6.972885817,79.915932,3.3,122.9,328,TRUE,1,1,FALSE,FALSE,FALSE,FALSE,,TRUE,FALSE,FALSE,Course Lock,49.2,14.3,16.4,Calm,40,,1.12.8,Mavic Mini,1SDCH7G0169R0K,1SFLH6Q0AB03DJ,1SRCH7F014TAHX,1U5X071EXP6C8G,105.9,0.2,3.2,6.239496,1.789552,0,0,Mavic Mini,1SDCH7G0169R0K,1SFLH6Q0AB03DJ,1SRCH7F014TAHX,1U5X071EXP6C8G,DJI Fly,,1.12.8,A888A3BC-ABD2-F3C3-1A40-095D8802E474,1SDCH7G0169R0K,,,,,6.97283681,79.91590479,5,,
3/2/2024,55:44.1,15m 32.5s,932.5,6.972885895,79.91594121,0,0,0.3,57,0.1,0,0,0,0,0,0,0,0,2.2,-0.3,35,35,,Starting Motors,Auto Fly,Takeoff (RC Assisted),15,5,TRUE,,Mavic Mini,TRUE,FALSE,,Smart,RC,TRUE,TRUE,FALSE,,,TRUE,,FALSE,FALSE,FALSE,FALSE,FALSE,FALSE,FALSE,FALSE,FALSE,FALSE,0,Follow Yaw,0,0,39.1,39.1,FALSE,FALSE,FALSE,FALSE,FALSE,FALSE,,TRUE,Normal,,100,1024,1024,1024,1024,1,FALSE,FALSE,FALSE,FALSE,FALSE,0,FALSE,FALSE,FALSE,FALSE,31,7.176,641,2075,7.168,FALSE,3.591,3.585,0.006,FALSE,FALSE,NA,121.1,121.1,121.1,0,1,0,0,5,2495.1,623.79,,Idle,0,20,FALSE,5,TRUE,7,Go Home,FALSE,FALSE,FALSE,FALSE,FALSE,FALSE,FALSE,FALSE,FALSE,FALSE,FALSE,FALSE,6.972885817,79.915932,3.3,122.9,328,TRUE,1,1,FALSE,FALSE,FALSE,FALSE,,TRUE,FALSE,FALSE,Course Lock,49.2,14.3,16.4,Calm,40,,1.12.8,Mavic Mini,1SDCH7G0169R0K,1SFLH6Q0AB03DJ,1SRCH7F014TAHX,1U5X071EXP6C8G,105.9,0.2,3.2,6.239496,1.789552,0,0,Mavic Mini,1SDCH7G0169R0K,1SFLH6Q0AB03DJ,1SRCH7F014TAHX,1U5X071EXP6C8G,DJI Fly,,1.12.8,A888A3BC-ABD2-F3C3-1A40-095D8802E474,1SDCH7G0169R0K,,,,,6.97283681,79.91590479,5,,
3/2/2024,55:44.1,15m 32.6s,932.6,6.972885899,79.91594117,0,0,0.3,57,0.1,0,0,0,0,0,0,0,0,2.2,-0.3,35,35,,Manual Takeoff,Auto Fly,Takeoff (RC Assisted),15,5,TRUE,,Mavic Mini,TRUE,FALSE,,Smart,RC,TRUE,TRUE,FALSE,,,TRUE,,FALSE,FALSE,FALSE,FALSE,FALSE,FALSE,FALSE,FALSE,FALSE,FALSE,0,Follow Yaw,0,0,39.1,39.1,FALSE,FALSE,FALSE,FALSE,FALSE,FALSE,,TRUE,Normal,,100,1024,1024,1024,1024,1,FALSE,FALSE,FALSE,FALSE,FALSE,0,FALSE,FALSE,FALSE,FALSE,31,7.176,641,2075,7.168,FALSE,3.591,3.585,0.006,FALSE,FALSE,NA,121.1,121.1,121.1,0,1,0,0,5,2495.1,623.79,,Idle,0,20,FALSE,5,TRUE,7,Go Home,FALSE,FALSE,FALSE,FALSE,FALSE,FALSE,FALSE,FALSE,FALSE,FALSE,FALSE,FALSE,6.972885817,79.915932,3.3,122.9,328,TRUE,1,1,FALSE,FALSE,FALSE,FALSE,,TRUE,FALSE,FALSE,Course Lock,49.2,14.3,16.4,Calm,40,,1.12.8,Mavic Mini,1SDCH7G0169R0K,1SFLH6Q0AB03DJ,1SRCH7F014TAHX,1U5X071EXP6C8G,105.9,0.2,3.2,6.239496,1.789552,0,0,Mavic Mini,1SDCH7G0169R0K,1SFLH6Q0AB03DJ,1SRCH7F014TAHX,1U5X071EXP6C8G,DJI Fly,,1.12.8,A888A3BC-ABD2-F3C3-1A40-095D8802E474,1SDCH7G0169R0K,,,,,6.97283681,79.91590479,5,Flight mode changed to Manual Takeoff.,
3/2/2024,55:44.3,15m 32.7s,932.7,6.972885902,79.91594115,0,0,0.3,57,0.1,0,0,0,0,0,0,0,0,2.2,-0.2,35,35,,Manual Takeoff,Auto Fly,Takeoff (RC Assisted),15,5,TRUE,,Mavic Mini,TRUE,FALSE,,Smart,RC,TRUE,TRUE,FALSE,,,TRUE,,FALSE,FALSE,FALSE,FALSE,FALSE,FALSE,FALSE,FALSE,FALSE,FALSE,0,Follow Yaw,0,0,39.1,39.1,FALSE,FALSE,FALSE,FALSE,FALSE,FALSE,,TRUE,Normal,,100,1024,1024,1024,1024,1,FALSE,FALSE,FALSE,FALSE,FALSE,0,FALSE,FALSE,FALSE,FALSE,31,7.176,641,2075,7.168,FALSE,3.591,3.585,0.006,FALSE,FALSE,NA,121.1,121.1,121.1,0,1,0,0,5,2495.1,623.79,,Idle,0,20,FALSE,5,TRUE,7,Go Home,FALSE,FALSE,FALSE,FALSE,FALSE,FALSE,FALSE,FALSE,FALSE,FALSE,FALSE,FALSE,6.972885817,79.915932,3.3,122.9,328,TRUE,1,1,FALSE,FALSE,FALSE,FALSE,,TRUE,FALSE,FALSE,Course Lock,49.2,14.3,16.4,Calm,40,,1.12.8,Mavic Mini,1SDCH7G0169R0K,1SFLH6Q0AB03DJ,1SRCH7F014TAHX,1U5X071EXP6C8G,105.9,0.2,3.2,6.239496,1.789552,0,0,Mavic Mini,1SDCH7G0169R0K,1SFLH6Q0AB03DJ,1SRCH7F014TAHX,1U5X071EXP6C8G,DJI Fly,,1.12.8,A888A3BC-ABD2-F3C3-1A40-095D8802E474,1SDCH7G0169R0K,,,,,6.97283681,79.91590479,5,,
3/2/2024,55:44.4,15m 32.8s,932.8,6.972885905,79.91594113,0,0,0.3,57,0.1,0,0,0,0,0,0,0,0,2.2,-0.2,35,35,,Manual Takeoff,Auto Fly,Takeoff (RC Assisted),15,5,TRUE,,Mavic Mini,TRUE,FALSE,,Smart,RC,TRUE,TRUE,FALSE,,,TRUE,,FALSE,FALSE,FALSE,FALSE,FALSE,FALSE,FALSE,FALSE,FALSE,FALSE,0,Follow Yaw,0,0,39.1,39.1,FALSE,FALSE,FALSE,FALSE,FALSE,FALSE,,TRUE,Normal,,100,1024,1024,1024,1024,1,FALSE,FALSE,FALSE,FALSE,FALSE,0,FALSE,FALSE,FALSE,FALSE,31,7.176,641,2075,7.168,FALSE,3.591,3.585,0.006,FALSE,FALSE,NA,121.1,121.1,121.1,0,1,0,0,5,2495.1,623.79,,Idle,0,20,FALSE,5,TRUE,7,Go Home,FALSE,FALSE,FALSE,FALSE,FALSE,FALSE,FALSE,FALSE,FALSE,FALSE,FALSE,FALSE,6.972885817,79.915932,3.3,122.9,328,TRUE,1,1,FALSE,FALSE,FALSE,FALSE,,TRUE,FALSE,FALSE,Course Lock,49.2,14.3,16.4,Calm,40,,1.12.8,Mavic Mini,1SDCH7G0169R0K,1SFLH6Q0AB03DJ,1SRCH7F014TAHX,1U5X071EXP6C8G,105.9,0.2,3.2,6.239496,1.789552,0,0,Mavic Mini,1SDCH7G0169R0K,1SFLH6Q0AB03DJ,1SRCH7F014TAHX,1U5X071EXP6C8G,DJI Fly,,1.12.8,A888A3BC-ABD2-F3C3-1A40-095D8802E474,1SDCH7G0169R0K,,,,,6.97283681,79.91590479,5,,
3/2/2024,55:44.5,15m 32.9s,932.9,6.972885923,79.91594118,0,0,0.3,57,0.1,0,0,0,0,0,0,0,0,2.2,-0.2,35.1,35.1,,Manual Takeoff,Auto Fly,Takeoff (RC Assisted),15,5,TRUE,,Mavic Mini,TRUE,FALSE,,Smart,RC,TRUE,TRUE,FALSE,,,TRUE,,FALSE,FALSE,FALSE,FALSE,FALSE,FALSE,FALSE,FALSE,FALSE,FALSE,0,Follow Yaw,0,0,39.1,39.1,FALSE,FALSE,FALSE,FALSE,FALSE,FALSE,,TRUE,Normal,,100,1024,1024,1024,1024,1,FALSE,FALSE,FALSE,FALSE,FALSE,0,FALSE,FALSE,FALSE,FALSE,31,7.176,641,2075,7.168,FALSE,3.591,3.585,0.006,FALSE,FALSE,NA,121.1,121.1,121.1,0,1,0,0,5,2495.1,623.79,,Idle,0,20,FALSE,5,TRUE,7,Go Home,FALSE,FALSE,FALSE,FALSE,FALSE,FALSE,FALSE,FALSE,FALSE,FALSE,FALSE,FALSE,6.972885817,79.915932,3.3,122.9,328,TRUE,1,1,FALSE,FALSE,FALSE,FALSE,,TRUE,FALSE,FALSE,Course Lock,49.2,14.3,16.4,Calm,40,,1.12.8,Mavic Mini,1SDCH7G0169R0K,1SFLH6Q0AB03DJ,1SRCH7F014TAHX,1U5X071EXP6C8G,105.9,0.2,3.2,6.239496,1.789552,0,0,Mavic Mini,1SDCH7G0169R0K,1SFLH6Q0AB03DJ,1SRCH7F014TAHX,1U5X071EXP6C8G,DJI Fly,,1.12.8,A888A3BC-ABD2-F3C3-1A40-095D8802E474,1SDCH7G0169R0K,,,,,6.97283681,79.91590479,5,,
3/2/2024,55:44.5,15m 33.0s,933,6.972885923,79.91594116,0,0,0.3,57,0.1,0,0,0,0,0,0,0,0,2.2,-0.3,35.1,35.1,,Manual Takeoff,Auto Fly,Takeoff (RC Assisted),15,5,TRUE,,Mavic Mini,TRUE,FALSE,,Smart,RC,TRUE,TRUE,FALSE,,,TRUE,,FALSE,FALSE,FALSE,FALSE,FALSE,FALSE,FALSE,FALSE,FALSE,FALSE,0,Follow Yaw,0,0,39.1,39.1,FALSE,FALSE,FALSE,FALSE,FALSE,FALSE,,TRUE,Normal,,100,1024,1024,1024,1024,1,FALSE,FALSE,FALSE,FALSE,FALSE,0,FALSE,FALSE,FALSE,FALSE,31,7.173,641,2075,7.185,FALSE,3.59,3.584,0.006,FALSE,FALSE,NA,121.1,121.1,121.1,0,1,0,0,5,2495.1,623.79,,Idle,0,20,FALSE,5,TRUE,7,Go Home,FALSE,FALSE,FALSE,FALSE,FALSE,FALSE,FALSE,FALSE,FALSE,FALSE,FALSE,FALSE,6.972885817,79.915932,3.3,122.9,328,TRUE,1,1,FALSE,FALSE,FALSE,FALSE,,TRUE,FALSE,FALSE,Course Lock,49.2,14.3,16.4,Calm,40,,1.12.8,Mavic Mini,1SDCH7G0169R0K,1SFLH6Q0AB03DJ,1SRCH7F014TAHX,1U5X071EXP6C8G,105.9,0.2,3.2,6.239496,1.789552,0,0,Mavic Mini,1SDCH7G0169R0K,1SFLH6Q0AB03DJ,1SRCH7F014TAHX,1U5X071EXP6C8G,DJI Fly,,1.12.8,A888A3BC-ABD2-F3C3-1A40-095D8802E474,1SDCH7G0169R0K,,,,,6.97283681,79.91590479,5,,
3/2/2024,55:44.7,15m 33.1s,933.1,6.972885921,79.91594111,0,0,0.3,57,0.2,0,0,0,0,0,0,0,0,2.2,-0.2,35.1,35.1,,Manual Takeoff,Auto Fly,Takeoff (RC Assisted),15,5,TRUE,,Mavic Mini,TRUE,FALSE,,Smart,RC,TRUE,TRUE,FALSE,,,TRUE,,FALSE,FALSE,FALSE,FALSE,FALSE,FALSE,FALSE,FALSE,FALSE,FALSE,0,Follow Yaw,0,0,39.1,39.1,FALSE,FALSE,FALSE,FALSE,FALSE,FALSE,,TRUE,Normal,,100,1024,1024,1097,1024,1,FALSE,FALSE,FALSE,FALSE,FALSE,0,FALSE,FALSE,FALSE,FALSE,31,7.173,641,2075,7.185,FALSE,3.59,3.584,0.006,FALSE,FALSE,NA,121.1,121.1,121.1,0,1,0,0,5,2495.1,623.79,,Idle,0,20,FALSE,5,TRUE,7,Go Home,FALSE,FALSE,FALSE,FALSE,FALSE,FALSE,FALSE,FALSE,FALSE,FALSE,FALSE,FALSE,6.972885817,79.915932,3.3,122.9,328,TRUE,1,1,FALSE,FALSE,FALSE,FALSE,,TRUE,FALSE,FALSE,Course Lock,49.2,14.3,16.4,Calm,40,,1.12.8,Mavic Mini,1SDCH7G0169R0K,1SFLH6Q0AB03DJ,1SRCH7F014TAHX,1U5X071EXP6C8G,105.9,0.2,3.2,6.239496,1.789552,0,0,Mavic Mini,1SDCH7G0169R0K,1SFLH6Q0AB03DJ,1SRCH7F014TAHX,1U5X071EXP6C8G,DJI Fly,,1.12.8,A888A3BC-ABD2-F3C3-1A40-095D8802E474,1SDCH7G0169R0K,,,,,6.97283681,79.91590479,5,,
3/2/2024,55:44.8,15m 33.2s,933.2,6.972885906,79.91594107,0,0,0.3,57,0.2,0,0,0,0,0,0,0,0,2.2,-0.2,35.1,35.1,,Manual Takeoff,Auto Fly,Takeoff (RC Assisted),15,5,TRUE,,Mavic Mini,TRUE,FALSE,,Smart,RC,TRUE,TRUE,FALSE,,,TRUE,,FALSE,FALSE,FALSE,FALSE,FALSE,FALSE,FALSE,FALSE,FALSE,FALSE,0,Follow Yaw,0,0,39.1,39.1,FALSE,FALSE,FALSE,FALSE,FALSE,FALSE,,TRUE,Normal,,100,1024,1024,1179,1024,1,FALSE,FALSE,FALSE,FALSE,FALSE,0,FALSE,FALSE,FALSE,FALSE,31,7.173,641,2075,7.185,FALSE,3.59,3.584,0.006,FALSE,FALSE,NA,121.1,121.1,121.1,0,1,0,0,5,2495.1,623.79,,Idle,0,20,FALSE,5,TRUE,7,Go Home,FALSE,FALSE,FALSE,FALSE,FALSE,FALSE,FALSE,FALSE,FALSE,FALSE,FALSE,FALSE,6.972885817,79.915932,3.2,122.9,328,TRUE,1,1,FALSE,FALSE,FALSE,FALSE,,TRUE,FALSE,FALSE,Course Lock,49.2,14.3,16.4,Calm,40,,1.12.8,Mavic Mini,1SDCH7G0169R0K,1SFLH6Q0AB03DJ,1SRCH7F014TAHX,1U5X071EXP6C8G,105.9,0.2,3.2,6.239496,1.789552,0,0,Mavic Mini,1SDCH7G0169R0K,1SFLH6Q0AB03DJ,1SRCH7F014TAHX,1U5X071EXP6C8G,DJI Fly,,1.12.8,A888A3BC-ABD2-F3C3-1A40-095D8802E474,1SDCH7G0169R0K,,,,,6.97283681,79.91590479,5,,
3/2/2024,55:44.8,15m 33.3s,933.3,6.972885775,79.91594104,0,0,0.3,57,0.2,0,0,0,0,0,0,0,0,2.2,-0.2,35.1,35.1,,Manual Takeoff,Auto Fly,Takeoff (RC Assisted),15,5,TRUE,,Mavic Mini,TRUE,FALSE,,Smart,RC,TRUE,TRUE,FALSE,,,TRUE,,FALSE,FALSE,FALSE,FALSE,FALSE,FALSE,FALSE,FALSE,FALSE,FALSE,0,Follow Yaw,0,0,39.1,39.1,FALSE,FALSE,FALSE,FALSE,FALSE,FALSE,,TRUE,Normal,,100,1024,1024,1266,1024,1,FALSE,FALSE,FALSE,FALSE,FALSE,0,FALSE,FALSE,FALSE,FALSE,31,7.173,641,2075,7.185,FALSE,3.59,3.584,0.006,FALSE,FALSE,NA,121.1,121.1,121.1,0,1,0,0,5,2495.1,623.79,,Idle,0,20,FALSE,5,TRUE,7,Go Home,FALSE,FALSE,FALSE,FALSE,FALSE,FALSE,FALSE,FALSE,FALSE,FALSE,FALSE,FALSE,6.972885817,79.915932,3.2,122.9,328,TRUE,1,1,FALSE,FALSE,FALSE,FALSE,,TRUE,FALSE,FALSE,Course Lock,49.2,14.3,16.4,Calm,40,,1.12.8,Mavic Mini,1SDCH7G0169R0K,1SFLH6Q0AB03DJ,1SRCH7F014TAHX,1U5X071EXP6C8G,105.9,0.2,3.2,6.239496,1.789552,0,0,Mavic Mini,1SDCH7G0169R0K,1SFLH6Q0AB03DJ,1SRCH7F014TAHX,1U5X071EXP6C8G,DJI Fly,,1.12.8,A888A3BC-ABD2-F3C3-1A40-095D8802E474,1SDCH7G0169R0K,,,,,6.97283681,79.91590479,5,,
3/2/2024,55:44.9,15m 33.4s,933.4,6.972885731,79.91594103,0,0,0.3,57,0.2,0,0,0,0,0,0,0,0,2.2,-0.2,35,35,,Manual Takeoff,Auto Fly,Takeoff (RC Assisted),15,5,TRUE,,Mavic Mini,TRUE,FALSE,,Smart,RC,TRUE,TRUE,FALSE,,,TRUE,,FALSE,FALSE,FALSE,FALSE,FALSE,FALSE,FALSE,FALSE,FALSE,FALSE,0,Follow Yaw,0,0,39.1,39.1,FALSE,FALSE,FALSE,FALSE,FALSE,FALSE,,TRUE,Normal,,100,1024,1024,1266,1024,1,FALSE,FALSE,FALSE,FALSE,FALSE,0,FALSE,FALSE,FALSE,FALSE,31,7.173,641,2075,7.185,FALSE,3.59,3.584,0.006,FALSE,FALSE,NA,121.1,121.1,121.1,0,1,0,0,5,2495.1,623.79,,Idle,0,20,FALSE,5,TRUE,7,Go Home,FALSE,FALSE,FALSE,FALSE,FALSE,FALSE,FALSE,FALSE,FALSE,FALSE,FALSE,FALSE,6.972885817,79.915932,3.2,122.9,328,TRUE,1,1,FALSE,FALSE,FALSE,FALSE,,TRUE,FALSE,FALSE,Course Lock,49.2,14.3,16.4,Calm,40,,1.12.8,Mavic Mini,1SDCH7G0169R0K,1SFLH6Q0AB03DJ,1SRCH7F014TAHX,1U5X071EXP6C8G,105.9,0.2,3.2,6.239496,1.789552,0,0,Mavic Mini,1SDCH7G0169R0K,1SFLH6Q0AB03DJ,1SRCH7F014TAHX,1U5X071EXP6C8G,DJI Fly,,1.12.8,A888A3BC-ABD2-F3C3-1A40-095D8802E474,1SDCH7G0169R0K,,,,,6.97283681,79.91590479,5,,
3/2/2024,55:45.0,15m 33.5s,933.5,6.972885712,79.91594103,0,0,0.3,57,0.2,0,0,0,0,0,0,0,0,2.2,-0.3,35.1,35.1,,Manual Takeoff,Auto Fly,Takeoff (RC Assisted),15,5,TRUE,,Mavic Mini,TRUE,FALSE,,Smart,RC,TRUE,TRUE,FALSE,,,TRUE,,FALSE,FALSE,FALSE,FALSE,FALSE,FALSE,FALSE,FALSE,FALSE,FALSE,0,Follow Yaw,0,0,39.1,39.1,FALSE,FALSE,FALSE,FALSE,FALSE,FALSE,,TRUE,Normal,,100,1024,1024,1271,1024,1,FALSE,FALSE,FALSE,FALSE,FALSE,0,FALSE,FALSE,FALSE,FALSE,31,7.173,641,2075,7.185,FALSE,3.59,3.584,0.006,FALSE,FALSE,NA,121.1,121.1,121.1,0,1,0,0,5,2495.1,623.79,,Idle,0,20,FALSE,5,TRUE,7,Go Home,FALSE,FALSE,FALSE,FALSE,FALSE,FALSE,FALSE,FALSE,FALSE,FALSE,FALSE,FALSE,6.972885817,79.915932,3.2,122.9,328,TRUE,1,1,FALSE,FALSE,FALSE,FALSE,,TRUE,FALSE,FALSE,Course Lock,49.2,14.3,16.4,Calm,40,,1.12.8,Mavic Mini,1SDCH7G0169R0K,1SFLH6Q0AB03DJ,1SRCH7F014TAHX,1U5X071EXP6C8G,105.9,0.2,3.2,6.239496,1.789552,0,0,Mavic Mini,1SDCH7G0169R0K,1SFLH6Q0AB03DJ,1SRCH7F014TAHX,1U5X071EXP6C8G,DJI Fly,,1.12.8,A888A3BC-ABD2-F3C3-1A40-095D8802E474,1SDCH7G0169R0K,,,,,6.97283681,79.91590479,5,,
3/2/2024,55:45.2,15m 33.6s,933.6,6.972885697,79.91594103,0,0,0.3,57,0.2,0,0,0,0,0,0,0,0,2.3,-0.3,35.1,35.1,,Manual Takeoff,Auto Fly,Takeoff (RC Assisted),15,5,TRUE,,Mavic Mini,TRUE,FALSE,,Smart,RC,TRUE,TRUE,FALSE,,,TRUE,,FALSE,FALSE,FALSE,FALSE,FALSE,FALSE,FALSE,FALSE,FALSE,FALSE,0,Follow Yaw,0,0,39.1,39.1,FALSE,FALSE,FALSE,FALSE,FALSE,FALSE,,TRUE,Normal,,100,1024,1024,1270,1024,1,FALSE,FALSE,FALSE,FALSE,FALSE,0,FALSE,FALSE,FALSE,FALSE,31,7.173,641,2075,7.185,FALSE,3.59,3.584,0.006,FALSE,FALSE,NA,121.1,121.1,121.1,0,1,0,0,5,2495.1,623.79,,Idle,0,20,FALSE,5,TRUE,7,Go Home,FALSE,FALSE,FALSE,FALSE,FALSE,FALSE,FALSE,FALSE,FALSE,FALSE,FALSE,FALSE,6.972885817,79.915932,3.2,122.9,328,TRUE,1,1,FALSE,FALSE,FALSE,FALSE,,TRUE,FALSE,FALSE,Course Lock,49.2,14.3,16.4,Calm,40,,1.12.8,Mavic Mini,1SDCH7G0169R0K,1SFLH6Q0AB03DJ,1SRCH7F014TAHX,1U5X071EXP6C8G,105.9,0.2,3.2,6.239496,1.789552,0,0,Mavic Mini,1SDCH7G0169R0K,1SFLH6Q0AB03DJ,1SRCH7F014TAHX,1U5X071EXP6C8G,DJI Fly,,1.12.8,A888A3BC-ABD2-F3C3-1A40-095D8802E474,1SDCH7G0169R0K,,,,,6.97283681,79.91590479,5,,
3/2/2024,55:45.2,15m 33.7s,933.7,6.972885696,79.91594098,0,0,0.3,57,0.3,0,0,0,0,0,0,0,0,2.2,-0.3,35.1,35.1,,Manual Takeoff,Auto Fly,Takeoff (RC Assisted),15,5,TRUE,,Mavic Mini,TRUE,FALSE,,Smart,RC,TRUE,TRUE,FALSE,,,TRUE,,FALSE,FALSE,FALSE,FALSE,FALSE,FALSE,FALSE,FALSE,FALSE,FALSE,0,Follow Yaw,0,0,39.1,39.1,FALSE,FALSE,FALSE,FALSE,FALSE,FALSE,,TRUE,Normal,,100,1024,1024,1263,1024,1,FALSE,FALSE,FALSE,FALSE,FALSE,0,FALSE,FALSE,FALSE,FALSE,31,7.173,641,2075,7.185,FALSE,3.59,3.584,0.006,FALSE,FALSE,NA,121.1,121.1,121.1,0,1,0,0,5,2495.1,623.79,,Idle,0,20,FALSE,5,TRUE,7,Go Home,FALSE,FALSE,FALSE,FALSE,FALSE,FALSE,FALSE,FALSE,FALSE,FALSE,FALSE,FALSE,6.972885817,79.915932,3.2,122.9,328,TRUE,1,1,FALSE,FALSE,FALSE,FALSE,,TRUE,FALSE,FALSE,Course Lock,49.2,14.3,16.4,Calm,40,,1.12.8,Mavic Mini,1SDCH7G0169R0K,1SFLH6Q0AB03DJ,1SRCH7F014TAHX,1U5X071EXP6C8G,105.9,0.2,3.2,6.239496,1.789552,0,0,Mavic Mini,1SDCH7G0169R0K,1SFLH6Q0AB03DJ,1SRCH7F014TAHX,1U5X071EXP6C8G,DJI Fly,,1.12.8,A888A3BC-ABD2-F3C3-1A40-095D8802E474,1SDCH7G0169R0K,,,,,6.97283681,79.91590479,5,,
3/2/2024,55:45.4,15m 33.8s,933.8,6.972885733,79.91594093,0,0,0.3,57,0.3,0,0,0,0,0,0,0,0,2.2,-0.3,35.1,35.1,,Manual Takeoff,Auto Fly,Takeoff (RC Assisted),15,5,TRUE,,Mavic Mini,TRUE,FALSE,,Smart,RC,TRUE,TRUE,FALSE,,,TRUE,,FALSE,FALSE,FALSE,FALSE,FALSE,FALSE,FALSE,FALSE,FALSE,FALSE,0,Follow Yaw,0,0,39.2,39.2,FALSE,FALSE,FALSE,FALSE,FALSE,FALSE,,TRUE,Normal,,100,1024,1024,1260,1024,1,FALSE,FALSE,FALSE,FALSE,FALSE,0,FALSE,FALSE,FALSE,FALSE,31,7.173,641,2075,7.185,FALSE,3.59,3.584,0.006,FALSE,FALSE,NA,121.1,121.1,121.1,0,1,0,0,5,2495.1,623.79,,Idle,0,20,FALSE,5,TRUE,7,Go Home,FALSE,FALSE,FALSE,FALSE,FALSE,FALSE,FALSE,FALSE,FALSE,FALSE,FALSE,FALSE,6.972885817,79.915932,3.2,122.9,328,TRUE,1,1,FALSE,FALSE,FALSE,FALSE,,TRUE,FALSE,FALSE,Course Lock,49.2,14.3,16.4,Calm,40,,1.12.8,Mavic Mini,1SDCH7G0169R0K,1SFLH6Q0AB03DJ,1SRCH7F014TAHX,1U5X071EXP6C8G,105.9,0.2,3.2,6.239496,1.789552,0,0,Mavic Mini,1SDCH7G0169R0K,1SFLH6Q0AB03DJ,1SRCH7F014TAHX,1U5X071EXP6C8G,DJI Fly,,1.12.8,A888A3BC-ABD2-F3C3-1A40-095D8802E474,1SDCH7G0169R0K,,,,,6.97283681,79.91590479,5,,
3/2/2024,55:45.5,15m 33.9s,933.9,6.972885738,79.91594092,0,0,0.3,57,0.3,0,0,0,0,0,0,0,0,2.1,-0.3,34.5,34.5,,Manual Takeoff,Auto Fly,Takeoff (RC Assisted),15,5,TRUE,,Mavic Mini,TRUE,FALSE,,Smart,RC,TRUE,TRUE,FALSE,,,TRUE,,FALSE,FALSE,FALSE,FALSE,FALSE,FALSE,FALSE,FALSE,FALSE,FALSE,0,Follow Yaw,0,0,39.1,39.1,FALSE,FALSE,FALSE,FALSE,FALSE,FALSE,,TRUE,Normal,,100,1024,1024,1257,1024,1,FALSE,FALSE,FALSE,FALSE,FALSE,0,FALSE,FALSE,FALSE,FALSE,31,7.173,641,2075,7.185,FALSE,3.59,3.584,0.006,FALSE,FALSE,NA,121.1,121.1,121.1,0,1,0,0,5,2495.1,623.79,,Idle,0,20,FALSE,5,TRUE,7,Go Home,FALSE,FALSE,FALSE,FALSE,FALSE,FALSE,FALSE,FALSE,FALSE,FALSE,FALSE,FALSE,6.972885817,79.915932,3.2,122.9,328,TRUE,1,1,FALSE,FALSE,FALSE,FALSE,,TRUE,FALSE,FALSE,Course Lock,49.2,14.3,16.4,Calm,40,,1.12.8,Mavic Mini,1SDCH7G0169R0K,1SFLH6Q0AB03DJ,1SRCH7F014TAHX,1U5X071EXP6C8G,105.9,0.2,3.2,6.239496,1.789552,0,0,Mavic Mini,1SDCH7G0169R0K,1SFLH6Q0AB03DJ,1SRCH7F014TAHX,1U5X071EXP6C8G,DJI Fly,,1.12.8,A888A3BC-ABD2-F3C3-1A40-095D8802E474,1SDCH7G0169R0K,,,,,6.97283681,79.91590479,5,,
3/2/2024,55:45.6,15m 34.0s,934,6.972885729,79.91594091,0,0,0.3,57,0.3,0,0,0,0,0,0,0,0,2.2,-0.5,34.1,34.1,,Manual Takeoff,Auto Fly,Takeoff (RC Assisted),16,5,TRUE,,Mavic Mini,TRUE,FALSE,,Smart,RC,TRUE,TRUE,FALSE,,,TRUE,,FALSE,FALSE,FALSE,FALSE,FALSE,FALSE,FALSE,FALSE,FALSE,FALSE,0,Follow Yaw,0,0,38.7,38.7,FALSE,FALSE,FALSE,FALSE,FALSE,FALSE,,TRUE,Normal,,100,1024,1024,1234,1024,1,FALSE,FALSE,FALSE,FALSE,FALSE,0,FALSE,FALSE,FALSE,FALSE,31,7.173,641,2075,7.145,FALSE,3.59,3.584,0.006,FALSE,FALSE,NA,121.1,121.1,121.1,0,1,0,0,5,2643.9,660.97,,Idle,0,20,FALSE,5,TRUE,7,Go Home,FALSE,FALSE,FALSE,FALSE,FALSE,FALSE,FALSE,FALSE,FALSE,FALSE,FALSE,FALSE,6.972885817,79.915932,3.2,122.9,328,TRUE,1,1,FALSE,FALSE,FALSE,FALSE,,TRUE,FALSE,FALSE,Course Lock,49.2,14.3,16.4,Calm,40,,1.12.8,Mavic Mini,1SDCH7G0169R0K,1SFLH6Q0AB03DJ,1SRCH7F014TAHX,1U5X071EXP6C8G,105.9,0.2,3.2,6.239496,1.789552,0,0,Mavic Mini,1SDCH7G0169R0K,1SFLH6Q0AB03DJ,1SRCH7F014TAHX,1U5X071EXP6C8G,DJI Fly,,1.12.8,A888A3BC-ABD2-F3C3-1A40-095D8802E474,1SDCH7G0169R0K,,,,,6.97283681,79.91590479,5,,
3/2/2024,55:45.8,15m 34.1s,934.1,6.972885675,79.9159409,0,0,0.3,57,0.3,0,0,0,0,0,0,0,0,2.2,-0.6,33.7,33.7,,Manual Takeoff,Auto Fly,Takeoff (RC Assisted),16,5,TRUE,,Mavic Mini,TRUE,FALSE,,Smart,RC,TRUE,TRUE,FALSE,,,TRUE,,FALSE,FALSE,FALSE,FALSE,FALSE,FALSE,FALSE,FALSE,FALSE,FALSE,0,Follow Yaw,0,0,38.4,38.4,FALSE,FALSE,FALSE,FALSE,FALSE,FALSE,,TRUE,Normal,,100,1024,1024,1216,1024,1,FALSE,FALSE,FALSE,FALSE,FALSE,0,FALSE,FALSE,FALSE,FALSE,31,7.112,641,2075,7.145,FALSE,3.561,3.551,0.01,FALSE,FALSE,NA,121.1,121.1,121.1,0,1,0,0,5,2643.9,660.97,,Idle,0,20,FALSE,5,TRUE,7,Go Home,FALSE,FALSE,FALSE,FALSE,FALSE,FALSE,FALSE,FALSE,FALSE,FALSE,FALSE,FALSE,6.972885817,79.915932,3.2,122.9,328,TRUE,1,1,FALSE,FALSE,FALSE,FALSE,,TRUE,FALSE,FALSE,Course Lock,49.2,14.3,16.4,Calm,40,,1.12.8,Mavic Mini,1SDCH7G0169R0K,1SFLH6Q0AB03DJ,1SRCH7F014TAHX,1U5X071EXP6C8G,105.9,0.2,3.2,6.239496,1.789552,0,0,Mavic Mini,1SDCH7G0169R0K,1SFLH6Q0AB03DJ,1SRCH7F014TAHX,1U5X071EXP6C8G,DJI Fly,,1.12.8,A888A3BC-ABD2-F3C3-1A40-095D8802E474,1SDCH7G0169R0K,,,,,6.97283681,79.91590479,5,,
3/2/2024,55:45.9,15m 34.2s,934.2,6.972885614,79.91594096,0,0,0.3,57,0.3,0,0,0,0,0,0,0,0,2,-0.4,33.2,33.2,,Manual Takeoff,Auto Fly,Takeoff (RC Assisted),16,5,TRUE,,Mavic Mini,TRUE,FALSE,,Smart,RC,TRUE,TRUE,FALSE,,,TRUE,,FALSE,FALSE,FALSE,FALSE,FALSE,FALSE,FALSE,FALSE,FALSE,FALSE,0,Follow Yaw,0,0,38,38,FALSE,FALSE,FALSE,FALSE,FALSE,FALSE,,TRUE,Normal,,100,1024,1024,1216,1024,1,FALSE,FALSE,FALSE,FALSE,FALSE,0,FALSE,FALSE,FALSE,FALSE,31,7.112,641,2075,7.145,FALSE,3.561,3.551,0.01,FALSE,FALSE,NA,121.1,121.1,121.1,0,1,0,0,5,2643.9,660.97,,Idle,0,20,FALSE,5,TRUE,7,Go Home,FALSE,FALSE,FALSE,FALSE,FALSE,FALSE,FALSE,FALSE,FALSE,FALSE,FALSE,FALSE,6.972885817,79.915932,3.2,122.9,328,TRUE,1,1,FALSE,FALSE,FALSE,FALSE,,TRUE,FALSE,FALSE,Course Lock,49.2,14.3,16.4,Calm,40,,1.12.8,Mavic Mini,1SDCH7G0169R0K,1SFLH6Q0AB03DJ,1SRCH7F014TAHX,1U5X071EXP6C8G,105.9,0.2,3.2,6.239496,1.789552,0,0,Mavic Mini,1SDCH7G0169R0K,1SFLH6Q0AB03DJ,1SRCH7F014TAHX,1U5X071EXP6C8G,DJI Fly,,1.12.8,A888A3BC-ABD2-F3C3-1A40-095D8802E474,1SDCH7G0169R0K,,,,,6.97283681,79.91590479,5,,
3/2/2024,55:45.9,15m 34.3s,934.3,6.972885643,79.91594091,0,0,0.3,57,0.4,0,0,0,0,0,0,0,0,1.6,-0.4,32.5,32.5,,Manual Takeoff,Auto Fly,Takeoff (RC Assisted),16,5,TRUE,,Mavic Mini,TRUE,FALSE,,Smart,RC,TRUE,TRUE,FALSE,,,TRUE,,FALSE,FALSE,FALSE,FALSE,FALSE,FALSE,FALSE,FALSE,FALSE,FALSE,0,Follow Yaw,0,0,37.5,37.5,FALSE,FALSE,FALSE,FALSE,FALSE,FALSE,,TRUE,Normal,,100,1024,1024,1216,1024,1,FALSE,FALSE,FALSE,FALSE,FALSE,0,FALSE,FALSE,FALSE,FALSE,31,7.112,641,2075,7.145,FALSE,3.561,3.551,0.01,FALSE,FALSE,NA,121.1,121.1,121.1,0,1,0,0,5,2643.9,660.97,,Idle,0,20,FALSE,5,TRUE,7,Go Home,FALSE,FALSE,FALSE,FALSE,FALSE,FALSE,FALSE,FALSE,FALSE,FALSE,FALSE,FALSE,6.972885817,79.915932,3.2,122.9,328,TRUE,1,1,FALSE,FALSE,FALSE,FALSE,,TRUE,FALSE,FALSE,Course Lock,49.2,14.3,16.4,Calm,40,,1.12.8,Mavic Mini,1SDCH7G0169R0K,1SFLH6Q0AB03DJ,1SRCH7F014TAHX,1U5X071EXP6C8G,105.9,0.2,3.2,6.239496,1.789552,0,0,Mavic Mini,1SDCH7G0169R0K,1SFLH6Q0AB03DJ,1SRCH7F014TAHX,1U5X071EXP6C8G,DJI Fly,,1.12.8,A888A3BC-ABD2-F3C3-1A40-095D8802E474,1SDCH7G0169R0K,,,,,6.97283681,79.91590479,5,,
3/2/2024,55:46.1,15m 34.4s,934.4,6.972885651,79.91594088,0,0,0.3,57,0.4,0,0,0,0,0,0,0,0,0.6,-0.3,32,32,,Manual Takeoff,Auto Fly,Takeoff (RC Assisted),15,5,TRUE,,Mavic Mini,TRUE,FALSE,,Smart,RC,TRUE,TRUE,FALSE,,,TRUE,,FALSE,FALSE,FALSE,FALSE,FALSE,FALSE,FALSE,FALSE,FALSE,FALSE,0,Follow Yaw,0,0,37,37,FALSE,FALSE,FALSE,FALSE,FALSE,FALSE,,TRUE,Normal,,100,1024,1024,1215,1024,1,FALSE,FALSE,FALSE,FALSE,FALSE,0,FALSE,FALSE,FALSE,FALSE,31,7.112,641,2075,7.145,FALSE,3.561,3.551,0.01,FALSE,FALSE,NA,121.1,121.1,121.1,0,1,0,0,5,2643.9,660.97,,Idle,0,20,FALSE,5,TRUE,7,Go Home,FALSE,FALSE,FALSE,FALSE,FALSE,FALSE,FALSE,FALSE,FALSE,FALSE,FALSE,FALSE,6.972885817,79.915932,3.2,122.9,328,TRUE,1,1,FALSE,FALSE,FALSE,FALSE,,TRUE,FALSE,FALSE,Course Lock,49.2,14.3,16.4,Calm,40,,1.12.8,Mavic Mini,1SDCH7G0169R0K,1SFLH6Q0AB03DJ,1SRCH7F014TAHX,1U5X071EXP6C8G,105.9,0.2,3.2,6.239496,1.789552,0,0,Mavic Mini,1SDCH7G0169R0K,1SFLH6Q0AB03DJ,1SRCH7F014TAHX,1U5X071EXP6C8G,DJI Fly,,1.12.8,A888A3BC-ABD2-F3C3-1A40-095D8802E474,1SDCH7G0169R0K,,,,,6.97283681,79.91590479,5,,
3/2/2024,55:46.2,15m 34.5s,934.5,6.972885591,79.9159409,0,0,0.3,57,0.4,0,0,0,0,0,0,-0.223694,0,0.2,-0.7,31.2,31.2,,Manual Takeoff,Auto Fly,,15,5,TRUE,,Mavic Mini,TRUE,FALSE,,Smart,RC,FALSE,TRUE,FALSE,,,TRUE,,FALSE,FALSE,FALSE,FALSE,FALSE,FALSE,FALSE,FALSE,FALSE,FALSE,0,Follow Yaw,0,0,36.3,36.3,FALSE,FALSE,FALSE,FALSE,FALSE,FALSE,,TRUE,Normal,,100,1024,1024,1215,1024,1,FALSE,FALSE,FALSE,FALSE,FALSE,0,FALSE,FALSE,FALSE,FALSE,31,7.112,641,2075,7.145,FALSE,3.561,3.551,0.01,FALSE,FALSE,NA,121.1,121.1,121.1,0,1,0,0,5,2643.9,660.97,,Idle,0,20,FALSE,5,TRUE,7,Go Home,FALSE,FALSE,FALSE,FALSE,FALSE,FALSE,FALSE,FALSE,FALSE,FALSE,FALSE,FALSE,6.972885817,79.915932,3.2,122.9,328,TRUE,1,1,FALSE,FALSE,FALSE,FALSE,,TRUE,FALSE,FALSE,Course Lock,49.2,14.3,16.4,Calm,40,,1.12.8,Mavic Mini,1SDCH7G0169R0K,1SFLH6Q0AB03DJ,1SRCH7F014TAHX,1U5X071EXP6C8G,105.9,0.2,3.2,6.239496,1.789552,0,0,Mavic Mini,1SDCH7G0169R0K,1SFLH6Q0AB03DJ,1SRCH7F014TAHX,1U5X071EXP6C8G,DJI Fly,,1.12.8,A888A3BC-ABD2-F3C3-1A40-095D8802E474,1SDCH7G0169R0K,,,,,6.97283681,79.91590479,5,,
3/2/2024,55:46.2,15m 34.6s,934.6,6.972885573,79.91594091,0,0,0.3,57,0.4,0,0,0,0,0,0,-0.671082,0,-0.1,-0.9,31.1,31.1,,P-GPS,Auto Fly,,15,5,TRUE,,Mavic Mini,TRUE,FALSE,,Smart,RC,FALSE,TRUE,FALSE,,,TRUE,,FALSE,FALSE,FALSE,FALSE,FALSE,FALSE,FALSE,FALSE,FALSE,FALSE,0,Follow Yaw,0,0,36,36,FALSE,FALSE,FALSE,FALSE,FALSE,FALSE,,TRUE,Normal,,100,1024,1024,1198,1024,1,FALSE,FALSE,FALSE,FALSE,FALSE,0,FALSE,FALSE,FALSE,FALSE,31,7.112,641,2075,7.145,FALSE,3.561,3.551,0.01,FALSE,FALSE,NA,121.1,121.1,121.1,0,1,0,0,5,2643.9,660.97,,Idle,0,20,FALSE,5,TRUE,7,Go Home,FALSE,FALSE,FALSE,FALSE,FALSE,FALSE,FALSE,FALSE,FALSE,FALSE,FALSE,FALSE,6.972885817,79.915932,3.2,122.9,328,TRUE,1,1,FALSE,FALSE,FALSE,FALSE,,TRUE,FALSE,FALSE,Course Lock,49.2,14.3,16.4,Calm,40,,1.12.8,Mavic Mini,1SDCH7G0169R0K,1SFLH6Q0AB03DJ,1SRCH7F014TAHX,1U5X071EXP6C8G,105.9,0.2,3.2,6.239496,1.789552,0,0,Mavic Mini,1SDCH7G0169R0K,1SFLH6Q0AB03DJ,1SRCH7F014TAHX,1U5X071EXP6C8G,DJI Fly,,1.12.8,A888A3BC-ABD2-F3C3-1A40-095D8802E474,1SDCH7G0169R0K,,,,,6.97283681,79.91590479,5,Flight mode changed to P-GPS.,
3/2/2024,55:46.3,15m 34.7s,934.7,6.97288555,79.91594094,0,0,0.6,57,0.4,0,0,0,0,0,0,-0.894776,0,0.5,-1.1,31.3,31.3,,P-GPS,Auto Fly,,15,5,TRUE,,Mavic Mini,TRUE,FALSE,,Smart,RC,FALSE,TRUE,FALSE,,,TRUE,,FALSE,FALSE,FALSE,FALSE,FALSE,FALSE,FALSE,FALSE,FALSE,FALSE,0,Follow Yaw,0,0,36,36,FALSE,FALSE,FALSE,FALSE,FALSE,FALSE,,TRUE,Normal,,100,1024,1024,1157,1024,1,FALSE,FALSE,FALSE,FALSE,FALSE,0,FALSE,FALSE,FALSE,FALSE,31,7.112,641,2075,7.145,FALSE,3.561,3.551,0.01,FALSE,FALSE,NA,121.1,121.1,121.1,0,1,0,0,5,2643.9,660.97,,Idle,0,20,FALSE,5,TRUE,7,Go Home,FALSE,FALSE,FALSE,FALSE,FALSE,FALSE,FALSE,FALSE,FALSE,FALSE,FALSE,FALSE,6.972885817,79.915932,3.2,122.9,328,TRUE,1,1,FALSE,FALSE,FALSE,FALSE,,TRUE,FALSE,FALSE,Course Lock,49.2,14.3,16.4,Calm,40,,1.12.8,Mavic Mini,1SDCH7G0169R0K,1SFLH6Q0AB03DJ,1SRCH7F014TAHX,1U5X071EXP6C8G,105.9,0.2,3.2,6.239496,1.789552,0,0,Mavic Mini,1SDCH7G0169R0K,1SFLH6Q0AB03DJ,1SRCH7F014TAHX,1U5X071EXP6C8G,DJI Fly,,1.12.8,A888A3BC-ABD2-F3C3-1A40-095D8802E474,1SDCH7G0169R0K,,,,,6.97283681,79.91590479,5,,
3/2/2024,55:46.4,15m 34.8s,934.8,6.972885536,79.91594096,0.3,0.3,0.6,57,0.4,0,0,0,0,0,0,-1.11847,0,0.9,-0.7,31.4,31.4,,P-GPS,Auto Fly,,16,5,TRUE,,Mavic Mini,TRUE,FALSE,,Smart,RC,FALSE,TRUE,FALSE,,,TRUE,,FALSE,FALSE,FALSE,FALSE,FALSE,FALSE,FALSE,FALSE,FALSE,FALSE,0,Follow Yaw,0,0,36,36,FALSE,FALSE,FALSE,FALSE,FALSE,FALSE,,TRUE,Normal,,100,1024,1024,1141,1024,1,FALSE,FALSE,FALSE,FALSE,FALSE,0,FALSE,FALSE,FALSE,FALSE,31,7.112,641,2075,7.145,FALSE,3.561,3.551,0.01,FALSE,FALSE,NA,121.1,121.1,121.1,0,1,0,0,5,2643.9,660.97,,Idle,0,20,FALSE,5,TRUE,7,Go Home,FALSE,FALSE,FALSE,FALSE,FALSE,FALSE,FALSE,FALSE,FALSE,FALSE,FALSE,FALSE,6.972885817,79.915932,3.2,122.9,328,TRUE,1,1,FALSE,FALSE,FALSE,FALSE,,TRUE,FALSE,FALSE,Course Lock,49.2,14.3,16.4,Calm,40,,1.12.8,Mavic Mini,1SDCH7G0169R0K,1SFLH6Q0AB03DJ,1SRCH7F014TAHX,1U5X071EXP6C8G,105.9,0.2,3.2,6.239496,1.789552,0,0,Mavic Mini,1SDCH7G0169R0K,1SFLH6Q0AB03DJ,1SRCH7F014TAHX,1U5X071EXP6C8G,DJI Fly,,1.12.8,A888A3BC-ABD2-F3C3-1A40-095D8802E474,1SDCH7G0169R0K,,,,,6.97283681,79.91590479,5,,
3/2/2024,55:46.4,15m 34.9s,934.9,6.972885527,79.91594107,0.3,0.3,0.6,57,0.5,0,0,0,0,0,0,-1.342164,0,0.4,-0.8,31.5,31.5,,P-GPS,Auto Fly,,16,5,TRUE,,Mavic Mini,TRUE,FALSE,,Smart,RC,FALSE,TRUE,FALSE,,,TRUE,,FALSE,FALSE,FALSE,FALSE,FALSE,FALSE,FALSE,FALSE,FALSE,FALSE,0,Follow Yaw,0,0,36,36,FALSE,FALSE,FALSE,FALSE,FALSE,FALSE,,TRUE,Normal,,100,1024,1024,1138,1024,1,FALSE,FALSE,FALSE,FALSE,FALSE,0,FALSE,FALSE,FALSE,FALSE,31,7.112,641,2075,7.145,FALSE,3.561,3.551,0.01,FALSE,FALSE,NA,121.1,121.1,121.1,0,1,0,0,5,2643.9,660.97,,Idle,0,20,FALSE,5,TRUE,7,Go Home,FALSE,FALSE,FALSE,FALSE,FALSE,FALSE,FALSE,FALSE,FALSE,FALSE,FALSE,FALSE,6.972885817,79.915932,3.2,122.9,328,TRUE,1,1,FALSE,FALSE,FALSE,FALSE,,TRUE,FALSE,FALSE,Course Lock,49.2,14.3,16.4,Calm,40,,1.12.8,Mavic Mini,1SDCH7G0169R0K,1SFLH6Q0AB03DJ,1SRCH7F014TAHX,1U5X071EXP6C8G,105.9,0.2,3.2,6.239496,1.789552,0,0,Mavic Mini,1SDCH7G0169R0K,1SFLH6Q0AB03DJ,1SRCH7F014TAHX,1U5X071EXP6C8G,DJI Fly,,1.12.8,A888A3BC-ABD2-F3C3-1A40-095D8802E474,1SDCH7G0169R0K,,,,,6.97283681,79.91590479,5,,
3/2/2024,55:46.6,15m 35.0s,935,6.972885558,79.91594125,0.6,0.6,0.9,57,0.5,0,0,0,0,0,0,-1.342164,0,0.2,-1.5,31.6,31.6,,P-GPS,Auto Fly,,16,5,TRUE,,Mavic Mini,TRUE,FALSE,,Smart,RC,FALSE,TRUE,FALSE,,,TRUE,,FALSE,FALSE,FALSE,FALSE,FALSE,FALSE,FALSE,FALSE,FALSE,FALSE,0,Follow Yaw,0,0,36,36,FALSE,FALSE,FALSE,FALSE,FALSE,FALSE,,TRUE,Normal,,100,1024,1024,1035,1024,1,FALSE,FALSE,FALSE,FALSE,FALSE,0,FALSE,FALSE,FALSE,FALSE,31,7.112,641,2075,7.101,FALSE,3.561,3.551,0.01,FALSE,FALSE,NA,121.1,121.1,121.1,0,0,2,0,5,2937.2,734.31,,Idle,0,20,FALSE,5,TRUE,7,Go Home,FALSE,FALSE,FALSE,FALSE,FALSE,FALSE,FALSE,FALSE,FALSE,FALSE,FALSE,FALSE,6.972885591,79.9159409,0.1,122.9,328,TRUE,1,1,FALSE,FALSE,FALSE,FALSE,,TRUE,FALSE,FALSE,Course Lock,49.2,14.3,16.4,Calm,40,,1.12.8,Mavic Mini,1SDCH7G0169R0K,1SFLH6Q0AB03DJ,1SRCH7F014TAHX,1U5X071EXP6C8G,105.9,0.2,3.2,6.239496,1.789552,0,0,Mavic Mini,1SDCH7G0169R0K,1SFLH6Q0AB03DJ,1SRCH7F014TAHX,1U5X071EXP6C8G,DJI Fly,,1.12.8,A888A3BC-ABD2-F3C3-1A40-095D8802E474,1SDCH7G0169R0K,,,,,6.97283681,79.91590479,5,Home Point Updated.,
3/2/2024,55:46.6,15m 35.1s,935.1,6.972885561,79.91594131,0.6,0.6,0.9,57,0.6,0,0,0,0,0,0,-1.342164,0,0.4,-1.7,31.5,31.5,,P-GPS,Auto Fly,,16,5,TRUE,,Mavic Mini,TRUE,FALSE,,Smart,RC,FALSE,TRUE,FALSE,,,TRUE,,FALSE,FALSE,FALSE,FALSE,FALSE,FALSE,FALSE,FALSE,FALSE,FALSE,0,Follow Yaw,0,0,36,36,FALSE,FALSE,FALSE,FALSE,FALSE,FALSE,,TRUE,Normal,,100,1024,1024,1024,1024,1,FALSE,FALSE,FALSE,FALSE,FALSE,0,FALSE,FALSE,FALSE,FALSE,31,7.112,641,2075,7.101,FALSE,3.561,3.551,0.01,FALSE,FALSE,NA,121.1,121.1,121.1,0,0,2,0,5,2937.2,734.31,,Idle,0,20,FALSE,5,TRUE,7,Go Home,FALSE,FALSE,FALSE,FALSE,FALSE,FALSE,FALSE,FALSE,FALSE,FALSE,FALSE,FALSE,6.972885591,79.9159409,0.1,122.9,328,TRUE,1,1,FALSE,FALSE,FALSE,FALSE,,TRUE,FALSE,FALSE,Course Lock,49.2,14.3,16.4,Calm,40,,1.12.8,Mavic Mini,1SDCH7G0169R0K,1SFLH6Q0AB03DJ,1SRCH7F014TAHX,1U5X071EXP6C8G,105.9,0.2,3.2,6.239496,1.789552,0,0,Mavic Mini,1SDCH7G0169R0K,1SFLH6Q0AB03DJ,1SRCH7F014TAHX,1U5X071EXP6C8G,DJI Fly,,1.12.8,A888A3BC-ABD2-F3C3-1A40-095D8802E474,1SDCH7G0169R0K,,,,,6.97283681,79.91590479,5,Home Point updated. RTH altitude adjusted to 15 m!ҵX (Code: 120852).,
3/2/2024,55:46.7,15m 35.2s,935.2,6.972885569,79.91594138,0.9,0.9,1.3,58,0.6,0,0,0,0,0,0,-1.11847,0,0.5,-1.6,31.5,31.5,,P-GPS,Auto Fly,,16,5,TRUE,,Mavic Mini,TRUE,FALSE,,Smart,RC,FALSE,TRUE,FALSE,,,TRUE,,FALSE,FALSE,FALSE,FALSE,FALSE,FALSE,FALSE,FALSE,FALSE,FALSE,0,Follow Yaw,0,0,36,36,FALSE,FALSE,FALSE,FALSE,FALSE,FALSE,,TRUE,Normal,,100,1024,1024,1024,1024,1,FALSE,FALSE,FALSE,FALSE,FALSE,0,FALSE,FALSE,FALSE,FALSE,31,7.015,641,2075,7.101,FALSE,3.509,3.506,0.01,FALSE,FALSE,NA,121.1,121.1,121.1,0,0,2,0,5,2937.2,734.31,,Idle,0,20,FALSE,5,TRUE,7,Go Home,FALSE,FALSE,FALSE,FALSE,FALSE,FALSE,FALSE,FALSE,FALSE,FALSE,FALSE,FALSE,6.972885591,79.9159409,0.1,122.9,328,TRUE,1,1,FALSE,FALSE,FALSE,FALSE,,TRUE,FALSE,FALSE,Course Lock,49.2,14.3,16.4,Calm,40,,1.12.8,Mavic Mini,1SDCH7G0169R0K,1SFLH6Q0AB03DJ,1SRCH7F014TAHX,1U5X071EXP6C8G,105.9,0.2,3.2,6.239496,1.789552,0,0,Mavic Mini,1SDCH7G0169R0K,1SFLH6Q0AB03DJ,1SRCH7F014TAHX,1U5X071EXP6C8G,DJI Fly,,1.12.8,A888A3BC-ABD2-F3C3-1A40-095D8802E474,1SDCH7G0169R0K,,,,,6.97283681,79.91590479,5,,
3/2/2024,55:46.8,15m 35.3s,935.3,6.972885571,79.91594147,0.9,0.9,1.3,58,0.6,0,0,0,0,0,0,-1.11847,0,0.6,-1.7,31.6,31.6,,P-GPS,Auto Fly,,16,5,TRUE,,Mavic Mini,TRUE,FALSE,,Smart,RC,FALSE,TRUE,FALSE,,,TRUE,,FALSE,FALSE,FALSE,FALSE,FALSE,FALSE,FALSE,FALSE,FALSE,FALSE,0,Follow Yaw,0,0,36,36,FALSE,FALSE,FALSE,FALSE,FALSE,FALSE,,TRUE,Normal,,100,1024,1024,1024,1024,1,FALSE,FALSE,FALSE,FALSE,FALSE,0,FALSE,FALSE,FALSE,FALSE,31,7.015,638,2075,7.101,FALSE,3.509,3.506,0.01,FALSE,FALSE,NA,121.1,121.1,121.1,0,0,2,0,5,2937.2,734.31,,Idle,0,20,FALSE,5,TRUE,7,Go Home,FALSE,FALSE,FALSE,FALSE,FALSE,FALSE,FALSE,FALSE,FALSE,FALSE,FALSE,FALSE,6.972885591,79.9159409,0.2,122.9,328,TRUE,1,1,FALSE,FALSE,FALSE,FALSE,,TRUE,FALSE,FALSE,Course Lock,49.2,14.3,16.4,Calm,40,,1.12.8,Mavic Mini,1SDCH7G0169R0K,1SFLH6Q0AB03DJ,1SRCH7F014TAHX,1U5X071EXP6C8G,105.9,0.2,3.2,6.239496,1.789552,0,0,Mavic Mini,1SDCH7G0169R0K,1SFLH6Q0AB03DJ,1SRCH7F014TAHX,1U5X071EXP6C8G,DJI Fly,,1.12.8,A888A3BC-ABD2-F3C3-1A40-095D8802E474,1SDCH7G0169R0K,,,,,6.97283681,79.91590479,5,,
3/2/2024,55:46.9,15m 35.4s,935.4,6.972885575,79.91594151,1.3,1.3,1.6,58,0.6,0,0,0,0,0,0,-0.894776,0,0.3,-1.4,31.7,31.7,,P-GPS,Auto Fly,,16,5,TRUE,,Mavic Mini,TRUE,FALSE,,Smart,RC,FALSE,TRUE,FALSE,,,TRUE,,FALSE,FALSE,FALSE,FALSE,FALSE,FALSE,FALSE,FALSE,FALSE,FALSE,0,Follow Yaw,0,0,36,36,FALSE,FALSE,FALSE,FALSE,FALSE,FALSE,,TRUE,Normal,,100,1024,1024,1024,1024,1,FALSE,FALSE,FALSE,FALSE,FALSE,0,FALSE,FALSE,FALSE,FALSE,31,7.015,638,2075,7.101,FALSE,3.509,3.506,0.01,FALSE,FALSE,NA,121.1,121.1,121.1,0,0,2,0,5,2937.2,734.31,,Idle,0,20,FALSE,5,TRUE,7,Go Home,FALSE,FALSE,FALSE,FALSE,FALSE,FALSE,FALSE,FALSE,FALSE,FALSE,FALSE,FALSE,6.972885591,79.9159409,0.2,122.9,328,TRUE,1,1,FALSE,FALSE,FALSE,FALSE,,TRUE,FALSE,FALSE,Course Lock,49.2,14.3,16.4,Calm,40,,1.12.8,Mavic Mini,1SDCH7G0169R0K,1SFLH6Q0AB03DJ,1SRCH7F014TAHX,1U5X071EXP6C8G,105.9,0.2,3.2,6.239496,1.789552,0,0,Mavic Mini,1SDCH7G0169R0K,1SFLH6Q0AB03DJ,1SRCH7F014TAHX,1U5X071EXP6C8G,DJI Fly,,1.12.8,A888A3BC-ABD2-F3C3-1A40-095D8802E474,1SDCH7G0169R0K,,,,,6.97283681,79.91590479,5,,
3/2/2024,55:47.0,15m 35.5s,935.5,6.972885512,79.9159415,1.3,1.3,1.6,58,0.7,0,0,0,0,0,0,-0.447388,0,0,-1.4,31.7,31.7,,P-GPS,Auto Fly,,16,5,TRUE,,Mavic Mini,TRUE,FALSE,,Smart,RC,FALSE,TRUE,FALSE,,,TRUE,,FALSE,FALSE,FALSE,FALSE,FALSE,FALSE,FALSE,FALSE,FALSE,FALSE,0,Follow Yaw,0,0,36,36,FALSE,FALSE,FALSE,FALSE,FALSE,FALSE,,TRUE,Normal,,100,1024,1024,1024,1024,1,FALSE,FALSE,FALSE,FALSE,FALSE,0,FALSE,FALSE,FALSE,FALSE,31,7.015,638,2075,7.101,FALSE,3.509,3.506,0.01,FALSE,FALSE,NA,121.1,121.1,121.1,0,0,2,0,5,2937.2,734.31,,Idle,0,20,FALSE,5,TRUE,7,Go Home,FALSE,FALSE,FALSE,FALSE,FALSE,FALSE,FALSE,FALSE,FALSE,FALSE,FALSE,FALSE,6.972885591,79.9159409,0.2,122.9,328,TRUE,1,1,FALSE,FALSE,FALSE,FALSE,,TRUE,FALSE,FALSE,Course Lock,49.2,14.3,16.4,Calm,40,,1.12.8,Mavic Mini,1SDCH7G0169R0K,1SFLH6Q0AB03DJ,1SRCH7F014TAHX,1U5X071EXP6C8G,105.9,0.2,3.2,6.239496,1.789552,0,0,Mavic Mini,1SDCH7G0169R0K,1SFLH6Q0AB03DJ,1SRCH7F014TAHX,1U5X071EXP6C8G,DJI Fly,,1.12.8,A888A3BC-ABD2-F3C3-1A40-095D8802E474,1SDCH7G0169R0K,,,,,6.97283681,79.91590479,5,,
3/2/2024,55:47.1,15m 35.6s,935.6,6.972885433,79.91594149,1.3,1.3,1.6,58,0.7,0,0,0,0,0,0,-0.223694,0,-0.3,-1.6,31.6,31.6,,P-GPS,Auto Fly,,16,5,TRUE,,Mavic Mini,TRUE,FALSE,,Smart,RC,FALSE,TRUE,FALSE,,,TRUE,,FALSE,FALSE,FALSE,FALSE,FALSE,FALSE,FALSE,FALSE,FALSE,FALSE,0,Follow Yaw,0,0,36,36,FALSE,FALSE,FALSE,FALSE,FALSE,FALSE,,TRUE,Normal,,100,1024,1024,1024,1024,1,FALSE,FALSE,FALSE,FALSE,FALSE,0,FALSE,FALSE,FALSE,FALSE,31,7.015,638,2075,7.101,FALSE,3.509,3.506,0.01,FALSE,FALSE,NA,121.1,121.1,121.1,0,0,2,0,5,2937.2,734.31,,Idle,0,20,FALSE,5,TRUE,7,Go Home,FALSE,FALSE,FALSE,FALSE,FALSE,FALSE,FALSE,FALSE,FALSE,FALSE,FALSE,FALSE,6.972885591,79.9159409,0.2,122.9,328,TRUE,1,1,FALSE,FALSE,FALSE,FALSE,,TRUE,FALSE,FALSE,Course Lock,49.2,14.3,16.4,Calm,40,,1.12.8,Mavic Mini,1SDCH7G0169R0K,1SFLH6Q0AB03DJ,1SRCH7F014TAHX,1U5X071EXP6C8G,105.9,0.2,3.2,6.239496,1.789552,0,0,Mavic Mini,1SDCH7G0169R0K,1SFLH6Q0AB03DJ,1SRCH7F014TAHX,1U5X071EXP6C8G,DJI Fly,,1.12.8,A888A3BC-ABD2-F3C3-1A40-095D8802E474,1SDCH7G0169R0K,,,,,6.97283681,79.91590479,5,,
3/2/2024,55:47.1,15m 35.7s,935.7,6.972885291,79.91594142,1.3,1.3,1.6,58,0.7,0,0,0,0,0,0,0,0,-0.5,-2,31.5,31.5,,P-GPS,Auto Fly,,16,5,TRUE,,Mavic Mini,TRUE,FALSE,,Smart,RC,FALSE,TRUE,FALSE,,,TRUE,,FALSE,FALSE,FALSE,FALSE,FALSE,FALSE,FALSE,FALSE,FALSE,FALSE,0,Follow Yaw,0,0,36,36,FALSE,FALSE,FALSE,FALSE,FALSE,FALSE,,TRUE,Normal,,100,1024,1024,1024,1024,1,FALSE,FALSE,FALSE,FALSE,FALSE,0,FALSE,FALSE,FALSE,FALSE,31,7.015,638,2075,7.101,FALSE,3.509,3.506,0.01,FALSE,FALSE,NA,121.1,121.1,121.1,0,0,2,0,5,2937.2,734.31,,Idle,0,20,FALSE,5,TRUE,7,Go Home,FALSE,FALSE,FALSE,FALSE,FALSE,FALSE,FALSE,FALSE,FALSE,FALSE,FALSE,FALSE,6.972885591,79.9159409,0.2,122.9,328,TRUE,1,1,FALSE,FALSE,FALSE,FALSE,,TRUE,FALSE,FALSE,Course Lock,49.2,14.3,16.4,Calm,40,,1.12.8,Mavic Mini,1SDCH7G0169R0K,1SFLH6Q0AB03DJ,1SRCH7F014TAHX,1U5X071EXP6C8G,105.9,0.2,3.2,6.239496,1.789552,0,0,Mavic Mini,1SDCH7G0169R0K,1SFLH6Q0AB03DJ,1SRCH7F014TAHX,1U5X071EXP6C8G,DJI Fly,,1.12.8,A888A3BC-ABD2-F3C3-1A40-095D8802E474,1SDCH7G0169R0K,,,,,6.972853239,79.91591938,5,,
3/2/2024,55:47.3,15m 35.8s,935.8,6.972885159,79.91594138,1.3,1.3,1.6,58,0.8,0,0,0,0,0,0,0,0,-0.8,-2.5,31.6,31.6,,P-GPS,Auto Fly,,16,5,TRUE,,Mavic Mini,TRUE,FALSE,,Smart,RC,FALSE,TRUE,FALSE,,,TRUE,,FALSE,FALSE,FALSE,FALSE,FALSE,FALSE,FALSE,FALSE,FALSE,FALSE,0,Follow Yaw,0,0,36,36,FALSE,FALSE,FALSE,FALSE,FALSE,FALSE,,TRUE,Normal,,100,1024,1024,1024,1024,1,FALSE,FALSE,FALSE,FALSE,FALSE,0,FALSE,FALSE,FALSE,FALSE,31,7.015,638,2075,7.101,FALSE,3.509,3.506,0.01,FALSE,FALSE,NA,121.1,121.1,121.1,0,0,2,0,5,2937.2,734.31,,Idle,0,20,FALSE,5,TRUE,7,Go Home,FALSE,FALSE,FALSE,FALSE,FALSE,FALSE,FALSE,FALSE,FALSE,FALSE,FALSE,FALSE,6.972885591,79.9159409,0.2,122.9,328,TRUE,1,1,FALSE,FALSE,FALSE,FALSE,,TRUE,FALSE,FALSE,Course Lock,49.2,14.3,16.4,Calm,40,,1.12.8,Mavic Mini,1SDCH7G0169R0K,1SFLH6Q0AB03DJ,1SRCH7F014TAHX,1U5X071EXP6C8G,105.9,0.2,3.2,6.239496,1.789552,0,0,Mavic Mini,1SDCH7G0169R0K,1SFLH6Q0AB03DJ,1SRCH7F014TAHX,1U5X071EXP6C8G,DJI Fly,,1.12.8,A888A3BC-ABD2-F3C3-1A40-095D8802E474,1SDCH7G0169R0K,,,,,6.972853239,79.91591938,5,,
3/2/2024,55:47.4,15m 35.9s,935.9,6.972884894,79.91594138,1.3,1.3,1.9,58,0.9,0,0,0,0,0,0,0,0,-1.1,-2.7,31.7,31.7,,P-GPS,Auto Fly,,16,5,TRUE,,Mavic Mini,TRUE,FALSE,,Smart,RC,FALSE,TRUE,FALSE,,,TRUE,,FALSE,FALSE,FALSE,FALSE,FALSE,FALSE,FALSE,FALSE,FALSE,FALSE,0,Follow Yaw,0,0,36,36,FALSE,FALSE,FALSE,FALSE,FALSE,FALSE,,TRUE,Normal,,100,1024,1024,1024,1024,1,FALSE,FALSE,FALSE,FALSE,FALSE,0,FALSE,FALSE,FALSE,FALSE,31,7.015,638,2075,7.101,FALSE,3.509,3.506,0.01,FALSE,FALSE,NA,121.1,121.1,121.1,0,0,2,0,5,2937.2,734.31,,Idle,0,20,FALSE,5,TRUE,7,Go Home,FALSE,FALSE,FALSE,FALSE,FALSE,FALSE,FALSE,FALSE,FALSE,FALSE,FALSE,FALSE,6.972885591,79.9159409,0.3,122.9,328,TRUE,1,1,FALSE,FALSE,FALSE,FALSE,,TRUE,FALSE,FALSE,Course Lock,49.2,14.3,16.4,Calm,40,,1.12.8,Mavic Mini,1SDCH7G0169R0K,1SFLH6Q0AB03DJ,1SRCH7F014TAHX,1U5X071EXP6C8G,105.9,0.2,3.2,6.239496,1.789552,0,0,Mavic Mini,1SDCH7G0169R0K,1SFLH6Q0AB03DJ,1SRCH7F014TAHX,1U5X071EXP6C8G,DJI Fly,,1.12.8,A888A3BC-ABD2-F3C3-1A40-095D8802E474,1SDCH7G0169R0K,,,,,6.972853239,79.91591938,5,,
3/2/2024,55:47.5,15m 36.0s,936,6.972884835,79.91594147,1.3,1.3,1.9,58,0.9,0,0,0,0,0,0,0,0,-0.4,-2.7,31.7,31.7,,P-GPS,Auto Fly,,16,5,TRUE,,Mavic Mini,TRUE,FALSE,,Smart,RC,FALSE,TRUE,FALSE,,,TRUE,,FALSE,FALSE,FALSE,FALSE,FALSE,FALSE,FALSE,FALSE,FALSE,FALSE,0,Follow Yaw,0,0,36,36,FALSE,FALSE,FALSE,FALSE,FALSE,FALSE,,TRUE,Normal,,100,1024,1024,1024,1024,1,FALSE,FALSE,FALSE,FALSE,FALSE,0,FALSE,FALSE,FALSE,FALSE,31,7.015,638,2075,6.996,FALSE,3.509,3.506,0.01,FALSE,FALSE,NA,121.1,121.1,121.1,0,0,2,0,5,3721.4,930.35,,Idle,0,20,FALSE,5,TRUE,7,Go Home,FALSE,FALSE,FALSE,FALSE,FALSE,FALSE,FALSE,FALSE,FALSE,FALSE,FALSE,FALSE,6.972885591,79.9159409,0.3,122.9,328,TRUE,1,1,FALSE,FALSE,FALSE,FALSE,,TRUE,FALSE,FALSE,Course Lock,49.2,14.3,16.4,Calm,40,,1.12.8,Mavic Mini,1SDCH7G0169R0K,1SFLH6Q0AB03DJ,1SRCH7F014TAHX,1U5X071EXP6C8G,105.9,0.2,3.2,6.239496,1.789552,0,0,Mavic Mini,1SDCH7G0169R0K,1SFLH6Q0AB03DJ,1SRCH7F014TAHX,1U5X071EXP6C8G,DJI Fly,,1.12.8,A888A3BC-ABD2-F3C3-1A40-095D8802E474,1SDCH7G0169R0K,,,,,6.972853239,79.91591938,5,,
3/2/2024,55:47.6,15m 36.1s,936.1,6.972884895,79.91594161,1.3,1.3,1.9,58,1,0,0,0,0,0,0,0,0,-1,-2.5,31.7,31.7,,P-GPS,Auto Fly,,16,5,TRUE,,Mavic Mini,TRUE,FALSE,,Smart,RC,FALSE,TRUE,FALSE,,,TRUE,,FALSE,FALSE,FALSE,FALSE,FALSE,FALSE,FALSE,FALSE,FALSE,FALSE,0,Follow Yaw,0,0,36,36,FALSE,FALSE,FALSE,FALSE,FALSE,FALSE,,TRUE,Normal,,100,1024,1024,1024,1024,1,FALSE,FALSE,FALSE,FALSE,FALSE,0,FALSE,FALSE,FALSE,FALSE,31,7.015,638,2075,6.996,FALSE,3.509,3.506,0.01,FALSE,FALSE,NA,121.1,121.1,121.1,0,0,2,0,5,3721.4,930.35,,Idle,0,20,FALSE,5,TRUE,7,Go Home,FALSE,FALSE,FALSE,FALSE,FALSE,FALSE,FALSE,FALSE,FALSE,FALSE,FALSE,FALSE,6.972885591,79.9159409,0.3,122.9,328,TRUE,1,1,FALSE,FALSE,FALSE,FALSE,,TRUE,FALSE,FALSE,Course Lock,49.2,14.3,16.4,Calm,40,,1.12.8,Mavic Mini,1SDCH7G0169R0K,1SFLH6Q0AB03DJ,1SRCH7F014TAHX,1U5X071EXP6C8G,105.9,0.2,3.2,6.239496,1.789552,0,0,Mavic Mini,1SDCH7G0169R0K,1SFLH6Q0AB03DJ,1SRCH7F014TAHX,1U5X071EXP6C8G,DJI Fly,,1.12.8,A888A3BC-ABD2-F3C3-1A40-095D8802E474,1SDCH7G0169R0K,,,,,6.972853239,79.91591938,5,,
3/2/2024,55:47.7,15m 36.2s,936.2,6.972884954,79.91594172,1.3,1.3,1.9,58,1,0,0,0,0,0,0,0,0,-0.9,-2.4,31.7,31.7,,P-GPS,Auto Fly,,16,5,TRUE,,Mavic Mini,TRUE,FALSE,,Smart,RC,FALSE,TRUE,FALSE,,,TRUE,,FALSE,FALSE,FALSE,FALSE,FALSE,FALSE,FALSE,FALSE,FALSE,FALSE,0,Follow Yaw,0,0,36,36,FALSE,FALSE,FALSE,FALSE,FALSE,FALSE,,TRUE,Normal,,100,1024,1024,1024,1024,1,FALSE,FALSE,FALSE,FALSE,FALSE,0,FALSE,FALSE,FALSE,FALSE,31,7.015,638,2075,6.996,FALSE,3.509,3.506,0.01,FALSE,FALSE,NA,121.1,121.1,121.1,0,0,2,0,5,3721.4,930.35,,Idle,0,20,FALSE,5,TRUE,7,Go Home,FALSE,FALSE,FALSE,FALSE,FALSE,FALSE,FALSE,FALSE,FALSE,FALSE,FALSE,FALSE,6.972885591,79.9159409,0.3,122.9,328,TRUE,1,1,FALSE,FALSE,FALSE,FALSE,,TRUE,FALSE,FALSE,Course Lock,49.2,14.3,16.4,Calm,40,,1.12.8,Mavic Mini,1SDCH7G0169R0K,1SFLH6Q0AB03DJ,1SRCH7F014TAHX,1U5X071EXP6C8G,105.9,0.2,3.2,6.239496,1.789552,0,0,Mavic Mini,1SDCH7G0169R0K,1SFLH6Q0AB03DJ,1SRCH7F014TAHX,1U5X071EXP6C8G,DJI Fly,,1.12.8,A888A3BC-ABD2-F3C3-1A40-095D8802E474,1SDCH7G0169R0K,,,,,6.972853239,79.91591938,5,,
3/2/2024,55:47.8,15m 36.3s,936.3,6.97288523,79.91594198,1.3,1.3,1.9,58,1.2,0,0,0,0,0,0,0,0,-0.5,-2.5,31.7,31.7,,P-GPS,Auto Fly,,16,5,TRUE,,Mavic Mini,TRUE,FALSE,,Smart,RC,FALSE,TRUE,FALSE,,,TRUE,,FALSE,FALSE,FALSE,FALSE,FALSE,FALSE,FALSE,FALSE,FALSE,FALSE,0,Follow Yaw,0,0,36,36,FALSE,FALSE,FALSE,FALSE,FALSE,FALSE,,TRUE,Normal,,100,1024,1024,1024,1024,1,FALSE,FALSE,FALSE,FALSE,FALSE,0,FALSE,FALSE,FALSE,FALSE,31,7.015,638,2075,6.996,FALSE,3.509,3.506,0.01,FALSE,FALSE,NA,121.1,121.1,121.1,0,0,2,0,5,3721.4,930.35,,Idle,0,20,FALSE,5,TRUE,7,Go Home,FALSE,FALSE,FALSE,FALSE,FALSE,FALSE,FALSE,FALSE,FALSE,FALSE,FALSE,FALSE,6.972885591,79.9159409,0.4,122.9,328,TRUE,1,1,FALSE,FALSE,FALSE,FALSE,,TRUE,FALSE,FALSE,Course Lock,49.2,14.3,16.4,Calm,40,,1.12.8,Mavic Mini,1SDCH7G0169R0K,1SFLH6Q0AB03DJ,1SRCH7F014TAHX,1U5X071EXP6C8G,105.9,0.2,3.2,6.239496,1.789552,0,0,Mavic Mini,1SDCH7G0169R0K,1SFLH6Q0AB03DJ,1SRCH7F014TAHX,1U5X071EXP6C8G,DJI Fly,,1.12.8,A888A3BC-ABD2-F3C3-1A40-095D8802E474,1SDCH7G0169R0K,,,,,6.972853239,79.91591938,5,,
3/2/2024,55:47.9,15m 36.4s,936.4,6.972885262,79.91594205,1.3,1.3,1.9,58,1.2,0,0,0,0,0,0,0,0,-0.6,-2.8,31.7,31.7,,P-GPS,Auto Fly,,16,5,TRUE,,Mavic Mini,TRUE,FALSE,,Smart,RC,FALSE,TRUE,FALSE,,,TRUE,,FALSE,FALSE,FALSE,FALSE,FALSE,FALSE,FALSE,FALSE,FALSE,FALSE,0,Follow Yaw,0,0,36,36,FALSE,FALSE,FALSE,FALSE,FALSE,FALSE,,TRUE,Normal,,100,1024,1024,1024,1024,1,FALSE,FALSE,FALSE,FALSE,FALSE,0,FALSE,FALSE,FALSE,FALSE,31,7.01,637,2075,6.996,FALSE,3.509,3.501,0.01,FALSE,FALSE,NA,121.1,121.1,121.1,0,0,2,0,5,3721.4,930.35,,Idle,0,20,FALSE,5,TRUE,7,Go Home,FALSE,FALSE,FALSE,FALSE,FALSE,FALSE,FALSE,FALSE,FALSE,FALSE,FALSE,FALSE,6.972885591,79.9159409,0.4,122.9,328,TRUE,1,1,FALSE,FALSE,FALSE,FALSE,,TRUE,FALSE,FALSE,Course Lock,49.2,14.3,16.4,Calm,40,,1.12.8,Mavic Mini,1SDCH7G0169R0K,1SFLH6Q0AB03DJ,1SRCH7F014TAHX,1U5X071EXP6C8G,105.9,0.2,3.2,6.239496,1.789552,0,0,Mavic Mini,1SDCH7G0169R0K,1SFLH6Q0AB03DJ,1SRCH7F014TAHX,1U5X071EXP6C8G,DJI Fly,,1.12.8,A888A3BC-ABD2-F3C3-1A40-095D8802E474,1SDCH7G0169R0K,,,,,6.972853239,79.91591938,5,,
3/2/2024,55:48.1,15m 36.5s,936.5,6.972885267,79.91594208,1.3,1.3,1.9,58,1.2,0,0,0,0,0,0,0,0,-0.7,-2.9,31.7,31.7,,P-GPS,Auto Fly,,16,5,TRUE,,Mavic Mini,TRUE,FALSE,,Smart,RC,FALSE,TRUE,FALSE,,,TRUE,,FALSE,FALSE,FALSE,FALSE,FALSE,FALSE,FALSE,FALSE,FALSE,FALSE,0,Follow Yaw,0,0,36,36,FALSE,FALSE,FALSE,FALSE,FALSE,FALSE,,TRUE,Normal,,100,1024,1024,1024,1024,1,FALSE,FALSE,FALSE,FALSE,FALSE,0,FALSE,FALSE,FALSE,FALSE,31,7.01,637,2075,6.996,FALSE,3.509,3.501,0.01,FALSE,FALSE,NA,121.1,121.1,121.1,0,0,2,0,5,3721.4,930.35,,Idle,0,20,FALSE,5,TRUE,7,Go Home,FALSE,FALSE,FALSE,FALSE,FALSE,FALSE,FALSE,FALSE,FALSE,FALSE,FALSE,FALSE,6.972885591,79.9159409,0.4,122.9,328,TRUE,1,1,FALSE,FALSE,FALSE,FALSE,,TRUE,FALSE,FALSE,Course Lock,49.2,14.3,16.4,Calm,40,,1.12.8,Mavic Mini,1SDCH7G0169R0K,1SFLH6Q0AB03DJ,1SRCH7F014TAHX,1U5X071EXP6C8G,105.9,0.2,3.2,6.239496,1.789552,0,0,Mavic Mini,1SDCH7G0169R0K,1SFLH6Q0AB03DJ,1SRCH7F014TAHX,1U5X071EXP6C8G,DJI Fly,,1.12.8,A888A3BC-ABD2-F3C3-1A40-095D8802E474,1SDCH7G0169R0K,,,,,6.972853239,79.91591938,5,,
3/2/2024,55:48.1,15m 36.6s,936.6,6.972885273,79.91594209,1.3,1.3,1.9,58,1.2,0,0,0,0,0,0,0,0,-0.1,-3.1,31.7,31.7,,P-GPS,Auto Fly,,16,5,TRUE,,Mavic Mini,TRUE,FALSE,,Smart,RC,FALSE,TRUE,FALSE,,,TRUE,,FALSE,FALSE,FALSE,FALSE,FALSE,FALSE,FALSE,FALSE,FALSE,FALSE,0,Follow Yaw,0,0,36,36,FALSE,FALSE,FALSE,FALSE,FALSE,FALSE,,TRUE,Normal,,100,1024,1024,1024,1024,1,FALSE,FALSE,FALSE,FALSE,FALSE,0,FALSE,FALSE,FALSE,FALSE,31,7.01,637,2075,6.996,FALSE,3.509,3.501,0.01,FALSE,FALSE,NA,121.1,121.1,121.1,0,0,2,0,5,3721.4,930.35,,Idle,0,20,FALSE,5,TRUE,7,Go Home,FALSE,FALSE,FALSE,FALSE,FALSE,FALSE,FALSE,FALSE,FALSE,FALSE,FALSE,FALSE,6.972885591,79.9159409,0.4,122.9,328,TRUE,1,1,FALSE,FALSE,FALSE,FALSE,,TRUE,FALSE,FALSE,Course Lock,49.2,14.3,16.4,Calm,40,,1.12.8,Mavic Mini,1SDCH7G0169R0K,1SFLH6Q0AB03DJ,1SRCH7F014TAHX,1U5X071EXP6C8G,105.9,0.2,3.2,6.239496,1.789552,0,0,Mavic Mini,1SDCH7G0169R0K,1SFLH6Q0AB03DJ,1SRCH7F014TAHX,1U5X071EXP6C8G,DJI Fly,,1.12.8,A888A3BC-ABD2-F3C3-1A40-095D8802E474,1SDCH7G0169R0K,,,,,6.972853239,79.91591938,5,,
3/2/2024,55:48.3,15m 36.7s,936.7,6.972885168,79.91594201,0.9,1.3,1.9,58,1.3,0,0,0,0,0,0,0,0,-0.5,-2.6,31.8,31.8,,P-GPS,Auto Fly,,16,5,TRUE,,Mavic Mini,TRUE,FALSE,,Smart,RC,FALSE,TRUE,FALSE,,,TRUE,,FALSE,FALSE,FALSE,FALSE,FALSE,FALSE,FALSE,FALSE,FALSE,FALSE,0,Follow Yaw,0,0,36,36,FALSE,FALSE,FALSE,FALSE,FALSE,FALSE,,TRUE,Normal,,100,1024,1024,1024,1024,1,FALSE,FALSE,FALSE,FALSE,FALSE,0,FALSE,FALSE,FALSE,FALSE,31,7.01,637,2075,6.996,FALSE,3.509,3.501,0.01,FALSE,FALSE,NA,121.1,121.1,121.1,0,0,2,0,5,3721.4,930.35,,Idle,0,20,FALSE,5,TRUE,7,Go Home,FALSE,FALSE,FALSE,FALSE,FALSE,FALSE,FALSE,FALSE,FALSE,FALSE,FALSE,FALSE,6.972885591,79.9159409,0.4,122.9,328,TRUE,1,1,FALSE,FALSE,FALSE,FALSE,,TRUE,FALSE,FALSE,Course Lock,49.2,14.3,16.4,Calm,40,,1.12.8,Mavic Mini,1SDCH7G0169R0K,1SFLH6Q0AB03DJ,1SRCH7F014TAHX,1U5X071EXP6C8G,105.9,0.2,3.2,6.239496,1.789552,0,0,Mavic Mini,1SDCH7G0169R0K,1SFLH6Q0AB03DJ,1SRCH7F014TAHX,1U5X071EXP6C8G,DJI Fly,,1.12.8,A888A3BC-ABD2-F3C3-1A40-095D8802E474,1SDCH7G0169R0K,,,,,6.972853239,79.91591938,5,,
3/2/2024,55:48.4,15m 36.8s,936.8,6.972885171,79.91594199,0.9,1.3,1.9,58,1.3,0,0,0,0,0,0,0,0,0,-2.5,31.8,31.8,,P-GPS,Auto Fly,,16,5,TRUE,,Mavic Mini,TRUE,FALSE,,Smart,RC,FALSE,TRUE,FALSE,,,TRUE,,FALSE,FALSE,FALSE,FALSE,FALSE,FALSE,FALSE,FALSE,FALSE,FALSE,0,Follow Yaw,0,0,36,36,FALSE,FALSE,FALSE,FALSE,FALSE,FALSE,,TRUE,Normal,,100,1024,1024,1024,1024,1,FALSE,FALSE,FALSE,FALSE,FALSE,0,FALSE,FALSE,FALSE,FALSE,31,7.01,637,2075,6.996,FALSE,3.509,3.501,0.01,FALSE,FALSE,NA,121.1,121.1,121.1,0,0,2,0,5,3721.4,930.35,,Idle,0,20,FALSE,5,TRUE,7,Go Home,FALSE,FALSE,FALSE,FALSE,FALSE,FALSE,FALSE,FALSE,FALSE,FALSE,FALSE,FALSE,6.972885591,79.9159409,0.4,122.9,328,TRUE,1,1,FALSE,FALSE,FALSE,FALSE,,TRUE,FALSE,FALSE,Course Lock,49.2,14.3,16.4,Calm,40,,1.12.8,Mavic Mini,1SDCH7G0169R0K,1SFLH6Q0AB03DJ,1SRCH7F014TAHX,1U5X071EXP6C8G,105.9,0.2,3.2,6.239496,1.789552,0,0,Mavic Mini,1SDCH7G0169R0K,1SFLH6Q0AB03DJ,1SRCH7F014TAHX,1U5X071EXP6C8G,DJI Fly,,1.12.8,A888A3BC-ABD2-F3C3-1A40-095D8802E474,1SDCH7G0169R0K,,,,,6.972853239,79.91591938,5,,
