CUSTOM.date [local],CUSTOM.updateTime [local],OSD.flyTime,OSD.flyTime [s],OSD.latitude,OSD.longitude,OSD.height [ft],OSD.heightMax [ft],OSD.vpsHeight [ft],OSD.altitude [ft],OSD.mileage [ft],OSD.hSpeed [MPH],OSD.hSpeedMax [MPH],OSD.xSpeed [MPH],OSD.xSpeedMax [MPH],OSD.ySpeed [MPH],OSD.ySpeedMax [MPH],OSD.zSpeed [MPH],OSD.zSpeedMax [MPH],OSD.pitch,OSD.roll,OSD.yaw,OSD.yaw [360],OSD.directionOfTravel,OSD.flycState,OSD.flycCommand,OSD.flightAction,OSD.gpsNum,OSD.gpsLevel,OSD.isGPSUsed,OSD.nonGPSCause,OSD.droneType,OSD.isSwaveWork,OSD.waveError,OSD.goHomeStatus,OSD.batteryType,OSD.ctrlDevice,OSD.isOnGround,OSD.isMotorOn,OSD.isMotorBlocked,OSD.motorStartFailedCause,OSD.motorFailReason,OSD.isImuPreheated,OSD.imuInitFailReason,OSD.isAcceletorOverRange,OSD.isBarometerDeadInAir,OSD.isCompassError,OSD.isGoHomeHeightModified,OSD.canIOCWork,OSD.isNotEnoughForce,OSD.isOutOfLimit,OSD.isPropellerCatapult,OSD.isVibrating,OSD.isVisionUsed,OSD.voltageWarning,GIMBAL.mode,GIMBAL.pitch,GIMBAL.roll,GIMBAL.yaw,GIMBAL.yaw [360],GIMBAL.isPitchAtLimit,GIMBAL.isRollAtLimit,GIMBAL.isYawAtLimit,GIMBAL.isStuck,CAMERA.isPhoto,CAMERA.isVideo,CAMERA.filename,CAMERA.sdCardIsInserted,CAMERA.sdCardState,RC.downlinkSignal,RC.uplinkSignal,RC.aileron,RC.elevator,RC.throttle,RC.rudder,RC.mode,RC.goHomeDepressed,RC.recordDepressed,RC.shutterDepressed,RC.playbackDepressed,RC.wheelDepressed,RC.wheelOffset,RC.custom1Depressed,RC.custom2Depressed,RC.custom3Depressed,RC.custom4Depressed,BATTERY.chargeLevel,BATTERY.currentPV [V],BATTERY.currentCapacity [mAh],BATTERY.fullCapacity [mAh],BATTERY.voltage [V],BATTERY.isCellVoltageEstimated,BATTERY.cellVoltage1 [V],BATTERY.cellVoltage2 [V],BATTERY.maxCellVoltageDeviation,BATTERY.isCellVoltageDeviationHigh,BATTERY.isVoltageLow,BATTERY.current [A],BATTERY.temperature [F],BATTERY.minTemperature [F],BATTERY.maxTemperature [F],BATTERY.usefulTime [s],BATTERY.goHomeTime [s],BATTERY.landTime [s],BATTERY.goHomeBattery,BATTERY.landBattery,BATTERY.safeFlyRadius,BATTERY.volumeConsume,BATTERY.status,BATTERY.goHomeStatus,BATTERY.goHomeCountdown,BATTERY.lowWarning,BATTERY.lowWarningGoHome,BATTERY.seriousLowWarning,BATTERY.seriousLowWarningLanding,BATTERY.timesCharged,MC.failSafeAction,MC.isObstacleAvoidanceEnabled,MC.isCollisionAvoidanceEnabled,MC.isRthObstacleAvoidanceEnabled,MC.isBraking,MC.isAvoidingObstacle,MC.isAvoidingActiveObstacle,MC.isAscentLimitedByObstacle,MC.isLandingConfirmationNeeded,MC.atLowAltitudeLimit,MC.atDistanceLimit,MC.atAirportAltitudeLimit,MC.atAirportBoundary,HOME.latitude,HOME.longitude,HOME.distance [ft],HOME.height [ft],HOME.heightLimit [ft],HOME.isHomeRecord,HOME.goHomeMode,HOME.aircraftHeadDirection,HOME.isDynamicHomePointEnabled,HOME.isReachedLimitDistance,HOME.isReachedLimitHeight,HOME.isCompassCalibrating,HOME.compassCalibrationState,HOME.isMultipleFlightModeEnabled,HOME.isBeginnerMode,HOME.isIOCEnabled,HOME.iocMode,HOME.goHomeHeight [ft],HOME.courseLockAngle,HOME.forceLandingHeight [ft],HOME.wind,HOME.dataRecorderFileIndex,RECOVER.appType,RECOVER.appVersion,RECOVER.aircraftName,RECOVER.aircraftSerial,RECOVER.cameraSerial,RECOVER.rcSerial,RECOVER.batterySerial,DETAILS.totalTime [s],DETAILS.totalDistance [ft],DETAILS.maxHeight [ft],DETAILS.maxHorizontalSpeed [MPH],DETAILS.maxVerticalSpeed [MPH],DETAILS.photoNum,DETAILS.videoTime [s],DETAILS.aircraftName,DETAILS.aircraftSerial,DETAILS.cameraSerial,DETAILS.rcSerial,DETAILS.batterySerial,DETAILS.appName,DETAILS.appType,DETAILS.appVersion,DETAILS.guid,SERIAL.flightController,SERIAL.camera,SERIAL.gimbal,SERIAL.rc,SERIAL.battery,APPGPS.latitude,APPGPS.longitude,APPGPS.accuracy,APP.tip,APP.warning
2/25/2024,31:55.1,14m 19.0s,859,6.972863754,79.91593132,0,0,,57,0,0,0,0,0,0,0,0,0,5.1,1.3,-32,328,,Starting Motors,Other,Takeoff (RC Assisted),17,5,TRUE,,Mavic Mini,FALSE,FALSE,,Smart,RC,TRUE,TRUE,FALSE,,,TRUE,,FALSE,FALSE,FALSE,FALSE,FALSE,FALSE,FALSE,FALSE,FALSE,FALSE,0,Follow Yaw,0,0,-23.6,336.4,FALSE,FALSE,FALSE,FALSE,FALSE,FALSE,,TRUE,Normal,,,1024,1024,1024,1024,1,FALSE,FALSE,FALSE,FALSE,FALSE,0,FALSE,FALSE,FALSE,FALSE,38,7.277,774,2050,7.277,FALSE,3.64,3.637,0.003,FALSE,FALSE,NA,121.1,121.1,121.1,,,,,,,,,Idle,,,TRUE,,FALSE,11,Go Home,FALSE,FALSE,FALSE,FALSE,FALSE,FALSE,FALSE,FALSE,FALSE,FALSE,FALSE,FALSE,,,,,,FALSE,,,FALSE,FALSE,FALSE,FALSE,,FALSE,FALSE,FALSE,,,,,Calm,,,1.12.8,Mavic Mini,1SDCH7G0169R0K,1SFLH6Q0AB03DJ,1SRCH7F014TAHX,1U5X071EXP5ZJG,76.6,0.2,29.5,12.284827,4.026492,0,280,Mavic Mini,1SDCH7G0169R0K,1SFLH6Q0AB03DJ,1SRCH7F014TAHX,1U5X071EXP5ZJG,DJI Fly,,1.12.8,0AFE7689-BA3D-C4E0-F791-3B5DA877F9A8,1SDCH7G0169R0K,,,,,,,,Flight mode changed to Starting Motors.,
2/25/2024,31:55.2,14m 19.1s,859.1,6.972863707,79.91593127,0,0,,57,0,0,0,0,0,0,0,0,0,5.1,1.3,-32,328,,Starting Motors,Other,Takeoff (RC Assisted),17,5,TRUE,,Mavic Mini,FALSE,FALSE,,Smart,RC,TRUE,TRUE,FALSE,,,TRUE,,FALSE,FALSE,FALSE,FALSE,FALSE,FALSE,FALSE,FALSE,FALSE,FALSE,0,Follow Yaw,0,0,-23.6,336.4,FALSE,FALSE,FALSE,FALSE,FALSE,FALSE,,TRUE,Normal,,100,1024,1024,1024,1024,1,FALSE,FALSE,FALSE,FALSE,FALSE,0,FALSE,FALSE,FALSE,FALSE,38,7.277,773,2050,7.277,FALSE,3.64,3.637,0.003,FALSE,FALSE,NA,121.1,121.1,121.1,,,,,,,,,Idle,,,TRUE,,FALSE,11,Go Home,FALSE,FALSE,FALSE,FALSE,FALSE,FALSE,FALSE,FALSE,FALSE,FALSE,FALSE,FALSE,,,,,,FALSE,,,FALSE,FALSE,FALSE,FALSE,,FALSE,FALSE,FALSE,,,,,Calm,,,1.12.8,Mavic Mini,1SDCH7G0169R0K,1SFLH6Q0AB03DJ,1SRCH7F014TAHX,1U5X071EXP5ZJG,76.6,0.2,29.5,12.284827,4.026492,0,280,Mavic Mini,1SDCH7G0169R0K,1SFLH6Q0AB03DJ,1SRCH7F014TAHX,1U5X071EXP5ZJG,DJI Fly,,1.12.8,0AFE7689-BA3D-C4E0-F791-3B5DA877F9A8,1SDCH7G0169R0K,,,,,,,,,
2/25/2024,17:36.3,14m 19.2s,859.2,6.972863605,79.91593114,0,0,0.3,57,0,0,0,0,0,0,0,0,0,5.1,1.4,-32,328,,Starting Motors,Other,Takeoff (RC Assisted),17,5,TRUE,,Mavic Mini,TRUE,FALSE,,Smart,RC,TRUE,TRUE,FALSE,,,TRUE,,FALSE,FALSE,FALSE,FALSE,FALSE,FALSE,FALSE,FALSE,FALSE,FALSE,0,Follow Yaw,0,0,-23.7,336.3,FALSE,FALSE,FALSE,FALSE,FALSE,FALSE,,TRUE,Normal,,100,1024,1024,1024,1024,1,FALSE,FALSE,FALSE,FALSE,FALSE,0,FALSE,FALSE,FALSE,FALSE,38,7.277,773,2050,7.277,FALSE,3.64,3.637,0.003,FALSE,FALSE,NA,121.1,121.1,121.1,,,,,,,,,Idle,,,TRUE,,FALSE,11,Go Home,FALSE,FALSE,FALSE,FALSE,FALSE,FALSE,FALSE,FALSE,FALSE,FALSE,FALSE,FALSE,,,,,,FALSE,,,FALSE,FALSE,FALSE,FALSE,,FALSE,FALSE,FALSE,,,,,Calm,,,1.12.8,Mavic Mini,1SDCH7G0169R0K,1SFLH6Q0AB03DJ,1SRCH7F014TAHX,1U5X071EXP5ZJG,76.6,0.2,29.5,12.284827,4.026492,0,280,Mavic Mini,1SDCH7G0169R0K,1SFLH6Q0AB03DJ,1SRCH7F014TAHX,1U5X071EXP5ZJG,DJI Fly,,1.12.8,0AFE7689-BA3D-C4E0-F791-3B5DA877F9A8,1SDCH7G0169R0K,,,,,,,,,
2/25/2024,17:36.4,14m 19.3s,859.3,6.972863589,79.91593113,0,0,0.3,57,0,0,0,0,0,0,0,0,0,5,1.3,-32.1,327.9,,Starting Motors,Other,Takeoff (RC Assisted),17,5,TRUE,,Mavic Mini,TRUE,FALSE,,Smart,RC,TRUE,TRUE,FALSE,,,TRUE,,FALSE,FALSE,FALSE,FALSE,FALSE,FALSE,FALSE,FALSE,FALSE,FALSE,0,Follow Yaw,0,0,-23.7,336.3,FALSE,FALSE,FALSE,FALSE,FALSE,FALSE,,TRUE,Normal,,100,1024,1024,1024,1024,1,FALSE,FALSE,FALSE,FALSE,FALSE,0,FALSE,FALSE,FALSE,FALSE,38,7.277,773,2050,7.277,FALSE,3.64,3.637,0.003,FALSE,FALSE,NA,121.1,121.1,121.1,,,,,,,,,Idle,,,TRUE,,FALSE,11,Go Home,FALSE,FALSE,FALSE,FALSE,FALSE,FALSE,FALSE,FALSE,FALSE,FALSE,FALSE,FALSE,,,,,,FALSE,,,FALSE,FALSE,FALSE,FALSE,,FALSE,FALSE,FALSE,,,,,Calm,,,1.12.8,Mavic Mini,1SDCH7G0169R0K,1SFLH6Q0AB03DJ,1SRCH7F014TAHX,1U5X071EXP5ZJG,76.6,0.2,29.5,12.284827,4.026492,0,280,Mavic Mini,1SDCH7G0169R0K,1SFLH6Q0AB03DJ,1SRCH7F014TAHX,1U5X071EXP5ZJG,DJI Fly,,1.12.8,0AFE7689-BA3D-C4E0-F791-3B5DA877F9A8,1SDCH7G0169R0K,,,,,,,,,
2/25/2024,17:36.5,14m 19.4s,859.4,6.972863587,79.91593119,0,0,0.3,57,0,0,0,0,0,0,0,0,0,5.1,1.3,-32.1,327.9,,Starting Motors,Other,Takeoff (RC Assisted),17,5,TRUE,,Mavic Mini,TRUE,FALSE,,Smart,RC,TRUE,TRUE,FALSE,,,TRUE,,FALSE,FALSE,FALSE,FALSE,FALSE,FALSE,FALSE,FALSE,FALSE,FALSE,0,Follow Yaw,0,0,-23.7,336.3,FALSE,FALSE,FALSE,FALSE,FALSE,FALSE,,TRUE,Normal,,100,1024,1024,1024,1024,1,FALSE,FALSE,FALSE,FALSE,FALSE,0,FALSE,FALSE,FALSE,FALSE,38,7.277,773,2050,7.265,FALSE,3.64,3.637,0.003,FALSE,FALSE,NA,121.1,121.1,121.1,0,0,0,0,5,2682.1,670.54,,Idle,0,20,FALSE,5,TRUE,11,Go Home,FALSE,FALSE,FALSE,FALSE,FALSE,FALSE,FALSE,FALSE,FALSE,FALSE,FALSE,FALSE,6.972861269,79.91593165,0.8,207.6,328,TRUE,1,1,FALSE,FALSE,FALSE,FALSE,,TRUE,FALSE,FALSE,Course Lock,49.2,,16.4,Calm,37,,1.12.8,Mavic Mini,1SDCH7G0169R0K,1SFLH6Q0AB03DJ,1SRCH7F014TAHX,1U5X071EXP5ZJG,76.6,0.2,29.5,12.284827,4.026492,0,280,Mavic Mini,1SDCH7G0169R0K,1SFLH6Q0AB03DJ,1SRCH7F014TAHX,1U5X071EXP5ZJG,DJI Fly,,1.12.8,0AFE7689-BA3D-C4E0-F791-3B5DA877F9A8,1SDCH7G0169R0K,,,,,,,,Data Recorder File Index is 37.; Set Return to Home (RTH) altitude to 15 m (49 ft).; Set maximum flight altitude to 100 m (328 ft).,
2/25/2024,17:36.6,14m 19.5s,859.5,6.972863572,79.91593121,0,0,0.3,57,0,0,0,0,0,0,0,0,0,5,1.3,-32,328,,Starting Motors,Other,Takeoff (RC Assisted),17,5,TRUE,,Mavic Mini,TRUE,FALSE,,Smart,RC,TRUE,TRUE,FALSE,,,TRUE,,FALSE,FALSE,FALSE,FALSE,FALSE,FALSE,FALSE,FALSE,FALSE,FALSE,0,Follow Yaw,0,0,-23.7,336.3,FALSE,FALSE,FALSE,FALSE,FALSE,FALSE,,TRUE,Normal,,100,1024,1024,1024,1024,1,FALSE,FALSE,FALSE,FALSE,FALSE,0,FALSE,FALSE,FALSE,FALSE,38,7.277,773,2050,7.265,FALSE,3.64,3.637,0.003,FALSE,FALSE,NA,121.1,121.1,121.1,0,0,0,0,5,2682.1,670.54,,Idle,0,20,FALSE,5,TRUE,11,Go Home,FALSE,FALSE,FALSE,FALSE,FALSE,FALSE,FALSE,FALSE,FALSE,FALSE,FALSE,FALSE,6.972861269,79.91593165,0.8,207.6,328,TRUE,1,1,FALSE,FALSE,FALSE,FALSE,,TRUE,FALSE,FALSE,Course Lock,49.2,,16.4,Calm,37,,1.12.8,Mavic Mini,1SDCH7G0169R0K,1SFLH6Q0AB03DJ,1SRCH7F014TAHX,1U5X071EXP5ZJG,76.6,0.2,29.5,12.284827,4.026492,0,280,Mavic Mini,1SDCH7G0169R0K,1SFLH6Q0AB03DJ,1SRCH7F014TAHX,1U5X071EXP5ZJG,DJI Fly,,1.12.8,0AFE7689-BA3D-C4E0-F791-3B5DA877F9A8,1SDCH7G0169R0K,,,,,,,,,
2/25/2024,17:36.7,14m 19.6s,859.6,6.972863518,79.91593122,0,0,0.3,57,0.1,0,0,0,0,0,0,0,0,5,1.3,-32.2,327.8,,Starting Motors,Other,Takeoff (RC Assisted),17,5,TRUE,,Mavic Mini,TRUE,FALSE,,Smart,RC,TRUE,TRUE,FALSE,,,TRUE,,FALSE,FALSE,FALSE,FALSE,FALSE,FALSE,FALSE,FALSE,FALSE,FALSE,0,Follow Yaw,0,0,-23.7,336.3,FALSE,FALSE,FALSE,FALSE,FALSE,FALSE,,TRUE,Normal,,100,1024,1024,1024,1024,1,FALSE,FALSE,FALSE,FALSE,FALSE,0,FALSE,FALSE,FALSE,FALSE,38,7.277,773,2050,7.265,FALSE,3.64,3.637,0.003,FALSE,FALSE,NA,121.1,121.1,121.1,0,0,0,0,5,2682.1,670.54,,Idle,0,20,FALSE,5,TRUE,11,Go Home,FALSE,FALSE,FALSE,FALSE,FALSE,FALSE,FALSE,FALSE,FALSE,FALSE,FALSE,FALSE,6.972861269,79.91593165,0.8,207.6,328,TRUE,1,1,FALSE,FALSE,FALSE,FALSE,,TRUE,FALSE,FALSE,Course Lock,49.2,,16.4,Calm,37,,1.12.8,Mavic Mini,1SDCH7G0169R0K,1SFLH6Q0AB03DJ,1SRCH7F014TAHX,1U5X071EXP5ZJG,76.6,0.2,29.5,12.284827,4.026492,0,280,Mavic Mini,1SDCH7G0169R0K,1SFLH6Q0AB03DJ,1SRCH7F014TAHX,1U5X071EXP5ZJG,DJI Fly,,1.12.8,0AFE7689-BA3D-C4E0-F791-3B5DA877F9A8,1SDCH7G0169R0K,,,,,,,,,
2/25/2024,17:36.7,14m 19.7s,859.7,6.97286348,79.91593119,0,0,0.3,57,0.1,0,0,0,0,0,0,0,0,5.1,1.4,-32.2,327.8,,Starting Motors,Other,Takeoff (RC Assisted),17,5,TRUE,,Mavic Mini,TRUE,FALSE,,Smart,RC,TRUE,TRUE,FALSE,,,TRUE,,FALSE,FALSE,FALSE,FALSE,FALSE,FALSE,FALSE,FALSE,FALSE,FALSE,0,Follow Yaw,0,0,-23.7,336.3,FALSE,FALSE,FALSE,FALSE,FALSE,FALSE,,TRUE,Normal,,100,1024,1024,1024,1024,1,FALSE,FALSE,FALSE,FALSE,FALSE,0,FALSE,FALSE,FALSE,FALSE,38,7.277,773,2050,7.265,FALSE,3.64,3.637,0.003,FALSE,FALSE,NA,121.1,121.1,121.1,0,0,0,0,5,2682.1,670.54,,Idle,0,20,FALSE,5,TRUE,11,Go Home,FALSE,FALSE,FALSE,FALSE,FALSE,FALSE,FALSE,FALSE,FALSE,FALSE,FALSE,FALSE,6.972861269,79.91593165,0.8,207.6,328,TRUE,1,1,FALSE,FALSE,FALSE,FALSE,,TRUE,FALSE,FALSE,Course Lock,49.2,,16.4,Calm,37,,1.12.8,Mavic Mini,1SDCH7G0169R0K,1SFLH6Q0AB03DJ,1SRCH7F014TAHX,1U5X071EXP5ZJG,76.6,0.2,29.5,12.284827,4.026492,0,280,Mavic Mini,1SDCH7G0169R0K,1SFLH6Q0AB03DJ,1SRCH7F014TAHX,1U5X071EXP5ZJG,DJI Fly,,1.12.8,0AFE7689-BA3D-C4E0-F791-3B5DA877F9A8,1SDCH7G0169R0K,,,,,,,,,
2/25/2024,17:36.8,14m 19.8s,859.8,6.972863467,79.91593118,0,0,0.3,57,0.1,0,0,0,0,0,0,0,0,5.1,1.4,-32.2,327.8,,Starting Motors,Other,Takeoff (RC Assisted),17,5,TRUE,,Mavic Mini,TRUE,FALSE,,Smart,RC,TRUE,TRUE,FALSE,,,TRUE,,FALSE,FALSE,FALSE,FALSE,FALSE,FALSE,FALSE,FALSE,FALSE,FALSE,0,Follow Yaw,0,0,-23.7,336.3,FALSE,FALSE,FALSE,FALSE,FALSE,FALSE,,TRUE,Normal,,100,1024,1024,1024,1024,1,FALSE,FALSE,FALSE,FALSE,FALSE,0,FALSE,FALSE,FALSE,FALSE,38,7.277,773,2050,7.265,FALSE,3.64,3.637,0.003,FALSE,FALSE,NA,121.1,121.1,121.1,0,0,0,0,5,2682.1,670.54,,Idle,0,20,FALSE,5,TRUE,11,Go Home,FALSE,FALSE,FALSE,FALSE,FALSE,FALSE,FALSE,FALSE,FALSE,FALSE,FALSE,FALSE,6.972861269,79.91593165,0.8,207.6,328,TRUE,1,1,FALSE,FALSE,FALSE,FALSE,,TRUE,FALSE,FALSE,Course Lock,49.2,,16.4,Calm,37,,1.12.8,Mavic Mini,1SDCH7G0169R0K,1SFLH6Q0AB03DJ,1SRCH7F014TAHX,1U5X071EXP5ZJG,76.6,0.2,29.5,12.284827,4.026492,0,280,Mavic Mini,1SDCH7G0169R0K,1SFLH6Q0AB03DJ,1SRCH7F014TAHX,1U5X071EXP5ZJG,DJI Fly,,1.12.8,0AFE7689-BA3D-C4E0-F791-3B5DA877F9A8,1SDCH7G0169R0K,,,,,,,,,
2/25/2024,17:37.0,14m 19.9s,859.9,6.972863459,79.91593117,0,0,0.3,57,0.1,0,0,0,0,0,0,0,0,5.1,1.4,-32.1,327.9,,Starting Motors,Other,Takeoff (RC Assisted),17,5,TRUE,,Mavic Mini,TRUE,FALSE,,Smart,RC,TRUE,TRUE,FALSE,,,TRUE,,FALSE,FALSE,FALSE,FALSE,FALSE,FALSE,FALSE,FALSE,FALSE,FALSE,0,Follow Yaw,0,0,-23.8,336.2,FALSE,FALSE,FALSE,FALSE,FALSE,FALSE,,TRUE,Normal,,100,1024,1024,1042,1024,1,FALSE,FALSE,FALSE,FALSE,FALSE,0,FALSE,FALSE,FALSE,FALSE,38,7.277,773,2050,7.265,FALSE,3.64,3.637,0.003,FALSE,FALSE,NA,121.1,121.1,121.1,0,0,0,0,5,2682.1,670.54,,Idle,0,20,FALSE,5,TRUE,11,Go Home,FALSE,FALSE,FALSE,FALSE,FALSE,FALSE,FALSE,FALSE,FALSE,FALSE,FALSE,FALSE,6.972861269,79.91593165,0.8,207.6,328,TRUE,1,1,FALSE,FALSE,FALSE,FALSE,,TRUE,FALSE,FALSE,Course Lock,49.2,,16.4,Calm,37,,1.12.8,Mavic Mini,1SDCH7G0169R0K,1SFLH6Q0AB03DJ,1SRCH7F014TAHX,1U5X071EXP5ZJG,76.6,0.2,29.5,12.284827,4.026492,0,280,Mavic Mini,1SDCH7G0169R0K,1SFLH6Q0AB03DJ,1SRCH7F014TAHX,1U5X071EXP5ZJG,DJI Fly,,1.12.8,0AFE7689-BA3D-C4E0-F791-3B5DA877F9A8,1SDCH7G0169R0K,,,,,,,,,
2/25/2024,17:37.1,14m 20.0s,860,6.972863527,79.91593118,0,0,0.3,57,0.1,0,0,0,0,0,0,0,0,5.1,1.3,-32.2,327.8,,Starting Motors,Other,Takeoff (RC Assisted),17,5,TRUE,,Mavic Mini,TRUE,FALSE,,Smart,RC,TRUE,TRUE,FALSE,,,TRUE,,FALSE,FALSE,FALSE,FALSE,FALSE,FALSE,FALSE,FALSE,FALSE,FALSE,0,Follow Yaw,0,0,-23.8,336.2,FALSE,FALSE,FALSE,FALSE,FALSE,FALSE,,TRUE,Normal,,100,1024,1024,1684,1024,1,FALSE,FALSE,FALSE,FALSE,FALSE,0,FALSE,FALSE,FALSE,FALSE,38,7.277,773,2050,7.265,FALSE,3.64,3.637,0.003,FALSE,FALSE,NA,121.1,121.1,121.1,0,0,0,0,5,2682.1,670.54,,Idle,0,20,FALSE,5,TRUE,11,Go Home,FALSE,FALSE,FALSE,FALSE,FALSE,FALSE,FALSE,FALSE,FALSE,FALSE,FALSE,FALSE,6.972861269,79.91593165,0.8,207.6,328,TRUE,1,1,FALSE,FALSE,FALSE,FALSE,,TRUE,FALSE,FALSE,Course Lock,49.2,,16.4,Calm,37,,1.12.8,Mavic Mini,1SDCH7G0169R0K,1SFLH6Q0AB03DJ,1SRCH7F014TAHX,1U5X071EXP5ZJG,76.6,0.2,29.5,12.284827,4.026492,0,280,Mavic Mini,1SDCH7G0169R0K,1SFLH6Q0AB03DJ,1SRCH7F014TAHX,1U5X071EXP5ZJG,DJI Fly,,1.12.8,0AFE7689-BA3D-C4E0-F791-3B5DA877F9A8,1SDCH7G0169R0K,,,,,,,,,
2/25/2024,17:37.1,14m 20.1s,860.1,6.972863531,79.91593118,0,0,0.3,57,0.1,0,0,0,0,0,0,0,0,5.1,1.2,-32.2,327.8,,Manual Takeoff,Other,Takeoff (RC Assisted),17,5,TRUE,,Mavic Mini,TRUE,FALSE,,Smart,RC,TRUE,TRUE,FALSE,,,TRUE,,FALSE,FALSE,FALSE,FALSE,FALSE,FALSE,FALSE,FALSE,FALSE,FALSE,0,Follow Yaw,0,0,-23.8,336.2,FALSE,FALSE,FALSE,FALSE,FALSE,FALSE,,TRUE,Normal,,100,1024,1024,1684,1024,1,FALSE,FALSE,FALSE,FALSE,FALSE,0,FALSE,FALSE,FALSE,FALSE,38,7.277,773,2050,7.265,FALSE,3.64,3.637,0.003,FALSE,FALSE,NA,121.1,121.1,121.1,0,0,0,0,5,2682.1,670.54,,Idle,0,20,FALSE,5,TRUE,11,Go Home,FALSE,FALSE,FALSE,FALSE,FALSE,FALSE,FALSE,FALSE,FALSE,FALSE,FALSE,FALSE,6.972861269,79.91593165,0.8,207.6,328,TRUE,1,1,FALSE,FALSE,FALSE,FALSE,,TRUE,FALSE,FALSE,Course Lock,49.2,,16.4,Calm,37,,1.12.8,Mavic Mini,1SDCH7G0169R0K,1SFLH6Q0AB03DJ,1SRCH7F014TAHX,1U5X071EXP5ZJG,76.6,0.2,29.5,12.284827,4.026492,0,280,Mavic Mini,1SDCH7G0169R0K,1SFLH6Q0AB03DJ,1SRCH7F014TAHX,1U5X071EXP5ZJG,DJI Fly,,1.12.8,0AFE7689-BA3D-C4E0-F791-3B5DA877F9A8,1SDCH7G0169R0K,,,,,,,,Flight mode changed to Manual Takeoff.,
2/25/2024,17:37.2,14m 20.2s,860.2,6.972863538,79.91593119,0,0,0.3,57,0.1,0,0,0,0,0,0,0,0,5,1.1,-32.2,327.8,,Manual Takeoff,Other,Takeoff (RC Assisted),17,5,TRUE,,Mavic Mini,TRUE,FALSE,,Smart,RC,TRUE,TRUE,FALSE,,,TRUE,,FALSE,FALSE,FALSE,FALSE,FALSE,FALSE,FALSE,FALSE,FALSE,FALSE,0,Follow Yaw,0,0,-23.8,336.2,FALSE,FALSE,FALSE,FALSE,FALSE,FALSE,,TRUE,Normal,,100,1024,1024,1684,1024,1,FALSE,FALSE,FALSE,FALSE,FALSE,0,FALSE,FALSE,FALSE,FALSE,38,7.252,773,2050,7.265,FALSE,3.626,3.626,0.003,FALSE,FALSE,NA,121.1,121.1,121.1,0,0,0,0,5,2682.1,670.54,,Idle,0,20,FALSE,5,TRUE,11,Go Home,FALSE,FALSE,FALSE,FALSE,FALSE,FALSE,FALSE,FALSE,FALSE,FALSE,FALSE,FALSE,6.972861269,79.91593165,0.8,207.6,328,TRUE,1,1,FALSE,FALSE,FALSE,FALSE,,TRUE,FALSE,FALSE,Course Lock,49.2,,16.4,Calm,37,,1.12.8,Mavic Mini,1SDCH7G0169R0K,1SFLH6Q0AB03DJ,1SRCH7F014TAHX,1U5X071EXP5ZJG,76.6,0.2,29.5,12.284827,4.026492,0,280,Mavic Mini,1SDCH7G0169R0K,1SFLH6Q0AB03DJ,1SRCH7F014TAHX,1U5X071EXP5ZJG,DJI Fly,,1.12.8,0AFE7689-BA3D-C4E0-F791-3B5DA877F9A8,1SDCH7G0169R0K,,,,,,,,,
2/25/2024,17:37.3,14m 20.3s,860.3,6.97286353,79.91593118,0,0,0.3,57,0.1,0,0,0,0,0,0,0,0,4.6,-0.1,-32.3,327.7,,Manual Takeoff,Other,Takeoff (RC Assisted),17,5,TRUE,,Mavic Mini,TRUE,FALSE,,Smart,RC,TRUE,TRUE,FALSE,,,TRUE,,FALSE,FALSE,FALSE,FALSE,FALSE,FALSE,FALSE,FALSE,FALSE,FALSE,0,Follow Yaw,0,0,-23.8,336.2,FALSE,FALSE,FALSE,FALSE,FALSE,FALSE,,TRUE,Normal,,100,1024,1024,1684,1024,1,FALSE,FALSE,FALSE,FALSE,FALSE,0,FALSE,FALSE,FALSE,FALSE,38,7.252,773,2050,7.265,FALSE,3.626,3.626,0.003,FALSE,FALSE,NA,121.1,121.1,121.1,0,0,0,0,5,2682.1,670.54,,Idle,0,20,FALSE,5,TRUE,11,Go Home,FALSE,FALSE,FALSE,FALSE,FALSE,FALSE,FALSE,FALSE,FALSE,FALSE,FALSE,FALSE,6.972861269,79.91593165,0.8,207.6,328,TRUE,1,1,FALSE,FALSE,FALSE,FALSE,,TRUE,FALSE,FALSE,Course Lock,49.2,,16.4,Calm,37,,1.12.8,Mavic Mini,1SDCH7G0169R0K,1SFLH6Q0AB03DJ,1SRCH7F014TAHX,1U5X071EXP5ZJG,76.6,0.2,29.5,12.284827,4.026492,0,280,Mavic Mini,1SDCH7G0169R0K,1SFLH6Q0AB03DJ,1SRCH7F014TAHX,1U5X071EXP5ZJG,DJI Fly,,1.12.8,0AFE7689-BA3D-C4E0-F791-3B5DA877F9A8,1SDCH7G0169R0K,,,,,,,,,
2/25/2024,17:37.4,14m 20.4s,860.4,6.972863453,79.91593106,0,0,0.3,57,0.2,0,0,0,0,0,0,0,0,4.5,-0.3,-32.3,327.7,,Manual Takeoff,Other,Takeoff (RC Assisted),17,5,TRUE,,Mavic Mini,TRUE,FALSE,,Smart,RC,TRUE,TRUE,FALSE,,,TRUE,,FALSE,FALSE,FALSE,FALSE,FALSE,FALSE,FALSE,FALSE,FALSE,FALSE,0,Follow Yaw,0,0,-23.8,336.2,FALSE,FALSE,FALSE,FALSE,FALSE,FALSE,,TRUE,Normal,,100,1024,1024,1684,1024,1,FALSE,FALSE,FALSE,FALSE,FALSE,0,FALSE,FALSE,FALSE,FALSE,38,7.252,773,2050,7.269,FALSE,3.626,3.626,0.003,FALSE,FALSE,NA,121.1,121.1,121.1,0,0,0,0,5,2820.5,705.12,,Idle,0,20,FALSE,5,TRUE,11,Go Home,FALSE,FALSE,FALSE,FALSE,FALSE,FALSE,FALSE,FALSE,FALSE,FALSE,FALSE,FALSE,6.972861269,79.91593165,0.8,207.6,328,TRUE,1,1,FALSE,FALSE,FALSE,FALSE,,TRUE,FALSE,FALSE,Course Lock,49.2,,16.4,Calm,37,,1.12.8,Mavic Mini,1SDCH7G0169R0K,1SFLH6Q0AB03DJ,1SRCH7F014TAHX,1U5X071EXP5ZJG,76.6,0.2,29.5,12.284827,4.026492,0,280,Mavic Mini,1SDCH7G0169R0K,1SFLH6Q0AB03DJ,1SRCH7F014TAHX,1U5X071EXP5ZJG,DJI Fly,,1.12.8,0AFE7689-BA3D-C4E0-F791-3B5DA877F9A8,1SDCH7G0169R0K,,,,,,,,,
2/25/2024,17:37.6,14m 20.5s,860.5,6.972863399,79.91593102,0,0,0.3,57,0.2,0,0,0,0,0,0,0,0,4.5,-0.4,-32.3,327.7,,Manual Takeoff,Other,Takeoff (RC Assisted),17,5,TRUE,,Mavic Mini,TRUE,FALSE,,Smart,RC,TRUE,TRUE,FALSE,,,TRUE,,FALSE,FALSE,FALSE,FALSE,FALSE,FALSE,FALSE,FALSE,FALSE,FALSE,0,Follow Yaw,0,0,-23.8,336.2,FALSE,FALSE,FALSE,FALSE,FALSE,FALSE,,TRUE,Normal,,100,1024,1024,1684,1024,1,FALSE,FALSE,FALSE,FALSE,FALSE,0,FALSE,FALSE,FALSE,FALSE,38,7.252,773,2050,7.269,FALSE,3.626,3.626,0.003,FALSE,FALSE,NA,121.1,121.1,121.1,0,0,0,0,5,2820.5,705.12,,Idle,0,20,FALSE,5,TRUE,11,Go Home,FALSE,FALSE,FALSE,FALSE,FALSE,FALSE,FALSE,FALSE,FALSE,FALSE,FALSE,FALSE,6.972861269,79.91593165,0.8,207.6,328,TRUE,1,1,FALSE,FALSE,FALSE,FALSE,,TRUE,FALSE,FALSE,Course Lock,49.2,,16.4,Calm,37,,1.12.8,Mavic Mini,1SDCH7G0169R0K,1SFLH6Q0AB03DJ,1SRCH7F014TAHX,1U5X071EXP5ZJG,76.6,0.2,29.5,12.284827,4.026492,0,280,Mavic Mini,1SDCH7G0169R0K,1SFLH6Q0AB03DJ,1SRCH7F014TAHX,1U5X071EXP5ZJG,DJI Fly,,1.12.8,0AFE7689-BA3D-C4E0-F791-3B5DA877F9A8,1SDCH7G0169R0K,,,,,,,,,
2/25/2024,17:37.7,14m 20.6s,860.6,6.972863328,79.915931,0,0,0.3,57,0.2,0,0,0,0,0,0,0,0,4.4,-0.6,-32.9,327.1,,Manual Takeoff,Other,Takeoff (RC Assisted),17,5,TRUE,,Mavic Mini,TRUE,FALSE,,Smart,RC,TRUE,TRUE,FALSE,,,TRUE,,FALSE,FALSE,FALSE,FALSE,FALSE,FALSE,FALSE,FALSE,FALSE,FALSE,0,Follow Yaw,0,0,-23.9,336.1,FALSE,FALSE,FALSE,FALSE,FALSE,FALSE,,TRUE,Normal,,100,1024,1024,1684,1024,1,FALSE,FALSE,FALSE,FALSE,FALSE,0,FALSE,FALSE,FALSE,FALSE,38,7.252,773,2050,7.269,FALSE,3.626,3.626,0.003,FALSE,FALSE,NA,121.1,121.1,121.1,0,0,0,0,5,2820.5,705.12,,Idle,0,20,FALSE,5,TRUE,11,Go Home,FALSE,FALSE,FALSE,FALSE,FALSE,FALSE,FALSE,FALSE,FALSE,FALSE,FALSE,FALSE,6.972861269,79.91593165,0.7,207.6,328,TRUE,1,1,FALSE,FALSE,FALSE,FALSE,,TRUE,FALSE,FALSE,Course Lock,49.2,,16.4,Calm,37,,1.12.8,Mavic Mini,1SDCH7G0169R0K,1SFLH6Q0AB03DJ,1SRCH7F014TAHX,1U5X071EXP5ZJG,76.6,0.2,29.5,12.284827,4.026492,0,280,Mavic Mini,1SDCH7G0169R0K,1SFLH6Q0AB03DJ,1SRCH7F014TAHX,1U5X071EXP5ZJG,DJI Fly,,1.12.8,0AFE7689-BA3D-C4E0-F791-3B5DA877F9A8,1SDCH7G0169R0K,,,,,,,,,
2/25/2024,17:37.8,14m 20.7s,860.7,6.972863267,79.91593099,0,0,0.3,57,0.3,0,0,0,0,0,0,0,0,3.3,-0.9,-33.4,326.6,,Manual Takeoff,Other,Takeoff (RC Assisted),17,5,TRUE,,Mavic Mini,TRUE,FALSE,,Smart,RC,TRUE,TRUE,FALSE,,,TRUE,,FALSE,FALSE,FALSE,FALSE,FALSE,FALSE,FALSE,FALSE,FALSE,FALSE,0,Follow Yaw,0,0,-24.4,335.6,FALSE,FALSE,FALSE,FALSE,FALSE,FALSE,,TRUE,Normal,,100,1024,1024,1684,1024,1,FALSE,FALSE,FALSE,FALSE,FALSE,0,FALSE,FALSE,FALSE,FALSE,38,7.252,773,2050,7.269,FALSE,3.626,3.626,0.003,FALSE,FALSE,NA,121.1,121.1,121.1,0,0,0,0,5,2820.5,705.12,,Idle,0,20,FALSE,5,TRUE,11,Go Home,FALSE,FALSE,FALSE,FALSE,FALSE,FALSE,FALSE,FALSE,FALSE,FALSE,FALSE,FALSE,6.972861269,79.91593165,0.7,207.6,328,TRUE,1,1,FALSE,FALSE,FALSE,FALSE,,TRUE,FALSE,FALSE,Course Lock,49.2,,16.4,Calm,37,,1.12.8,Mavic Mini,1SDCH7G0169R0K,1SFLH6Q0AB03DJ,1SRCH7F014TAHX,1U5X071EXP5ZJG,76.6,0.2,29.5,12.284827,4.026492,0,280,Mavic Mini,1SDCH7G0169R0K,1SFLH6Q0AB03DJ,1SRCH7F014TAHX,1U5X071EXP5ZJG,DJI Fly,,1.12.8,0AFE7689-BA3D-C4E0-F791-3B5DA877F9A8,1SDCH7G0169R0K,,,,,,,,,
2/25/2024,17:37.9,14m 20.8s,860.8,6.972863249,79.91593098,0,0,0.3,57,0.3,0,0,0,0,0,0,0,0,0.8,-1.3,-34,326,,Manual Takeoff,Other,Takeoff (RC Assisted),17,5,TRUE,,Mavic Mini,TRUE,FALSE,,Smart,RC,TRUE,TRUE,FALSE,,,TRUE,,FALSE,FALSE,FALSE,FALSE,FALSE,FALSE,FALSE,FALSE,FALSE,FALSE,0,Follow Yaw,0,0,-24.9,335.1,FALSE,FALSE,FALSE,FALSE,FALSE,FALSE,,TRUE,Normal,,100,1024,1024,1684,1024,1,FALSE,FALSE,FALSE,FALSE,FALSE,0,FALSE,FALSE,FALSE,FALSE,38,7.252,773,2050,7.269,FALSE,3.626,3.626,0.003,FALSE,FALSE,NA,121.1,121.1,121.1,0,0,0,0,5,2820.5,705.12,,Idle,0,20,FALSE,5,TRUE,11,Go Home,FALSE,FALSE,FALSE,FALSE,FALSE,FALSE,FALSE,FALSE,FALSE,FALSE,FALSE,FALSE,6.972861269,79.91593165,0.7,207.6,328,TRUE,1,1,FALSE,FALSE,FALSE,FALSE,,TRUE,FALSE,FALSE,Course Lock,49.2,,16.4,Calm,37,,1.12.8,Mavic Mini,1SDCH7G0169R0K,1SFLH6Q0AB03DJ,1SRCH7F014TAHX,1U5X071EXP5ZJG,76.6,0.2,29.5,12.284827,4.026492,0,280,Mavic Mini,1SDCH7G0169R0K,1SFLH6Q0AB03DJ,1SRCH7F014TAHX,1U5X071EXP5ZJG,DJI Fly,,1.12.8,0AFE7689-BA3D-C4E0-F791-3B5DA877F9A8,1SDCH7G0169R0K,,,,,,,,,
2/25/2024,17:38.0,14m 20.9s,860.9,6.972863223,79.91593098,0,0,0.3,57,0.3,0,0,0,0,0,0,0,0,-0.6,-1.5,-34.9,325.1,,Manual Takeoff,Other,Takeoff (RC Assisted),17,5,TRUE,,Mavic Mini,TRUE,FALSE,,Smart,RC,TRUE,TRUE,FALSE,,,TRUE,,FALSE,FALSE,FALSE,FALSE,FALSE,FALSE,FALSE,FALSE,FALSE,FALSE,0,Follow Yaw,0,0,-25.7,334.3,FALSE,FALSE,FALSE,FALSE,FALSE,FALSE,,TRUE,Normal,,100,1024,1024,1684,1024,1,FALSE,FALSE,FALSE,FALSE,FALSE,0,FALSE,FALSE,FALSE,FALSE,38,7.252,773,2050,7.269,FALSE,3.626,3.626,0.003,FALSE,FALSE,NA,121.1,121.1,121.1,0,0,0,0,5,2820.5,705.12,,Idle,0,20,FALSE,5,TRUE,11,Go Home,FALSE,FALSE,FALSE,FALSE,FALSE,FALSE,FALSE,FALSE,FALSE,FALSE,FALSE,FALSE,6.972861269,79.91593165,0.7,207.6,328,TRUE,1,1,FALSE,FALSE,FALSE,FALSE,,TRUE,FALSE,FALSE,Course Lock,49.2,,16.4,Calm,37,,1.12.8,Mavic Mini,1SDCH7G0169R0K,1SFLH6Q0AB03DJ,1SRCH7F014TAHX,1U5X071EXP5ZJG,76.6,0.2,29.5,12.284827,4.026492,0,280,Mavic Mini,1SDCH7G0169R0K,1SFLH6Q0AB03DJ,1SRCH7F014TAHX,1U5X071EXP5ZJG,DJI Fly,,1.12.8,0AFE7689-BA3D-C4E0-F791-3B5DA877F9A8,1SDCH7G0169R0K,,,,,,,,,
2/25/2024,17:38.2,14m 21.0s,861,6.972863247,79.91593093,0,0,0.3,57,0.3,0,0,0,0,0,0,-0.223694,0,-0.9,-1.1,-35.3,324.7,,Manual Takeoff,Other,,17,5,TRUE,,Mavic Mini,TRUE,FALSE,,Smart,RC,FALSE,TRUE,FALSE,,,TRUE,,FALSE,FALSE,FALSE,FALSE,FALSE,FALSE,FALSE,FALSE,FALSE,FALSE,0,Follow Yaw,0,0,-26.2,333.8,FALSE,FALSE,FALSE,FALSE,FALSE,FALSE,,TRUE,Normal,,100,1024,1024,1684,1024,1,FALSE,FALSE,FALSE,FALSE,FALSE,0,FALSE,FALSE,FALSE,FALSE,38,7.252,773,2050,7.269,FALSE,3.626,3.626,0.003,FALSE,FALSE,NA,121.1,121.1,121.1,0,0,0,0,5,2820.5,705.12,,Idle,0,20,FALSE,5,TRUE,11,Go Home,FALSE,FALSE,FALSE,FALSE,FALSE,FALSE,FALSE,FALSE,FALSE,FALSE,FALSE,FALSE,6.972861269,79.91593165,0.7,207.6,328,TRUE,1,1,FALSE,FALSE,FALSE,FALSE,,TRUE,FALSE,FALSE,Course Lock,49.2,,16.4,Calm,37,,1.12.8,Mavic Mini,1SDCH7G0169R0K,1SFLH6Q0AB03DJ,1SRCH7F014TAHX,1U5X071EXP5ZJG,76.6,0.2,29.5,12.284827,4.026492,0,280,Mavic Mini,1SDCH7G0169R0K,1SFLH6Q0AB03DJ,1SRCH7F014TAHX,1U5X071EXP5ZJG,DJI Fly,,1.12.8,0AFE7689-BA3D-C4E0-F791-3B5DA877F9A8,1SDCH7G0169R0K,,,,,6.972853658,79.91592994,5,,
2/25/2024,17:38.2,14m 21.1s,861.1,6.972863284,79.91593082,0,0,0.3,57,0.3,0.223694,0.223694,0,0,-0.223694,0,-0.671082,0,0.5,-0.4,-35.4,324.6,295,P-GPS,Other,,16,5,TRUE,,Mavic Mini,TRUE,FALSE,,Smart,RC,FALSE,TRUE,FALSE,,,TRUE,,FALSE,FALSE,FALSE,FALSE,FALSE,FALSE,FALSE,FALSE,FALSE,FALSE,0,Follow Yaw,0,0,-26.3,333.7,FALSE,FALSE,FALSE,FALSE,FALSE,FALSE,,TRUE,Normal,,100,1024,1024,1684,1024,1,FALSE,FALSE,FALSE,FALSE,FALSE,0,FALSE,FALSE,FALSE,FALSE,38,7.252,773,2050,7.269,FALSE,3.626,3.626,0.003,FALSE,FALSE,NA,121.1,121.1,121.1,0,0,0,0,5,2820.5,705.12,,Idle,0,20,FALSE,5,TRUE,11,Go Home,FALSE,FALSE,FALSE,FALSE,FALSE,FALSE,FALSE,FALSE,FALSE,FALSE,FALSE,FALSE,6.972861269,79.91593165,0.7,207.6,328,TRUE,1,1,FALSE,FALSE,FALSE,FALSE,,TRUE,FALSE,FALSE,Course Lock,49.2,,16.4,Calm,37,,1.12.8,Mavic Mini,1SDCH7G0169R0K,1SFLH6Q0AB03DJ,1SRCH7F014TAHX,1U5X071EXP5ZJG,76.6,0.2,29.5,12.284827,4.026492,0,280,Mavic Mini,1SDCH7G0169R0K,1SFLH6Q0AB03DJ,1SRCH7F014TAHX,1U5X071EXP5ZJG,DJI Fly,,1.12.8,0AFE7689-BA3D-C4E0-F791-3B5DA877F9A8,1SDCH7G0169R0K,,,,,6.972853658,79.91592994,5,Flight mode changed to P-GPS.,
2/25/2024,17:38.3,14m 21.2s,861.2,6.972863315,79.91593067,0,0,0.6,57,0.4,0.223694,0.223694,0,0,-0.223694,0,-1.11847,0,1.5,0,-35.3,324.7,284.1,P-GPS,Other,,16,5,TRUE,,Mavic Mini,TRUE,FALSE,,Smart,RC,FALSE,TRUE,FALSE,,,TRUE,,FALSE,FALSE,FALSE,FALSE,FALSE,FALSE,FALSE,FALSE,FALSE,FALSE,0,Follow Yaw,0,0,-26.3,333.7,FALSE,FALSE,FALSE,FALSE,FALSE,FALSE,,TRUE,Normal,,100,1024,1024,1684,1024,1,FALSE,FALSE,FALSE,FALSE,FALSE,0,FALSE,FALSE,FALSE,FALSE,38,7.252,773,2050,7.269,FALSE,3.626,3.626,0.003,FALSE,FALSE,NA,121.1,121.1,121.1,0,0,0,0,5,2820.5,705.12,,Idle,0,20,FALSE,5,TRUE,11,Go Home,FALSE,FALSE,FALSE,FALSE,FALSE,FALSE,FALSE,FALSE,FALSE,FALSE,FALSE,FALSE,6.972861269,79.91593165,0.8,207.6,328,TRUE,1,1,FALSE,FALSE,FALSE,FALSE,,TRUE,FALSE,FALSE,Course Lock,49.2,,16.4,Calm,37,,1.12.8,Mavic Mini,1SDCH7G0169R0K,1SFLH6Q0AB03DJ,1SRCH7F014TAHX,1U5X071EXP5ZJG,76.6,0.2,29.5,12.284827,4.026492,0,280,Mavic Mini,1SDCH7G0169R0K,1SFLH6Q0AB03DJ,1SRCH7F014TAHX,1U5X071EXP5ZJG,DJI Fly,,1.12.8,0AFE7689-BA3D-C4E0-F791-3B5DA877F9A8,1SDCH7G0169R0K,,,,,6.972853658,79.91592994,5,,
2/25/2024,17:38.3,14m 21.3s,861.3,6.97286339,79.91593049,0.3,0.3,0.6,57,0.5,0.316351,0.316351,0.223694,0.223694,-0.223694,0,-1.565858,0,1.7,0,-35.1,324.9,299.3,P-GPS,Other,,17,5,TRUE,,Mavic Mini,TRUE,FALSE,,Smart,RC,FALSE,TRUE,FALSE,,,TRUE,,FALSE,FALSE,FALSE,FALSE,FALSE,FALSE,FALSE,FALSE,FALSE,FALSE,0,Follow Yaw,0,0,-26.3,333.7,FALSE,FALSE,FALSE,FALSE,FALSE,FALSE,,TRUE,Normal,,100,1024,1024,1671,1024,1,FALSE,FALSE,FALSE,FALSE,FALSE,0,FALSE,FALSE,FALSE,FALSE,38,7.061,772,2050,7.269,FALSE,3.534,3.528,0.006,FALSE,FALSE,NA,121.1,121.1,121.1,0,0,0,0,5,2820.5,705.12,,Idle,0,20,FALSE,5,TRUE,11,Go Home,FALSE,FALSE,FALSE,FALSE,FALSE,FALSE,FALSE,FALSE,FALSE,FALSE,FALSE,FALSE,6.972861269,79.91593165,0.8,207.6,328,TRUE,1,1,FALSE,FALSE,FALSE,FALSE,,TRUE,FALSE,FALSE,Course Lock,49.2,,16.4,Calm,37,,1.12.8,Mavic Mini,1SDCH7G0169R0K,1SFLH6Q0AB03DJ,1SRCH7F014TAHX,1U5X071EXP5ZJG,76.6,0.2,29.5,12.284827,4.026492,0,280,Mavic Mini,1SDCH7G0169R0K,1SFLH6Q0AB03DJ,1SRCH7F014TAHX,1U5X071EXP5ZJG,DJI Fly,,1.12.8,0AFE7689-BA3D-C4E0-F791-3B5DA877F9A8,1SDCH7G0169R0K,,,,,6.972853658,79.91592994,5,,
2/25/2024,17:38.5,14m 21.4s,861.4,6.972863485,79.91593036,0.6,0.6,0.9,58,0.5,0.223694,0.316351,0.223694,0.223694,0,0,-2.013246,0,2.4,-0.2,-35,325,313.8,P-GPS,Other,,17,5,TRUE,,Mavic Mini,TRUE,FALSE,,Smart,RC,FALSE,TRUE,FALSE,,,TRUE,,FALSE,FALSE,FALSE,FALSE,FALSE,FALSE,FALSE,FALSE,FALSE,FALSE,0,Follow Yaw,0,0,-26.3,333.7,FALSE,FALSE,FALSE,FALSE,FALSE,FALSE,,TRUE,Normal,,100,1024,1024,1253,1024,1,FALSE,FALSE,FALSE,FALSE,FALSE,0,FALSE,FALSE,FALSE,FALSE,38,7.061,772,2050,7.203,FALSE,3.534,3.528,0.006,FALSE,FALSE,NA,121.1,121.1,121.1,0,0,4,0,5,3269.7,817.42,,Idle,0,20,FALSE,5,TRUE,11,Go Home,FALSE,FALSE,FALSE,FALSE,FALSE,FALSE,FALSE,FALSE,FALSE,FALSE,FALSE,FALSE,6.972863247,79.91593093,0.2,207.6,328,TRUE,1,1,FALSE,FALSE,FALSE,FALSE,,TRUE,FALSE,FALSE,Course Lock,49.2,,16.4,Calm,37,,1.12.8,Mavic Mini,1SDCH7G0169R0K,1SFLH6Q0AB03DJ,1SRCH7F014TAHX,1U5X071EXP5ZJG,76.6,0.2,29.5,12.284827,4.026492,0,280,Mavic Mini,1SDCH7G0169R0K,1SFLH6Q0AB03DJ,1SRCH7F014TAHX,1U5X071EXP5ZJG,DJI Fly,,1.12.8,0AFE7689-BA3D-C4E0-F791-3B5DA877F9A8,1SDCH7G0169R0K,,,,,6.972853658,79.91592994,5,Home Point Updated.,
2/25/2024,17:38.6,14m 21.5s,861.5,6.972863578,79.91593028,0.9,0.9,1.3,58,0.6,0.223694,0.316351,0.223694,0.223694,0,0,-2.684328,0,2.3,-0.4,-35,325,323.8,P-GPS,Other,,18,5,TRUE,,Mavic Mini,TRUE,FALSE,,Smart,RC,FALSE,TRUE,FALSE,,,TRUE,,FALSE,FALSE,FALSE,FALSE,FALSE,FALSE,FALSE,FALSE,FALSE,FALSE,0,Follow Yaw,0,0,-26.3,333.7,FALSE,FALSE,FALSE,FALSE,FALSE,FALSE,,TRUE,Normal,,100,1024,1024,1024,1024,1,FALSE,FALSE,FALSE,FALSE,FALSE,0,FALSE,FALSE,FALSE,FALSE,38,7.061,772,2050,7.203,FALSE,3.534,3.528,0.006,FALSE,FALSE,NA,121.1,121.1,121.1,0,0,4,0,5,3269.7,817.42,,Idle,0,20,FALSE,5,TRUE,11,Go Home,FALSE,FALSE,FALSE,FALSE,FALSE,FALSE,FALSE,FALSE,FALSE,FALSE,FALSE,FALSE,6.972863247,79.91593093,0.2,207.6,328,TRUE,1,1,FALSE,FALSE,FALSE,FALSE,,TRUE,FALSE,FALSE,Course Lock,49.2,,16.4,Calm,37,,1.12.8,Mavic Mini,1SDCH7G0169R0K,1SFLH6Q0AB03DJ,1SRCH7F014TAHX,1U5X071EXP5ZJG,76.6,0.2,29.5,12.284827,4.026492,0,280,Mavic Mini,1SDCH7G0169R0K,1SFLH6Q0AB03DJ,1SRCH7F014TAHX,1U5X071EXP5ZJG,DJI Fly,,1.12.8,0AFE7689-BA3D-C4E0-F791-3B5DA877F9A8,1SDCH7G0169R0K,,,,,6.972853658,79.91592994,5,Home Point updated. RTH altitude adjusted to 15 m! (Code: 120852).,
2/25/2024,17:38.6,14m 21.6s,861.6,6.972863673,79.91593025,1.3,1.3,1.6,58,0.6,0.223694,0.316351,0.223694,0.223694,0,0,-3.131716,0,2.6,-1,-35,325,348.1,P-GPS,Other,,18,5,TRUE,,Mavic Mini,TRUE,FALSE,,Smart,RC,FALSE,TRUE,FALSE,,,TRUE,,FALSE,FALSE,FALSE,FALSE,FALSE,FALSE,FALSE,FALSE,FALSE,FALSE,0,Follow Yaw,0,0,-26.3,333.7,FALSE,FALSE,FALSE,FALSE,FALSE,FALSE,,TRUE,Normal,,100,1024,1024,1024,1024,1,FALSE,FALSE,FALSE,FALSE,FALSE,0,FALSE,FALSE,FALSE,FALSE,38,7.061,772,2050,7.203,FALSE,3.534,3.528,0.006,FALSE,FALSE,NA,121.1,121.1,121.1,0,0,4,0,5,3269.7,817.42,,Idle,0,20,FALSE,5,TRUE,11,Go Home,FALSE,FALSE,FALSE,FALSE,FALSE,FALSE,FALSE,FALSE,FALSE,FALSE,FALSE,FALSE,6.972863247,79.91593093,0.2,207.6,328,TRUE,1,1,FALSE,FALSE,FALSE,FALSE,,TRUE,FALSE,FALSE,Course Lock,49.2,,16.4,Calm,37,,1.12.8,Mavic Mini,1SDCH7G0169R0K,1SFLH6Q0AB03DJ,1SRCH7F014TAHX,1U5X071EXP5ZJG,76.6,0.2,29.5,12.284827,4.026492,0,280,Mavic Mini,1SDCH7G0169R0K,1SFLH6Q0AB03DJ,1SRCH7F014TAHX,1U5X071EXP5ZJG,DJI Fly,,1.12.8,0AFE7689-BA3D-C4E0-F791-3B5DA877F9A8,1SDCH7G0169R0K,,,,,6.972853658,79.91592994,5,,
2/25/2024,17:38.8,14m 21.7s,861.7,6.972863828,79.91593025,1.9,1.9,1.9,59,0.7,0.223694,0.316351,0.223694,0.223694,0,0,-3.35541,0,2.6,-1.2,-34.9,325.1,359.7,P-GPS,Other,,18,5,TRUE,,Mavic Mini,TRUE,FALSE,,Smart,RC,FALSE,TRUE,FALSE,,,TRUE,,FALSE,FALSE,FALSE,FALSE,FALSE,FALSE,FALSE,FALSE,FALSE,FALSE,0,Follow Yaw,0,0,-26.3,333.7,FALSE,FALSE,FALSE,FALSE,FALSE,FALSE,,TRUE,Normal,,100,1024,1024,1024,1024,1,FALSE,FALSE,FALSE,FALSE,FALSE,0,FALSE,FALSE,FALSE,FALSE,38,7.061,772,2050,7.203,FALSE,3.534,3.528,0.006,FALSE,FALSE,NA,121.1,121.1,121.1,0,0,4,0,5,3269.7,817.42,,Idle,0,20,FALSE,5,TRUE,11,Go Home,FALSE,FALSE,FALSE,FALSE,FALSE,FALSE,FALSE,FALSE,FALSE,FALSE,FALSE,FALSE,6.972863247,79.91593093,0.3,207.6,328,TRUE,1,1,FALSE,FALSE,FALSE,FALSE,,TRUE,FALSE,FALSE,Course Lock,49.2,,16.4,Calm,37,,1.12.8,Mavic Mini,1SDCH7G0169R0K,1SFLH6Q0AB03DJ,1SRCH7F014TAHX,1U5X071EXP5ZJG,76.6,0.2,29.5,12.284827,4.026492,0,280,Mavic Mini,1SDCH7G0169R0K,1SFLH6Q0AB03DJ,1SRCH7F014TAHX,1U5X071EXP5ZJG,DJI Fly,,1.12.8,0AFE7689-BA3D-C4E0-F791-3B5DA877F9A8,1SDCH7G0169R0K,,,,,6.972853658,79.91592994,5,,
2/25/2024,17:38.9,14m 21.8s,861.8,6.972864012,79.91593025,2.2,2.2,2.6,59,0.7,0,0.316351,0,0.223694,0,0,-3.35541,0,2.6,-1.4,-35,325,,P-GPS,Other,,18,5,TRUE,,Mavic Mini,TRUE,FALSE,,Smart,RC,FALSE,TRUE,FALSE,,,TRUE,,FALSE,FALSE,FALSE,FALSE,FALSE,FALSE,FALSE,FALSE,FALSE,FALSE,0,Follow Yaw,0,0,-26.3,333.7,FALSE,FALSE,FALSE,FALSE,FALSE,FALSE,,TRUE,Normal,,100,1024,1024,1024,1024,1,FALSE,FALSE,FALSE,FALSE,FALSE,0,FALSE,FALSE,FALSE,FALSE,38,7.061,772,2050,7.203,FALSE,3.534,3.528,0.006,FALSE,FALSE,NA,121.1,121.1,121.1,0,0,4,0,5,3269.7,817.42,,Idle,0,20,FALSE,5,TRUE,11,Go Home,FALSE,FALSE,FALSE,FALSE,FALSE,FALSE,FALSE,FALSE,FALSE,FALSE,FALSE,FALSE,6.972863247,79.91593093,0.3,207.6,328,TRUE,1,1,FALSE,FALSE,FALSE,FALSE,,TRUE,FALSE,FALSE,Course Lock,49.2,,16.4,Calm,37,,1.12.8,Mavic Mini,1SDCH7G0169R0K,1SFLH6Q0AB03DJ,1SRCH7F014TAHX,1U5X071EXP5ZJG,76.6,0.2,29.5,12.284827,4.026492,0,280,Mavic Mini,1SDCH7G0169R0K,1SFLH6Q0AB03DJ,1SRCH7F014TAHX,1U5X071EXP5ZJG,DJI Fly,,1.12.8,0AFE7689-BA3D-C4E0-F791-3B5DA877F9A8,1SDCH7G0169R0K,,,,,6.972853658,79.91592994,5,,
2/25/2024,17:39.0,14m 21.9s,861.9,6.972864183,79.91593025,2.9,2.9,2.9,60,0.8,0,0.316351,0,0.223694,0,0,-3.131716,0,2.6,-0.5,-35,325,,P-GPS,Other,,18,5,TRUE,,Mavic Mini,TRUE,FALSE,,Smart,RC,FALSE,TRUE,FALSE,,,TRUE,,FALSE,FALSE,FALSE,FALSE,FALSE,FALSE,FALSE,FALSE,FALSE,FALSE,0,Follow Yaw,0,0,-26.3,333.7,FALSE,FALSE,FALSE,FALSE,FALSE,FALSE,,TRUE,Normal,,100,1024,1024,1024,1024,1,FALSE,FALSE,FALSE,FALSE,FALSE,0,FALSE,FALSE,FALSE,FALSE,38,7.061,772,2050,7.203,FALSE,3.534,3.528,0.006,FALSE,FALSE,NA,121.1,121.1,121.1,0,0,4,0,5,3269.7,817.42,,Idle,0,20,FALSE,5,TRUE,11,Go Home,FALSE,FALSE,FALSE,FALSE,FALSE,FALSE,FALSE,FALSE,FALSE,FALSE,FALSE,FALSE,6.972863247,79.91593093,0.4,207.6,328,TRUE,1,1,FALSE,FALSE,FALSE,FALSE,,TRUE,FALSE,FALSE,Course Lock,49.2,,16.4,Calm,37,,1.12.8,Mavic Mini,1SDCH7G0169R0K,1SFLH6Q0AB03DJ,1SRCH7F014TAHX,1U5X071EXP5ZJG,76.6,0.2,29.5,12.284827,4.026492,0,280,Mavic Mini,1SDCH7G0169R0K,1SFLH6Q0AB03DJ,1SRCH7F014TAHX,1U5X071EXP5ZJG,DJI Fly,,1.12.8,0AFE7689-BA3D-C4E0-F791-3B5DA877F9A8,1SDCH7G0169R0K,,,,,6.972853658,79.91592994,5,,
2/25/2024,17:39.1,14m 22.0s,862,6.972864354,79.91593023,3.2,3.2,3.6,60,0.8,0,0.316351,0,0.223694,0,0,-2.684328,0,3,-0.3,-35,325,,P-GPS,Other,,18,5,TRUE,,Mavic Mini,TRUE,FALSE,,Smart,RC,FALSE,TRUE,FALSE,,,TRUE,,FALSE,FALSE,FALSE,FALSE,FALSE,FALSE,FALSE,FALSE,FALSE,FALSE,0,Follow Yaw,0,0,-26.3,333.7,FALSE,FALSE,FALSE,FALSE,FALSE,FALSE,,TRUE,Normal,,100,1024,1024,1024,1024,1,FALSE,FALSE,FALSE,FALSE,FALSE,0,FALSE,FALSE,FALSE,FALSE,38,7.061,772,2050,7.203,FALSE,3.534,3.528,0.006,FALSE,FALSE,NA,121.1,121.1,121.1,0,0,4,0,5,3269.7,817.42,,Idle,0,20,FALSE,5,TRUE,11,Go Home,FALSE,FALSE,FALSE,FALSE,FALSE,FALSE,FALSE,FALSE,FALSE,FALSE,FALSE,FALSE,6.972863247,79.91593093,0.4,207.6,328,TRUE,1,1,FALSE,FALSE,FALSE,FALSE,,TRUE,FALSE,FALSE,Course Lock,49.2,,16.4,Calm,37,,1.12.8,Mavic Mini,1SDCH7G0169R0K,1SFLH6Q0AB03DJ,1SRCH7F014TAHX,1U5X071EXP5ZJG,76.6,0.2,29.5,12.284827,4.026492,0,280,Mavic Mini,1SDCH7G0169R0K,1SFLH6Q0AB03DJ,1SRCH7F014TAHX,1U5X071EXP5ZJG,DJI Fly,,1.12.8,0AFE7689-BA3D-C4E0-F791-3B5DA877F9A8,1SDCH7G0169R0K,,,,,6.972853658,79.91592994,5,,
2/25/2024,17:39.2,14m 22.1s,862.1,6.972864802,79.91593033,3.6,3.6,3.9,61,1,0,0.316351,0,0.223694,0,0,-2.013246,0,2.9,-0.4,-34.9,325.1,,P-GPS,Other,,18,5,TRUE,,Mavic Mini,TRUE,FALSE,,Smart,RC,FALSE,TRUE,FALSE,,,TRUE,,FALSE,FALSE,FALSE,FALSE,FALSE,FALSE,FALSE,FALSE,FALSE,FALSE,0,Follow Yaw,0,0,-26.3,333.7,FALSE,FALSE,FALSE,FALSE,FALSE,FALSE,,TRUE,Normal,,100,1024,1024,1024,1024,1,FALSE,FALSE,FALSE,FALSE,FALSE,0,FALSE,FALSE,FALSE,FALSE,38,7.061,772,2050,7.203,FALSE,3.534,3.528,0.006,FALSE,FALSE,NA,121.1,121.1,121.1,0,0,4,0,5,3269.7,817.42,,Idle,0,20,FALSE,5,TRUE,11,Go Home,FALSE,FALSE,FALSE,FALSE,FALSE,FALSE,FALSE,FALSE,FALSE,FALSE,FALSE,FALSE,6.972863247,79.91593093,0.6,207.6,328,TRUE,1,1,FALSE,FALSE,FALSE,FALSE,,TRUE,FALSE,FALSE,Course Lock,49.2,,16.4,Calm,37,,1.12.8,Mavic Mini,1SDCH7G0169R0K,1SFLH6Q0AB03DJ,1SRCH7F014TAHX,1U5X071EXP5ZJG,76.6,0.2,29.5,12.284827,4.026492,0,280,Mavic Mini,1SDCH7G0169R0K,1SFLH6Q0AB03DJ,1SRCH7F014TAHX,1U5X071EXP5ZJG,DJI Fly,,1.12.8,0AFE7689-BA3D-C4E0-F791-3B5DA877F9A8,1SDCH7G0169R0K,,,,,6.972853658,79.91592994,5,,
2/25/2024,17:39.3,14m 22.2s,862.2,6.972864957,79.91593038,3.6,3.6,4.2,61,1.1,0,0.316351,0,0.223694,0,0,-1.342164,0,2.9,-0.3,-34.9,325.1,,P-GPS,Other,,18,5,TRUE,,Mavic Mini,TRUE,FALSE,,Smart,RC,FALSE,TRUE,FALSE,,,TRUE,,FALSE,FALSE,FALSE,FALSE,FALSE,FALSE,FALSE,FALSE,FALSE,FALSE,0,Follow Yaw,0,0,-26.3,333.7,FALSE,FALSE,FALSE,FALSE,FALSE,FALSE,,TRUE,Normal,,100,1024,1024,1024,1024,1,FALSE,FALSE,FALSE,FALSE,FALSE,0,FALSE,FALSE,FALSE,FALSE,38,7.061,772,2050,7.203,FALSE,3.534,3.528,0.006,FALSE,FALSE,NA,121.1,121.1,121.1,0,0,4,0,5,3269.7,817.42,,Idle,0,20,FALSE,5,TRUE,11,Go Home,FALSE,FALSE,FALSE,FALSE,FALSE,FALSE,FALSE,FALSE,FALSE,FALSE,FALSE,FALSE,6.972863247,79.91593093,0.6,207.6,328,TRUE,1,1,FALSE,FALSE,FALSE,FALSE,,TRUE,FALSE,FALSE,Course Lock,49.2,,16.4,Calm,37,,1.12.8,Mavic Mini,1SDCH7G0169R0K,1SFLH6Q0AB03DJ,1SRCH7F014TAHX,1U5X071EXP5ZJG,76.6,0.2,29.5,12.284827,4.026492,0,280,Mavic Mini,1SDCH7G0169R0K,1SFLH6Q0AB03DJ,1SRCH7F014TAHX,1U5X071EXP5ZJG,DJI Fly,,1.12.8,0AFE7689-BA3D-C4E0-F791-3B5DA877F9A8,1SDCH7G0169R0K,,,,,6.972853658,79.91592994,5,,
2/25/2024,17:39.3,14m 22.3s,862.3,6.972865094,79.91593043,3.9,3.9,4.2,61,1.1,0,0.316351,0,0.223694,0,0,-0.894776,0,3.1,-0.6,-34.9,325.1,,P-GPS,Other,,18,5,TRUE,,Mavic Mini,TRUE,FALSE,,Smart,RC,FALSE,TRUE,FALSE,,,TRUE,,FALSE,FALSE,FALSE,FALSE,FALSE,FALSE,FALSE,FALSE,FALSE,FALSE,0,Follow Yaw,0,0,-26.3,333.7,FALSE,FALSE,FALSE,FALSE,FALSE,FALSE,,TRUE,Normal,,100,1024,1024,1024,1024,1,FALSE,FALSE,FALSE,FALSE,FALSE,0,FALSE,FALSE,FALSE,FALSE,38,7.061,772,2050,7.203,FALSE,3.534,3.528,0.006,FALSE,FALSE,NA,121.1,121.1,121.1,0,0,4,0,5,3269.7,817.42,,Idle,0,20,FALSE,5,TRUE,11,Go Home,FALSE,FALSE,FALSE,FALSE,FALSE,FALSE,FALSE,FALSE,FALSE,FALSE,FALSE,FALSE,6.972863247,79.91593093,0.6,207.6,328,TRUE,1,1,FALSE,FALSE,FALSE,FALSE,,TRUE,FALSE,FALSE,Course Lock,49.2,,16.4,Calm,37,,1.12.8,Mavic Mini,1SDCH7G0169R0K,1SFLH6Q0AB03DJ,1SRCH7F014TAHX,1U5X071EXP5ZJG,76.6,0.2,29.5,12.284827,4.026492,0,280,Mavic Mini,1SDCH7G0169R0K,1SFLH6Q0AB03DJ,1SRCH7F014TAHX,1U5X071EXP5ZJG,DJI Fly,,1.12.8,0AFE7689-BA3D-C4E0-F791-3B5DA877F9A8,1SDCH7G0169R0K,,,,,6.972853658,79.91592994,5,,
2/25/2024,17:39.4,14m 22.4s,862.4,6.972865198,79.9159305,3.9,3.9,4.5,61,1.2,0,0.316351,0,0.223694,0,0,-0.447388,0,3.1,-0.8,-35,325,,P-GPS,Other,,18,5,TRUE,,Mavic Mini,TRUE,FALSE,,Smart,RC,FALSE,TRUE,FALSE,,,TRUE,,FALSE,FALSE,FALSE,FALSE,FALSE,FALSE,FALSE,FALSE,FALSE,FALSE,0,Follow Yaw,0,0,-26.3,333.7,FALSE,FALSE,FALSE,FALSE,FALSE,FALSE,,TRUE,Normal,,100,1024,1024,1024,1024,1,FALSE,FALSE,FALSE,FALSE,FALSE,0,FALSE,FALSE,FALSE,FALSE,38,7.061,772,2050,7.141,FALSE,3.534,3.528,0.006,FALSE,FALSE,NA,121.1,121.1,121.1,0,0,4,0,5,3269.7,817.42,,Idle,0,20,FALSE,5,TRUE,11,Go Home,FALSE,FALSE,FALSE,FALSE,FALSE,FALSE,FALSE,FALSE,FALSE,FALSE,FALSE,FALSE,6.972863247,79.91593093,0.7,207.6,328,TRUE,1,1,FALSE,FALSE,FALSE,FALSE,,TRUE,FALSE,FALSE,Course Lock,49.2,,16.4,Calm,37,,1.12.8,Mavic Mini,1SDCH7G0169R0K,1SFLH6Q0AB03DJ,1SRCH7F014TAHX,1U5X071EXP5ZJG,76.6,0.2,29.5,12.284827,4.026492,0,280,Mavic Mini,1SDCH7G0169R0K,1SFLH6Q0AB03DJ,1SRCH7F014TAHX,1U5X071EXP5ZJG,DJI Fly,,1.12.8,0AFE7689-BA3D-C4E0-F791-3B5DA877F9A8,1SDCH7G0169R0K,,,,,6.972853658,79.91592994,5,,
2/25/2024,17:39.6,14m 22.5s,862.5,6.972865299,79.91593057,3.9,3.9,4.5,61,1.2,0,0.316351,0,0.223694,0,0,0,0,3.1,-0.9,-35,325,,P-GPS,Other,,18,5,TRUE,,Mavic Mini,TRUE,FALSE,,Smart,RC,FALSE,TRUE,FALSE,,,TRUE,,FALSE,FALSE,FALSE,FALSE,FALSE,FALSE,FALSE,FALSE,FALSE,FALSE,0,Follow Yaw,0,0,-26.3,333.7,FALSE,FALSE,FALSE,FALSE,FALSE,FALSE,,TRUE,Normal,,100,1024,1024,1024,1024,1,FALSE,FALSE,FALSE,FALSE,FALSE,0,FALSE,FALSE,FALSE,FALSE,38,7.151,771,2050,7.141,FALSE,3.578,3.574,0.006,FALSE,FALSE,NA,121.1,121.1,121.1,0,0,4,0,5,3269.7,817.42,,Idle,0,20,FALSE,5,TRUE,11,Go Home,FALSE,FALSE,FALSE,FALSE,FALSE,FALSE,FALSE,FALSE,FALSE,FALSE,FALSE,FALSE,6.972863247,79.91593093,0.7,207.6,328,TRUE,1,1,FALSE,FALSE,FALSE,FALSE,,TRUE,FALSE,FALSE,Course Lock,49.2,,16.4,Calm,37,,1.12.8,Mavic Mini,1SDCH7G0169R0K,1SFLH6Q0AB03DJ,1SRCH7F014TAHX,1U5X071EXP5ZJG,76.6,0.2,29.5,12.284827,4.026492,0,280,Mavic Mini,1SDCH7G0169R0K,1SFLH6Q0AB03DJ,1SRCH7F014TAHX,1U5X071EXP5ZJG,DJI Fly,,1.12.8,0AFE7689-BA3D-C4E0-F791-3B5DA877F9A8,1SDCH7G0169R0K,,,,,6.972853658,79.91592994,5,,
2/25/2024,17:39.6,14m 22.6s,862.6,6.972865404,79.91593069,3.9,3.9,4.5,61,1.3,0,0.316351,0,0.223694,0,0,0,0,2.9,-1.1,-35,325,,P-GPS,Other,,18,5,TRUE,,Mavic Mini,TRUE,FALSE,,Smart,RC,FALSE,TRUE,FALSE,,,TRUE,,FALSE,FALSE,FALSE,FALSE,FALSE,FALSE,FALSE,FALSE,FALSE,FALSE,0,Follow Yaw,0,0,-26.3,333.7,FALSE,FALSE,FALSE,FALSE,FALSE,FALSE,,TRUE,Normal,,100,1024,1024,1024,1024,1,FALSE,FALSE,FALSE,FALSE,FALSE,0,FALSE,FALSE,FALSE,FALSE,38,7.151,771,2050,7.141,FALSE,3.578,3.574,0.006,FALSE,FALSE,NA,121.1,121.1,121.1,0,0,4,0,5,3269.7,817.42,,Idle,0,20,FALSE,5,TRUE,11,Go Home,FALSE,FALSE,FALSE,FALSE,FALSE,FALSE,FALSE,FALSE,FALSE,FALSE,FALSE,FALSE,6.972863247,79.91593093,0.7,207.6,328,TRUE,1,1,FALSE,FALSE,FALSE,FALSE,,TRUE,FALSE,FALSE,Course Lock,49.2,,16.4,Calm,37,,1.12.8,Mavic Mini,1SDCH7G0169R0K,1SFLH6Q0AB03DJ,1SRCH7F014TAHX,1U5X071EXP5ZJG,76.6,0.2,29.5,12.284827,4.026492,0,280,Mavic Mini,1SDCH7G0169R0K,1SFLH6Q0AB03DJ,1SRCH7F014TAHX,1U5X071EXP5ZJG,DJI Fly,,1.12.8,0AFE7689-BA3D-C4E0-F791-3B5DA877F9A8,1SDCH7G0169R0K,,,,,6.972853658,79.91592994,5,,
2/25/2024,17:39.7,14m 22.7s,862.7,6.972865506,79.91593078,3.9,3.9,4.5,61,1.3,0,0.316351,0,0.223694,0,0,0,0,2.6,-1.5,-34.9,325.1,,P-GPS,Other,,18,5,TRUE,,Mavic Mini,TRUE,FALSE,,Smart,RC,FALSE,TRUE,FALSE,,,TRUE,,FALSE,FALSE,FALSE,FALSE,FALSE,FALSE,FALSE,FALSE,FALSE,FALSE,0,Follow Yaw,0,0,-26.3,333.7,FALSE,FALSE,FALSE,FALSE,FALSE,FALSE,,TRUE,Normal,,100,1024,1024,1024,1024,1,FALSE,FALSE,FALSE,FALSE,FALSE,0,FALSE,FALSE,FALSE,FALSE,38,7.151,771,2050,7.141,FALSE,3.578,3.574,0.006,FALSE,FALSE,NA,121.1,121.1,121.1,0,0,4,0,5,3269.7,817.42,,Idle,0,20,FALSE,5,TRUE,11,Go Home,FALSE,FALSE,FALSE,FALSE,FALSE,FALSE,FALSE,FALSE,FALSE,FALSE,FALSE,FALSE,6.972863247,79.91593093,0.8,207.6,328,TRUE,1,1,FALSE,FALSE,FALSE,FALSE,,TRUE,FALSE,FALSE,Course Lock,49.2,,16.4,Calm,37,,1.12.8,Mavic Mini,1SDCH7G0169R0K,1SFLH6Q0AB03DJ,1SRCH7F014TAHX,1U5X071EXP5ZJG,76.6,0.2,29.5,12.284827,4.026492,0,280,Mavic Mini,1SDCH7G0169R0K,1SFLH6Q0AB03DJ,1SRCH7F014TAHX,1U5X071EXP5ZJG,DJI Fly,,1.12.8,0AFE7689-BA3D-C4E0-F791-3B5DA877F9A8,1SDCH7G0169R0K,,,,,6.972853658,79.91592994,5,,
2/25/2024,17:39.9,14m 22.8s,862.8,6.972865577,79.9159309,3.9,3.9,4.5,61,1.4,0,0.316351,0,0.223694,0,0,0,0,2.3,-1.8,-35,325,,P-GPS,Other,,18,5,TRUE,,Mavic Mini,TRUE,FALSE,,Smart,RC,FALSE,TRUE,FALSE,,,TRUE,,FALSE,FALSE,FALSE,FALSE,FALSE,FALSE,FALSE,FALSE,FALSE,FALSE,0,Follow Yaw,0,0,-26.3,333.7,FALSE,FALSE,FALSE,FALSE,FALSE,FALSE,,TRUE,Normal,,100,1024,1024,1024,1024,1,FALSE,FALSE,FALSE,FALSE,FALSE,0,FALSE,FALSE,FALSE,FALSE,38,7.151,771,2050,7.141,FALSE,3.578,3.574,0.006,FALSE,FALSE,NA,121.1,121.1,121.1,0,0,4,0,5,3269.7,817.42,,Idle,0,20,FALSE,5,TRUE,11,Go Home,FALSE,FALSE,FALSE,FALSE,FALSE,FALSE,FALSE,FALSE,FALSE,FALSE,FALSE,FALSE,6.972863247,79.91593093,0.8,207.6,328,TRUE,1,1,FALSE,FALSE,FALSE,FALSE,,TRUE,FALSE,FALSE,Course Lock,49.2,,16.4,Calm,37,,1.12.8,Mavic Mini,1SDCH7G0169R0K,1SFLH6Q0AB03DJ,1SRCH7F014TAHX,1U5X071EXP5ZJG,76.6,0.2,29.5,12.284827,4.026492,0,280,Mavic Mini,1SDCH7G0169R0K,1SFLH6Q0AB03DJ,1SRCH7F014TAHX,1U5X071EXP5ZJG,DJI Fly,,1.12.8,0AFE7689-BA3D-C4E0-F791-3B5DA877F9A8,1SDCH7G0169R0K,,,,,6.972853658,79.91592994,5,,
2/25/2024,17:40.0,14m 22.9s,862.9,6.972865618,79.91593103,3.9,3.9,4.5,61,1.4,0.223694,0.316351,0,0.223694,0.223694,0.223694,0,0,2,-2.3,-35,325,67.3,P-GPS,Other,,18,5,TRUE,,Mavic Mini,TRUE,FALSE,,Smart,RC,FALSE,TRUE,FALSE,,,TRUE,,FALSE,FALSE,FALSE,FALSE,FALSE,FALSE,FALSE,FALSE,FALSE,FALSE,0,Follow Yaw,0,0,-26.3,333.7,FALSE,FALSE,FALSE,FALSE,FALSE,FALSE,,TRUE,Normal,,100,1024,1024,1024,1024,1,FALSE,FALSE,FALSE,FALSE,FALSE,0,FALSE,FALSE,FALSE,FALSE,38,7.151,771,2050,7.141,FALSE,3.578,3.574,0.006,FALSE,FALSE,NA,121.1,121.1,121.1,0,0,4,0,5,3269.7,817.42,,Idle,0,20,FALSE,5,TRUE,11,Go Home,FALSE,FALSE,FALSE,FALSE,FALSE,FALSE,FALSE,FALSE,FALSE,FALSE,FALSE,FALSE,6.972863247,79.91593093,0.8,207.6,328,TRUE,1,1,FALSE,FALSE,FALSE,FALSE,,TRUE,FALSE,FALSE,Course Lock,49.2,,16.4,Calm,37,,1.12.8,Mavic Mini,1SDCH7G0169R0K,1SFLH6Q0AB03DJ,1SRCH7F014TAHX,1U5X071EXP5ZJG,76.6,0.2,29.5,12.284827,4.026492,0,280,Mavic Mini,1SDCH7G0169R0K,1SFLH6Q0AB03DJ,1SRCH7F014TAHX,1U5X071EXP5ZJG,DJI Fly,,1.12.8,0AFE7689-BA3D-C4E0-F791-3B5DA877F9A8,1SDCH7G0169R0K,,,,,6.972853658,79.91592994,5,,
2/25/2024,17:40.1,14m 23.0s,863,6.972865446,79.91593129,3.6,3.9,4.5,61,1.5,0,0.316351,0,0.223694,0,0.223694,0,0,1.7,-3,-35.1,324.9,,P-GPS,Other,,18,5,TRUE,,Mavic Mini,TRUE,FALSE,,Smart,RC,FALSE,TRUE,FALSE,,,TRUE,,FALSE,FALSE,FALSE,FALSE,FALSE,FALSE,FALSE,FALSE,FALSE,FALSE,0,Follow Yaw,0,0,-26.3,333.7,FALSE,FALSE,FALSE,FALSE,FALSE,FALSE,,TRUE,Normal,,100,1024,1024,1024,1024,1,FALSE,FALSE,FALSE,FALSE,FALSE,0,FALSE,FALSE,FALSE,FALSE,38,7.151,771,2050,7.141,FALSE,3.578,3.574,0.006,FALSE,FALSE,NA,121.1,121.1,121.1,0,0,4,0,5,3269.7,817.42,,Idle,0,20,FALSE,5,TRUE,11,Go Home,FALSE,FALSE,FALSE,FALSE,FALSE,FALSE,FALSE,FALSE,FALSE,FALSE,FALSE,FALSE,6.972863247,79.91593093,0.8,207.6,328,TRUE,1,1,FALSE,FALSE,FALSE,FALSE,,TRUE,FALSE,FALSE,Course Lock,49.2,,16.4,Calm,37,,1.12.8,Mavic Mini,1SDCH7G0169R0K,1SFLH6Q0AB03DJ,1SRCH7F014TAHX,1U5X071EXP5ZJG,76.6,0.2,29.5,12.284827,4.026492,0,280,Mavic Mini,1SDCH7G0169R0K,1SFLH6Q0AB03DJ,1SRCH7F014TAHX,1U5X071EXP5ZJG,DJI Fly,,1.12.8,0AFE7689-BA3D-C4E0-F791-3B5DA877F9A8,1SDCH7G0169R0K,,,,,6.972853658,79.91592994,5,,
2/25/2024,17:40.1,14m 23.1s,863.1,6.972865419,79.9159314,3.6,3.9,4.5,61,1.6,0,0.316351,0,0.223694,0,0.223694,0,0,1.5,-3.1,-35.1,324.9,,P-GPS,Other,,18,5,TRUE,,Mavic Mini,TRUE,FALSE,,Smart,RC,FALSE,TRUE,FALSE,,,TRUE,,FALSE,FALSE,FALSE,FALSE,FALSE,FALSE,FALSE,FALSE,FALSE,FALSE,0,Follow Yaw,0,0,-26.3,333.7,FALSE,FALSE,FALSE,FALSE,FALSE,FALSE,,TRUE,Normal,,100,1024,1024,1024,1024,1,FALSE,FALSE,FALSE,FALSE,FALSE,0,FALSE,FALSE,FALSE,FALSE,38,7.151,771,2050,7.141,FALSE,3.578,3.574,0.006,FALSE,FALSE,NA,121.1,121.1,121.1,0,0,4,0,5,3269.7,817.42,,Idle,0,20,FALSE,5,TRUE,11,Go Home,FALSE,FALSE,FALSE,FALSE,FALSE,FALSE,FALSE,FALSE,FALSE,FALSE,FALSE,FALSE,6.972863247,79.91593093,0.8,207.6,328,TRUE,1,1,FALSE,FALSE,FALSE,FALSE,,TRUE,FALSE,FALSE,Course Lock,49.2,,16.4,Calm,37,,1.12.8,Mavic Mini,1SDCH7G0169R0K,1SFLH6Q0AB03DJ,1SRCH7F014TAHX,1U5X071EXP5ZJG,76.6,0.2,29.5,12.284827,4.026492,0,280,Mavic Mini,1SDCH7G0169R0K,1SFLH6Q0AB03DJ,1SRCH7F014TAHX,1U5X071EXP5ZJG,DJI Fly,,1.12.8,0AFE7689-BA3D-C4E0-F791-3B5DA877F9A8,1SDCH7G0169R0K,,,,,6.972863381,79.91592927,5,,
2/25/2024,17:40.3,14m 23.2s,863.2,6.97286538,79.91593145,3.6,3.9,4.5,61,1.6,0,0.316351,0,0.223694,0,0.223694,0,0,1.8,-2.9,-35,325,,P-GPS,Other,,18,5,TRUE,,Mavic Mini,TRUE,FALSE,,Smart,RC,FALSE,TRUE,FALSE,,,TRUE,,FALSE,FALSE,FALSE,FALSE,FALSE,FALSE,FALSE,FALSE,FALSE,FALSE,0,Follow Yaw,0,0,-26.3,333.7,FALSE,FALSE,FALSE,FALSE,FALSE,FALSE,,TRUE,Normal,,100,1024,1024,1024,1024,1,FALSE,FALSE,FALSE,FALSE,FALSE,0,FALSE,FALSE,FALSE,FALSE,38,7.151,771,2050,7.141,FALSE,3.578,3.574,0.006,FALSE,FALSE,NA,121.1,121.1,121.1,0,0,4,0,5,3269.7,817.42,,Idle,0,20,FALSE,5,TRUE,11,Go Home,FALSE,FALSE,FALSE,FALSE,FALSE,FALSE,FALSE,FALSE,FALSE,FALSE,FALSE,FALSE,6.972863247,79.91593093,0.8,207.6,328,TRUE,1,1,FALSE,FALSE,FALSE,FALSE,,TRUE,FALSE,FALSE,Course Lock,49.2,,16.4,Calm,37,,1.12.8,Mavic Mini,1SDCH7G0169R0K,1SFLH6Q0AB03DJ,1SRCH7F014TAHX,1U5X071EXP5ZJG,76.6,0.2,29.5,12.284827,4.026492,0,280,Mavic Mini,1SDCH7G0169R0K,1SFLH6Q0AB03DJ,1SRCH7F014TAHX,1U5X071EXP5ZJG,DJI Fly,,1.12.8,0AFE7689-BA3D-C4E0-F791-3B5DA877F9A8,1SDCH7G0169R0K,,,,,6.972863381,79.91592927,5,,
2/25/2024,17:40.3,14m 23.3s,863.3,6.972865338,79.91593149,3.6,3.9,4.5,61,1.6,0,0.316351,0,0.223694,0,0.223694,0,0,1.7,-2.8,-35,325,,P-GPS,Other,,18,5,TRUE,,Mavic Mini,TRUE,FALSE,,Smart,RC,FALSE,TRUE,FALSE,,,TRUE,,FALSE,FALSE,FALSE,FALSE,FALSE,FALSE,FALSE,FALSE,FALSE,FALSE,0,Follow Yaw,0,0,-26.3,333.7,FALSE,FALSE,FALSE,FALSE,FALSE,FALSE,,TRUE,Normal,,100,1024,1024,1024,1024,1,FALSE,FALSE,FALSE,FALSE,FALSE,0,FALSE,FALSE,FALSE,FALSE,38,7.151,771,2050,7.141,FALSE,3.578,3.574,0.006,FALSE,FALSE,NA,121.1,121.1,121.1,0,0,4,0,5,3269.7,817.42,,Idle,0,20,FALSE,5,TRUE,11,Go Home,FALSE,FALSE,FALSE,FALSE,FALSE,FALSE,FALSE,FALSE,FALSE,FALSE,FALSE,FALSE,6.972863247,79.91593093,0.7,207.6,328,TRUE,1,1,FALSE,FALSE,FALSE,FALSE,,TRUE,FALSE,FALSE,Course Lock,49.2,,16.4,Calm,37,,1.12.8,Mavic Mini,1SDCH7G0169R0K,1SFLH6Q0AB03DJ,1SRCH7F014TAHX,1U5X071EXP5ZJG,76.6,0.2,29.5,12.284827,4.026492,0,280,Mavic Mini,1SDCH7G0169R0K,1SFLH6Q0AB03DJ,1SRCH7F014TAHX,1U5X071EXP5ZJG,DJI Fly,,1.12.8,0AFE7689-BA3D-C4E0-F791-3B5DA877F9A8,1SDCH7G0169R0K,,,,,6.972863381,79.91592927,5,,
2/25/2024,17:40.4,14m 23.4s,863.4,6.97286522,79.91593155,3.6,3.9,4.5,61,1.7,0,0.316351,0,0.223694,0,0.223694,0,0,1.8,-2.8,-34.9,325.1,,P-GPS,Other,,18,5,TRUE,,Mavic Mini,TRUE,FALSE,,Smart,RC,FALSE,TRUE,FALSE,,,TRUE,,FALSE,FALSE,FALSE,FALSE,FALSE,FALSE,FALSE,FALSE,FALSE,FALSE,0,Follow Yaw,0,0,-26.3,333.7,FALSE,FALSE,FALSE,FALSE,FALSE,FALSE,,TRUE,Normal,,100,1024,1024,1024,1024,1,FALSE,FALSE,FALSE,FALSE,FALSE,0,FALSE,FALSE,FALSE,FALSE,38,7.151,771,2050,7.149,FALSE,3.578,3.574,0.006,FALSE,FALSE,NA,121.1,121.1,121.1,0,0,4,0,5,4427.4,1106.86,,Idle,0,20,FALSE,5,TRUE,11,Go Home,FALSE,FALSE,FALSE,FALSE,FALSE,FALSE,FALSE,FALSE,FALSE,FALSE,FALSE,FALSE,6.972863247,79.91593093,0.7,207.6,328,TRUE,1,1,FALSE,FALSE,FALSE,FALSE,,TRUE,FALSE,FALSE,Course Lock,49.2,,16.4,Calm,37,,1.12.8,Mavic Mini,1SDCH7G0169R0K,1SFLH6Q0AB03DJ,1SRCH7F014TAHX,1U5X071EXP5ZJG,76.6,0.2,29.5,12.284827,4.026492,0,280,Mavic Mini,1SDCH7G0169R0K,1SFLH6Q0AB03DJ,1SRCH7F014TAHX,1U5X071EXP5ZJG,DJI Fly,,1.12.8,0AFE7689-BA3D-C4E0-F791-3B5DA877F9A8,1SDCH7G0169R0K,,,,,6.972863381,79.91592927,5,,
2/25/2024,17:40.6,14m 23.5s,863.5,6.972865186,79.91593158,3.6,3.9,4.5,61,1.7,0,0.316351,0,0.223694,0,0.223694,0,0,1.9,-2.4,-34.9,325.1,,P-GPS,Other,,18,5,TRUE,,Mavic Mini,TRUE,FALSE,,Smart,RC,FALSE,TRUE,FALSE,,,TRUE,,FALSE,FALSE,FALSE,FALSE,FALSE,FALSE,FALSE,FALSE,FALSE,FALSE,0,Follow Yaw,0,0,-26.3,333.7,FALSE,FALSE,FALSE,FALSE,FALSE,FALSE,,TRUE,Normal,,100,1024,1024,1024,1024,1,FALSE,FALSE,FALSE,FALSE,FALSE,0,FALSE,FALSE,FALSE,FALSE,38,7.151,771,2050,7.149,FALSE,3.578,3.574,0.006,FALSE,FALSE,NA,121.1,121.1,121.1,0,0,4,0,5,4427.4,1106.86,,Idle,0,20,FALSE,5,TRUE,11,Go Home,FALSE,FALSE,FALSE,FALSE,FALSE,FALSE,FALSE,FALSE,FALSE,FALSE,FALSE,FALSE,6.972863247,79.91593093,0.7,207.6,328,TRUE,1,1,FALSE,FALSE,FALSE,FALSE,,TRUE,FALSE,FALSE,Course Lock,49.2,,16.4,Calm,37,,1.12.8,Mavic Mini,1SDCH7G0169R0K,1SFLH6Q0AB03DJ,1SRCH7F014TAHX,1U5X071EXP5ZJG,76.6,0.2,29.5,12.284827,4.026492,0,280,Mavic Mini,1SDCH7G0169R0K,1SFLH6Q0AB03DJ,1SRCH7F014TAHX,1U5X071EXP5ZJG,DJI Fly,,1.12.8,0AFE7689-BA3D-C4E0-F791-3B5DA877F9A8,1SDCH7G0169R0K,,,,,6.972863381,79.91592927,5,,
2/25/2024,17:40.6,14m 23.6s,863.6,6.972865168,79.91593154,3.6,3.9,4.5,61,1.7,0,0.316351,0,0.223694,0,0.223694,0,0,2.1,-2,-34.9,325.1,,P-GPS,Other,,18,5,TRUE,,Mavic Mini,TRUE,FALSE,,Smart,RC,FALSE,TRUE,FALSE,,,TRUE,,FALSE,FALSE,FALSE,FALSE,FALSE,FALSE,FALSE,FALSE,FALSE,FALSE,0,Follow Yaw,0,0,-26.3,333.7,FALSE,FALSE,FALSE,FALSE,FALSE,FALSE,,TRUE,Normal,,100,1024,1024,1024,1024,1,FALSE,FALSE,FALSE,FALSE,FALSE,0,FALSE,FALSE,FALSE,FALSE,38,7.151,771,2050,7.149,FALSE,3.578,3.574,0.006,FALSE,FALSE,NA,121.1,121.1,121.1,0,0,4,0,5,4427.4,1106.86,,Idle,0,20,FALSE,5,TRUE,11,Go Home,FALSE,FALSE,FALSE,FALSE,FALSE,FALSE,FALSE,FALSE,FALSE,FALSE,FALSE,FALSE,6.972863247,79.91593093,0.7,207.6,328,TRUE,1,1,FALSE,FALSE,FALSE,FALSE,,TRUE,FALSE,FALSE,Course Lock,49.2,,16.4,Calm,37,,1.12.8,Mavic Mini,1SDCH7G0169R0K,1SFLH6Q0AB03DJ,1SRCH7F014TAHX,1U5X071EXP5ZJG,76.6,0.2,29.5,12.284827,4.026492,0,280,Mavic Mini,1SDCH7G0169R0K,1SFLH6Q0AB03DJ,1SRCH7F014TAHX,1U5X071EXP5ZJG,DJI Fly,,1.12.8,0AFE7689-BA3D-C4E0-F791-3B5DA877F9A8,1SDCH7G0169R0K,,,,,6.972863381,79.91592927,5,,
2/25/2024,17:40.7,14m 23.7s,863.7,6.972865141,79.9159315,3.6,3.9,4.5,61,1.7,0,0.316351,0,0.223694,0,0.223694,0,0,2,-1.9,-34.9,325.1,,P-GPS,Other,,18,5,TRUE,,Mavic Mini,TRUE,FALSE,,Smart,RC,FALSE,TRUE,FALSE,,,TRUE,,FALSE,FALSE,FALSE,FALSE,FALSE,FALSE,FALSE,FALSE,FALSE,FALSE,0,Follow Yaw,0,0,-26.3,333.7,FALSE,FALSE,FALSE,FALSE,FALSE,FALSE,,TRUE,Normal,,100,1024,1024,1024,1024,1,FALSE,FALSE,FALSE,FALSE,FALSE,0,FALSE,FALSE,FALSE,FALSE,38,7.103,769,2050,7.149,FALSE,3.553,3.55,0.006,FALSE,FALSE,NA,121.1,121.1,121.1,0,0,4,0,5,4427.4,1106.86,,Idle,0,20,FALSE,5,TRUE,11,Go Home,FALSE,FALSE,FALSE,FALSE,FALSE,FALSE,FALSE,FALSE,FALSE,FALSE,FALSE,FALSE,6.972863247,79.91593093,0.7,207.6,328,TRUE,1,1,FALSE,FALSE,FALSE,FALSE,,TRUE,FALSE,FALSE,Course Lock,49.2,,16.4,Calm,37,,1.12.8,Mavic Mini,1SDCH7G0169R0K,1SFLH6Q0AB03DJ,1SRCH7F014TAHX,1U5X071EXP5ZJG,76.6,0.2,29.5,12.284827,4.026492,0,280,Mavic Mini,1SDCH7G0169R0K,1SFLH6Q0AB03DJ,1SRCH7F014TAHX,1U5X071EXP5ZJG,DJI Fly,,1.12.8,0AFE7689-BA3D-C4E0-F791-3B5DA877F9A8,1SDCH7G0169R0K,,,,,6.972863381,79.91592927,5,,
2/25/2024,17:40.8,14m 23.8s,863.8,6.972865144,79.91593134,3.6,3.9,4.5,61,1.8,0,0.316351,0,0.223694,0,0.223694,0,0,1.8,-2,-34.9,325.1,,P-GPS,Other,,18,5,TRUE,,Mavic Mini,TRUE,FALSE,,Smart,RC,FALSE,TRUE,FALSE,,,TRUE,,FALSE,FALSE,FALSE,FALSE,FALSE,FALSE,FALSE,FALSE,FALSE,FALSE,0,Follow Yaw,0,0,-26.3,333.7,FALSE,FALSE,FALSE,FALSE,FALSE,FALSE,,TRUE,Normal,,100,1024,1024,1024,1024,1,FALSE,FALSE,FALSE,FALSE,FALSE,0,FALSE,FALSE,FALSE,FALSE,38,7.103,769,2050,7.149,FALSE,3.553,3.55,0.006,FALSE,FALSE,NA,121.1,121.1,121.1,0,0,4,0,5,4427.4,1106.86,,Idle,0,20,FALSE,5,TRUE,11,Go Home,FALSE,FALSE,FALSE,FALSE,FALSE,FALSE,FALSE,FALSE,FALSE,FALSE,FALSE,FALSE,6.972863247,79.91593093,0.7,207.6,328,TRUE,1,1,FALSE,FALSE,FALSE,FALSE,,TRUE,FALSE,FALSE,Course Lock,49.2,,16.4,Calm,37,,1.12.8,Mavic Mini,1SDCH7G0169R0K,1SFLH6Q0AB03DJ,1SRCH7F014TAHX,1U5X071EXP5ZJG,76.6,0.2,29.5,12.284827,4.026492,0,280,Mavic Mini,1SDCH7G0169R0K,1SFLH6Q0AB03DJ,1SRCH7F014TAHX,1U5X071EXP5ZJG,DJI Fly,,1.12.8,0AFE7689-BA3D-C4E0-F791-3B5DA877F9A8,1SDCH7G0169R0K,,,,,6.972863381,79.91592927,5,,
2/25/2024,17:40.9,14m 23.9s,863.9,6.972865095,79.91593132,3.6,3.9,4.5,61,1.8,0,0.316351,0,0.223694,0,0.223694,0,0,1.5,-2,-35,325,,P-GPS,Other,,18,5,TRUE,,Mavic Mini,TRUE,FALSE,,Smart,RC,FALSE,TRUE,FALSE,,,TRUE,,FALSE,FALSE,FALSE,FALSE,FALSE,FALSE,FALSE,FALSE,FALSE,FALSE,0,Follow Yaw,0,0,-26.3,333.7,FALSE,FALSE,FALSE,FALSE,FALSE,FALSE,,TRUE,Normal,,100,1024,1024,1024,1024,1,FALSE,FALSE,FALSE,FALSE,FALSE,0,FALSE,FALSE,FALSE,FALSE,38,7.103,769,2050,7.149,FALSE,3.553,3.55,0.006,FALSE,FALSE,NA,121.1,121.1,121.1,0,0,4,0,5,4427.4,1106.86,,Idle,0,20,FALSE,5,TRUE,11,Go Home,FALSE,FALSE,FALSE,FALSE,FALSE,FALSE,FALSE,FALSE,FALSE,FALSE,FALSE,FALSE,6.972863247,79.91593093,0.6,207.6,328,TRUE,1,1,FALSE,FALSE,FALSE,FALSE,,TRUE,FALSE,FALSE,Course Lock,49.2,,16.4,Calm,37,,1.12.8,Mavic Mini,1SDCH7G0169R0K,1SFLH6Q0AB03DJ,1SRCH7F014TAHX,1U5X071EXP5ZJG,76.6,0.2,29.5,12.284827,4.026492,0,280,Mavic Mini,1SDCH7G0169R0K,1SFLH6Q0AB03DJ,1SRCH7F014TAHX,1U5X071EXP5ZJG,DJI Fly,,1.12.8,0AFE7689-BA3D-C4E0-F791-3B5DA877F9A8,1SDCH7G0169R0K,,,,,6.972863381,79.91592927,5,,
2/25/2024,17:41.0,14m 24.0s,864,6.972865051,79.91593134,3.6,3.9,4.5,61,1.8,0,0.316351,0,0.223694,0,0.223694,0,0,1.4,-2,-34.9,325.1,,P-GPS,Other,,18,5,TRUE,,Mavic Mini,TRUE,FALSE,,Smart,RC,FALSE,TRUE,FALSE,,,TRUE,,FALSE,FALSE,FALSE,FALSE,FALSE,FALSE,FALSE,FALSE,FALSE,FALSE,0,Follow Yaw,0,0,-26.3,333.7,FALSE,FALSE,FALSE,FALSE,FALSE,FALSE,,TRUE,Normal,,100,1024,1024,1024,1024,1,FALSE,FALSE,FALSE,FALSE,FALSE,0,FALSE,FALSE,FALSE,FALSE,38,7.103,769,2050,7.149,FALSE,3.553,3.55,0.006,FALSE,FALSE,NA,121.1,121.1,121.1,0,0,4,0,5,4427.4,1106.86,,Idle,0,20,FALSE,5,TRUE,11,Go Home,FALSE,FALSE,FALSE,FALSE,FALSE,FALSE,FALSE,FALSE,FALSE,FALSE,FALSE,FALSE,6.972863247,79.91593093,0.6,207.6,328,TRUE,1,1,FALSE,FALSE,FALSE,FALSE,,TRUE,FALSE,FALSE,Course Lock,49.2,,16.4,Calm,37,,1.12.8,Mavic Mini,1SDCH7G0169R0K,1SFLH6Q0AB03DJ,1SRCH7F014TAHX,1U5X071EXP5ZJG,76.6,0.2,29.5,12.284827,4.026492,0,280,Mavic Mini,1SDCH7G0169R0K,1SFLH6Q0AB03DJ,1SRCH7F014TAHX,1U5X071EXP5ZJG,DJI Fly,,1.12.8,0AFE7689-BA3D-C4E0-F791-3B5DA877F9A8,1SDCH7G0169R0K,,,,,6.972863381,79.91592927,5,,
2/25/2024,17:41.2,14m 24.1s,864.1,6.972865016,79.91593135,3.6,3.9,4.5,61,1.8,0,0.316351,0,0.223694,0,0.223694,0,0,1.3,-1.9,-34.9,325.1,,P-GPS,Other,,18,5,TRUE,,Mavic Mini,TRUE,FALSE,,Smart,RC,FALSE,TRUE,FALSE,,,TRUE,,FALSE,FALSE,FALSE,FALSE,FALSE,FALSE,FALSE,FALSE,FALSE,FALSE,0,Follow Yaw,0,0,-26.3,333.7,FALSE,FALSE,FALSE,FALSE,FALSE,FALSE,,TRUE,Normal,,100,1024,1024,1024,1024,1,FALSE,FALSE,FALSE,FALSE,FALSE,0,FALSE,FALSE,FALSE,FALSE,38,7.103,769,2050,7.149,FALSE,3.553,3.55,0.006,FALSE,FALSE,NA,121.1,121.1,121.1,0,0,4,0,5,4427.4,1106.86,,Idle,0,20,FALSE,5,TRUE,11,Go Home,FALSE,FALSE,FALSE,FALSE,FALSE,FALSE,FALSE,FALSE,FALSE,FALSE,FALSE,FALSE,6.972863247,79.91593093,0.6,207.6,328,TRUE,1,1,FALSE,FALSE,FALSE,FALSE,,TRUE,FALSE,FALSE,Course Lock,49.2,,16.4,Calm,37,,1.12.8,Mavic Mini,1SDCH7G0169R0K,1SFLH6Q0AB03DJ,1SRCH7F014TAHX,1U5X071EXP5ZJG,76.6,0.2,29.5,12.284827,4.026492,0,280,Mavic Mini,1SDCH7G0169R0K,1SFLH6Q0AB03DJ,1SRCH7F014TAHX,1U5X071EXP5ZJG,DJI Fly,,1.12.8,0AFE7689-BA3D-C4E0-F791-3B5DA877F9A8,1SDCH7G0169R0K,,,,,6.972863381,79.91592927,5,,
2/25/2024,17:41.3,14m 24.2s,864.2,6.972865001,79.91593135,3.6,3.9,4.5,61,1.8,0,0.316351,0,0.223694,0,0.223694,0,0,1.5,-2,-34.9,325.1,,P-GPS,Other,,18,5,TRUE,,Mavic Mini,TRUE,FALSE,,Smart,RC,FALSE,TRUE,FALSE,,,TRUE,,FALSE,FALSE,FALSE,FALSE,FALSE,FALSE,FALSE,FALSE,FALSE,FALSE,0,Follow Yaw,0,0,-26.3,333.7,FALSE,FALSE,FALSE,FALSE,FALSE,FALSE,,TRUE,Normal,,100,1024,1024,1024,1024,1,FALSE,FALSE,FALSE,FALSE,FALSE,0,FALSE,FALSE,FALSE,FALSE,38,7.103,769,2050,7.149,FALSE,3.553,3.55,0.006,FALSE,FALSE,NA,121.1,121.1,121.1,0,0,4,0,5,4427.4,1106.86,,Idle,0,20,FALSE,5,TRUE,11,Go Home,FALSE,FALSE,FALSE,FALSE,FALSE,FALSE,FALSE,FALSE,FALSE,FALSE,FALSE,FALSE,6.972863247,79.91593093,0.6,207.6,328,TRUE,1,1,FALSE,FALSE,FALSE,FALSE,,TRUE,FALSE,FALSE,Course Lock,49.2,,16.4,Calm,37,,1.12.8,Mavic Mini,1SDCH7G0169R0K,1SFLH6Q0AB03DJ,1SRCH7F014TAHX,1U5X071EXP5ZJG,76.6,0.2,29.5,12.284827,4.026492,0,280,Mavic Mini,1SDCH7G0169R0K,1SFLH6Q0AB03DJ,1SRCH7F014TAHX,1U5X071EXP5ZJG,DJI Fly,,1.12.8,0AFE7689-BA3D-C4E0-F791-3B5DA877F9A8,1SDCH7G0169R0K,,,,,6.972863381,79.91592927,5,,
