CUSTOM.date [local],CUSTOM.updateTime [local],OSD.flyTime,OSD.flyTime [s],OSD.latitude,OSD.longitude,OSD.height [ft],OSD.heightMax [ft],OSD.vpsHeight [ft],OSD.altitude [ft],OSD.mileage [ft],OSD.hSpeed [MPH],OSD.hSpeedMax [MPH],OSD.xSpeed [MPH],OSD.xSpeedMax [MPH],OSD.ySpeed [MPH],OSD.ySpeedMax [MPH],OSD.zSpeed [MPH],OSD.zSpeedMax [MPH],OSD.pitch,OSD.roll,OSD.yaw,OSD.yaw [360],OSD.directionOfTravel,OSD.flycState,OSD.flycCommand,OSD.flightAction,OSD.gpsNum,OSD.gpsLevel,OSD.isGPSUsed,OSD.nonGPSCause,OSD.droneType,OSD.isSwaveWork,OSD.waveError,OSD.goHomeStatus,OSD.batteryType,OSD.ctrlDevice,OSD.isOnGround,OSD.isMotorOn,OSD.isMotorBlocked,OSD.motorStartFailedCause,OSD.motorFailReason,OSD.isImuPreheated,OSD.imuInitFailReason,OSD.isAcceletorOverRange,OSD.isBarometerDeadInAir,OSD.isCompassError,OSD.isGoHomeHeightModified,OSD.canIOCWork,OSD.isNotEnoughForce,OSD.isOutOfLimit,OSD.isPropellerCatapult,OSD.isVibrating,OSD.isVisionUsed,OSD.voltageWarning,GIMBAL.mode,GIMBAL.pitch,GIMBAL.roll,GIMBAL.yaw,GIMBAL.yaw [360],GIMBAL.isPitchAtLimit,GIMBAL.isRollAtLimit,GIMBAL.isYawAtLimit,GIMBAL.isStuck,CAMERA.isPhoto,CAMERA.isVideo,CAMERA.filename,CAMERA.sdCardIsInserted,CAMERA.sdCardState,RC.downlinkSignal,RC.uplinkSignal,RC.aileron,RC.elevator,RC.throttle,RC.rudder,RC.mode,RC.goHomeDepressed,RC.recordDepressed,RC.shutterDepressed,RC.playbackDepressed,RC.wheelDepressed,RC.wheelOffset,RC.custom1Depressed,RC.custom2Depressed,RC.custom3Depressed,RC.custom4Depressed,BATTERY.chargeLevel,BATTERY.currentPV [V],BATTERY.currentCapacity [mAh],BATTERY.fullCapacity [mAh],BATTERY.voltage [V],BATTERY.isCellVoltageEstimated,BATTERY.cellVoltage1 [V],BATTERY.cellVoltage2 [V],BATTERY.maxCellVoltageDeviation,BATTERY.isCellVoltageDeviationHigh,BATTERY.isVoltageLow,BATTERY.current [A],BATTERY.temperature [F],BATTERY.minTemperature [F],BATTERY.maxTemperature [F],BATTERY.usefulTime [s],BATTERY.goHomeTime [s],BATTERY.landTime [s],BATTERY.goHomeBattery,BATTERY.landBattery,BATTERY.safeFlyRadius,BATTERY.volumeConsume,BATTERY.status,BATTERY.goHomeStatus,BATTERY.goHomeCountdown,BATTERY.lowWarning,BATTERY.lowWarningGoHome,BATTERY.seriousLowWarning,BATTERY.seriousLowWarningLanding,BATTERY.timesCharged,MC.failSafeAction,MC.isObstacleAvoidanceEnabled,MC.isCollisionAvoidanceEnabled,MC.isRthObstacleAvoidanceEnabled,MC.isBraking,MC.isAvoidingObstacle,MC.isAvoidingActiveObstacle,MC.isAscentLimitedByObstacle,MC.isLandingConfirmationNeeded,MC.atLowAltitudeLimit,MC.atDistanceLimit,MC.atAirportAltitudeLimit,MC.atAirportBoundary,HOME.latitude,HOME.longitude,HOME.distance [ft],HOME.height [ft],HOME.heightLimit [ft],HOME.isHomeRecord,HOME.goHomeMode,HOME.aircraftHeadDirection,HOME.isDynamicHomePointEnabled,HOME.isReachedLimitDistance,HOME.isReachedLimitHeight,HOME.isCompassCalibrating,HOME.compassCalibrationState,HOME.isMultipleFlightModeEnabled,HOME.isBeginnerMode,HOME.isIOCEnabled,HOME.iocMode,HOME.goHomeHeight [ft],HOME.courseLockAngle,HOME.forceLandingHeight [ft],HOME.wind,HOME.dataRecorderFileIndex,RECOVER.appType,RECOVER.appVersion,RECOVER.aircraftName,RECOVER.aircraftSerial,RECOVER.cameraSerial,RECOVER.rcSerial,RECOVER.batterySerial,DETAILS.totalTime [s],DETAILS.totalDistance [ft],DETAILS.maxHeight [ft],DETAILS.maxHorizontalSpeed [MPH],DETAILS.maxVerticalSpeed [MPH],DETAILS.photoNum,DETAILS.videoTime [s],DETAILS.aircraftName,DETAILS.aircraftSerial,DETAILS.cameraSerial,DETAILS.rcSerial,DETAILS.batterySerial,DETAILS.appName,DETAILS.appType,DETAILS.appVersion,DETAILS.guid,SERIAL.flightController,SERIAL.camera,SERIAL.gimbal,SERIAL.rc,SERIAL.battery,APPGPS.latitude,APPGPS.longitude,APPGPS.accuracy,APP.tip,APP.warning
2/21/2024,26:50.0,2m 53.7s,173.7,6.974143003,79.91427112,0,0,0.3,52,0,0,0,0,0,0,0,0,0,2.6,0.8,-48.6,311.4,,Starting Motors,Other,Takeoff (RC Assisted),12,5,TRUE,,Mavic Mini,FALSE,FALSE,,Smart,RC,TRUE,TRUE,FALSE,,,TRUE,,FALSE,FALSE,FALSE,FALSE,FALSE,FALSE,FALSE,FALSE,FALSE,FALSE,0,Follow Yaw,0,0,-37,323,FALSE,FALSE,FALSE,FALSE,FALSE,FALSE,,TRUE,Normal,,,603,689,397,1670,2,FALSE,FALSE,FALSE,FALSE,FALSE,0,FALSE,FALSE,FALSE,FALSE,64,7.656,1311,2051,7.656,TRUE,3.828,3.828,,FALSE,FALSE,NA,94.8,94.8,94.8,,,,,,,,,Idle,,,TRUE,,FALSE,10,Go Home,FALSE,FALSE,FALSE,FALSE,FALSE,FALSE,FALSE,FALSE,FALSE,FALSE,FALSE,FALSE,,,,,,FALSE,,,FALSE,FALSE,FALSE,FALSE,,FALSE,FALSE,FALSE,,,,,Calm,,,1.12.8,Mavic Mini,1SDCH7G0169R0K,1SFLH6Q0AB03DJ,1SRCH7F014TAHX,1U5X071EXP5ZJG,69.5,0.3,45.9,8.686709,3.131716,0,0,Mavic Mini,1SDCH7G0169R0K,1SFLH6Q0AB03DJ,1SRCH7F014TAHX,1U5X071EXP5ZJG,DJI Fly,,1.12.8,2E4D5E97-F802-BB66-83FA-688BB1344248,1SDCH7G0169R0K,,,,,,,,Flight mode changed to Starting Motors.,
2/21/2024,23:56.4,2m 53.8s,173.8,6.974143001,79.91427112,0,0,0.3,52,0,0,0,0,0,0,0,0,0,2.6,0.8,-48.6,311.4,,Starting Motors,Other,Takeoff (RC Assisted),12,5,TRUE,,Mavic Mini,FALSE,FALSE,,Smart,RC,TRUE,TRUE,FALSE,,,TRUE,,FALSE,FALSE,FALSE,FALSE,FALSE,FALSE,FALSE,FALSE,FALSE,FALSE,0,Follow Yaw,0,0,-37,323,FALSE,FALSE,FALSE,FALSE,FALSE,FALSE,,TRUE,Normal,,,603,689,397,1670,2,FALSE,FALSE,FALSE,FALSE,FALSE,0,FALSE,FALSE,FALSE,FALSE,64,7.656,1311,2051,7.656,TRUE,3.828,3.828,,FALSE,FALSE,NA,94.8,94.8,94.8,,,,,,,,,Idle,,,TRUE,,FALSE,10,Go Home,FALSE,FALSE,FALSE,FALSE,FALSE,FALSE,FALSE,FALSE,FALSE,FALSE,FALSE,FALSE,,,,,,FALSE,,,FALSE,FALSE,FALSE,FALSE,,FALSE,FALSE,FALSE,,,,,Calm,,,1.12.8,Mavic Mini,1SDCH7G0169R0K,1SFLH6Q0AB03DJ,1SRCH7F014TAHX,1U5X071EXP5ZJG,69.5,0.3,45.9,8.686709,3.131716,0,0,Mavic Mini,1SDCH7G0169R0K,1SFLH6Q0AB03DJ,1SRCH7F014TAHX,1U5X071EXP5ZJG,DJI Fly,,1.12.8,2E4D5E97-F802-BB66-83FA-688BB1344248,1SDCH7G0169R0K,,,,,,,,,
2/21/2024,23:56.5,2m 53.9s,173.9,6.974143,79.91427114,0,0,0.3,52,0,0,0,0,0,0,0,0,0,2.6,0.8,-48.6,311.4,,Starting Motors,Other,Takeoff (RC Assisted),12,5,TRUE,,Mavic Mini,TRUE,FALSE,,Smart,RC,TRUE,TRUE,FALSE,,,TRUE,,FALSE,FALSE,FALSE,FALSE,FALSE,FALSE,FALSE,FALSE,FALSE,FALSE,0,Follow Yaw,0,0,-37,323,FALSE,FALSE,FALSE,FALSE,FALSE,FALSE,,TRUE,Normal,,,1024,1024,1024,1024,2,FALSE,FALSE,FALSE,FALSE,FALSE,0,FALSE,FALSE,FALSE,FALSE,64,7.651,1311,2051,7.651,FALSE,3.827,3.824,0.003,FALSE,FALSE,NA,94.8,94.8,94.8,,,,,,,,,Idle,,,TRUE,,FALSE,10,Go Home,FALSE,FALSE,FALSE,FALSE,FALSE,FALSE,FALSE,FALSE,FALSE,FALSE,FALSE,FALSE,,,,,,FALSE,,,FALSE,FALSE,FALSE,FALSE,,FALSE,FALSE,FALSE,,,,,Calm,,,1.12.8,Mavic Mini,1SDCH7G0169R0K,1SFLH6Q0AB03DJ,1SRCH7F014TAHX,1U5X071EXP5ZJG,69.5,0.3,45.9,8.686709,3.131716,0,0,Mavic Mini,1SDCH7G0169R0K,1SFLH6Q0AB03DJ,1SRCH7F014TAHX,1U5X071EXP5ZJG,DJI Fly,,1.12.8,2E4D5E97-F802-BB66-83FA-688BB1344248,1SDCH7G0169R0K,,,,,,,,,
2/21/2024,23:56.6,2m 54.0s,174,6.974143021,79.91427124,0,0,0.3,52,0,0,0,0,0,0,0,0,0,2.6,0.8,-48.6,311.4,,Starting Motors,Other,Takeoff (RC Assisted),12,5,TRUE,,Mavic Mini,TRUE,FALSE,,Smart,RC,TRUE,TRUE,FALSE,,,TRUE,,FALSE,FALSE,FALSE,FALSE,FALSE,FALSE,FALSE,FALSE,FALSE,FALSE,0,Follow Yaw,0,0,-37,323,FALSE,FALSE,FALSE,FALSE,FALSE,FALSE,,TRUE,Normal,,,1024,1024,1024,1024,2,FALSE,FALSE,FALSE,FALSE,FALSE,0,FALSE,FALSE,FALSE,FALSE,64,7.651,1311,2051,7.651,FALSE,3.827,3.824,0.003,FALSE,FALSE,NA,94.8,94.8,94.8,,,,,,,,,Idle,,,TRUE,,FALSE,10,Go Home,FALSE,FALSE,FALSE,FALSE,FALSE,FALSE,FALSE,FALSE,FALSE,FALSE,FALSE,FALSE,,,,,,FALSE,,,FALSE,FALSE,FALSE,FALSE,,FALSE,FALSE,FALSE,,,,,Calm,,,1.12.8,Mavic Mini,1SDCH7G0169R0K,1SFLH6Q0AB03DJ,1SRCH7F014TAHX,1U5X071EXP5ZJG,69.5,0.3,45.9,8.686709,3.131716,0,0,Mavic Mini,1SDCH7G0169R0K,1SFLH6Q0AB03DJ,1SRCH7F014TAHX,1U5X071EXP5ZJG,DJI Fly,,1.12.8,2E4D5E97-F802-BB66-83FA-688BB1344248,1SDCH7G0169R0K,,,,,,,,,
2/21/2024,23:56.7,2m 54.1s,174.1,6.974143018,79.91427128,0,0,0.3,52,0,0,0,0,0,0,0,0,0,2.6,0.8,-48.6,311.4,,Starting Motors,Other,Takeoff (RC Assisted),12,5,TRUE,,Mavic Mini,TRUE,FALSE,,Smart,RC,TRUE,TRUE,FALSE,,,TRUE,,FALSE,FALSE,FALSE,FALSE,FALSE,FALSE,FALSE,FALSE,FALSE,FALSE,0,Follow Yaw,0,0,-37,323,FALSE,FALSE,FALSE,FALSE,FALSE,FALSE,,TRUE,Normal,,100,1024,1024,1024,1024,2,FALSE,FALSE,FALSE,FALSE,FALSE,0,FALSE,FALSE,FALSE,FALSE,64,7.651,1311,2051,7.645,FALSE,3.827,3.824,0.003,FALSE,FALSE,NA,94.8,94.8,94.8,0,0,0,0,5,2475,618.76,,Idle,0,20,FALSE,5,TRUE,10,Go Home,FALSE,FALSE,FALSE,FALSE,FALSE,FALSE,FALSE,FALSE,FALSE,FALSE,FALSE,FALSE,6.974149214,79.91427206,2.2,141.7,328,TRUE,1,1,FALSE,FALSE,FALSE,FALSE,,TRUE,FALSE,FALSE,Course Lock,65.6,,16.4,Calm,29,,1.12.8,Mavic Mini,1SDCH7G0169R0K,1SFLH6Q0AB03DJ,1SRCH7F014TAHX,1U5X071EXP5ZJG,69.5,0.3,45.9,8.686709,3.131716,0,0,Mavic Mini,1SDCH7G0169R0K,1SFLH6Q0AB03DJ,1SRCH7F014TAHX,1U5X071EXP5ZJG,DJI Fly,,1.12.8,2E4D5E97-F802-BB66-83FA-688BB1344248,1SDCH7G0169R0K,,,,,,,,Data Recorder File Index is 29.; Set Return to Home (RTH) altitude to 20 m (66 ft).; Set maximum flight altitude to 100 m (328 ft).,
2/21/2024,23:56.9,2m 54.2s,174.2,6.974143014,79.9142713,0,0,0.3,52,0,0,0,0,0,0,0,0,0,2.6,0.8,-48.6,311.4,,Starting Motors,Other,Takeoff (RC Assisted),12,5,TRUE,,Mavic Mini,TRUE,FALSE,,Smart,RC,TRUE,TRUE,FALSE,,,TRUE,,FALSE,FALSE,FALSE,FALSE,FALSE,FALSE,FALSE,FALSE,FALSE,FALSE,0,Follow Yaw,0,0,-37,323,FALSE,FALSE,FALSE,FALSE,FALSE,FALSE,,TRUE,Normal,,100,1024,1024,1024,1024,2,FALSE,FALSE,FALSE,FALSE,FALSE,0,FALSE,FALSE,FALSE,FALSE,64,7.651,1311,2051,7.645,FALSE,3.827,3.824,0.003,FALSE,FALSE,NA,94.8,94.8,94.8,0,0,0,0,5,2475,618.76,,Idle,0,20,FALSE,5,TRUE,10,Go Home,FALSE,FALSE,FALSE,FALSE,FALSE,FALSE,FALSE,FALSE,FALSE,FALSE,FALSE,FALSE,6.974149214,79.91427206,2.2,141.7,328,TRUE,1,1,FALSE,FALSE,FALSE,FALSE,,TRUE,FALSE,FALSE,Course Lock,65.6,,16.4,Calm,29,,1.12.8,Mavic Mini,1SDCH7G0169R0K,1SFLH6Q0AB03DJ,1SRCH7F014TAHX,1U5X071EXP5ZJG,69.5,0.3,45.9,8.686709,3.131716,0,0,Mavic Mini,1SDCH7G0169R0K,1SFLH6Q0AB03DJ,1SRCH7F014TAHX,1U5X071EXP5ZJG,DJI Fly,,1.12.8,2E4D5E97-F802-BB66-83FA-688BB1344248,1SDCH7G0169R0K,,,,,,,,,
2/21/2024,23:57.0,2m 54.3s,174.3,6.974143009,79.91427131,0,0,0.3,52,0,0,0,0,0,0,0,0,0,2.6,0.8,-48.6,311.4,,Starting Motors,Other,Takeoff (RC Assisted),12,5,TRUE,,Mavic Mini,TRUE,FALSE,,Smart,RC,TRUE,TRUE,FALSE,,,TRUE,,FALSE,FALSE,FALSE,FALSE,FALSE,FALSE,FALSE,FALSE,FALSE,FALSE,0,Follow Yaw,0,0,-37,323,FALSE,FALSE,FALSE,FALSE,FALSE,FALSE,,TRUE,Normal,,100,1024,1024,1024,1024,2,FALSE,FALSE,FALSE,FALSE,FALSE,0,FALSE,FALSE,FALSE,FALSE,64,7.651,1311,2051,7.645,FALSE,3.827,3.824,0.003,FALSE,FALSE,NA,94.8,94.8,94.8,0,0,0,0,5,2475,618.76,,Idle,0,20,FALSE,5,TRUE,10,Go Home,FALSE,FALSE,FALSE,FALSE,FALSE,FALSE,FALSE,FALSE,FALSE,FALSE,FALSE,FALSE,6.974149214,79.91427206,2.2,141.7,328,TRUE,1,1,FALSE,FALSE,FALSE,FALSE,,TRUE,FALSE,FALSE,Course Lock,65.6,,16.4,Calm,29,,1.12.8,Mavic Mini,1SDCH7G0169R0K,1SFLH6Q0AB03DJ,1SRCH7F014TAHX,1U5X071EXP5ZJG,69.5,0.3,45.9,8.686709,3.131716,0,0,Mavic Mini,1SDCH7G0169R0K,1SFLH6Q0AB03DJ,1SRCH7F014TAHX,1U5X071EXP5ZJG,DJI Fly,,1.12.8,2E4D5E97-F802-BB66-83FA-688BB1344248,1SDCH7G0169R0K,,,,,,,,,
2/21/2024,23:57.1,2m 54.4s,174.4,6.974143035,79.91427127,0,0,0.3,52,0,0,0,0,0,0,0,0,0,2.6,0.9,-48.7,311.3,,Starting Motors,Other,Takeoff (RC Assisted),12,5,TRUE,,Mavic Mini,TRUE,FALSE,,Smart,RC,TRUE,TRUE,FALSE,,,TRUE,,FALSE,FALSE,FALSE,FALSE,FALSE,FALSE,FALSE,FALSE,FALSE,FALSE,0,Follow Yaw,0,0,-37,323,FALSE,FALSE,FALSE,FALSE,FALSE,FALSE,,TRUE,Normal,,100,1024,1024,1024,1024,2,FALSE,FALSE,FALSE,FALSE,FALSE,0,FALSE,FALSE,FALSE,FALSE,64,7.651,1311,2051,7.645,FALSE,3.827,3.824,0.003,FALSE,FALSE,NA,94.8,94.8,94.8,0,0,0,0,5,2475,618.76,,Idle,0,20,FALSE,5,TRUE,10,Go Home,FALSE,FALSE,FALSE,FALSE,FALSE,FALSE,FALSE,FALSE,FALSE,FALSE,FALSE,FALSE,6.974149214,79.91427206,2.2,141.7,328,TRUE,1,1,FALSE,FALSE,FALSE,FALSE,,TRUE,FALSE,FALSE,Course Lock,65.6,,16.4,Calm,29,,1.12.8,Mavic Mini,1SDCH7G0169R0K,1SFLH6Q0AB03DJ,1SRCH7F014TAHX,1U5X071EXP5ZJG,69.5,0.3,45.9,8.686709,3.131716,0,0,Mavic Mini,1SDCH7G0169R0K,1SFLH6Q0AB03DJ,1SRCH7F014TAHX,1U5X071EXP5ZJG,DJI Fly,,1.12.8,2E4D5E97-F802-BB66-83FA-688BB1344248,1SDCH7G0169R0K,,,,,,,,,
2/21/2024,23:57.2,2m 54.5s,174.5,6.974143034,79.91427127,0,0,0.3,52,0,0,0,0,0,0,0,0,0,2.6,0.8,-48.7,311.3,,Starting Motors,Other,Takeoff (RC Assisted),12,5,TRUE,,Mavic Mini,TRUE,FALSE,,Smart,RC,TRUE,TRUE,FALSE,,,TRUE,,FALSE,FALSE,FALSE,FALSE,FALSE,FALSE,FALSE,FALSE,FALSE,FALSE,0,Follow Yaw,0,0,-37,323,FALSE,FALSE,FALSE,FALSE,FALSE,FALSE,,TRUE,Normal,,100,1024,1024,1024,1024,2,FALSE,FALSE,FALSE,FALSE,FALSE,0,FALSE,FALSE,FALSE,FALSE,64,7.651,1311,2051,7.645,FALSE,3.827,3.824,0.003,FALSE,FALSE,NA,94.8,94.8,94.8,0,0,0,0,5,2475,618.76,,Idle,0,20,FALSE,5,TRUE,10,Go Home,FALSE,FALSE,FALSE,FALSE,FALSE,FALSE,FALSE,FALSE,FALSE,FALSE,FALSE,FALSE,6.974149214,79.91427206,2.2,141.7,328,TRUE,1,1,FALSE,FALSE,FALSE,FALSE,,TRUE,FALSE,FALSE,Course Lock,65.6,,16.4,Calm,29,,1.12.8,Mavic Mini,1SDCH7G0169R0K,1SFLH6Q0AB03DJ,1SRCH7F014TAHX,1U5X071EXP5ZJG,69.5,0.3,45.9,8.686709,3.131716,0,0,Mavic Mini,1SDCH7G0169R0K,1SFLH6Q0AB03DJ,1SRCH7F014TAHX,1U5X071EXP5ZJG,DJI Fly,,1.12.8,2E4D5E97-F802-BB66-83FA-688BB1344248,1SDCH7G0169R0K,,,,,,,,,
2/21/2024,23:57.3,2m 54.6s,174.6,6.974143033,79.91427127,0,0,0.3,52,0,0,0,0,0,0,0,0,0,2.6,0.8,-48.7,311.3,,Starting Motors,Other,Takeoff (RC Assisted),12,5,TRUE,,Mavic Mini,TRUE,FALSE,,Smart,RC,TRUE,TRUE,FALSE,,,TRUE,,FALSE,FALSE,FALSE,FALSE,FALSE,FALSE,FALSE,FALSE,FALSE,FALSE,0,Follow Yaw,0,0,-37.1,322.9,FALSE,FALSE,FALSE,FALSE,FALSE,FALSE,,TRUE,Normal,,100,1024,1024,1024,1024,2,FALSE,FALSE,FALSE,FALSE,FALSE,0,FALSE,FALSE,FALSE,FALSE,64,7.651,1311,2051,7.645,FALSE,3.827,3.824,0.003,FALSE,FALSE,NA,94.8,94.8,94.8,0,0,0,0,5,2475,618.76,,Idle,0,20,FALSE,5,TRUE,10,Go Home,FALSE,FALSE,FALSE,FALSE,FALSE,FALSE,FALSE,FALSE,FALSE,FALSE,FALSE,FALSE,6.974149214,79.91427206,2.2,141.7,328,TRUE,1,1,FALSE,FALSE,FALSE,FALSE,,TRUE,FALSE,FALSE,Course Lock,65.6,,16.4,Calm,29,,1.12.8,Mavic Mini,1SDCH7G0169R0K,1SFLH6Q0AB03DJ,1SRCH7F014TAHX,1U5X071EXP5ZJG,69.5,0.3,45.9,8.686709,3.131716,0,0,Mavic Mini,1SDCH7G0169R0K,1SFLH6Q0AB03DJ,1SRCH7F014TAHX,1U5X071EXP5ZJG,DJI Fly,,1.12.8,2E4D5E97-F802-BB66-83FA-688BB1344248,1SDCH7G0169R0K,,,,,,,,,
2/21/2024,23:57.3,2m 54.7s,174.7,6.974143034,79.91427128,0,0,0.3,52,0,0,0,0,0,0,0,0,0,2.6,0.8,-48.8,311.2,,Starting Motors,Other,Takeoff (RC Assisted),12,5,TRUE,,Mavic Mini,TRUE,FALSE,,Smart,RC,TRUE,TRUE,FALSE,,,TRUE,,FALSE,FALSE,FALSE,FALSE,FALSE,FALSE,FALSE,FALSE,FALSE,FALSE,0,Follow Yaw,0,0,-37.1,322.9,FALSE,FALSE,FALSE,FALSE,FALSE,FALSE,,TRUE,Normal,,100,1024,1024,1024,1024,2,FALSE,FALSE,FALSE,FALSE,FALSE,0,FALSE,FALSE,FALSE,FALSE,64,7.651,1311,2051,7.645,FALSE,3.827,3.824,0.003,FALSE,FALSE,NA,94.8,94.8,94.8,0,0,0,0,5,2475,618.76,,Idle,0,20,FALSE,5,TRUE,10,Go Home,FALSE,FALSE,FALSE,FALSE,FALSE,FALSE,FALSE,FALSE,FALSE,FALSE,FALSE,FALSE,6.974149214,79.91427206,2.2,141.7,328,TRUE,1,1,FALSE,FALSE,FALSE,FALSE,,TRUE,FALSE,FALSE,Course Lock,65.6,,16.4,Calm,29,,1.12.8,Mavic Mini,1SDCH7G0169R0K,1SFLH6Q0AB03DJ,1SRCH7F014TAHX,1U5X071EXP5ZJG,69.5,0.3,45.9,8.686709,3.131716,0,0,Mavic Mini,1SDCH7G0169R0K,1SFLH6Q0AB03DJ,1SRCH7F014TAHX,1U5X071EXP5ZJG,DJI Fly,,1.12.8,2E4D5E97-F802-BB66-83FA-688BB1344248,1SDCH7G0169R0K,,,,,,,,,
2/21/2024,23:57.4,2m 54.8s,174.8,6.974143032,79.91427133,0,0,0.3,52,0.1,0,0,0,0,0,0,0,0,2.5,0.9,-48.8,311.2,,Manual Takeoff,Other,Takeoff (RC Assisted),12,5,TRUE,,Mavic Mini,TRUE,FALSE,,Smart,RC,TRUE,TRUE,FALSE,,,TRUE,,FALSE,FALSE,FALSE,FALSE,FALSE,FALSE,FALSE,FALSE,FALSE,FALSE,0,Follow Yaw,0,0,-37.1,322.9,FALSE,FALSE,FALSE,FALSE,FALSE,FALSE,,TRUE,Normal,,100,1024,1024,1024,1024,2,FALSE,FALSE,FALSE,FALSE,FALSE,0,FALSE,FALSE,FALSE,FALSE,64,7.651,1311,2051,7.645,FALSE,3.827,3.824,0.003,FALSE,FALSE,NA,94.8,94.8,94.8,0,0,0,0,5,2475,618.76,,Idle,0,20,FALSE,5,TRUE,10,Go Home,FALSE,FALSE,FALSE,FALSE,FALSE,FALSE,FALSE,FALSE,FALSE,FALSE,FALSE,FALSE,6.974149214,79.91427206,2.2,141.7,328,TRUE,1,1,FALSE,FALSE,FALSE,FALSE,,TRUE,FALSE,FALSE,Course Lock,65.6,,16.4,Calm,29,,1.12.8,Mavic Mini,1SDCH7G0169R0K,1SFLH6Q0AB03DJ,1SRCH7F014TAHX,1U5X071EXP5ZJG,69.5,0.3,45.9,8.686709,3.131716,0,0,Mavic Mini,1SDCH7G0169R0K,1SFLH6Q0AB03DJ,1SRCH7F014TAHX,1U5X071EXP5ZJG,DJI Fly,,1.12.8,2E4D5E97-F802-BB66-83FA-688BB1344248,1SDCH7G0169R0K,,,,,,,,Flight mode changed to Manual Takeoff.,
2/21/2024,23:57.5,2m 54.9s,174.9,6.974143044,79.91427139,0,0,0.3,52,0.1,0,0,0,0,0,0,0,0,2.6,0.8,-48.8,311.2,,Manual Takeoff,Other,Takeoff (RC Assisted),12,5,TRUE,,Mavic Mini,TRUE,FALSE,,Smart,RC,TRUE,TRUE,FALSE,,,TRUE,,FALSE,FALSE,FALSE,FALSE,FALSE,FALSE,FALSE,FALSE,FALSE,FALSE,0,Follow Yaw,0,0,-37.1,322.9,FALSE,FALSE,FALSE,FALSE,FALSE,FALSE,,TRUE,Normal,,100,1024,1024,1024,1024,2,FALSE,FALSE,FALSE,FALSE,FALSE,0,FALSE,FALSE,FALSE,FALSE,64,7.651,1311,2051,7.645,FALSE,3.827,3.824,0.003,FALSE,FALSE,NA,94.8,94.8,94.8,0,0,0,0,5,2475,618.76,,Idle,0,20,FALSE,5,TRUE,10,Go Home,FALSE,FALSE,FALSE,FALSE,FALSE,FALSE,FALSE,FALSE,FALSE,FALSE,FALSE,FALSE,6.974149214,79.91427206,2.2,141.7,328,TRUE,1,1,FALSE,FALSE,FALSE,FALSE,,TRUE,FALSE,FALSE,Course Lock,65.6,,16.4,Calm,29,,1.12.8,Mavic Mini,1SDCH7G0169R0K,1SFLH6Q0AB03DJ,1SRCH7F014TAHX,1U5X071EXP5ZJG,69.5,0.3,45.9,8.686709,3.131716,0,0,Mavic Mini,1SDCH7G0169R0K,1SFLH6Q0AB03DJ,1SRCH7F014TAHX,1U5X071EXP5ZJG,DJI Fly,,1.12.8,2E4D5E97-F802-BB66-83FA-688BB1344248,1SDCH7G0169R0K,,,,,,,,,
2/21/2024,23:57.6,2m 55.0s,175,6.974143042,79.91427141,0,0,0.3,52,0.1,0,0,0,0,0,0,0,0,2.6,0.8,-48.8,311.2,,Manual Takeoff,Other,Takeoff (RC Assisted),12,5,TRUE,,Mavic Mini,TRUE,FALSE,,Smart,RC,TRUE,TRUE,FALSE,,,TRUE,,FALSE,FALSE,FALSE,FALSE,FALSE,FALSE,FALSE,FALSE,FALSE,FALSE,0,Follow Yaw,0,0,-37.1,322.9,FALSE,FALSE,FALSE,FALSE,FALSE,FALSE,,TRUE,Normal,,100,1024,1024,1024,1024,2,FALSE,FALSE,FALSE,FALSE,FALSE,0,FALSE,FALSE,FALSE,FALSE,64,7.651,1311,2051,7.645,FALSE,3.827,3.824,0.003,FALSE,FALSE,NA,94.8,94.8,94.8,0,0,0,0,5,2475,618.76,,Idle,0,20,FALSE,5,TRUE,10,Go Home,FALSE,FALSE,FALSE,FALSE,FALSE,FALSE,FALSE,FALSE,FALSE,FALSE,FALSE,FALSE,6.974149214,79.91427206,2.2,141.7,328,TRUE,1,1,FALSE,FALSE,FALSE,FALSE,,TRUE,FALSE,FALSE,Course Lock,65.6,,16.4,Calm,29,,1.12.8,Mavic Mini,1SDCH7G0169R0K,1SFLH6Q0AB03DJ,1SRCH7F014TAHX,1U5X071EXP5ZJG,69.5,0.3,45.9,8.686709,3.131716,0,0,Mavic Mini,1SDCH7G0169R0K,1SFLH6Q0AB03DJ,1SRCH7F014TAHX,1U5X071EXP5ZJG,DJI Fly,,1.12.8,2E4D5E97-F802-BB66-83FA-688BB1344248,1SDCH7G0169R0K,,,,,,,,,
2/21/2024,23:57.7,2m 55.1s,175.1,6.974143041,79.91427142,0,0,0.3,52,0.1,0,0,0,0,0,0,0,0,2.6,0.8,-48.8,311.2,,Manual Takeoff,Other,Takeoff (RC Assisted),12,5,TRUE,,Mavic Mini,TRUE,FALSE,,Smart,RC,TRUE,TRUE,FALSE,,,TRUE,,FALSE,FALSE,FALSE,FALSE,FALSE,FALSE,FALSE,FALSE,FALSE,FALSE,0,Follow Yaw,0,0,-37.1,322.9,FALSE,FALSE,FALSE,FALSE,FALSE,FALSE,,TRUE,Normal,,100,1024,1024,1126,1024,2,FALSE,FALSE,FALSE,FALSE,FALSE,0,FALSE,FALSE,FALSE,FALSE,64,7.647,1310,2051,7.659,FALSE,3.826,3.821,0.005,FALSE,FALSE,NA,94.8,94.8,94.8,0,0,0,0,5,2475,618.76,,Idle,0,20,FALSE,5,TRUE,10,Go Home,FALSE,FALSE,FALSE,FALSE,FALSE,FALSE,FALSE,FALSE,FALSE,FALSE,FALSE,FALSE,6.974149214,79.91427206,2.2,141.7,328,TRUE,1,1,FALSE,FALSE,FALSE,FALSE,,TRUE,FALSE,FALSE,Course Lock,65.6,,16.4,Calm,29,,1.12.8,Mavic Mini,1SDCH7G0169R0K,1SFLH6Q0AB03DJ,1SRCH7F014TAHX,1U5X071EXP5ZJG,69.5,0.3,45.9,8.686709,3.131716,0,0,Mavic Mini,1SDCH7G0169R0K,1SFLH6Q0AB03DJ,1SRCH7F014TAHX,1U5X071EXP5ZJG,DJI Fly,,1.12.8,2E4D5E97-F802-BB66-83FA-688BB1344248,1SDCH7G0169R0K,,,,,,,,,
2/21/2024,23:57.8,2m 55.2s,175.2,6.97414304,79.91427142,0,0,0.3,52,0.1,0,0,0,0,0,0,0,0,2.5,0.8,-48.7,311.3,,Manual Takeoff,Other,Takeoff (RC Assisted),12,5,TRUE,,Mavic Mini,TRUE,FALSE,,Smart,RC,TRUE,TRUE,FALSE,,,TRUE,,FALSE,FALSE,FALSE,FALSE,FALSE,FALSE,FALSE,FALSE,FALSE,FALSE,0,Follow Yaw,0,0,-37.1,322.9,FALSE,FALSE,FALSE,FALSE,FALSE,FALSE,,TRUE,Normal,,100,1024,1024,1221,1024,2,FALSE,FALSE,FALSE,FALSE,FALSE,0,FALSE,FALSE,FALSE,FALSE,64,7.647,1310,2051,7.659,FALSE,3.826,3.821,0.005,FALSE,FALSE,NA,94.8,94.8,94.8,0,0,0,0,5,2475,618.76,,Idle,0,20,FALSE,5,TRUE,10,Go Home,FALSE,FALSE,FALSE,FALSE,FALSE,FALSE,FALSE,FALSE,FALSE,FALSE,FALSE,FALSE,6.974149214,79.91427206,2.2,141.7,328,TRUE,1,1,FALSE,FALSE,FALSE,FALSE,,TRUE,FALSE,FALSE,Course Lock,65.6,,16.4,Calm,29,,1.12.8,Mavic Mini,1SDCH7G0169R0K,1SFLH6Q0AB03DJ,1SRCH7F014TAHX,1U5X071EXP5ZJG,69.5,0.3,45.9,8.686709,3.131716,0,0,Mavic Mini,1SDCH7G0169R0K,1SFLH6Q0AB03DJ,1SRCH7F014TAHX,1U5X071EXP5ZJG,DJI Fly,,1.12.8,2E4D5E97-F802-BB66-83FA-688BB1344248,1SDCH7G0169R0K,,,,,,,,,
2/21/2024,23:57.9,2m 55.3s,175.3,6.974143038,79.91427136,0,0,0.3,52,0.1,0,0,0,0,0,0,0,0,2.6,0.8,-48.7,311.3,,Manual Takeoff,Other,Takeoff (RC Assisted),12,5,TRUE,,Mavic Mini,TRUE,FALSE,,Smart,RC,TRUE,TRUE,FALSE,,,TRUE,,FALSE,FALSE,FALSE,FALSE,FALSE,FALSE,FALSE,FALSE,FALSE,FALSE,0,Follow Yaw,0,0,-37.1,322.9,FALSE,FALSE,FALSE,FALSE,FALSE,FALSE,,TRUE,Normal,,100,1024,1024,1313,1024,2,FALSE,FALSE,FALSE,FALSE,FALSE,0,FALSE,FALSE,FALSE,FALSE,64,7.647,1310,2051,7.659,FALSE,3.826,3.821,0.005,FALSE,FALSE,NA,94.8,94.8,94.8,0,0,0,0,5,2475,618.76,,Idle,0,20,FALSE,5,TRUE,10,Go Home,FALSE,FALSE,FALSE,FALSE,FALSE,FALSE,FALSE,FALSE,FALSE,FALSE,FALSE,FALSE,6.974149214,79.91427206,2.2,141.7,328,TRUE,1,1,FALSE,FALSE,FALSE,FALSE,,TRUE,FALSE,FALSE,Course Lock,65.6,,16.4,Calm,29,,1.12.8,Mavic Mini,1SDCH7G0169R0K,1SFLH6Q0AB03DJ,1SRCH7F014TAHX,1U5X071EXP5ZJG,69.5,0.3,45.9,8.686709,3.131716,0,0,Mavic Mini,1SDCH7G0169R0K,1SFLH6Q0AB03DJ,1SRCH7F014TAHX,1U5X071EXP5ZJG,DJI Fly,,1.12.8,2E4D5E97-F802-BB66-83FA-688BB1344248,1SDCH7G0169R0K,,,,,,,,,
2/21/2024,23:58.2,2m 55.4s,175.4,6.974143035,79.91427135,0,0,0.3,52,0.1,0,0,0,0,0,0,0,0,2.6,0.7,-48.7,311.3,,Manual Takeoff,Other,Takeoff (RC Assisted),12,5,TRUE,,Mavic Mini,TRUE,FALSE,,Smart,RC,TRUE,TRUE,FALSE,,,TRUE,,FALSE,FALSE,FALSE,FALSE,FALSE,FALSE,FALSE,FALSE,FALSE,FALSE,0,Follow Yaw,0,0,-37.1,322.9,FALSE,FALSE,FALSE,FALSE,FALSE,FALSE,,TRUE,Normal,,100,1024,1024,1329,1024,2,FALSE,FALSE,FALSE,FALSE,FALSE,0,FALSE,FALSE,FALSE,FALSE,64,7.647,1310,2051,7.659,FALSE,3.826,3.821,0.005,FALSE,FALSE,NA,94.8,94.8,94.8,0,0,0,0,5,2475,618.76,,Idle,0,20,FALSE,5,TRUE,10,Go Home,FALSE,FALSE,FALSE,FALSE,FALSE,FALSE,FALSE,FALSE,FALSE,FALSE,FALSE,FALSE,6.974149214,79.91427206,2.2,141.7,328,TRUE,1,1,FALSE,FALSE,FALSE,FALSE,,TRUE,FALSE,FALSE,Course Lock,65.6,,16.4,Calm,29,,1.12.8,Mavic Mini,1SDCH7G0169R0K,1SFLH6Q0AB03DJ,1SRCH7F014TAHX,1U5X071EXP5ZJG,69.5,0.3,45.9,8.686709,3.131716,0,0,Mavic Mini,1SDCH7G0169R0K,1SFLH6Q0AB03DJ,1SRCH7F014TAHX,1U5X071EXP5ZJG,DJI Fly,,1.12.8,2E4D5E97-F802-BB66-83FA-688BB1344248,1SDCH7G0169R0K,,,,,,,,,
2/21/2024,23:58.2,2m 55.5s,175.5,6.974143032,79.91427137,0,0,0.3,52,0.1,0,0,0,0,0,0,0,0,2.6,0.7,-48.7,311.3,,Manual Takeoff,Other,Takeoff (RC Assisted),12,5,TRUE,,Mavic Mini,TRUE,FALSE,,Smart,RC,TRUE,TRUE,FALSE,,,TRUE,,FALSE,FALSE,FALSE,FALSE,FALSE,FALSE,FALSE,FALSE,FALSE,FALSE,0,Follow Yaw,0,0,-37.1,322.9,FALSE,FALSE,FALSE,FALSE,FALSE,FALSE,,TRUE,Normal,,100,1024,1024,1329,1024,2,FALSE,FALSE,FALSE,FALSE,FALSE,0,FALSE,FALSE,FALSE,FALSE,64,7.647,1310,2051,7.659,FALSE,3.826,3.821,0.005,FALSE,FALSE,NA,94.8,94.8,94.8,0,0,0,0,5,2475,618.76,,Idle,0,20,FALSE,5,TRUE,10,Go Home,FALSE,FALSE,FALSE,FALSE,FALSE,FALSE,FALSE,FALSE,FALSE,FALSE,FALSE,FALSE,6.974149214,79.91427206,2.2,141.7,328,TRUE,1,1,FALSE,FALSE,FALSE,FALSE,,TRUE,FALSE,FALSE,Course Lock,65.6,,16.4,Calm,29,,1.12.8,Mavic Mini,1SDCH7G0169R0K,1SFLH6Q0AB03DJ,1SRCH7F014TAHX,1U5X071EXP5ZJG,69.5,0.3,45.9,8.686709,3.131716,0,0,Mavic Mini,1SDCH7G0169R0K,1SFLH6Q0AB03DJ,1SRCH7F014TAHX,1U5X071EXP5ZJG,DJI Fly,,1.12.8,2E4D5E97-F802-BB66-83FA-688BB1344248,1SDCH7G0169R0K,,,,,,,,,
2/21/2024,23:58.3,2m 55.6s,175.6,6.974143028,79.91427142,0,0,0.3,52,0.1,0,0,0,0,0,0,0,0,2.6,0.7,-48.7,311.3,,Manual Takeoff,Other,Takeoff (RC Assisted),12,5,TRUE,,Mavic Mini,TRUE,FALSE,,Smart,RC,TRUE,TRUE,FALSE,,,TRUE,,FALSE,FALSE,FALSE,FALSE,FALSE,FALSE,FALSE,FALSE,FALSE,FALSE,0,Follow Yaw,0,0,-37.1,322.9,FALSE,FALSE,FALSE,FALSE,FALSE,FALSE,,TRUE,Normal,,100,1024,1024,1327,1024,2,FALSE,FALSE,FALSE,FALSE,FALSE,0,FALSE,FALSE,FALSE,FALSE,64,7.647,1310,2051,7.659,FALSE,3.826,3.821,0.005,FALSE,FALSE,NA,94.8,94.8,94.8,0,0,0,0,5,2475,618.76,,Idle,0,20,FALSE,5,TRUE,10,Go Home,FALSE,FALSE,FALSE,FALSE,FALSE,FALSE,FALSE,FALSE,FALSE,FALSE,FALSE,FALSE,6.974149214,79.91427206,2.2,141.7,328,TRUE,1,1,FALSE,FALSE,FALSE,FALSE,,TRUE,FALSE,FALSE,Course Lock,65.6,,16.4,Calm,29,,1.12.8,Mavic Mini,1SDCH7G0169R0K,1SFLH6Q0AB03DJ,1SRCH7F014TAHX,1U5X071EXP5ZJG,69.5,0.3,45.9,8.686709,3.131716,0,0,Mavic Mini,1SDCH7G0169R0K,1SFLH6Q0AB03DJ,1SRCH7F014TAHX,1U5X071EXP5ZJG,DJI Fly,,1.12.8,2E4D5E97-F802-BB66-83FA-688BB1344248,1SDCH7G0169R0K,,,,,,,,,
2/21/2024,23:58.4,2m 55.7s,175.7,6.974143042,79.91427148,0,0,0.3,52,0.2,0,0,0,0,0,0,0,0,2.7,0.6,-49,311,,Manual Takeoff,Other,Takeoff (RC Assisted),12,5,TRUE,,Mavic Mini,TRUE,FALSE,,Smart,RC,TRUE,TRUE,FALSE,,,TRUE,,FALSE,FALSE,FALSE,FALSE,FALSE,FALSE,FALSE,FALSE,FALSE,FALSE,0,Follow Yaw,0,0,-37.2,322.8,FALSE,FALSE,FALSE,FALSE,FALSE,FALSE,,TRUE,Normal,,100,1024,1024,1327,1024,2,FALSE,FALSE,FALSE,FALSE,FALSE,0,FALSE,FALSE,FALSE,FALSE,64,7.647,1310,2051,7.659,FALSE,3.826,3.821,0.005,FALSE,FALSE,NA,94.8,94.8,94.8,0,0,0,0,5,2475,618.76,,Idle,0,20,FALSE,5,TRUE,10,Go Home,FALSE,FALSE,FALSE,FALSE,FALSE,FALSE,FALSE,FALSE,FALSE,FALSE,FALSE,FALSE,6.974149214,79.91427206,2.2,141.7,328,TRUE,1,1,FALSE,FALSE,FALSE,FALSE,,TRUE,FALSE,FALSE,Course Lock,65.6,,16.4,Calm,29,,1.12.8,Mavic Mini,1SDCH7G0169R0K,1SFLH6Q0AB03DJ,1SRCH7F014TAHX,1U5X071EXP5ZJG,69.5,0.3,45.9,8.686709,3.131716,0,0,Mavic Mini,1SDCH7G0169R0K,1SFLH6Q0AB03DJ,1SRCH7F014TAHX,1U5X071EXP5ZJG,DJI Fly,,1.12.8,2E4D5E97-F802-BB66-83FA-688BB1344248,1SDCH7G0169R0K,,,,,6.974143256,79.91427879,5,,
2/21/2024,23:58.5,2m 55.8s,175.8,6.974143038,79.9142715,0,0,0.3,52,0.2,0,0,0,0,0,0,0,0,2.5,0.4,-49.4,310.6,,Manual Takeoff,Other,Takeoff (RC Assisted),12,5,TRUE,,Mavic Mini,TRUE,FALSE,,Smart,RC,TRUE,TRUE,FALSE,,,TRUE,,FALSE,FALSE,FALSE,FALSE,FALSE,FALSE,FALSE,FALSE,FALSE,FALSE,0,Follow Yaw,0,0,-37.3,322.7,FALSE,FALSE,FALSE,FALSE,FALSE,FALSE,,TRUE,Normal,,100,1024,1024,1327,1024,2,FALSE,FALSE,FALSE,FALSE,FALSE,0,FALSE,FALSE,FALSE,FALSE,64,7.647,1310,2051,7.659,FALSE,3.826,3.821,0.005,FALSE,FALSE,NA,94.8,94.8,94.8,0,0,0,0,5,2475,618.76,,Idle,0,20,FALSE,5,TRUE,10,Go Home,FALSE,FALSE,FALSE,FALSE,FALSE,FALSE,FALSE,FALSE,FALSE,FALSE,FALSE,FALSE,6.974149214,79.91427206,2.2,141.7,328,TRUE,1,1,FALSE,FALSE,FALSE,FALSE,,TRUE,FALSE,FALSE,Course Lock,65.6,,16.4,Calm,29,,1.12.8,Mavic Mini,1SDCH7G0169R0K,1SFLH6Q0AB03DJ,1SRCH7F014TAHX,1U5X071EXP5ZJG,69.5,0.3,45.9,8.686709,3.131716,0,0,Mavic Mini,1SDCH7G0169R0K,1SFLH6Q0AB03DJ,1SRCH7F014TAHX,1U5X071EXP5ZJG,DJI Fly,,1.12.8,2E4D5E97-F802-BB66-83FA-688BB1344248,1SDCH7G0169R0K,,,,,6.974143256,79.91427879,5,,
2/21/2024,23:58.6,2m 55.9s,175.9,6.974143054,79.91427151,0,0,0.3,52,0.2,0,0,0,0,0,0,0,0,2,0,-50.3,309.7,,Manual Takeoff,Other,Takeoff (RC Assisted),12,5,TRUE,,Mavic Mini,TRUE,FALSE,,Smart,RC,TRUE,TRUE,FALSE,,,TRUE,,FALSE,FALSE,FALSE,FALSE,FALSE,FALSE,FALSE,FALSE,FALSE,FALSE,0,Follow Yaw,0,0,-37.9,322.1,FALSE,FALSE,FALSE,FALSE,FALSE,FALSE,,TRUE,Normal,,100,1024,1024,1326,1024,2,FALSE,FALSE,FALSE,FALSE,FALSE,0,FALSE,FALSE,FALSE,FALSE,64,7.647,1310,2051,7.659,FALSE,3.826,3.821,0.005,FALSE,FALSE,NA,94.8,94.8,94.8,0,0,0,0,5,2475,618.76,,Idle,0,20,FALSE,5,TRUE,10,Go Home,FALSE,FALSE,FALSE,FALSE,FALSE,FALSE,FALSE,FALSE,FALSE,FALSE,FALSE,FALSE,6.974149214,79.91427206,2.2,141.7,328,TRUE,1,1,FALSE,FALSE,FALSE,FALSE,,TRUE,FALSE,FALSE,Course Lock,65.6,,16.4,Calm,29,,1.12.8,Mavic Mini,1SDCH7G0169R0K,1SFLH6Q0AB03DJ,1SRCH7F014TAHX,1U5X071EXP5ZJG,69.5,0.3,45.9,8.686709,3.131716,0,0,Mavic Mini,1SDCH7G0169R0K,1SFLH6Q0AB03DJ,1SRCH7F014TAHX,1U5X071EXP5ZJG,DJI Fly,,1.12.8,2E4D5E97-F802-BB66-83FA-688BB1344248,1SDCH7G0169R0K,,,,,6.974143256,79.91427879,5,,
2/21/2024,23:58.7,2m 56.0s,176,6.974143108,79.91427151,0,0,0.3,52,0.2,0,0,0,0,0,0,0,0,-0.2,0.1,-51.3,308.7,,Manual Takeoff,Other,Takeoff (RC Assisted),12,5,TRUE,,Mavic Mini,TRUE,FALSE,,Smart,RC,TRUE,TRUE,FALSE,,,TRUE,,FALSE,FALSE,FALSE,FALSE,FALSE,FALSE,FALSE,FALSE,FALSE,FALSE,0,Follow Yaw,0,0,-38.8,321.2,FALSE,FALSE,FALSE,FALSE,FALSE,FALSE,,TRUE,Normal,,100,1024,1024,1324,1024,2,FALSE,FALSE,FALSE,FALSE,FALSE,0,FALSE,FALSE,FALSE,FALSE,64,7.647,1310,2051,7.659,FALSE,3.826,3.821,0.005,FALSE,FALSE,NA,94.8,94.8,94.8,0,0,0,0,5,2475,618.76,,Idle,0,20,FALSE,5,TRUE,10,Go Home,FALSE,FALSE,FALSE,FALSE,FALSE,FALSE,FALSE,FALSE,FALSE,FALSE,FALSE,FALSE,6.974149214,79.91427206,2.2,141.7,328,TRUE,1,1,FALSE,FALSE,FALSE,FALSE,,TRUE,FALSE,FALSE,Course Lock,65.6,,16.4,Calm,29,,1.12.8,Mavic Mini,1SDCH7G0169R0K,1SFLH6Q0AB03DJ,1SRCH7F014TAHX,1U5X071EXP5ZJG,69.5,0.3,45.9,8.686709,3.131716,0,0,Mavic Mini,1SDCH7G0169R0K,1SFLH6Q0AB03DJ,1SRCH7F014TAHX,1U5X071EXP5ZJG,DJI Fly,,1.12.8,2E4D5E97-F802-BB66-83FA-688BB1344248,1SDCH7G0169R0K,,,,,6.974143256,79.91427879,5,,
2/21/2024,23:58.8,2m 56.1s,176.1,6.974143261,79.91427142,0,0,0.3,52,0.3,0,0,0,0,0,0,0,0,-1.3,-0.5,-52.1,307.9,,Manual Takeoff,Other,Takeoff (RC Assisted),12,5,TRUE,,Mavic Mini,TRUE,FALSE,,Smart,RC,TRUE,TRUE,FALSE,,,TRUE,,FALSE,FALSE,FALSE,FALSE,FALSE,FALSE,FALSE,FALSE,FALSE,FALSE,0,Follow Yaw,0,0,-39.7,320.3,FALSE,FALSE,FALSE,FALSE,FALSE,FALSE,,TRUE,Normal,,100,1024,1024,1323,1024,2,FALSE,FALSE,FALSE,FALSE,FALSE,0,FALSE,FALSE,FALSE,FALSE,64,7.647,1310,2051,7.604,FALSE,3.826,3.821,0.005,FALSE,FALSE,NA,94.8,94.8,94.8,0,0,0,0,5,2522.1,630.54,,Idle,0,20,FALSE,5,TRUE,10,Go Home,FALSE,FALSE,FALSE,FALSE,FALSE,FALSE,FALSE,FALSE,FALSE,FALSE,FALSE,FALSE,6.974149214,79.91427206,2.1,141.7,328,TRUE,1,1,FALSE,FALSE,FALSE,FALSE,,TRUE,FALSE,FALSE,Course Lock,65.6,,16.4,Calm,29,,1.12.8,Mavic Mini,1SDCH7G0169R0K,1SFLH6Q0AB03DJ,1SRCH7F014TAHX,1U5X071EXP5ZJG,69.5,0.3,45.9,8.686709,3.131716,0,0,Mavic Mini,1SDCH7G0169R0K,1SFLH6Q0AB03DJ,1SRCH7F014TAHX,1U5X071EXP5ZJG,DJI Fly,,1.12.8,2E4D5E97-F802-BB66-83FA-688BB1344248,1SDCH7G0169R0K,,,,,6.974143256,79.91427879,5,,
2/21/2024,23:58.8,2m 56.2s,176.2,6.974143353,79.91427139,0,0,0.3,52,0.3,0.223694,0.223694,0.223694,0.223694,0,0,0,0,-1.4,0.2,-53.3,306.7,344,Manual Takeoff,Other,Takeoff (RC Assisted),12,5,TRUE,,Mavic Mini,TRUE,FALSE,,Smart,RC,TRUE,TRUE,FALSE,,,TRUE,,FALSE,FALSE,FALSE,FALSE,FALSE,FALSE,FALSE,FALSE,FALSE,FALSE,0,Follow Yaw,0,0,-40.7,319.3,FALSE,FALSE,FALSE,FALSE,FALSE,FALSE,,TRUE,Normal,,100,1024,1024,1322,1024,2,FALSE,FALSE,FALSE,FALSE,FALSE,0,FALSE,FALSE,FALSE,FALSE,64,7.548,1310,2051,7.604,FALSE,3.776,3.772,0.005,FALSE,FALSE,NA,94.8,94.8,94.8,0,0,0,0,5,2522.1,630.54,,Idle,0,20,FALSE,5,TRUE,10,Go Home,FALSE,FALSE,FALSE,FALSE,FALSE,FALSE,FALSE,FALSE,FALSE,FALSE,FALSE,FALSE,6.974149214,79.91427206,2.1,141.7,328,TRUE,1,1,FALSE,FALSE,FALSE,FALSE,,TRUE,FALSE,FALSE,Course Lock,65.6,,16.4,Calm,29,,1.12.8,Mavic Mini,1SDCH7G0169R0K,1SFLH6Q0AB03DJ,1SRCH7F014TAHX,1U5X071EXP5ZJG,69.5,0.3,45.9,8.686709,3.131716,0,0,Mavic Mini,1SDCH7G0169R0K,1SFLH6Q0AB03DJ,1SRCH7F014TAHX,1U5X071EXP5ZJG,DJI Fly,,1.12.8,2E4D5E97-F802-BB66-83FA-688BB1344248,1SDCH7G0169R0K,,,,,6.974143256,79.91427879,5,,
2/21/2024,23:58.9,2m 56.3s,176.3,6.974143488,79.91427134,0,0,0.3,52,0.4,0.223694,0.223694,0.223694,0.223694,0,0,-0.447388,0,-1.3,0,-54.1,305.9,342.9,Tripod,Other,,12,5,TRUE,,Mavic Mini,TRUE,FALSE,,Smart,RC,FALSE,TRUE,FALSE,,,TRUE,,FALSE,FALSE,FALSE,FALSE,FALSE,FALSE,FALSE,FALSE,FALSE,FALSE,0,Follow Yaw,0,0,-41.7,318.3,FALSE,FALSE,FALSE,FALSE,FALSE,FALSE,,TRUE,Normal,,100,1024,1024,1320,1024,2,FALSE,FALSE,FALSE,FALSE,FALSE,0,FALSE,FALSE,FALSE,FALSE,64,7.548,1310,2051,7.604,FALSE,3.776,3.772,0.005,FALSE,FALSE,NA,94.8,94.8,94.8,0,0,0,0,5,2522.1,630.54,,Idle,0,20,FALSE,5,TRUE,10,Go Home,FALSE,FALSE,FALSE,FALSE,FALSE,FALSE,FALSE,FALSE,FALSE,FALSE,FALSE,FALSE,6.974149214,79.91427206,2.1,141.7,328,TRUE,1,1,FALSE,FALSE,FALSE,FALSE,,TRUE,FALSE,FALSE,Course Lock,65.6,,16.4,Calm,29,,1.12.8,Mavic Mini,1SDCH7G0169R0K,1SFLH6Q0AB03DJ,1SRCH7F014TAHX,1U5X071EXP5ZJG,69.5,0.3,45.9,8.686709,3.131716,0,0,Mavic Mini,1SDCH7G0169R0K,1SFLH6Q0AB03DJ,1SRCH7F014TAHX,1U5X071EXP5ZJG,DJI Fly,,1.12.8,2E4D5E97-F802-BB66-83FA-688BB1344248,1SDCH7G0169R0K,,,,,6.974143256,79.91427879,5,Flight mode changed to Tripod.,
2/21/2024,23:59.0,2m 56.4s,176.4,6.974143674,79.91427126,0,0,0.3,52,0.4,0.447388,0.447388,0.447388,0.447388,0,0,-0.671082,0,1.6,-1.8,-53.9,306.1,343,Tripod,Other,,12,5,TRUE,,Mavic Mini,TRUE,FALSE,,Smart,RC,FALSE,TRUE,FALSE,,,TRUE,,FALSE,FALSE,FALSE,FALSE,FALSE,FALSE,FALSE,FALSE,FALSE,FALSE,0,Follow Yaw,0,0,-41.7,318.3,FALSE,FALSE,FALSE,FALSE,FALSE,FALSE,,TRUE,Normal,,100,1024,1024,1320,1024,2,FALSE,FALSE,FALSE,FALSE,FALSE,0,FALSE,FALSE,FALSE,FALSE,64,7.548,1310,2051,7.604,FALSE,3.776,3.772,0.005,FALSE,FALSE,NA,94.8,94.8,94.8,0,0,0,0,5,2522.1,630.54,,Idle,0,20,FALSE,5,TRUE,10,Go Home,FALSE,FALSE,FALSE,FALSE,FALSE,FALSE,FALSE,FALSE,FALSE,FALSE,FALSE,FALSE,6.974149214,79.91427206,2,141.7,328,TRUE,1,1,FALSE,FALSE,FALSE,FALSE,,TRUE,FALSE,FALSE,Course Lock,65.6,,16.4,Calm,29,,1.12.8,Mavic Mini,1SDCH7G0169R0K,1SFLH6Q0AB03DJ,1SRCH7F014TAHX,1U5X071EXP5ZJG,69.5,0.3,45.9,8.686709,3.131716,0,0,Mavic Mini,1SDCH7G0169R0K,1SFLH6Q0AB03DJ,1SRCH7F014TAHX,1U5X071EXP5ZJG,DJI Fly,,1.12.8,2E4D5E97-F802-BB66-83FA-688BB1344248,1SDCH7G0169R0K,,,,,6.974143256,79.91427879,5,,
2/21/2024,23:59.1,2m 56.5s,176.5,6.974143872,79.91427118,0,0,0.6,52,0.5,0.447388,0.447388,0.447388,0.447388,0,0,-1.11847,0,2.4,-2,-53.9,306.1,341.8,Tripod,Other,,12,5,TRUE,,Mavic Mini,TRUE,FALSE,,Smart,RC,FALSE,TRUE,FALSE,,,TRUE,,FALSE,FALSE,FALSE,FALSE,FALSE,FALSE,FALSE,FALSE,FALSE,FALSE,0,Follow Yaw,0,0,-41.7,318.3,FALSE,FALSE,FALSE,FALSE,FALSE,FALSE,,TRUE,Normal,,100,1024,1024,1320,1024,2,FALSE,FALSE,FALSE,FALSE,FALSE,0,FALSE,FALSE,FALSE,FALSE,64,7.548,1310,2051,7.604,FALSE,3.776,3.772,0.005,FALSE,FALSE,NA,94.8,94.8,94.8,0,0,0,0,5,2522.1,630.54,,Idle,0,20,FALSE,5,TRUE,10,Go Home,FALSE,FALSE,FALSE,FALSE,FALSE,FALSE,FALSE,FALSE,FALSE,FALSE,FALSE,FALSE,6.974149214,79.91427206,1.9,141.7,328,TRUE,1,1,FALSE,FALSE,FALSE,FALSE,,TRUE,FALSE,FALSE,Course Lock,65.6,,16.4,Calm,29,,1.12.8,Mavic Mini,1SDCH7G0169R0K,1SFLH6Q0AB03DJ,1SRCH7F014TAHX,1U5X071EXP5ZJG,69.5,0.3,45.9,8.686709,3.131716,0,0,Mavic Mini,1SDCH7G0169R0K,1SFLH6Q0AB03DJ,1SRCH7F014TAHX,1U5X071EXP5ZJG,DJI Fly,,1.12.8,2E4D5E97-F802-BB66-83FA-688BB1344248,1SDCH7G0169R0K,,,,,6.974143256,79.91427879,5,,
2/21/2024,23:59.2,2m 56.6s,176.6,6.974144116,79.91427106,0,0,0.6,52,0.6,0.223694,0.447388,0.223694,0.447388,0,0,-1.11847,0,2.7,-1.8,-53.8,306.2,339.8,Tripod,Other,,12,5,TRUE,,Mavic Mini,TRUE,FALSE,,Smart,RC,FALSE,TRUE,FALSE,,,TRUE,,FALSE,FALSE,FALSE,FALSE,FALSE,FALSE,FALSE,FALSE,FALSE,FALSE,0,Follow Yaw,0,0,-41.7,318.3,FALSE,FALSE,FALSE,FALSE,FALSE,FALSE,,TRUE,Normal,,100,1024,1024,1320,1024,2,FALSE,FALSE,FALSE,FALSE,FALSE,0,FALSE,FALSE,FALSE,FALSE,64,7.548,1310,2051,7.604,FALSE,3.776,3.772,0.005,FALSE,FALSE,NA,94.8,94.8,94.8,0,0,0,0,5,2522.1,630.54,,Idle,0,20,FALSE,5,TRUE,10,Go Home,FALSE,FALSE,FALSE,FALSE,FALSE,FALSE,FALSE,FALSE,FALSE,FALSE,FALSE,FALSE,6.974149214,79.91427206,1.8,141.7,328,TRUE,1,1,FALSE,FALSE,FALSE,FALSE,,TRUE,FALSE,FALSE,Course Lock,65.6,,16.4,Calm,29,,1.12.8,Mavic Mini,1SDCH7G0169R0K,1SFLH6Q0AB03DJ,1SRCH7F014TAHX,1U5X071EXP5ZJG,69.5,0.3,45.9,8.686709,3.131716,0,0,Mavic Mini,1SDCH7G0169R0K,1SFLH6Q0AB03DJ,1SRCH7F014TAHX,1U5X071EXP5ZJG,DJI Fly,,1.12.8,2E4D5E97-F802-BB66-83FA-688BB1344248,1SDCH7G0169R0K,,,,,6.974143256,79.91427879,5,,
2/21/2024,23:59.3,2m 56.7s,176.7,6.974144325,79.91427097,0.3,0.3,0.9,52,0.7,0.223694,0.447388,0.223694,0.447388,0,0,-1.342164,0,2.9,-1.8,-53.7,306.3,341,Tripod,Other,,12,5,TRUE,,Mavic Mini,TRUE,FALSE,,Smart,RC,FALSE,TRUE,FALSE,,,TRUE,,FALSE,FALSE,FALSE,FALSE,FALSE,FALSE,FALSE,FALSE,FALSE,FALSE,0,Follow Yaw,0,0,-41.7,318.3,FALSE,FALSE,FALSE,FALSE,FALSE,FALSE,,TRUE,Normal,,100,1024,1024,1321,1024,2,FALSE,FALSE,FALSE,FALSE,FALSE,0,FALSE,FALSE,FALSE,FALSE,64,7.548,1310,2051,7.604,FALSE,3.776,3.772,0.005,FALSE,FALSE,NA,94.8,94.8,94.8,0,0,0,0,5,2522.1,630.54,,Idle,0,20,FALSE,5,TRUE,10,Go Home,FALSE,FALSE,FALSE,FALSE,FALSE,FALSE,FALSE,FALSE,FALSE,FALSE,FALSE,FALSE,6.974149214,79.91427206,1.8,141.7,328,TRUE,1,1,FALSE,FALSE,FALSE,FALSE,,TRUE,FALSE,FALSE,Course Lock,65.6,,16.4,Calm,29,,1.12.8,Mavic Mini,1SDCH7G0169R0K,1SFLH6Q0AB03DJ,1SRCH7F014TAHX,1U5X071EXP5ZJG,69.5,0.3,45.9,8.686709,3.131716,0,0,Mavic Mini,1SDCH7G0169R0K,1SFLH6Q0AB03DJ,1SRCH7F014TAHX,1U5X071EXP5ZJG,DJI Fly,,1.12.8,2E4D5E97-F802-BB66-83FA-688BB1344248,1SDCH7G0169R0K,,,,,6.974143256,79.91427879,5,,
2/21/2024,23:59.4,2m 56.8s,176.8,6.974144561,79.91427086,0.6,0.6,0.9,52,0.8,0.223694,0.447388,0.223694,0.447388,0,0,-1.342164,0,2.9,-1.6,-53.6,306.4,340.9,Tripod,Other,,12,5,TRUE,,Mavic Mini,TRUE,FALSE,,Smart,RC,FALSE,TRUE,FALSE,,,TRUE,,FALSE,FALSE,FALSE,FALSE,FALSE,FALSE,FALSE,FALSE,FALSE,FALSE,0,Follow Yaw,0,0,-41.7,318.3,FALSE,FALSE,FALSE,FALSE,FALSE,FALSE,,TRUE,Normal,,100,1024,1024,1320,1024,2,FALSE,FALSE,FALSE,FALSE,FALSE,0,FALSE,FALSE,FALSE,FALSE,64,7.548,1310,2051,7.604,FALSE,3.776,3.772,0.005,FALSE,FALSE,NA,94.8,94.8,94.8,0,0,0,0,5,2522.1,630.54,,Idle,0,20,FALSE,5,TRUE,10,Go Home,FALSE,FALSE,FALSE,FALSE,FALSE,FALSE,FALSE,FALSE,FALSE,FALSE,FALSE,FALSE,6.974149214,79.91427206,1.7,141.7,328,TRUE,1,1,FALSE,FALSE,FALSE,FALSE,,TRUE,FALSE,FALSE,Course Lock,65.6,,16.4,Calm,29,,1.12.8,Mavic Mini,1SDCH7G0169R0K,1SFLH6Q0AB03DJ,1SRCH7F014TAHX,1U5X071EXP5ZJG,69.5,0.3,45.9,8.686709,3.131716,0,0,Mavic Mini,1SDCH7G0169R0K,1SFLH6Q0AB03DJ,1SRCH7F014TAHX,1U5X071EXP5ZJG,DJI Fly,,1.12.8,2E4D5E97-F802-BB66-83FA-688BB1344248,1SDCH7G0169R0K,,,,,6.974143256,79.91427879,5,,
2/21/2024,23:59.5,2m 56.9s,176.9,6.974144746,79.9142708,0.6,0.6,1.3,52,0.9,0.223694,0.447388,0.223694,0.447388,0,0,-1.342164,0,3,-1.6,-53.5,306.5,344.2,Tripod,Other,,12,5,TRUE,,Mavic Mini,TRUE,FALSE,,Smart,RC,FALSE,TRUE,FALSE,,,TRUE,,FALSE,FALSE,FALSE,FALSE,FALSE,FALSE,FALSE,FALSE,FALSE,FALSE,0,Follow Yaw,0,0,-41.7,318.3,FALSE,FALSE,FALSE,FALSE,FALSE,FALSE,,TRUE,Normal,,100,1024,1024,1321,1024,2,FALSE,FALSE,FALSE,FALSE,FALSE,0,FALSE,FALSE,FALSE,FALSE,64,7.548,1310,2051,7.604,FALSE,3.776,3.772,0.005,FALSE,FALSE,NA,94.8,94.8,94.8,0,0,0,0,5,2522.1,630.54,,Idle,0,20,FALSE,5,TRUE,10,Go Home,FALSE,FALSE,FALSE,FALSE,FALSE,FALSE,FALSE,FALSE,FALSE,FALSE,FALSE,FALSE,6.974149214,79.91427206,1.6,141.7,328,TRUE,1,1,FALSE,FALSE,FALSE,FALSE,,TRUE,FALSE,FALSE,Course Lock,65.6,,16.4,Calm,29,,1.12.8,Mavic Mini,1SDCH7G0169R0K,1SFLH6Q0AB03DJ,1SRCH7F014TAHX,1U5X071EXP5ZJG,69.5,0.3,45.9,8.686709,3.131716,0,0,Mavic Mini,1SDCH7G0169R0K,1SFLH6Q0AB03DJ,1SRCH7F014TAHX,1U5X071EXP5ZJG,DJI Fly,,1.12.8,2E4D5E97-F802-BB66-83FA-688BB1344248,1SDCH7G0169R0K,,,,,6.974143256,79.91427879,5,,
2/21/2024,23:59.7,2m 57.0s,177,6.974144912,79.91427083,0.9,0.9,1.3,53,0.9,0.223694,0.447388,0.223694,0.447388,0,0,-1.11847,0,2.9,-1.4,-53.4,306.6,9.5,Tripod,Other,,12,5,TRUE,,Mavic Mini,TRUE,FALSE,,Smart,RC,FALSE,TRUE,FALSE,,,TRUE,,FALSE,FALSE,FALSE,FALSE,FALSE,FALSE,FALSE,FALSE,FALSE,FALSE,0,Follow Yaw,0,0,-41.7,318.3,FALSE,FALSE,FALSE,FALSE,FALSE,FALSE,,TRUE,Normal,,100,1024,1024,1329,1024,2,FALSE,FALSE,FALSE,FALSE,FALSE,0,FALSE,FALSE,FALSE,FALSE,64,7.548,1310,2051,7.604,FALSE,3.776,3.772,0.005,FALSE,FALSE,NA,94.8,94.8,94.8,0,0,0,0,5,2522.1,630.54,,Idle,0,20,FALSE,5,TRUE,10,Go Home,FALSE,FALSE,FALSE,FALSE,FALSE,FALSE,FALSE,FALSE,FALSE,FALSE,FALSE,FALSE,6.974149214,79.91427206,1.6,141.7,328,TRUE,1,1,FALSE,FALSE,FALSE,FALSE,,TRUE,FALSE,FALSE,Course Lock,65.6,,16.4,Calm,29,,1.12.8,Mavic Mini,1SDCH7G0169R0K,1SFLH6Q0AB03DJ,1SRCH7F014TAHX,1U5X071EXP5ZJG,69.5,0.3,45.9,8.686709,3.131716,0,0,Mavic Mini,1SDCH7G0169R0K,1SFLH6Q0AB03DJ,1SRCH7F014TAHX,1U5X071EXP5ZJG,DJI Fly,,1.12.8,2E4D5E97-F802-BB66-83FA-688BB1344248,1SDCH7G0169R0K,,,,,6.974143256,79.91427879,5,,
2/21/2024,23:59.9,2m 57.1s,177.1,6.974145,79.91427079,0.9,0.9,1.6,53,1,0,0.447388,0,0.447388,0,0,-1.11847,0,3,-1.4,-53.4,306.6,,Tripod,Other,,12,5,TRUE,,Mavic Mini,TRUE,FALSE,,Smart,RC,FALSE,TRUE,FALSE,,,TRUE,,FALSE,FALSE,FALSE,FALSE,FALSE,FALSE,FALSE,FALSE,FALSE,FALSE,0,Follow Yaw,0,0,-41.7,318.3,FALSE,FALSE,FALSE,FALSE,FALSE,FALSE,,TRUE,Normal,,100,1024,1024,1346,1024,2,FALSE,FALSE,FALSE,FALSE,FALSE,0,FALSE,FALSE,FALSE,FALSE,64,7.548,1310,2051,7.555,FALSE,3.776,3.772,0.005,FALSE,FALSE,NA,94.8,94.8,94.8,0,0,1,0,5,2764.8,691.2,,Idle,0,20,FALSE,5,TRUE,10,Go Home,FALSE,FALSE,FALSE,FALSE,FALSE,FALSE,FALSE,FALSE,FALSE,FALSE,FALSE,FALSE,6.974143427,79.91427136,0.6,141.7,328,TRUE,1,1,FALSE,FALSE,FALSE,FALSE,,TRUE,FALSE,FALSE,Course Lock,65.6,,16.4,Calm,29,,1.12.8,Mavic Mini,1SDCH7G0169R0K,1SFLH6Q0AB03DJ,1SRCH7F014TAHX,1U5X071EXP5ZJG,69.5,0.3,45.9,8.686709,3.131716,0,0,Mavic Mini,1SDCH7G0169R0K,1SFLH6Q0AB03DJ,1SRCH7F014TAHX,1U5X071EXP5ZJG,DJI Fly,,1.12.8,2E4D5E97-F802-BB66-83FA-688BB1344248,1SDCH7G0169R0K,,,,,6.974143256,79.91427879,5,Home Point updated. RTH altitude adjusted to 20 m! (Code: 120852).,
2/21/2024,23:59.9,2m 57.2s,177.2,6.974145058,79.9142707,1.3,1.3,1.6,53,1,0,0.447388,0,0.447388,0,0,-1.11847,0,3,-1.4,-53.4,306.6,,Tripod,Other,,12,5,TRUE,,Mavic Mini,TRUE,FALSE,,Smart,RC,FALSE,TRUE,FALSE,,,TRUE,,FALSE,FALSE,FALSE,FALSE,FALSE,FALSE,FALSE,FALSE,FALSE,FALSE,0,Follow Yaw,0,0,-41.7,318.3,FALSE,FALSE,FALSE,FALSE,FALSE,FALSE,,TRUE,Normal,,100,1024,1024,1401,1024,2,FALSE,FALSE,FALSE,FALSE,FALSE,0,FALSE,FALSE,FALSE,FALSE,64,7.548,1310,2051,7.555,FALSE,3.776,3.772,0.005,FALSE,FALSE,NA,94.8,94.8,94.8,0,0,1,0,5,2764.8,691.2,,Idle,0,20,FALSE,5,TRUE,10,Go Home,FALSE,FALSE,FALSE,FALSE,FALSE,FALSE,FALSE,FALSE,FALSE,FALSE,FALSE,FALSE,6.974143427,79.91427136,0.6,141.7,328,TRUE,1,1,FALSE,FALSE,FALSE,FALSE,,TRUE,FALSE,FALSE,Course Lock,65.6,,16.4,Calm,29,,1.12.8,Mavic Mini,1SDCH7G0169R0K,1SFLH6Q0AB03DJ,1SRCH7F014TAHX,1U5X071EXP5ZJG,69.5,0.3,45.9,8.686709,3.131716,0,0,Mavic Mini,1SDCH7G0169R0K,1SFLH6Q0AB03DJ,1SRCH7F014TAHX,1U5X071EXP5ZJG,DJI Fly,,1.12.8,2E4D5E97-F802-BB66-83FA-688BB1344248,1SDCH7G0169R0K,,,,,6.974143256,79.91427879,5,,
2/21/2024,23:59.9,2m 57.3s,177.3,6.974145132,79.91427065,1.3,1.3,1.9,53,1,0,0.447388,0,0.447388,0,0,-1.11847,0,2.9,-1.7,-53.4,306.6,,Tripod,Other,,12,5,TRUE,,Mavic Mini,TRUE,FALSE,,Smart,RC,FALSE,TRUE,FALSE,,,TRUE,,FALSE,FALSE,FALSE,FALSE,FALSE,FALSE,FALSE,FALSE,FALSE,FALSE,0,Follow Yaw,0,0,-41.7,318.3,FALSE,FALSE,FALSE,FALSE,FALSE,FALSE,,TRUE,Normal,,100,1024,1024,1454,1024,2,FALSE,FALSE,FALSE,FALSE,FALSE,0,FALSE,FALSE,FALSE,FALSE,64,7.452,1308,2051,7.555,FALSE,3.727,3.725,0.005,FALSE,FALSE,NA,94.8,94.8,94.8,0,0,1,0,5,2764.8,691.2,,Idle,0,20,FALSE,5,TRUE,10,Go Home,FALSE,FALSE,FALSE,FALSE,FALSE,FALSE,FALSE,FALSE,FALSE,FALSE,FALSE,FALSE,6.974143427,79.91427136,0.6,141.7,328,TRUE,1,1,FALSE,FALSE,FALSE,FALSE,,TRUE,FALSE,FALSE,Course Lock,65.6,,16.4,Calm,29,,1.12.8,Mavic Mini,1SDCH7G0169R0K,1SFLH6Q0AB03DJ,1SRCH7F014TAHX,1U5X071EXP5ZJG,69.5,0.3,45.9,8.686709,3.131716,0,0,Mavic Mini,1SDCH7G0169R0K,1SFLH6Q0AB03DJ,1SRCH7F014TAHX,1U5X071EXP5ZJG,DJI Fly,,1.12.8,2E4D5E97-F802-BB66-83FA-688BB1344248,1SDCH7G0169R0K,,,,,6.974143256,79.91427879,5,,
2/21/2024,24:00.0,2m 57.4s,177.4,6.9741452,79.91427058,1.6,1.6,2.2,53,1.1,0,0.447388,0,0.447388,0,0,-1.11847,0,2.8,-1.7,-53.4,306.6,,Tripod,Other,,12,5,TRUE,,Mavic Mini,TRUE,FALSE,,Smart,RC,FALSE,TRUE,FALSE,,,TRUE,,FALSE,FALSE,FALSE,FALSE,FALSE,FALSE,FALSE,FALSE,FALSE,FALSE,0,Follow Yaw,0,0,-41.7,318.3,FALSE,FALSE,FALSE,FALSE,FALSE,FALSE,,TRUE,Normal,,100,1024,1024,1454,1024,2,FALSE,FALSE,FALSE,FALSE,FALSE,0,FALSE,FALSE,FALSE,FALSE,64,7.452,1308,2051,7.555,FALSE,3.727,3.725,0.005,FALSE,FALSE,NA,94.8,94.8,94.8,0,0,1,0,5,2764.8,691.2,,Idle,0,20,FALSE,5,TRUE,10,Go Home,FALSE,FALSE,FALSE,FALSE,FALSE,FALSE,FALSE,FALSE,FALSE,FALSE,FALSE,FALSE,6.974143427,79.91427136,0.7,141.7,328,TRUE,1,1,FALSE,FALSE,FALSE,FALSE,,TRUE,FALSE,FALSE,Course Lock,65.6,,16.4,Calm,29,,1.12.8,Mavic Mini,1SDCH7G0169R0K,1SFLH6Q0AB03DJ,1SRCH7F014TAHX,1U5X071EXP5ZJG,69.5,0.3,45.9,8.686709,3.131716,0,0,Mavic Mini,1SDCH7G0169R0K,1SFLH6Q0AB03DJ,1SRCH7F014TAHX,1U5X071EXP5ZJG,DJI Fly,,1.12.8,2E4D5E97-F802-BB66-83FA-688BB1344248,1SDCH7G0169R0K,,,,,6.974143256,79.91427879,5,,
2/21/2024,24:00.1,2m 57.5s,177.5,6.974145304,79.91427058,1.6,1.6,2.2,53,1.1,0,0.447388,0,0.447388,0,0,-1.11847,0,2.8,-1.8,-53.3,306.7,,Tripod,Other,,12,5,TRUE,,Mavic Mini,TRUE,FALSE,,Smart,RC,FALSE,TRUE,FALSE,,,TRUE,,FALSE,FALSE,FALSE,FALSE,FALSE,FALSE,FALSE,FALSE,FALSE,FALSE,0,Follow Yaw,0,0,-41.7,318.3,FALSE,FALSE,FALSE,FALSE,FALSE,FALSE,,TRUE,Normal,,100,1024,1024,1480,1024,2,FALSE,FALSE,FALSE,FALSE,FALSE,0,FALSE,FALSE,FALSE,FALSE,64,7.452,1308,2051,7.555,FALSE,3.727,3.725,0.005,FALSE,FALSE,NA,94.8,94.8,94.8,0,0,1,0,5,2764.8,691.2,,Idle,0,20,FALSE,5,TRUE,10,Go Home,FALSE,FALSE,FALSE,FALSE,FALSE,FALSE,FALSE,FALSE,FALSE,FALSE,FALSE,FALSE,6.974143427,79.91427136,0.7,141.7,328,TRUE,1,1,FALSE,FALSE,FALSE,FALSE,,TRUE,FALSE,FALSE,Course Lock,65.6,,16.4,Calm,29,,1.12.8,Mavic Mini,1SDCH7G0169R0K,1SFLH6Q0AB03DJ,1SRCH7F014TAHX,1U5X071EXP5ZJG,69.5,0.3,45.9,8.686709,3.131716,0,0,Mavic Mini,1SDCH7G0169R0K,1SFLH6Q0AB03DJ,1SRCH7F014TAHX,1U5X071EXP5ZJG,DJI Fly,,1.12.8,2E4D5E97-F802-BB66-83FA-688BB1344248,1SDCH7G0169R0K,,,,,6.974143256,79.91427879,5,,
2/21/2024,24:00.2,2m 57.6s,177.6,6.974145406,79.9142706,1.9,1.9,2.6,54,1.1,0,0.447388,0,0.447388,0,0,-1.342164,0,2.6,-1.8,-53.4,306.6,,Tripod,Other,,12,5,TRUE,,Mavic Mini,TRUE,FALSE,,Smart,RC,FALSE,TRUE,FALSE,,,TRUE,,FALSE,FALSE,FALSE,FALSE,FALSE,FALSE,FALSE,FALSE,FALSE,FALSE,0,Follow Yaw,0,0,-41.7,318.3,FALSE,FALSE,FALSE,FALSE,FALSE,FALSE,,TRUE,Normal,,100,1024,1024,1490,1024,2,FALSE,FALSE,FALSE,FALSE,FALSE,0,FALSE,FALSE,FALSE,FALSE,64,7.452,1308,2051,7.555,FALSE,3.727,3.725,0.005,FALSE,FALSE,NA,94.8,94.8,94.8,0,0,1,0,5,2764.8,691.2,,Idle,0,20,FALSE,5,TRUE,10,Go Home,FALSE,FALSE,FALSE,FALSE,FALSE,FALSE,FALSE,FALSE,FALSE,FALSE,FALSE,FALSE,6.974143427,79.91427136,0.7,141.7,328,TRUE,1,1,FALSE,FALSE,FALSE,FALSE,,TRUE,FALSE,FALSE,Course Lock,65.6,,16.4,Calm,29,,1.12.8,Mavic Mini,1SDCH7G0169R0K,1SFLH6Q0AB03DJ,1SRCH7F014TAHX,1U5X071EXP5ZJG,69.5,0.3,45.9,8.686709,3.131716,0,0,Mavic Mini,1SDCH7G0169R0K,1SFLH6Q0AB03DJ,1SRCH7F014TAHX,1U5X071EXP5ZJG,DJI Fly,,1.12.8,2E4D5E97-F802-BB66-83FA-688BB1344248,1SDCH7G0169R0K,,,,,6.974143256,79.91427879,5,,
2/21/2024,24:00.3,2m 57.7s,177.7,6.974145462,79.9142706,1.9,1.9,2.9,54,1.2,0,0.447388,0,0.447388,0,0,-1.565858,0,2.2,-1.5,-53.5,306.5,,Tripod,Other,,12,5,TRUE,,Mavic Mini,TRUE,FALSE,,Smart,RC,FALSE,TRUE,FALSE,,,TRUE,,FALSE,FALSE,FALSE,FALSE,FALSE,FALSE,FALSE,FALSE,FALSE,FALSE,0,Follow Yaw,0,0,-41.7,318.3,FALSE,FALSE,FALSE,FALSE,FALSE,FALSE,,TRUE,Normal,,100,1024,1024,1493,1024,2,FALSE,FALSE,FALSE,FALSE,FALSE,0,FALSE,FALSE,FALSE,FALSE,64,7.452,1308,2051,7.555,FALSE,3.727,3.725,0.005,FALSE,FALSE,NA,94.8,94.8,94.8,0,0,1,0,5,2764.8,691.2,,Idle,0,20,FALSE,5,TRUE,10,Go Home,FALSE,FALSE,FALSE,FALSE,FALSE,FALSE,FALSE,FALSE,FALSE,FALSE,FALSE,FALSE,6.974143427,79.91427136,0.7,141.7,328,TRUE,1,1,FALSE,FALSE,FALSE,FALSE,,TRUE,FALSE,FALSE,Course Lock,65.6,,16.4,Calm,29,,1.12.8,Mavic Mini,1SDCH7G0169R0K,1SFLH6Q0AB03DJ,1SRCH7F014TAHX,1U5X071EXP5ZJG,69.5,0.3,45.9,8.686709,3.131716,0,0,Mavic Mini,1SDCH7G0169R0K,1SFLH6Q0AB03DJ,1SRCH7F014TAHX,1U5X071EXP5ZJG,DJI Fly,,1.12.8,2E4D5E97-F802-BB66-83FA-688BB1344248,1SDCH7G0169R0K,,,,,6.974143256,79.91427879,5,,
2/21/2024,24:00.4,2m 57.8s,177.8,6.974145429,79.91427053,2.2,2.2,3.2,54,1.2,0,0.447388,0,0.447388,0,0,-1.789552,0,1.9,-1.9,-53.6,306.4,,Tripod,Other,,12,5,TRUE,,Mavic Mini,TRUE,FALSE,,Smart,RC,FALSE,TRUE,FALSE,,,TRUE,,FALSE,FALSE,FALSE,FALSE,FALSE,FALSE,FALSE,FALSE,FALSE,FALSE,0,Follow Yaw,0,0,-41.7,318.3,FALSE,FALSE,FALSE,FALSE,FALSE,FALSE,,TRUE,Normal,,100,1024,1024,1491,1024,2,FALSE,FALSE,FALSE,FALSE,FALSE,0,FALSE,FALSE,FALSE,FALSE,64,7.452,1308,2051,7.555,FALSE,3.727,3.725,0.005,FALSE,FALSE,NA,94.8,94.8,94.8,0,0,1,0,5,2764.8,691.2,,Idle,0,20,FALSE,5,TRUE,10,Go Home,FALSE,FALSE,FALSE,FALSE,FALSE,FALSE,FALSE,FALSE,FALSE,FALSE,FALSE,FALSE,6.974143427,79.91427136,0.7,141.7,328,TRUE,1,1,FALSE,FALSE,FALSE,FALSE,,TRUE,FALSE,FALSE,Course Lock,65.6,,16.4,Calm,29,,1.12.8,Mavic Mini,1SDCH7G0169R0K,1SFLH6Q0AB03DJ,1SRCH7F014TAHX,1U5X071EXP5ZJG,69.5,0.3,45.9,8.686709,3.131716,0,0,Mavic Mini,1SDCH7G0169R0K,1SFLH6Q0AB03DJ,1SRCH7F014TAHX,1U5X071EXP5ZJG,DJI Fly,,1.12.8,2E4D5E97-F802-BB66-83FA-688BB1344248,1SDCH7G0169R0K,,,,,6.974143256,79.91427879,5,,
2/21/2024,24:00.5,2m 57.9s,177.9,6.974145463,79.91427052,2.6,2.6,3.2,54,1.2,0,0.447388,0,0.447388,0,0,-1.789552,0,1.7,-2.3,-53.6,306.4,,Tripod,Other,,12,5,TRUE,,Mavic Mini,TRUE,FALSE,,Smart,RC,FALSE,TRUE,FALSE,,,TRUE,,FALSE,FALSE,FALSE,FALSE,FALSE,FALSE,FALSE,FALSE,FALSE,FALSE,0,Follow Yaw,0,0,-41.7,318.3,FALSE,FALSE,FALSE,FALSE,FALSE,FALSE,,TRUE,Normal,,100,1024,1024,1494,1024,2,FALSE,FALSE,FALSE,FALSE,FALSE,0,FALSE,FALSE,FALSE,FALSE,64,7.452,1308,2051,7.555,FALSE,3.727,3.725,0.005,FALSE,FALSE,NA,94.8,94.8,94.8,0,0,1,0,5,2764.8,691.2,,Idle,0,20,FALSE,5,TRUE,10,Go Home,FALSE,FALSE,FALSE,FALSE,FALSE,FALSE,FALSE,FALSE,FALSE,FALSE,FALSE,FALSE,6.974143427,79.91427136,0.8,141.7,328,TRUE,1,1,FALSE,FALSE,FALSE,FALSE,,TRUE,FALSE,FALSE,Course Lock,65.6,,16.4,Calm,29,,1.12.8,Mavic Mini,1SDCH7G0169R0K,1SFLH6Q0AB03DJ,1SRCH7F014TAHX,1U5X071EXP5ZJG,69.5,0.3,45.9,8.686709,3.131716,0,0,Mavic Mini,1SDCH7G0169R0K,1SFLH6Q0AB03DJ,1SRCH7F014TAHX,1U5X071EXP5ZJG,DJI Fly,,1.12.8,2E4D5E97-F802-BB66-83FA-688BB1344248,1SDCH7G0169R0K,,,,,6.974143256,79.91427879,5,,
2/21/2024,24:00.7,2m 58.0s,178,6.974145553,79.91427053,2.6,2.6,3.6,54,1.2,0,0.447388,0,0.447388,0,0,-2.013246,0,1.8,-2,-53.7,306.3,,Tripod,Other,,12,5,TRUE,,Mavic Mini,TRUE,FALSE,,Smart,RC,FALSE,TRUE,FALSE,,,TRUE,,FALSE,FALSE,FALSE,FALSE,FALSE,FALSE,FALSE,FALSE,FALSE,FALSE,0,Follow Yaw,0,0,-41.7,318.3,FALSE,FALSE,FALSE,FALSE,FALSE,FALSE,,TRUE,Normal,,100,1024,1024,1493,1024,2,FALSE,FALSE,FALSE,FALSE,FALSE,0,FALSE,FALSE,FALSE,FALSE,64,7.452,1308,2051,7.555,FALSE,3.727,3.725,0.005,FALSE,FALSE,NA,94.8,94.8,94.8,0,0,1,0,5,2764.8,691.2,,Idle,0,20,FALSE,5,TRUE,10,Go Home,FALSE,FALSE,FALSE,FALSE,FALSE,FALSE,FALSE,FALSE,FALSE,FALSE,FALSE,FALSE,6.974143427,79.91427136,0.8,141.7,328,TRUE,1,1,FALSE,FALSE,FALSE,FALSE,,TRUE,FALSE,FALSE,Course Lock,65.6,,16.4,Calm,29,,1.12.8,Mavic Mini,1SDCH7G0169R0K,1SFLH6Q0AB03DJ,1SRCH7F014TAHX,1U5X071EXP5ZJG,69.5,0.3,45.9,8.686709,3.131716,0,0,Mavic Mini,1SDCH7G0169R0K,1SFLH6Q0AB03DJ,1SRCH7F014TAHX,1U5X071EXP5ZJG,DJI Fly,,1.12.8,2E4D5E97-F802-BB66-83FA-688BB1344248,1SDCH7G0169R0K,,,,,6.974143256,79.91427879,5,,
2/21/2024,24:00.8,2m 58.1s,178.1,6.974145599,79.91427052,2.9,2.9,3.9,55,1.2,0,0.447388,0,0.447388,0,0,-2.013246,0,2.1,-1.8,-53.7,306.3,,Tripod,Other,,12,5,TRUE,,Mavic Mini,TRUE,FALSE,,Smart,RC,FALSE,TRUE,FALSE,,,TRUE,,FALSE,FALSE,FALSE,FALSE,FALSE,FALSE,FALSE,FALSE,FALSE,FALSE,0,Follow Yaw,0,0,-41.7,318.3,FALSE,FALSE,FALSE,FALSE,FALSE,FALSE,,TRUE,Normal,,100,1024,1024,1492,1024,2,FALSE,FALSE,FALSE,FALSE,FALSE,0,FALSE,FALSE,FALSE,FALSE,64,7.452,1308,2051,7.457,FALSE,3.727,3.725,0.005,FALSE,FALSE,NA,94.8,94.8,94.8,0,0,2,0,5,3569,892.25,,Idle,0,20,FALSE,5,TRUE,10,Go Home,FALSE,FALSE,FALSE,FALSE,FALSE,FALSE,FALSE,FALSE,FALSE,FALSE,FALSE,FALSE,6.974143427,79.91427136,0.8,141.7,328,TRUE,1,1,FALSE,FALSE,FALSE,FALSE,,TRUE,FALSE,FALSE,Course Lock,65.6,,16.4,Calm,29,,1.12.8,Mavic Mini,1SDCH7G0169R0K,1SFLH6Q0AB03DJ,1SRCH7F014TAHX,1U5X071EXP5ZJG,69.5,0.3,45.9,8.686709,3.131716,0,0,Mavic Mini,1SDCH7G0169R0K,1SFLH6Q0AB03DJ,1SRCH7F014TAHX,1U5X071EXP5ZJG,DJI Fly,,1.12.8,2E4D5E97-F802-BB66-83FA-688BB1344248,1SDCH7G0169R0K,,,,,6.974143256,79.91427879,5,,
2/21/2024,24:00.9,2m 58.2s,178.2,6.974145575,79.91427049,3.2,3.2,4.2,55,1.3,0,0.447388,0,0.447388,0,0,-2.013246,0,2.2,-1.7,-53.6,306.4,,Tripod,Other,,12,5,TRUE,,Mavic Mini,TRUE,FALSE,,Smart,RC,FALSE,TRUE,FALSE,,,TRUE,,FALSE,FALSE,FALSE,FALSE,FALSE,FALSE,FALSE,FALSE,FALSE,FALSE,0,Follow Yaw,0,0,-41.7,318.3,FALSE,FALSE,FALSE,FALSE,FALSE,FALSE,,TRUE,Normal,,100,1024,1024,1492,1024,2,FALSE,FALSE,FALSE,FALSE,FALSE,0,FALSE,FALSE,FALSE,FALSE,64,7.452,1308,2051,7.457,FALSE,3.727,3.725,0.005,FALSE,FALSE,NA,94.8,94.8,94.8,0,0,2,0,5,3569,892.25,,Idle,0,20,FALSE,5,TRUE,10,Go Home,FALSE,FALSE,FALSE,FALSE,FALSE,FALSE,FALSE,FALSE,FALSE,FALSE,FALSE,FALSE,6.974143427,79.91427136,0.8,141.7,328,TRUE,1,1,FALSE,FALSE,FALSE,FALSE,,TRUE,FALSE,FALSE,Course Lock,65.6,,16.4,Calm,29,,1.12.8,Mavic Mini,1SDCH7G0169R0K,1SFLH6Q0AB03DJ,1SRCH7F014TAHX,1U5X071EXP5ZJG,69.5,0.3,45.9,8.686709,3.131716,0,0,Mavic Mini,1SDCH7G0169R0K,1SFLH6Q0AB03DJ,1SRCH7F014TAHX,1U5X071EXP5ZJG,DJI Fly,,1.12.8,2E4D5E97-F802-BB66-83FA-688BB1344248,1SDCH7G0169R0K,,,,,6.974143256,79.91427879,5,,
2/21/2024,24:01.0,2m 58.3s,178.3,6.974145514,79.9142704,3.6,3.6,4.5,55,1.3,0,0.447388,0,0.447388,0,0,-2.013246,0,2.2,-1.5,-53.6,306.4,,Tripod,Other,,12,5,TRUE,,Mavic Mini,TRUE,FALSE,,Smart,RC,FALSE,TRUE,FALSE,,,TRUE,,FALSE,FALSE,FALSE,FALSE,FALSE,FALSE,FALSE,FALSE,FALSE,FALSE,0,Follow Yaw,0,0,-41.7,318.3,FALSE,FALSE,FALSE,FALSE,FALSE,FALSE,,TRUE,Normal,,100,1024,1024,1492,1024,2,FALSE,FALSE,FALSE,FALSE,FALSE,0,FALSE,FALSE,FALSE,FALSE,64,7.452,1308,2051,7.457,FALSE,3.727,3.725,0.005,FALSE,FALSE,NA,94.8,94.8,94.8,0,0,2,0,5,3569,892.25,,Idle,0,20,FALSE,5,TRUE,10,Go Home,FALSE,FALSE,FALSE,FALSE,FALSE,FALSE,FALSE,FALSE,FALSE,FALSE,FALSE,FALSE,6.974143427,79.91427136,0.8,141.7,328,TRUE,1,1,FALSE,FALSE,FALSE,FALSE,,TRUE,FALSE,FALSE,Course Lock,65.6,,16.4,Calm,29,,1.12.8,Mavic Mini,1SDCH7G0169R0K,1SFLH6Q0AB03DJ,1SRCH7F014TAHX,1U5X071EXP5ZJG,69.5,0.3,45.9,8.686709,3.131716,0,0,Mavic Mini,1SDCH7G0169R0K,1SFLH6Q0AB03DJ,1SRCH7F014TAHX,1U5X071EXP5ZJG,DJI Fly,,1.12.8,2E4D5E97-F802-BB66-83FA-688BB1344248,1SDCH7G0169R0K,,,,,6.974143256,79.91427879,5,,
2/21/2024,24:01.1,2m 58.4s,178.4,6.974145557,79.91427039,3.9,3.9,4.9,56,1.3,0,0.447388,0,0.447388,0,0,-2.013246,0,2,-1.8,-53.6,306.4,,Tripod,Other,,12,5,TRUE,,Mavic Mini,TRUE,FALSE,,Smart,RC,FALSE,TRUE,FALSE,,,TRUE,,FALSE,FALSE,FALSE,FALSE,FALSE,FALSE,FALSE,FALSE,FALSE,FALSE,0,Follow Yaw,0,0,-41.7,318.3,FALSE,FALSE,FALSE,FALSE,FALSE,FALSE,,TRUE,Normal,,100,1024,1024,1493,1024,2,FALSE,FALSE,FALSE,FALSE,FALSE,0,FALSE,FALSE,FALSE,FALSE,64,7.452,1308,2051,7.457,FALSE,3.727,3.725,0.005,FALSE,FALSE,NA,94.8,94.8,94.8,0,0,2,0,5,3569,892.25,,Idle,0,20,FALSE,5,TRUE,10,Go Home,FALSE,FALSE,FALSE,FALSE,FALSE,FALSE,FALSE,FALSE,FALSE,FALSE,FALSE,FALSE,6.974143427,79.91427136,0.8,141.7,328,TRUE,1,1,FALSE,FALSE,FALSE,FALSE,,TRUE,FALSE,FALSE,Course Lock,65.6,,16.4,Calm,29,,1.12.8,Mavic Mini,1SDCH7G0169R0K,1SFLH6Q0AB03DJ,1SRCH7F014TAHX,1U5X071EXP5ZJG,69.5,0.3,45.9,8.686709,3.131716,0,0,Mavic Mini,1SDCH7G0169R0K,1SFLH6Q0AB03DJ,1SRCH7F014TAHX,1U5X071EXP5ZJG,DJI Fly,,1.12.8,2E4D5E97-F802-BB66-83FA-688BB1344248,1SDCH7G0169R0K,,,,,6.974143256,79.91427879,5,,
2/21/2024,24:01.2,2m 58.5s,178.5,6.974145576,79.91427041,3.9,3.9,5.2,56,1.3,0,0.447388,0,0.447388,0,0,-2.013246,0,1.8,-2.1,-53.6,306.4,,Tripod,Other,,12,5,TRUE,,Mavic Mini,TRUE,FALSE,,Smart,RC,FALSE,TRUE,FALSE,,,TRUE,,FALSE,FALSE,FALSE,FALSE,FALSE,FALSE,FALSE,FALSE,FALSE,FALSE,0,Follow Yaw,0,0,-41.7,318.3,FALSE,FALSE,FALSE,FALSE,FALSE,FALSE,,TRUE,Normal,,100,1024,1024,1492,1024,2,FALSE,FALSE,FALSE,FALSE,FALSE,0,FALSE,FALSE,FALSE,FALSE,64,7.427,1307,2051,7.457,FALSE,3.715,3.712,0.005,FALSE,FALSE,NA,94.8,94.8,94.8,0,0,2,0,5,3569,892.25,,Idle,0,20,FALSE,5,TRUE,10,Go Home,FALSE,FALSE,FALSE,FALSE,FALSE,FALSE,FALSE,FALSE,FALSE,FALSE,FALSE,FALSE,6.974143427,79.91427136,0.8,141.7,328,TRUE,1,1,FALSE,FALSE,FALSE,FALSE,,TRUE,FALSE,FALSE,Course Lock,65.6,,16.4,Calm,29,,1.12.8,Mavic Mini,1SDCH7G0169R0K,1SFLH6Q0AB03DJ,1SRCH7F014TAHX,1U5X071EXP5ZJG,69.5,0.3,45.9,8.686709,3.131716,0,0,Mavic Mini,1SDCH7G0169R0K,1SFLH6Q0AB03DJ,1SRCH7F014TAHX,1U5X071EXP5ZJG,DJI Fly,,1.12.8,2E4D5E97-F802-BB66-83FA-688BB1344248,1SDCH7G0169R0K,,,,,6.974143256,79.91427879,5,,
2/21/2024,24:01.3,2m 58.6s,178.6,6.974145559,79.91427047,4.2,4.2,5.5,56,1.4,0,0.447388,0,0.447388,0,0,-2.013246,0,1.8,-1.9,-53.6,306.4,,Tripod,Other,,12,5,TRUE,,Mavic Mini,TRUE,FALSE,,Smart,RC,FALSE,TRUE,FALSE,,,TRUE,,FALSE,FALSE,FALSE,FALSE,FALSE,FALSE,FALSE,FALSE,FALSE,FALSE,0,Follow Yaw,0,0,-41.7,318.3,FALSE,FALSE,FALSE,FALSE,FALSE,FALSE,,TRUE,Normal,,100,1024,1024,1490,1024,2,FALSE,FALSE,FALSE,FALSE,FALSE,0,FALSE,FALSE,FALSE,FALSE,64,7.427,1307,2051,7.457,FALSE,3.715,3.712,0.005,FALSE,FALSE,NA,94.8,94.8,94.8,0,0,2,0,5,3569,892.25,,Idle,0,20,FALSE,5,TRUE,10,Go Home,FALSE,FALSE,FALSE,FALSE,FALSE,FALSE,FALSE,FALSE,FALSE,FALSE,FALSE,FALSE,6.974143427,79.91427136,0.8,141.7,328,TRUE,1,1,FALSE,FALSE,FALSE,FALSE,,TRUE,FALSE,FALSE,Course Lock,65.6,,16.4,Calm,29,,1.12.8,Mavic Mini,1SDCH7G0169R0K,1SFLH6Q0AB03DJ,1SRCH7F014TAHX,1U5X071EXP5ZJG,69.5,0.3,45.9,8.686709,3.131716,0,0,Mavic Mini,1SDCH7G0169R0K,1SFLH6Q0AB03DJ,1SRCH7F014TAHX,1U5X071EXP5ZJG,DJI Fly,,1.12.8,2E4D5E97-F802-BB66-83FA-688BB1344248,1SDCH7G0169R0K,,,,,6.974143256,79.91427879,5,,
2/21/2024,24:01.4,2m 58.7s,178.7,6.974145473,79.91427062,4.5,4.5,5.9,56,1.4,0,0.447388,0,0.447388,0,0,-2.013246,0,1.6,-1.6,-53.6,306.4,,Tripod,Other,,12,5,TRUE,,Mavic Mini,TRUE,FALSE,,Smart,RC,FALSE,TRUE,FALSE,,,TRUE,,FALSE,FALSE,FALSE,FALSE,FALSE,FALSE,FALSE,FALSE,FALSE,FALSE,0,Follow Yaw,0,0,-41.7,318.3,FALSE,FALSE,FALSE,FALSE,FALSE,FALSE,,TRUE,Normal,,100,1024,1024,1490,1024,2,FALSE,FALSE,FALSE,FALSE,FALSE,0,FALSE,FALSE,FALSE,FALSE,64,7.427,1307,2051,7.457,FALSE,3.715,3.712,0.005,FALSE,FALSE,NA,94.8,94.8,94.8,0,0,2,0,5,3569,892.25,,Idle,0,20,FALSE,5,TRUE,10,Go Home,FALSE,FALSE,FALSE,FALSE,FALSE,FALSE,FALSE,FALSE,FALSE,FALSE,FALSE,FALSE,6.974143427,79.91427136,0.7,141.7,328,TRUE,1,1,FALSE,FALSE,FALSE,FALSE,,TRUE,FALSE,FALSE,Course Lock,65.6,,16.4,Calm,29,,1.12.8,Mavic Mini,1SDCH7G0169R0K,1SFLH6Q0AB03DJ,1SRCH7F014TAHX,1U5X071EXP5ZJG,69.5,0.3,45.9,8.686709,3.131716,0,0,Mavic Mini,1SDCH7G0169R0K,1SFLH6Q0AB03DJ,1SRCH7F014TAHX,1U5X071EXP5ZJG,DJI Fly,,1.12.8,2E4D5E97-F802-BB66-83FA-688BB1344248,1SDCH7G0169R0K,,,,,6.974143256,79.91427879,5,,
2/21/2024,24:01.4,2m 58.8s,178.8,6.974145332,79.91427064,4.9,4.9,6.2,57,1.5,0,0.447388,0,0.447388,0,0,-2.013246,0,1.9,-1.4,-53.6,306.4,,Tripod,Other,,12,5,TRUE,,Mavic Mini,TRUE,FALSE,,Smart,RC,FALSE,TRUE,FALSE,,,TRUE,,FALSE,FALSE,FALSE,FALSE,FALSE,FALSE,FALSE,FALSE,FALSE,FALSE,0,Follow Yaw,0,0,-41.7,318.3,FALSE,FALSE,FALSE,FALSE,FALSE,FALSE,,TRUE,Normal,,100,1024,1024,1490,1024,2,FALSE,FALSE,FALSE,FALSE,FALSE,0,FALSE,FALSE,FALSE,FALSE,64,7.427,1307,2051,7.457,FALSE,3.715,3.712,0.005,FALSE,FALSE,NA,94.8,94.8,94.8,0,0,2,0,5,3569,892.25,,Idle,0,20,FALSE,5,TRUE,10,Go Home,FALSE,FALSE,FALSE,FALSE,FALSE,FALSE,FALSE,FALSE,FALSE,FALSE,FALSE,FALSE,6.974143427,79.91427136,0.7,141.7,328,TRUE,1,1,FALSE,FALSE,FALSE,FALSE,,TRUE,FALSE,FALSE,Course Lock,65.6,,16.4,Calm,29,,1.12.8,Mavic Mini,1SDCH7G0169R0K,1SFLH6Q0AB03DJ,1SRCH7F014TAHX,1U5X071EXP5ZJG,69.5,0.3,45.9,8.686709,3.131716,0,0,Mavic Mini,1SDCH7G0169R0K,1SFLH6Q0AB03DJ,1SRCH7F014TAHX,1U5X071EXP5ZJG,DJI Fly,,1.12.8,2E4D5E97-F802-BB66-83FA-688BB1344248,1SDCH7G0169R0K,,,,,6.974143256,79.91427879,5,,
2/21/2024,24:01.5,2m 58.9s,178.9,6.974145288,79.91427061,5.2,5.2,6.5,57,1.5,0,0.447388,0,0.447388,0,0,-2.013246,0,1.9,-1.2,-53.6,306.4,,Tripod,Other,,12,5,TRUE,,Mavic Mini,TRUE,FALSE,,Smart,RC,FALSE,TRUE,FALSE,,,TRUE,,FALSE,FALSE,FALSE,FALSE,FALSE,FALSE,FALSE,FALSE,FALSE,FALSE,0,Follow Yaw,0,0,-41.7,318.3,FALSE,FALSE,FALSE,FALSE,FALSE,FALSE,,TRUE,Normal,,100,1024,1024,1488,1024,2,FALSE,FALSE,FALSE,FALSE,FALSE,0,FALSE,FALSE,FALSE,FALSE,64,7.427,1307,2051,7.457,FALSE,3.715,3.712,0.005,FALSE,FALSE,NA,94.8,94.8,94.8,0,0,2,0,5,3569,892.25,,Idle,0,20,FALSE,5,TRUE,10,Go Home,FALSE,FALSE,FALSE,FALSE,FALSE,FALSE,FALSE,FALSE,FALSE,FALSE,FALSE,FALSE,6.974143427,79.91427136,0.7,141.7,328,TRUE,1,1,FALSE,FALSE,FALSE,FALSE,,TRUE,FALSE,FALSE,Course Lock,65.6,,16.4,Calm,29,,1.12.8,Mavic Mini,1SDCH7G0169R0K,1SFLH6Q0AB03DJ,1SRCH7F014TAHX,1U5X071EXP5ZJG,69.5,0.3,45.9,8.686709,3.131716,0,0,Mavic Mini,1SDCH7G0169R0K,1SFLH6Q0AB03DJ,1SRCH7F014TAHX,1U5X071EXP5ZJG,DJI Fly,,1.12.8,2E4D5E97-F802-BB66-83FA-688BB1344248,1SDCH7G0169R0K,,,,,6.974143256,79.91427879,5,,
