CUSTOM.date [local],CUSTOM.updateTime [local],OSD.flyTime,OSD.flyTime [s],OSD.latitude,OSD.longitude,OSD.height [ft],OSD.heightMax [ft],OSD.vpsHeight [ft],OSD.altitude [ft],OSD.mileage [ft],OSD.hSpeed [MPH],OSD.hSpeedMax [MPH],OSD.xSpeed [MPH],OSD.xSpeedMax [MPH],OSD.ySpeed [MPH],OSD.ySpeedMax [MPH],OSD.zSpeed [MPH],OSD.zSpeedMax [MPH],OSD.pitch,OSD.roll,OSD.yaw,OSD.yaw [360],OSD.directionOfTravel,OSD.flycState,OSD.flycCommand,OSD.flightAction,OSD.gpsNum,OSD.gpsLevel,OSD.isGPSUsed,OSD.nonGPSCause,OSD.droneType,OSD.isSwaveWork,OSD.waveError,OSD.goHomeStatus,OSD.batteryType,OSD.ctrlDevice,OSD.isOnGround,OSD.isMotorOn,OSD.isMotorBlocked,OSD.motorStartFailedCause,OSD.motorFailReason,OSD.isImuPreheated,OSD.imuInitFailReason,OSD.isAcceletorOverRange,OSD.isBarometerDeadInAir,OSD.isCompassError,OSD.isGoHomeHeightModified,OSD.canIOCWork,OSD.isNotEnoughForce,OSD.isOutOfLimit,OSD.isPropellerCatapult,OSD.isVibrating,OSD.isVisionUsed,OSD.voltageWarning,GIMBAL.mode,GIMBAL.pitch,GIMBAL.roll,GIMBAL.yaw,GIMBAL.yaw [360],GIMBAL.isPitchAtLimit,GIMBAL.isRollAtLimit,GIMBAL.isYawAtLimit,GIMBAL.isStuck,CAMERA.isPhoto,CAMERA.isVideo,CAMERA.filename,CAMERA.sdCardIsInserted,CAMERA.sdCardState,RC.downlinkSignal,RC.uplinkSignal,RC.aileron,RC.elevator,RC.throttle,RC.rudder,RC.mode,RC.goHomeDepressed,RC.recordDepressed,RC.shutterDepressed,RC.playbackDepressed,RC.wheelDepressed,RC.wheelOffset,RC.custom1Depressed,RC.custom2Depressed,RC.custom3Depressed,RC.custom4Depressed,BATTERY.chargeLevel,BATTERY.currentPV [V],BATTERY.currentCapacity [mAh],BATTERY.fullCapacity [mAh],BATTERY.voltage [V],BATTERY.isCellVoltageEstimated,BATTERY.cellVoltage1 [V],BATTERY.cellVoltage2 [V],BATTERY.maxCellVoltageDeviation,BATTERY.isCellVoltageDeviationHigh,BATTERY.isVoltageLow,BATTERY.current [A],BATTERY.temperature [F],BATTERY.minTemperature [F],BATTERY.maxTemperature [F],BATTERY.usefulTime [s],BATTERY.goHomeTime [s],BATTERY.landTime [s],BATTERY.goHomeBattery,BATTERY.landBattery,BATTERY.safeFlyRadius,BATTERY.volumeConsume,BATTERY.status,BATTERY.goHomeStatus,BATTERY.goHomeCountdown,BATTERY.lowWarning,BATTERY.lowWarningGoHome,BATTERY.seriousLowWarning,BATTERY.seriousLowWarningLanding,BATTERY.timesCharged,MC.failSafeAction,MC.isObstacleAvoidanceEnabled,MC.isCollisionAvoidanceEnabled,MC.isRthObstacleAvoidanceEnabled,MC.isBraking,MC.isAvoidingObstacle,MC.isAvoidingActiveObstacle,MC.isAscentLimitedByObstacle,MC.isLandingConfirmationNeeded,MC.atLowAltitudeLimit,MC.atDistanceLimit,MC.atAirportAltitudeLimit,MC.atAirportBoundary,HOME.latitude,HOME.longitude,HOME.distance [ft],HOME.height [ft],HOME.heightLimit [ft],HOME.isHomeRecord,HOME.goHomeMode,HOME.aircraftHeadDirection,HOME.isDynamicHomePointEnabled,HOME.isReachedLimitDistance,HOME.isReachedLimitHeight,HOME.isCompassCalibrating,HOME.compassCalibrationState,HOME.isMultipleFlightModeEnabled,HOME.isBeginnerMode,HOME.isIOCEnabled,HOME.iocMode,HOME.goHomeHeight [ft],HOME.courseLockAngle,HOME.forceLandingHeight [ft],HOME.wind,HOME.dataRecorderFileIndex,RECOVER.appType,RECOVER.appVersion,RECOVER.aircraftName,RECOVER.aircraftSerial,RECOVER.cameraSerial,RECOVER.rcSerial,RECOVER.batterySerial,DETAILS.totalTime [s],DETAILS.totalDistance [ft],DETAILS.maxHeight [ft],DETAILS.maxHorizontalSpeed [MPH],DETAILS.maxVerticalSpeed [MPH],DETAILS.photoNum,DETAILS.videoTime [s],DETAILS.aircraftName,DETAILS.aircraftSerial,DETAILS.cameraSerial,DETAILS.rcSerial,DETAILS.batterySerial,DETAILS.appName,DETAILS.appType,DETAILS.appVersion,DETAILS.guid,SERIAL.flightController,SERIAL.camera,SERIAL.gimbal,SERIAL.rc,SERIAL.battery,APPGPS.latitude,APPGPS.longitude,APPGPS.accuracy,APP.tip,APP.warning
2/27/2024,12:26.9,5m 2.4s,302.4,6.974625885,79.91439274,0,0,,52,0,0,0,0,0,0,0,0,0,5.4,-1.2,28,28,,Starting Motors,Other,Takeoff (RC Assisted),14,4,TRUE,,Mavic Mini,FALSE,FALSE,,Smart,RC,TRUE,TRUE,FALSE,,,TRUE,,FALSE,FALSE,FALSE,FALSE,FALSE,FALSE,FALSE,FALSE,FALSE,FALSE,0,Follow Yaw,0,0,26.5,26.5,FALSE,FALSE,FALSE,FALSE,FALSE,FALSE,,TRUE,Normal,,,1024,1024,1024,1024,,FALSE,FALSE,FALSE,FALSE,FALSE,0,FALSE,FALSE,FALSE,FALSE,77,7.885,1587,2063,7.885,TRUE,3.943,3.943,,FALSE,FALSE,NA,105.3,105.2,105.2,,,,,,,,,Idle,,,TRUE,,FALSE,6,Go Home,FALSE,FALSE,FALSE,FALSE,FALSE,FALSE,FALSE,FALSE,FALSE,FALSE,FALSE,FALSE,,,,,,FALSE,,,FALSE,FALSE,FALSE,FALSE,,FALSE,FALSE,FALSE,,,,,Calm,,,1.12.8,Mavic Mini,1SDCH7G0169R0K,1SFLH6Q0AB03DJ,1SRCH7F014TAHX,1U5X071EXP6C9Y,59.5,0.2,19.6,9.90338,4.026492,0,374,Mavic Mini,1SDCH7G0169R0K,1SFLH6Q0AB03DJ,1SRCH7F014TAHX,1U5X071EXP6C9Y,DJI Fly,,1.12.8,4E0D8A0E-693A-B302-A39F-8E30B2387793,1SDCH7G0169R0K,,,,,,,,Flight mode changed to Starting Motors.,
2/27/2024,07:24.6,5m 2.5s,302.5,6.974625849,79.9143928,0,0,,52,0,0,0,0,0,0,0,0,0,5.4,-1.2,28,28,,Starting Motors,Other,Takeoff (RC Assisted),14,4,TRUE,,Mavic Mini,FALSE,FALSE,,Smart,RC,TRUE,TRUE,FALSE,,,TRUE,,FALSE,FALSE,FALSE,FALSE,FALSE,FALSE,FALSE,FALSE,FALSE,FALSE,0,Follow Yaw,0,0,26.5,26.5,FALSE,FALSE,FALSE,FALSE,FALSE,FALSE,,TRUE,Normal,,,1024,1024,1024,1024,1,FALSE,FALSE,FALSE,FALSE,FALSE,0,FALSE,FALSE,FALSE,FALSE,77,7.885,1587,2063,7.885,TRUE,3.943,3.943,,FALSE,FALSE,NA,105.3,105.2,105.2,,,,,,,,,Idle,,,TRUE,,FALSE,6,Go Home,FALSE,FALSE,FALSE,FALSE,FALSE,FALSE,FALSE,FALSE,FALSE,FALSE,FALSE,FALSE,,,,,,FALSE,,,FALSE,FALSE,FALSE,FALSE,,FALSE,FALSE,FALSE,,,,,Calm,,,1.12.8,Mavic Mini,1SDCH7G0169R0K,1SFLH6Q0AB03DJ,1SRCH7F014TAHX,1U5X071EXP6C9Y,59.5,0.2,19.6,9.90338,4.026492,0,374,Mavic Mini,1SDCH7G0169R0K,1SFLH6Q0AB03DJ,1SRCH7F014TAHX,1U5X071EXP6C9Y,DJI Fly,,1.12.8,4E0D8A0E-693A-B302-A39F-8E30B2387793,1SDCH7G0169R0K,,,,,,,,,
2/27/2024,07:24.7,5m 2.6s,302.6,6.974625827,79.91439288,0,0,0.3,52,0,0,0,0,0,0,0,0,0,5.4,-1.2,28,28,,Starting Motors,Other,Takeoff (RC Assisted),14,4,TRUE,,Mavic Mini,TRUE,FALSE,,Smart,RC,TRUE,TRUE,FALSE,,,TRUE,,FALSE,FALSE,FALSE,FALSE,FALSE,FALSE,FALSE,FALSE,FALSE,FALSE,0,Follow Yaw,0,0,26.5,26.5,FALSE,FALSE,FALSE,FALSE,FALSE,FALSE,,TRUE,Normal,,,1024,1024,1024,1024,1,FALSE,FALSE,FALSE,FALSE,FALSE,0,FALSE,FALSE,FALSE,FALSE,77,7.885,1587,2063,7.885,TRUE,3.943,3.943,,FALSE,FALSE,NA,105.3,105.2,105.2,,,,,,,,,Idle,,,TRUE,,FALSE,6,Go Home,FALSE,FALSE,FALSE,FALSE,FALSE,FALSE,FALSE,FALSE,FALSE,FALSE,FALSE,FALSE,,,,,,FALSE,,,FALSE,FALSE,FALSE,FALSE,,FALSE,FALSE,FALSE,,,,,Calm,,,1.12.8,Mavic Mini,1SDCH7G0169R0K,1SFLH6Q0AB03DJ,1SRCH7F014TAHX,1U5X071EXP6C9Y,59.5,0.2,19.6,9.90338,4.026492,0,374,Mavic Mini,1SDCH7G0169R0K,1SFLH6Q0AB03DJ,1SRCH7F014TAHX,1U5X071EXP6C9Y,DJI Fly,,1.12.8,4E0D8A0E-693A-B302-A39F-8E30B2387793,1SDCH7G0169R0K,,,,,,,,,
2/27/2024,07:24.7,5m 2.7s,302.7,6.974625786,79.91439292,0,0,0.3,52,0,0,0,0,0,0,0,0,0,5.4,-1.2,28,28,,Starting Motors,Other,Takeoff (RC Assisted),14,4,TRUE,,Mavic Mini,TRUE,FALSE,,Smart,RC,TRUE,TRUE,FALSE,,,TRUE,,FALSE,FALSE,FALSE,FALSE,FALSE,FALSE,FALSE,FALSE,FALSE,FALSE,0,Follow Yaw,0,0,26.5,26.5,FALSE,FALSE,FALSE,FALSE,FALSE,FALSE,,TRUE,Normal,,100,1024,1024,1024,1024,1,FALSE,FALSE,FALSE,FALSE,FALSE,0,FALSE,FALSE,FALSE,FALSE,77,7.885,1587,2063,7.885,TRUE,3.943,3.943,,FALSE,FALSE,NA,105.3,105.2,105.2,,,,,,,,,Idle,,,TRUE,,FALSE,6,Go Home,FALSE,FALSE,FALSE,FALSE,FALSE,FALSE,FALSE,FALSE,FALSE,FALSE,FALSE,FALSE,,,,,,FALSE,,,FALSE,FALSE,FALSE,FALSE,,FALSE,FALSE,FALSE,,,,,Calm,,,1.12.8,Mavic Mini,1SDCH7G0169R0K,1SFLH6Q0AB03DJ,1SRCH7F014TAHX,1U5X071EXP6C9Y,59.5,0.2,19.6,9.90338,4.026492,0,374,Mavic Mini,1SDCH7G0169R0K,1SFLH6Q0AB03DJ,1SRCH7F014TAHX,1U5X071EXP6C9Y,DJI Fly,,1.12.8,4E0D8A0E-693A-B302-A39F-8E30B2387793,1SDCH7G0169R0K,,,,,,,,,
2/27/2024,07:24.8,5m 2.8s,302.8,6.974625665,79.9143932,0,0,0.3,52,0.1,0,0,0,0,0,0,0,0,5.5,-1.4,28,28,,Starting Motors,Other,Takeoff (RC Assisted),14,4,TRUE,,Mavic Mini,TRUE,FALSE,,Smart,RC,TRUE,TRUE,FALSE,,,TRUE,,FALSE,FALSE,FALSE,FALSE,FALSE,FALSE,FALSE,FALSE,FALSE,FALSE,0,Follow Yaw,0,0,26.5,26.5,FALSE,FALSE,FALSE,FALSE,FALSE,FALSE,,TRUE,Normal,,100,1024,1024,1024,1024,1,FALSE,FALSE,FALSE,FALSE,FALSE,0,FALSE,FALSE,FALSE,FALSE,77,7.885,1587,2063,7.885,TRUE,3.943,3.943,,FALSE,FALSE,NA,105.3,105.2,105.2,,,,,,,,,Idle,,,TRUE,,FALSE,6,Go Home,FALSE,FALSE,FALSE,FALSE,FALSE,FALSE,FALSE,FALSE,FALSE,FALSE,FALSE,FALSE,,,,,,FALSE,,,FALSE,FALSE,FALSE,FALSE,,FALSE,FALSE,FALSE,,,,,Calm,,,1.12.8,Mavic Mini,1SDCH7G0169R0K,1SFLH6Q0AB03DJ,1SRCH7F014TAHX,1U5X071EXP6C9Y,59.5,0.2,19.6,9.90338,4.026492,0,374,Mavic Mini,1SDCH7G0169R0K,1SFLH6Q0AB03DJ,1SRCH7F014TAHX,1U5X071EXP6C9Y,DJI Fly,,1.12.8,4E0D8A0E-693A-B302-A39F-8E30B2387793,1SDCH7G0169R0K,,,,,,,,,
2/27/2024,07:25.0,5m 2.9s,302.9,6.974625645,79.91439321,0,0,0.3,52,0.1,0,0,0,0,0,0,0,0,5.5,-1.2,28,28,,Starting Motors,Other,Takeoff (RC Assisted),14,4,TRUE,,Mavic Mini,TRUE,FALSE,,Smart,RC,TRUE,TRUE,FALSE,,,TRUE,,FALSE,FALSE,FALSE,FALSE,FALSE,FALSE,FALSE,FALSE,FALSE,FALSE,0,Follow Yaw,0,0,26.5,26.5,FALSE,FALSE,FALSE,FALSE,FALSE,FALSE,,TRUE,Normal,,100,1024,1024,1024,1024,1,FALSE,FALSE,FALSE,FALSE,FALSE,0,FALSE,FALSE,FALSE,FALSE,77,7.885,1587,2063,7.867,TRUE,3.934,3.934,,FALSE,FALSE,NA,105.3,105.2,105.2,0,29,0,18,5,2562.7,640.67,,Idle,0,20,FALSE,5,TRUE,6,Go Home,FALSE,FALSE,FALSE,FALSE,FALSE,FALSE,FALSE,FALSE,FALSE,FALSE,FALSE,FALSE,6.974172497,79.91451603,171.1,181.3,328,TRUE,1,1,FALSE,FALSE,FALSE,FALSE,,TRUE,FALSE,FALSE,Course Lock,49.2,254.5,16.4,Calm,39,,1.12.8,Mavic Mini,1SDCH7G0169R0K,1SFLH6Q0AB03DJ,1SRCH7F014TAHX,1U5X071EXP6C9Y,59.5,0.2,19.6,9.90338,4.026492,0,374,Mavic Mini,1SDCH7G0169R0K,1SFLH6Q0AB03DJ,1SRCH7F014TAHX,1U5X071EXP6C9Y,DJI Fly,,1.12.8,4E0D8A0E-693A-B302-A39F-8E30B2387793,1SDCH7G0169R0K,,,,,,,,Data Recorder File Index is 39.; Set Return to Home (RTH) altitude to 15 m (49 ft).; Set maximum flight altitude to 100 m (328 ft).,
2/27/2024,07:25.2,5m 3.0s,303,6.974625637,79.9143932,0,0,0.3,52,0.1,0,0,0,0,0,0,0,0,5.4,-1.2,27.9,27.9,,Starting Motors,Other,Takeoff (RC Assisted),14,4,TRUE,,Mavic Mini,TRUE,FALSE,,Smart,RC,TRUE,TRUE,FALSE,,,TRUE,,FALSE,FALSE,FALSE,FALSE,FALSE,FALSE,FALSE,FALSE,FALSE,FALSE,0,Follow Yaw,0,0,26.5,26.5,FALSE,FALSE,FALSE,FALSE,FALSE,FALSE,,TRUE,Normal,,100,1024,1024,1024,1024,1,FALSE,FALSE,FALSE,FALSE,FALSE,0,FALSE,FALSE,FALSE,FALSE,77,7.885,1587,2063,7.867,TRUE,3.934,3.934,,FALSE,FALSE,NA,105.3,105.2,105.2,0,29,0,18,5,2562.7,640.67,,Idle,0,20,FALSE,5,TRUE,6,Go Home,FALSE,FALSE,FALSE,FALSE,FALSE,FALSE,FALSE,FALSE,FALSE,FALSE,FALSE,FALSE,6.974172497,79.91451603,171.1,181.3,328,TRUE,1,1,FALSE,FALSE,FALSE,FALSE,,TRUE,FALSE,FALSE,Course Lock,49.2,254.5,16.4,Calm,39,,1.12.8,Mavic Mini,1SDCH7G0169R0K,1SFLH6Q0AB03DJ,1SRCH7F014TAHX,1U5X071EXP6C9Y,59.5,0.2,19.6,9.90338,4.026492,0,374,Mavic Mini,1SDCH7G0169R0K,1SFLH6Q0AB03DJ,1SRCH7F014TAHX,1U5X071EXP6C9Y,DJI Fly,,1.12.8,4E0D8A0E-693A-B302-A39F-8E30B2387793,1SDCH7G0169R0K,,,,,,,,,
2/27/2024,07:25.2,5m 3.1s,303.1,6.974625642,79.91439316,0,0,0.3,52,0.1,0,0,0,0,0,0,0,0,5.4,-1.3,27.9,27.9,,Starting Motors,Other,Takeoff (RC Assisted),14,4,TRUE,,Mavic Mini,TRUE,FALSE,,Smart,RC,TRUE,TRUE,FALSE,,,TRUE,,FALSE,FALSE,FALSE,FALSE,FALSE,FALSE,FALSE,FALSE,FALSE,FALSE,0,Follow Yaw,0,0,26.5,26.5,FALSE,FALSE,FALSE,FALSE,FALSE,FALSE,,TRUE,Normal,,100,1024,1024,1024,1024,1,FALSE,FALSE,FALSE,FALSE,FALSE,0,FALSE,FALSE,FALSE,FALSE,77,7.885,1587,2063,7.867,TRUE,3.934,3.934,,FALSE,FALSE,NA,105.3,105.2,105.2,0,29,0,18,5,2562.7,640.67,,Idle,0,20,FALSE,5,TRUE,6,Go Home,FALSE,FALSE,FALSE,FALSE,FALSE,FALSE,FALSE,FALSE,FALSE,FALSE,FALSE,FALSE,6.974172497,79.91451603,171.1,181.3,328,TRUE,1,1,FALSE,FALSE,FALSE,FALSE,,TRUE,FALSE,FALSE,Course Lock,49.2,254.5,16.4,Calm,39,,1.12.8,Mavic Mini,1SDCH7G0169R0K,1SFLH6Q0AB03DJ,1SRCH7F014TAHX,1U5X071EXP6C9Y,59.5,0.2,19.6,9.90338,4.026492,0,374,Mavic Mini,1SDCH7G0169R0K,1SFLH6Q0AB03DJ,1SRCH7F014TAHX,1U5X071EXP6C9Y,DJI Fly,,1.12.8,4E0D8A0E-693A-B302-A39F-8E30B2387793,1SDCH7G0169R0K,,,,,,,,,
2/27/2024,07:25.3,5m 3.2s,303.2,6.974625725,79.91439301,0,0,0.3,52,0.2,0,0,0,0,0,0,0,0,5.3,-1.3,27.9,27.9,,Starting Motors,Other,Takeoff (RC Assisted),14,4,TRUE,,Mavic Mini,TRUE,FALSE,,Smart,RC,TRUE,TRUE,FALSE,,,TRUE,,FALSE,FALSE,FALSE,FALSE,FALSE,FALSE,FALSE,FALSE,FALSE,FALSE,0,Follow Yaw,0,0,26.5,26.5,FALSE,FALSE,FALSE,FALSE,FALSE,FALSE,,TRUE,Normal,,100,1024,1024,1024,1024,1,FALSE,FALSE,FALSE,FALSE,FALSE,0,FALSE,FALSE,FALSE,FALSE,77,7.885,1587,2063,7.867,TRUE,3.934,3.934,,FALSE,FALSE,NA,105.3,105.2,105.2,0,29,0,18,5,2562.7,640.67,,Idle,0,20,FALSE,5,TRUE,6,Go Home,FALSE,FALSE,FALSE,FALSE,FALSE,FALSE,FALSE,FALSE,FALSE,FALSE,FALSE,FALSE,6.974172497,79.91451603,171.2,181.3,328,TRUE,1,1,FALSE,FALSE,FALSE,FALSE,,TRUE,FALSE,FALSE,Course Lock,49.2,254.5,16.4,Calm,39,,1.12.8,Mavic Mini,1SDCH7G0169R0K,1SFLH6Q0AB03DJ,1SRCH7F014TAHX,1U5X071EXP6C9Y,59.5,0.2,19.6,9.90338,4.026492,0,374,Mavic Mini,1SDCH7G0169R0K,1SFLH6Q0AB03DJ,1SRCH7F014TAHX,1U5X071EXP6C9Y,DJI Fly,,1.12.8,4E0D8A0E-693A-B302-A39F-8E30B2387793,1SDCH7G0169R0K,,,,,,,,,
2/27/2024,07:25.4,5m 3.3s,303.3,6.974625771,79.91439297,0,0,0.3,52,0.2,0,0,0,0,0,0,0,0,5.4,-1.3,27.8,27.8,,Starting Motors,Other,Takeoff (RC Assisted),14,4,TRUE,,Mavic Mini,TRUE,FALSE,,Smart,RC,TRUE,TRUE,FALSE,,,TRUE,,FALSE,FALSE,FALSE,FALSE,FALSE,FALSE,FALSE,FALSE,FALSE,FALSE,0,Follow Yaw,0,0,26.5,26.5,FALSE,FALSE,FALSE,FALSE,FALSE,FALSE,,TRUE,Normal,,100,1024,1024,1033,1024,1,FALSE,FALSE,FALSE,FALSE,FALSE,0,FALSE,FALSE,FALSE,FALSE,77,7.859,1587,2063,7.867,FALSE,3.929,3.931,0.002,FALSE,FALSE,NA,105.3,105.2,105.2,0,29,0,18,5,2562.7,640.67,,Idle,0,20,FALSE,5,TRUE,6,Go Home,FALSE,FALSE,FALSE,FALSE,FALSE,FALSE,FALSE,FALSE,FALSE,FALSE,FALSE,FALSE,6.974172497,79.91451603,171.2,181.3,328,TRUE,1,1,FALSE,FALSE,FALSE,FALSE,,TRUE,FALSE,FALSE,Course Lock,49.2,254.5,16.4,Calm,39,,1.12.8,Mavic Mini,1SDCH7G0169R0K,1SFLH6Q0AB03DJ,1SRCH7F014TAHX,1U5X071EXP6C9Y,59.5,0.2,19.6,9.90338,4.026492,0,374,Mavic Mini,1SDCH7G0169R0K,1SFLH6Q0AB03DJ,1SRCH7F014TAHX,1U5X071EXP6C9Y,DJI Fly,,1.12.8,4E0D8A0E-693A-B302-A39F-8E30B2387793,1SDCH7G0169R0K,,,,,,,,,
2/27/2024,07:25.5,5m 3.4s,303.4,6.974625833,79.91439294,0,0,0.3,52,0.2,0,0,0,0,0,0,0,0,5.4,-1.3,27.8,27.8,,Starting Motors,Other,Takeoff (RC Assisted),14,4,TRUE,,Mavic Mini,TRUE,FALSE,,Smart,RC,TRUE,TRUE,FALSE,,,TRUE,,FALSE,FALSE,FALSE,FALSE,FALSE,FALSE,FALSE,FALSE,FALSE,FALSE,0,Follow Yaw,0,0,26.5,26.5,FALSE,FALSE,FALSE,FALSE,FALSE,FALSE,,TRUE,Normal,,100,1024,1024,1152,1024,1,FALSE,FALSE,FALSE,FALSE,FALSE,0,FALSE,FALSE,FALSE,FALSE,77,7.859,1587,2063,7.867,FALSE,3.929,3.931,0.002,FALSE,FALSE,NA,105.3,105.2,105.2,0,29,0,18,5,2562.7,640.67,,Idle,0,20,FALSE,5,TRUE,6,Go Home,FALSE,FALSE,FALSE,FALSE,FALSE,FALSE,FALSE,FALSE,FALSE,FALSE,FALSE,FALSE,6.974172497,79.91451603,171.2,181.3,328,TRUE,1,1,FALSE,FALSE,FALSE,FALSE,,TRUE,FALSE,FALSE,Course Lock,49.2,254.5,16.4,Calm,39,,1.12.8,Mavic Mini,1SDCH7G0169R0K,1SFLH6Q0AB03DJ,1SRCH7F014TAHX,1U5X071EXP6C9Y,59.5,0.2,19.6,9.90338,4.026492,0,374,Mavic Mini,1SDCH7G0169R0K,1SFLH6Q0AB03DJ,1SRCH7F014TAHX,1U5X071EXP6C9Y,DJI Fly,,1.12.8,4E0D8A0E-693A-B302-A39F-8E30B2387793,1SDCH7G0169R0K,,,,,,,,,
2/27/2024,07:25.6,5m 3.5s,303.5,6.974625867,79.91439288,0,0,0.3,52,0.3,0,0,0,0,0,0,0,0,5.3,-1.2,27.9,27.9,,Manual Takeoff,Other,Takeoff (RC Assisted),14,4,TRUE,,Mavic Mini,TRUE,FALSE,,Smart,RC,TRUE,TRUE,FALSE,,,TRUE,,FALSE,FALSE,FALSE,FALSE,FALSE,FALSE,FALSE,FALSE,FALSE,FALSE,0,Follow Yaw,0,0,26.5,26.5,FALSE,FALSE,FALSE,FALSE,FALSE,FALSE,,TRUE,Normal,,100,1024,1024,1152,1024,1,FALSE,FALSE,FALSE,FALSE,FALSE,0,FALSE,FALSE,FALSE,FALSE,77,7.859,1587,2063,7.867,FALSE,3.929,3.931,0.002,FALSE,FALSE,NA,105.3,105.2,105.2,0,29,0,18,5,2562.7,640.67,,Idle,0,20,FALSE,5,TRUE,6,Go Home,FALSE,FALSE,FALSE,FALSE,FALSE,FALSE,FALSE,FALSE,FALSE,FALSE,FALSE,FALSE,6.974172497,79.91451603,171.3,181.3,328,TRUE,1,1,FALSE,FALSE,FALSE,FALSE,,TRUE,FALSE,FALSE,Course Lock,49.2,254.5,16.4,Calm,39,,1.12.8,Mavic Mini,1SDCH7G0169R0K,1SFLH6Q0AB03DJ,1SRCH7F014TAHX,1U5X071EXP6C9Y,59.5,0.2,19.6,9.90338,4.026492,0,374,Mavic Mini,1SDCH7G0169R0K,1SFLH6Q0AB03DJ,1SRCH7F014TAHX,1U5X071EXP6C9Y,DJI Fly,,1.12.8,4E0D8A0E-693A-B302-A39F-8E30B2387793,1SDCH7G0169R0K,,,,,,,,Flight mode changed to Manual Takeoff.,
2/27/2024,07:25.7,5m 3.6s,303.6,6.97462589,79.91439281,0,0,0.3,52,0.3,0,0,0,0,0,0,0,0,5.4,-1.2,27.9,27.9,,Manual Takeoff,Other,Takeoff (RC Assisted),14,4,TRUE,,Mavic Mini,TRUE,FALSE,,Smart,RC,TRUE,TRUE,FALSE,,,TRUE,,FALSE,FALSE,FALSE,FALSE,FALSE,FALSE,FALSE,FALSE,FALSE,FALSE,0,Follow Yaw,0,0,26.5,26.5,FALSE,FALSE,FALSE,FALSE,FALSE,FALSE,,TRUE,Normal,,100,1024,1024,1471,1024,1,FALSE,FALSE,FALSE,FALSE,FALSE,0,FALSE,FALSE,FALSE,FALSE,77,7.859,1587,2063,7.867,FALSE,3.929,3.931,0.002,FALSE,FALSE,NA,105.3,105.2,105.2,0,29,0,18,5,2562.7,640.67,,Idle,0,20,FALSE,5,TRUE,6,Go Home,FALSE,FALSE,FALSE,FALSE,FALSE,FALSE,FALSE,FALSE,FALSE,FALSE,FALSE,FALSE,6.974172497,79.91451603,171.3,181.3,328,TRUE,1,1,FALSE,FALSE,FALSE,FALSE,,TRUE,FALSE,FALSE,Course Lock,49.2,254.5,16.4,Calm,39,,1.12.8,Mavic Mini,1SDCH7G0169R0K,1SFLH6Q0AB03DJ,1SRCH7F014TAHX,1U5X071EXP6C9Y,59.5,0.2,19.6,9.90338,4.026492,0,374,Mavic Mini,1SDCH7G0169R0K,1SFLH6Q0AB03DJ,1SRCH7F014TAHX,1U5X071EXP6C9Y,DJI Fly,,1.12.8,4E0D8A0E-693A-B302-A39F-8E30B2387793,1SDCH7G0169R0K,,,,,,,,,
2/27/2024,07:25.8,5m 3.7s,303.7,6.974625935,79.91439278,0,0,0.3,52,0.3,0,0,0,0,0,0,0,0,5.4,-1.2,27.9,27.9,,Manual Takeoff,Other,Takeoff (RC Assisted),14,4,TRUE,,Mavic Mini,TRUE,FALSE,,Smart,RC,TRUE,TRUE,FALSE,,,TRUE,,FALSE,FALSE,FALSE,FALSE,FALSE,FALSE,FALSE,FALSE,FALSE,FALSE,0,Follow Yaw,0,0,26.5,26.5,FALSE,FALSE,FALSE,FALSE,FALSE,FALSE,,TRUE,Normal,,100,1024,1024,1684,1024,1,FALSE,FALSE,FALSE,FALSE,FALSE,0,FALSE,FALSE,FALSE,FALSE,77,7.859,1587,2063,7.867,FALSE,3.929,3.931,0.002,FALSE,FALSE,NA,105.3,105.2,105.2,0,29,0,18,5,2562.7,640.67,,Idle,0,20,FALSE,5,TRUE,6,Go Home,FALSE,FALSE,FALSE,FALSE,FALSE,FALSE,FALSE,FALSE,FALSE,FALSE,FALSE,FALSE,6.974172497,79.91451603,171.3,181.3,328,TRUE,1,1,FALSE,FALSE,FALSE,FALSE,,TRUE,FALSE,FALSE,Course Lock,49.2,254.5,16.4,Calm,39,,1.12.8,Mavic Mini,1SDCH7G0169R0K,1SFLH6Q0AB03DJ,1SRCH7F014TAHX,1U5X071EXP6C9Y,59.5,0.2,19.6,9.90338,4.026492,0,374,Mavic Mini,1SDCH7G0169R0K,1SFLH6Q0AB03DJ,1SRCH7F014TAHX,1U5X071EXP6C9Y,DJI Fly,,1.12.8,4E0D8A0E-693A-B302-A39F-8E30B2387793,1SDCH7G0169R0K,,,,,,,,,
2/27/2024,07:25.9,5m 3.8s,303.8,6.974625988,79.91439276,0,0,0.3,52,0.3,0,0,0,0,0,0,0,0,5.2,-1.1,27.9,27.9,,Manual Takeoff,Other,Takeoff (RC Assisted),14,4,TRUE,,Mavic Mini,TRUE,FALSE,,Smart,RC,TRUE,TRUE,FALSE,,,TRUE,,FALSE,FALSE,FALSE,FALSE,FALSE,FALSE,FALSE,FALSE,FALSE,FALSE,0,Follow Yaw,0,0,26.4,26.4,FALSE,FALSE,FALSE,FALSE,FALSE,FALSE,,TRUE,Normal,,100,1024,1024,1684,1024,1,FALSE,FALSE,FALSE,FALSE,FALSE,0,FALSE,FALSE,FALSE,FALSE,77,7.859,1587,2063,7.867,FALSE,3.929,3.931,0.002,FALSE,FALSE,NA,105.3,105.2,105.2,0,29,0,18,5,2562.7,640.67,,Idle,0,20,FALSE,5,TRUE,6,Go Home,FALSE,FALSE,FALSE,FALSE,FALSE,FALSE,FALSE,FALSE,FALSE,FALSE,FALSE,FALSE,6.974172497,79.91451603,171.3,181.3,328,TRUE,1,1,FALSE,FALSE,FALSE,FALSE,,TRUE,FALSE,FALSE,Course Lock,49.2,254.5,16.4,Calm,39,,1.12.8,Mavic Mini,1SDCH7G0169R0K,1SFLH6Q0AB03DJ,1SRCH7F014TAHX,1U5X071EXP6C9Y,59.5,0.2,19.6,9.90338,4.026492,0,374,Mavic Mini,1SDCH7G0169R0K,1SFLH6Q0AB03DJ,1SRCH7F014TAHX,1U5X071EXP6C9Y,DJI Fly,,1.12.8,4E0D8A0E-693A-B302-A39F-8E30B2387793,1SDCH7G0169R0K,,,,,,,,,
2/27/2024,07:26.0,5m 3.9s,303.9,6.974625958,79.9143928,0,0,0.3,52,0.4,0,0,0,0,0,0,0,0,5,-1,27.9,27.9,,Manual Takeoff,Other,Takeoff (RC Assisted),14,4,TRUE,,Mavic Mini,TRUE,FALSE,,Smart,RC,TRUE,TRUE,FALSE,,,TRUE,,FALSE,FALSE,FALSE,FALSE,FALSE,FALSE,FALSE,FALSE,FALSE,FALSE,0,Follow Yaw,0,0,26.4,26.4,FALSE,FALSE,FALSE,FALSE,FALSE,FALSE,,TRUE,Normal,,100,1024,1024,1684,1024,1,FALSE,FALSE,FALSE,FALSE,FALSE,0,FALSE,FALSE,FALSE,FALSE,77,7.859,1587,2063,7.855,FALSE,3.929,3.931,0.002,FALSE,FALSE,NA,105.3,105.2,105.2,0,29,0,18,5,2583.6,645.92,,Idle,0,20,FALSE,5,TRUE,6,Go Home,FALSE,FALSE,FALSE,FALSE,FALSE,FALSE,FALSE,FALSE,FALSE,FALSE,FALSE,FALSE,6.974172497,79.91451603,171.3,181.3,328,TRUE,1,1,FALSE,FALSE,FALSE,FALSE,,TRUE,FALSE,FALSE,Course Lock,49.2,254.5,16.4,Calm,39,,1.12.8,Mavic Mini,1SDCH7G0169R0K,1SFLH6Q0AB03DJ,1SRCH7F014TAHX,1U5X071EXP6C9Y,59.5,0.2,19.6,9.90338,4.026492,0,374,Mavic Mini,1SDCH7G0169R0K,1SFLH6Q0AB03DJ,1SRCH7F014TAHX,1U5X071EXP6C9Y,DJI Fly,,1.12.8,4E0D8A0E-693A-B302-A39F-8E30B2387793,1SDCH7G0169R0K,,,,,,,,,
2/27/2024,07:26.1,5m 4.0s,304,6.9746259,79.91439285,0,0,0.3,52,0.4,0,0,0,0,0,0,0,0,4.8,-1,27.7,27.7,,Manual Takeoff,Other,Takeoff (RC Assisted),14,4,TRUE,,Mavic Mini,TRUE,FALSE,,Smart,RC,TRUE,TRUE,FALSE,,,TRUE,,FALSE,FALSE,FALSE,FALSE,FALSE,FALSE,FALSE,FALSE,FALSE,FALSE,0,Follow Yaw,0,0,26.4,26.4,FALSE,FALSE,FALSE,FALSE,FALSE,FALSE,,TRUE,Normal,,100,1024,1024,1684,1024,1,FALSE,FALSE,FALSE,FALSE,FALSE,0,FALSE,FALSE,FALSE,FALSE,77,7.859,1587,2063,7.855,FALSE,3.929,3.931,0.002,FALSE,FALSE,NA,105.3,105.2,105.2,0,29,0,18,5,2583.6,645.92,,Idle,0,20,FALSE,5,TRUE,6,Go Home,FALSE,FALSE,FALSE,FALSE,FALSE,FALSE,FALSE,FALSE,FALSE,FALSE,FALSE,FALSE,6.974172497,79.91451603,171.3,181.3,328,TRUE,1,1,FALSE,FALSE,FALSE,FALSE,,TRUE,FALSE,FALSE,Course Lock,49.2,254.5,16.4,Calm,39,,1.12.8,Mavic Mini,1SDCH7G0169R0K,1SFLH6Q0AB03DJ,1SRCH7F014TAHX,1U5X071EXP6C9Y,59.5,0.2,19.6,9.90338,4.026492,0,374,Mavic Mini,1SDCH7G0169R0K,1SFLH6Q0AB03DJ,1SRCH7F014TAHX,1U5X071EXP6C9Y,DJI Fly,,1.12.8,4E0D8A0E-693A-B302-A39F-8E30B2387793,1SDCH7G0169R0K,,,,,,,,,
2/27/2024,07:26.2,5m 4.1s,304.1,6.97462563,79.91439283,0,0,0.3,52,0.5,0,0,0,0,0,0,0,0,3.5,-0.6,26.8,26.8,,Manual Takeoff,Other,Takeoff (RC Assisted),14,4,TRUE,,Mavic Mini,TRUE,FALSE,,Smart,RC,TRUE,TRUE,FALSE,,,TRUE,,FALSE,FALSE,FALSE,FALSE,FALSE,FALSE,FALSE,FALSE,FALSE,FALSE,0,Follow Yaw,0,0,26,26,FALSE,FALSE,FALSE,FALSE,FALSE,FALSE,,TRUE,Normal,,100,1024,1024,1684,1024,1,FALSE,FALSE,FALSE,FALSE,FALSE,0,FALSE,FALSE,FALSE,FALSE,77,7.859,1587,2063,7.855,FALSE,3.929,3.931,0.002,FALSE,FALSE,NA,105.3,105.2,105.2,0,29,0,18,5,2583.6,645.92,,Idle,0,20,FALSE,5,TRUE,6,Go Home,FALSE,FALSE,FALSE,FALSE,FALSE,FALSE,FALSE,FALSE,FALSE,FALSE,FALSE,FALSE,6.974172497,79.91451603,171.2,181.3,328,TRUE,1,1,FALSE,FALSE,FALSE,FALSE,,TRUE,FALSE,FALSE,Course Lock,49.2,254.5,16.4,Calm,39,,1.12.8,Mavic Mini,1SDCH7G0169R0K,1SFLH6Q0AB03DJ,1SRCH7F014TAHX,1U5X071EXP6C9Y,59.5,0.2,19.6,9.90338,4.026492,0,374,Mavic Mini,1SDCH7G0169R0K,1SFLH6Q0AB03DJ,1SRCH7F014TAHX,1U5X071EXP6C9Y,DJI Fly,,1.12.8,4E0D8A0E-693A-B302-A39F-8E30B2387793,1SDCH7G0169R0K,,,,,,,,,
2/27/2024,07:26.4,5m 4.2s,304.2,6.974625558,79.91439276,0,0,0.3,52,0.5,0,0,0,0,0,0,0,0,2,-0.2,25.9,25.9,,Manual Takeoff,Other,Takeoff (RC Assisted),14,5,TRUE,,Mavic Mini,TRUE,FALSE,,Smart,RC,TRUE,TRUE,FALSE,,,TRUE,,FALSE,FALSE,FALSE,FALSE,FALSE,FALSE,FALSE,FALSE,FALSE,FALSE,0,Follow Yaw,0,0,25.1,25.1,FALSE,FALSE,FALSE,FALSE,FALSE,FALSE,,TRUE,Normal,,100,1024,1024,1684,1024,1,FALSE,FALSE,FALSE,FALSE,FALSE,0,FALSE,FALSE,FALSE,FALSE,77,7.859,1587,2063,7.855,FALSE,3.929,3.931,0.002,FALSE,FALSE,NA,105.3,105.2,105.2,0,29,0,18,5,2583.6,645.92,,Idle,0,20,FALSE,5,TRUE,6,Go Home,FALSE,FALSE,FALSE,FALSE,FALSE,FALSE,FALSE,FALSE,FALSE,FALSE,FALSE,FALSE,6.974172497,79.91451603,171.2,181.3,328,TRUE,1,1,FALSE,FALSE,FALSE,FALSE,,TRUE,FALSE,FALSE,Course Lock,49.2,254.5,16.4,Calm,39,,1.12.8,Mavic Mini,1SDCH7G0169R0K,1SFLH6Q0AB03DJ,1SRCH7F014TAHX,1U5X071EXP6C9Y,59.5,0.2,19.6,9.90338,4.026492,0,374,Mavic Mini,1SDCH7G0169R0K,1SFLH6Q0AB03DJ,1SRCH7F014TAHX,1U5X071EXP6C9Y,DJI Fly,,1.12.8,4E0D8A0E-693A-B302-A39F-8E30B2387793,1SDCH7G0169R0K,,,,,,,,,
2/27/2024,07:26.4,5m 4.3s,304.3,6.974625531,79.91439273,0,0,0.3,52,0.5,0,0,0,0,0,0,0,0,0.4,-0.3,25.2,25.2,,Manual Takeoff,Other,Takeoff (RC Assisted),14,5,TRUE,,Mavic Mini,TRUE,FALSE,,Smart,RC,TRUE,TRUE,FALSE,,,TRUE,,FALSE,FALSE,FALSE,FALSE,FALSE,FALSE,FALSE,FALSE,FALSE,FALSE,0,Follow Yaw,0,0,24.4,24.4,FALSE,FALSE,FALSE,FALSE,FALSE,FALSE,,TRUE,Normal,,100,1024,1024,1684,1024,1,FALSE,FALSE,FALSE,FALSE,FALSE,0,FALSE,FALSE,FALSE,FALSE,77,7.859,1587,2063,7.855,FALSE,3.929,3.931,0.002,FALSE,FALSE,NA,105.3,105.2,105.2,0,29,0,18,5,2583.6,645.92,,Idle,0,20,FALSE,5,TRUE,6,Go Home,FALSE,FALSE,FALSE,FALSE,FALSE,FALSE,FALSE,FALSE,FALSE,FALSE,FALSE,FALSE,6.974172497,79.91451603,171.1,181.3,328,TRUE,1,1,FALSE,FALSE,FALSE,FALSE,,TRUE,FALSE,FALSE,Course Lock,49.2,254.5,16.4,Calm,39,,1.12.8,Mavic Mini,1SDCH7G0169R0K,1SFLH6Q0AB03DJ,1SRCH7F014TAHX,1U5X071EXP6C9Y,59.5,0.2,19.6,9.90338,4.026492,0,374,Mavic Mini,1SDCH7G0169R0K,1SFLH6Q0AB03DJ,1SRCH7F014TAHX,1U5X071EXP6C9Y,DJI Fly,,1.12.8,4E0D8A0E-693A-B302-A39F-8E30B2387793,1SDCH7G0169R0K,,,,,,,,,
2/27/2024,07:26.5,5m 4.4s,304.4,6.974625525,79.91439274,0,0,0.3,52,0.5,0,0,0,0,0,0,-0.223694,0,-0.4,-1.3,24.5,24.5,,Manual Takeoff,Other,Takeoff (RC Assisted),14,5,TRUE,,Mavic Mini,TRUE,FALSE,,Smart,RC,TRUE,TRUE,FALSE,,,TRUE,,FALSE,FALSE,FALSE,FALSE,FALSE,FALSE,FALSE,FALSE,FALSE,FALSE,0,Follow Yaw,0,0,23.6,23.6,FALSE,FALSE,FALSE,FALSE,FALSE,FALSE,,TRUE,Normal,,100,1024,1024,1684,1024,1,FALSE,FALSE,FALSE,FALSE,FALSE,0,FALSE,FALSE,FALSE,FALSE,77,7.774,1586,2063,7.855,FALSE,3.892,3.882,0.01,FALSE,FALSE,NA,105.3,105.2,105.2,0,29,0,18,5,2583.6,645.92,,Idle,0,20,FALSE,5,TRUE,6,Go Home,FALSE,FALSE,FALSE,FALSE,FALSE,FALSE,FALSE,FALSE,FALSE,FALSE,FALSE,FALSE,6.974172497,79.91451603,171.1,181.3,328,TRUE,1,1,FALSE,FALSE,FALSE,FALSE,,TRUE,FALSE,FALSE,Course Lock,49.2,254.5,16.4,Calm,39,,1.12.8,Mavic Mini,1SDCH7G0169R0K,1SFLH6Q0AB03DJ,1SRCH7F014TAHX,1U5X071EXP6C9Y,59.5,0.2,19.6,9.90338,4.026492,0,374,Mavic Mini,1SDCH7G0169R0K,1SFLH6Q0AB03DJ,1SRCH7F014TAHX,1U5X071EXP6C9Y,DJI Fly,,1.12.8,4E0D8A0E-693A-B302-A39F-8E30B2387793,1SDCH7G0169R0K,,,,,6.974609918,79.91443494,5,,
2/27/2024,07:26.7,5m 4.5s,304.5,6.974625645,79.91439275,0,0,0.3,52,0.6,0,0,0,0,0,0,-0.447388,0,-0.8,-1.6,24.2,24.2,,P-GPS,Other,,14,5,TRUE,,Mavic Mini,TRUE,FALSE,,Smart,RC,FALSE,TRUE,FALSE,,,TRUE,,FALSE,FALSE,FALSE,FALSE,FALSE,FALSE,FALSE,FALSE,FALSE,FALSE,0,Follow Yaw,0,0,23.2,23.2,FALSE,FALSE,FALSE,FALSE,FALSE,FALSE,,TRUE,Normal,,100,1024,1024,1673,1024,1,FALSE,FALSE,FALSE,FALSE,FALSE,0,FALSE,FALSE,FALSE,FALSE,77,7.774,1586,2063,7.855,FALSE,3.892,3.882,0.01,FALSE,FALSE,NA,105.3,105.2,105.2,0,29,0,18,5,2583.6,645.92,,Idle,0,20,FALSE,5,TRUE,6,Go Home,FALSE,FALSE,FALSE,FALSE,FALSE,FALSE,FALSE,FALSE,FALSE,FALSE,FALSE,FALSE,6.974172497,79.91451603,171.2,181.3,328,TRUE,1,1,FALSE,FALSE,FALSE,FALSE,,TRUE,FALSE,FALSE,Course Lock,49.2,254.5,16.4,Calm,39,,1.12.8,Mavic Mini,1SDCH7G0169R0K,1SFLH6Q0AB03DJ,1SRCH7F014TAHX,1U5X071EXP6C9Y,59.5,0.2,19.6,9.90338,4.026492,0,374,Mavic Mini,1SDCH7G0169R0K,1SFLH6Q0AB03DJ,1SRCH7F014TAHX,1U5X071EXP6C9Y,DJI Fly,,1.12.8,4E0D8A0E-693A-B302-A39F-8E30B2387793,1SDCH7G0169R0K,,,,,6.974609918,79.91443494,5,Flight mode changed to P-GPS.,
2/27/2024,07:26.8,5m 4.6s,304.6,6.974625731,79.91439275,0,0,0.6,52,0.6,0.223694,0.223694,0.223694,0.223694,0,0,-0.894776,0,0.8,-0.9,24.2,24.2,1.5,P-GPS,Other,,14,5,TRUE,,Mavic Mini,TRUE,FALSE,,Smart,RC,FALSE,TRUE,FALSE,,,TRUE,,FALSE,FALSE,FALSE,FALSE,FALSE,FALSE,FALSE,FALSE,FALSE,FALSE,0,Follow Yaw,0,0,23.2,23.2,FALSE,FALSE,FALSE,FALSE,FALSE,FALSE,,TRUE,Normal,,100,1024,1024,1673,1024,1,FALSE,FALSE,FALSE,FALSE,FALSE,0,FALSE,FALSE,FALSE,FALSE,77,7.774,1586,2063,7.855,FALSE,3.892,3.882,0.01,FALSE,FALSE,NA,105.3,105.2,105.2,0,29,0,18,5,2583.6,645.92,,Idle,0,20,FALSE,5,TRUE,6,Go Home,FALSE,FALSE,FALSE,FALSE,FALSE,FALSE,FALSE,FALSE,FALSE,FALSE,FALSE,FALSE,6.974172497,79.91451603,171.2,181.3,328,TRUE,1,1,FALSE,FALSE,FALSE,FALSE,,TRUE,FALSE,FALSE,Course Lock,49.2,254.5,16.4,Calm,39,,1.12.8,Mavic Mini,1SDCH7G0169R0K,1SFLH6Q0AB03DJ,1SRCH7F014TAHX,1U5X071EXP6C9Y,59.5,0.2,19.6,9.90338,4.026492,0,374,Mavic Mini,1SDCH7G0169R0K,1SFLH6Q0AB03DJ,1SRCH7F014TAHX,1U5X071EXP6C9Y,DJI Fly,,1.12.8,4E0D8A0E-693A-B302-A39F-8E30B2387793,1SDCH7G0169R0K,,,,,6.974609918,79.91443494,5,,
2/27/2024,07:26.8,5m 4.7s,304.7,6.974625847,79.91439277,0.3,0.3,0.6,52,0.7,0.223694,0.223694,0.223694,0.223694,0,0,-1.342164,0,2,0,24.3,24.3,9.4,P-GPS,Other,,14,5,TRUE,,Mavic Mini,TRUE,FALSE,,Smart,RC,FALSE,TRUE,FALSE,,,TRUE,,FALSE,FALSE,FALSE,FALSE,FALSE,FALSE,FALSE,FALSE,FALSE,FALSE,0,Follow Yaw,0,0,23.2,23.2,FALSE,FALSE,FALSE,FALSE,FALSE,FALSE,,TRUE,Normal,,100,1024,1024,1635,1024,1,FALSE,FALSE,FALSE,FALSE,FALSE,0,FALSE,FALSE,FALSE,FALSE,77,7.774,1586,2063,7.855,FALSE,3.892,3.882,0.01,FALSE,FALSE,NA,105.3,105.2,105.2,0,29,0,18,5,2583.6,645.92,,Idle,0,20,FALSE,5,TRUE,6,Go Home,FALSE,FALSE,FALSE,FALSE,FALSE,FALSE,FALSE,FALSE,FALSE,FALSE,FALSE,FALSE,6.974172497,79.91451603,171.3,181.3,328,TRUE,1,1,FALSE,FALSE,FALSE,FALSE,,TRUE,FALSE,FALSE,Course Lock,49.2,254.5,16.4,Calm,39,,1.12.8,Mavic Mini,1SDCH7G0169R0K,1SFLH6Q0AB03DJ,1SRCH7F014TAHX,1U5X071EXP6C9Y,59.5,0.2,19.6,9.90338,4.026492,0,374,Mavic Mini,1SDCH7G0169R0K,1SFLH6Q0AB03DJ,1SRCH7F014TAHX,1U5X071EXP6C9Y,DJI Fly,,1.12.8,4E0D8A0E-693A-B302-A39F-8E30B2387793,1SDCH7G0169R0K,,,,,6.974609918,79.91443494,5,,
2/27/2024,07:26.9,5m 4.8s,304.8,6.974625972,79.91439281,0.6,0.6,0.9,52,0.7,0.223694,0.223694,0.223694,0.223694,0,0,-2.013246,0,2.4,0.1,24.4,24.4,13.1,P-GPS,Other,,14,5,TRUE,,Mavic Mini,TRUE,FALSE,,Smart,RC,FALSE,TRUE,FALSE,,,TRUE,,FALSE,FALSE,FALSE,FALSE,FALSE,FALSE,FALSE,FALSE,FALSE,FALSE,0,Follow Yaw,0,0,23.2,23.2,FALSE,FALSE,FALSE,FALSE,FALSE,FALSE,,TRUE,Normal,,100,1024,1024,1633,1024,1,FALSE,FALSE,FALSE,FALSE,FALSE,0,FALSE,FALSE,FALSE,FALSE,77,7.774,1586,2063,7.855,FALSE,3.892,3.882,0.01,FALSE,FALSE,NA,105.3,105.2,105.2,0,29,0,18,5,2583.6,645.92,,Idle,0,20,FALSE,5,TRUE,6,Go Home,FALSE,FALSE,FALSE,FALSE,FALSE,FALSE,FALSE,FALSE,FALSE,FALSE,FALSE,FALSE,6.974172497,79.91451603,171.3,181.3,328,TRUE,1,1,FALSE,FALSE,FALSE,FALSE,,TRUE,FALSE,FALSE,Course Lock,49.2,254.5,16.4,Calm,39,,1.12.8,Mavic Mini,1SDCH7G0169R0K,1SFLH6Q0AB03DJ,1SRCH7F014TAHX,1U5X071EXP6C9Y,59.5,0.2,19.6,9.90338,4.026492,0,374,Mavic Mini,1SDCH7G0169R0K,1SFLH6Q0AB03DJ,1SRCH7F014TAHX,1U5X071EXP6C9Y,DJI Fly,,1.12.8,4E0D8A0E-693A-B302-A39F-8E30B2387793,1SDCH7G0169R0K,,,,,6.974609918,79.91443494,5,,
2/27/2024,07:27.2,5m 4.9s,304.9,6.974626224,79.91439316,0.9,0.9,1.3,53,0.9,0,0.223694,0,0.223694,0,0,-2.460634,0,2.3,-0.2,24.4,24.4,,P-GPS,Other,,14,5,TRUE,,Mavic Mini,TRUE,FALSE,,Smart,RC,FALSE,TRUE,FALSE,,,TRUE,,FALSE,FALSE,FALSE,FALSE,FALSE,FALSE,FALSE,FALSE,FALSE,FALSE,0,Follow Yaw,0,0,23.2,23.2,FALSE,FALSE,FALSE,FALSE,FALSE,FALSE,,TRUE,Normal,,100,1024,1024,1638,1024,1,FALSE,FALSE,FALSE,FALSE,FALSE,0,FALSE,FALSE,FALSE,FALSE,77,7.774,1586,2063,7.753,FALSE,3.892,3.882,0.01,FALSE,FALSE,NA,105.3,105.2,105.2,0,0,0,0,5,2804.8,701.22,,Idle,0,20,FALSE,5,TRUE,6,Go Home,FALSE,FALSE,FALSE,FALSE,FALSE,FALSE,FALSE,FALSE,FALSE,FALSE,FALSE,FALSE,6.974625539,79.91439274,0.2,181.3,328,TRUE,1,1,FALSE,FALSE,FALSE,FALSE,,TRUE,FALSE,FALSE,Course Lock,49.2,254.5,16.4,Calm,39,,1.12.8,Mavic Mini,1SDCH7G0169R0K,1SFLH6Q0AB03DJ,1SRCH7F014TAHX,1U5X071EXP6C9Y,59.5,0.2,19.6,9.90338,4.026492,0,374,Mavic Mini,1SDCH7G0169R0K,1SFLH6Q0AB03DJ,1SRCH7F014TAHX,1U5X071EXP6C9Y,DJI Fly,,1.12.8,4E0D8A0E-693A-B302-A39F-8E30B2387793,1SDCH7G0169R0K,,,,,6.974609918,79.91443494,5,Home Point updated. RTH altitude adjusted to 15 m!- (Code: 120852).,
2/27/2024,07:27.2,5m 5.0s,305,6.97462635,79.91439331,1.3,1.3,1.6,53,0.9,0,0.223694,0,0.223694,0,0,-3.131716,0,2.1,-0.4,24.4,24.4,,P-GPS,Other,,14,5,TRUE,,Mavic Mini,TRUE,FALSE,,Smart,RC,FALSE,TRUE,FALSE,,,TRUE,,FALSE,FALSE,FALSE,FALSE,FALSE,FALSE,FALSE,FALSE,FALSE,FALSE,0,Follow Yaw,0,0,23.2,23.2,FALSE,FALSE,FALSE,FALSE,FALSE,FALSE,,TRUE,Normal,,100,1024,1024,1529,1024,1,FALSE,FALSE,FALSE,FALSE,FALSE,0,FALSE,FALSE,FALSE,FALSE,77,7.774,1586,2063,7.753,FALSE,3.892,3.882,0.01,FALSE,FALSE,NA,105.3,105.2,105.2,0,0,0,0,5,2804.8,701.22,,Idle,0,20,FALSE,5,TRUE,6,Go Home,FALSE,FALSE,FALSE,FALSE,FALSE,FALSE,FALSE,FALSE,FALSE,FALSE,FALSE,FALSE,6.974625539,79.91439274,0.3,181.3,328,TRUE,1,1,FALSE,FALSE,FALSE,FALSE,,TRUE,FALSE,FALSE,Course Lock,49.2,254.5,16.4,Calm,39,,1.12.8,Mavic Mini,1SDCH7G0169R0K,1SFLH6Q0AB03DJ,1SRCH7F014TAHX,1U5X071EXP6C9Y,59.5,0.2,19.6,9.90338,4.026492,0,374,Mavic Mini,1SDCH7G0169R0K,1SFLH6Q0AB03DJ,1SRCH7F014TAHX,1U5X071EXP6C9Y,DJI Fly,,1.12.8,4E0D8A0E-693A-B302-A39F-8E30B2387793,1SDCH7G0169R0K,,,,,6.974609918,79.91443494,5,,
2/27/2024,07:27.2,5m 5.1s,305.1,6.974626471,79.91439351,1.6,1.6,1.9,53,1,0,0.223694,0,0.223694,0,0,-3.579104,0,2.1,-0.6,24.4,24.4,,P-GPS,Other,,14,5,TRUE,,Mavic Mini,TRUE,FALSE,,Smart,RC,FALSE,TRUE,FALSE,,,TRUE,,FALSE,FALSE,FALSE,FALSE,FALSE,FALSE,FALSE,FALSE,FALSE,FALSE,0,Follow Yaw,0,0,23.2,23.2,FALSE,FALSE,FALSE,FALSE,FALSE,FALSE,,TRUE,Normal,,100,1024,1024,1297,1024,1,FALSE,FALSE,FALSE,FALSE,FALSE,0,FALSE,FALSE,FALSE,FALSE,77,7.774,1586,2063,7.753,FALSE,3.892,3.882,0.01,FALSE,FALSE,NA,105.3,105.2,105.2,0,0,0,0,5,2804.8,701.22,,Idle,0,20,FALSE,5,TRUE,6,Go Home,FALSE,FALSE,FALSE,FALSE,FALSE,FALSE,FALSE,FALSE,FALSE,FALSE,FALSE,FALSE,6.974625539,79.91439274,0.4,181.3,328,TRUE,1,1,FALSE,FALSE,FALSE,FALSE,,TRUE,FALSE,FALSE,Course Lock,49.2,254.5,16.4,Calm,39,,1.12.8,Mavic Mini,1SDCH7G0169R0K,1SFLH6Q0AB03DJ,1SRCH7F014TAHX,1U5X071EXP6C9Y,59.5,0.2,19.6,9.90338,4.026492,0,374,Mavic Mini,1SDCH7G0169R0K,1SFLH6Q0AB03DJ,1SRCH7F014TAHX,1U5X071EXP6C9Y,DJI Fly,,1.12.8,4E0D8A0E-693A-B302-A39F-8E30B2387793,1SDCH7G0169R0K,,,,,6.974609918,79.91443494,5,,
2/27/2024,07:27.3,5m 5.2s,305.2,6.974626593,79.91439372,2.2,2.2,2.6,54,1.1,0,0.223694,0,0.223694,0,0,-3.802798,0,2.2,-1,24.5,24.5,,P-GPS,Other,,14,5,TRUE,,Mavic Mini,TRUE,FALSE,,Smart,RC,FALSE,TRUE,FALSE,,,TRUE,,FALSE,FALSE,FALSE,FALSE,FALSE,FALSE,FALSE,FALSE,FALSE,FALSE,0,Follow Yaw,0,0,23.2,23.2,FALSE,FALSE,FALSE,FALSE,FALSE,FALSE,,TRUE,Normal,,100,1024,1024,1236,1024,1,FALSE,FALSE,FALSE,FALSE,FALSE,0,FALSE,FALSE,FALSE,FALSE,77,7.774,1586,2063,7.753,FALSE,3.892,3.882,0.01,FALSE,FALSE,NA,105.3,105.2,105.2,0,0,0,0,5,2804.8,701.22,,Idle,0,20,FALSE,5,TRUE,6,Go Home,FALSE,FALSE,FALSE,FALSE,FALSE,FALSE,FALSE,FALSE,FALSE,FALSE,FALSE,FALSE,6.974625539,79.91439274,0.5,181.3,328,TRUE,1,1,FALSE,FALSE,FALSE,FALSE,,TRUE,FALSE,FALSE,Course Lock,49.2,254.5,16.4,Calm,39,,1.12.8,Mavic Mini,1SDCH7G0169R0K,1SFLH6Q0AB03DJ,1SRCH7F014TAHX,1U5X071EXP6C9Y,59.5,0.2,19.6,9.90338,4.026492,0,374,Mavic Mini,1SDCH7G0169R0K,1SFLH6Q0AB03DJ,1SRCH7F014TAHX,1U5X071EXP6C9Y,DJI Fly,,1.12.8,4E0D8A0E-693A-B302-A39F-8E30B2387793,1SDCH7G0169R0K,,,,,6.974609918,79.91443494,5,,
2/27/2024,07:27.4,5m 5.3s,305.3,6.974626663,79.91439393,2.6,2.6,3.2,54,1.2,0,0.223694,0,0.223694,0,0,-4.026492,0,2.2,-1.2,24.5,24.5,,P-GPS,Other,,14,5,TRUE,,Mavic Mini,TRUE,FALSE,,Smart,RC,FALSE,TRUE,FALSE,,,TRUE,,FALSE,FALSE,FALSE,FALSE,FALSE,FALSE,FALSE,FALSE,FALSE,FALSE,0,Follow Yaw,0,0,23.2,23.2,FALSE,FALSE,FALSE,FALSE,FALSE,FALSE,,TRUE,Normal,,100,1024,1024,1070,1024,1,FALSE,FALSE,FALSE,FALSE,FALSE,0,FALSE,FALSE,FALSE,FALSE,77,7.774,1586,2063,7.753,FALSE,3.892,3.882,0.01,FALSE,FALSE,NA,105.3,105.2,105.2,0,0,0,0,5,2804.8,701.22,,Idle,0,20,FALSE,5,TRUE,6,Go Home,FALSE,FALSE,FALSE,FALSE,FALSE,FALSE,FALSE,FALSE,FALSE,FALSE,FALSE,FALSE,6.974625539,79.91439274,0.5,181.3,328,TRUE,1,1,FALSE,FALSE,FALSE,FALSE,,TRUE,FALSE,FALSE,Course Lock,49.2,254.5,16.4,Calm,39,,1.12.8,Mavic Mini,1SDCH7G0169R0K,1SFLH6Q0AB03DJ,1SRCH7F014TAHX,1U5X071EXP6C9Y,59.5,0.2,19.6,9.90338,4.026492,0,374,Mavic Mini,1SDCH7G0169R0K,1SFLH6Q0AB03DJ,1SRCH7F014TAHX,1U5X071EXP6C9Y,DJI Fly,,1.12.8,4E0D8A0E-693A-B302-A39F-8E30B2387793,1SDCH7G0169R0K,,,,,6.974609918,79.91443494,5,,
2/27/2024,07:27.5,5m 5.4s,305.4,6.974626756,79.91439445,3.2,3.2,3.6,55,1.4,0,0.223694,0,0.223694,0,0,-3.579104,0,2.7,-1.2,24.5,24.5,,P-GPS,Other,,13,5,TRUE,,Mavic Mini,TRUE,FALSE,,Smart,RC,FALSE,TRUE,FALSE,,,TRUE,,FALSE,FALSE,FALSE,FALSE,FALSE,FALSE,FALSE,FALSE,FALSE,FALSE,0,Follow Yaw,0,0,23.2,23.2,FALSE,FALSE,FALSE,FALSE,FALSE,FALSE,,TRUE,Normal,,100,1024,1024,1070,1024,1,FALSE,FALSE,FALSE,FALSE,FALSE,0,FALSE,FALSE,FALSE,FALSE,77,7.774,1586,2063,7.753,FALSE,3.892,3.882,0.01,FALSE,FALSE,NA,105.3,105.2,105.2,0,0,0,0,5,2804.8,701.22,,Idle,0,20,FALSE,5,TRUE,6,Go Home,FALSE,FALSE,FALSE,FALSE,FALSE,FALSE,FALSE,FALSE,FALSE,FALSE,FALSE,FALSE,6.974625539,79.91439274,0.7,181.3,328,TRUE,1,1,FALSE,FALSE,FALSE,FALSE,,TRUE,FALSE,FALSE,Course Lock,49.2,254.5,16.4,Calm,39,,1.12.8,Mavic Mini,1SDCH7G0169R0K,1SFLH6Q0AB03DJ,1SRCH7F014TAHX,1U5X071EXP6C9Y,59.5,0.2,19.6,9.90338,4.026492,0,374,Mavic Mini,1SDCH7G0169R0K,1SFLH6Q0AB03DJ,1SRCH7F014TAHX,1U5X071EXP6C9Y,DJI Fly,,1.12.8,4E0D8A0E-693A-B302-A39F-8E30B2387793,1SDCH7G0169R0K,,,,,6.974609918,79.91443494,5,,
2/27/2024,07:27.6,5m 5.5s,305.5,6.974626761,79.91439462,3.6,3.6,4.2,55,1.4,0,0.223694,0,0.223694,0,0,-3.35541,0,2.8,-1.1,24.5,24.5,,P-GPS,Other,,13,5,TRUE,,Mavic Mini,TRUE,FALSE,,Smart,RC,FALSE,TRUE,FALSE,,,TRUE,,FALSE,FALSE,FALSE,FALSE,FALSE,FALSE,FALSE,FALSE,FALSE,FALSE,0,Follow Yaw,0,0,23.2,23.2,FALSE,FALSE,FALSE,FALSE,FALSE,FALSE,,TRUE,Normal,,100,1024,1024,1024,1024,1,FALSE,FALSE,FALSE,FALSE,FALSE,0,FALSE,FALSE,FALSE,FALSE,77,7.774,1586,2063,7.753,FALSE,3.892,3.882,0.01,FALSE,FALSE,NA,105.3,105.2,105.2,0,0,0,0,5,2804.8,701.22,,Idle,0,20,FALSE,5,TRUE,6,Go Home,FALSE,FALSE,FALSE,FALSE,FALSE,FALSE,FALSE,FALSE,FALSE,FALSE,FALSE,FALSE,6.974625539,79.91439274,0.8,181.3,328,TRUE,1,1,FALSE,FALSE,FALSE,FALSE,,TRUE,FALSE,FALSE,Course Lock,49.2,254.5,16.4,Calm,39,,1.12.8,Mavic Mini,1SDCH7G0169R0K,1SFLH6Q0AB03DJ,1SRCH7F014TAHX,1U5X071EXP6C9Y,59.5,0.2,19.6,9.90338,4.026492,0,374,Mavic Mini,1SDCH7G0169R0K,1SFLH6Q0AB03DJ,1SRCH7F014TAHX,1U5X071EXP6C9Y,DJI Fly,,1.12.8,4E0D8A0E-693A-B302-A39F-8E30B2387793,1SDCH7G0169R0K,,,,,6.974609918,79.91443494,5,,
2/27/2024,07:27.7,5m 5.6s,305.6,6.974626748,79.91439478,3.9,3.9,4.9,56,1.5,0,0.223694,0,0.223694,0,0,-2.684328,0,3,-0.9,24.6,24.6,,P-GPS,Other,,13,5,TRUE,,Mavic Mini,TRUE,FALSE,,Smart,RC,FALSE,TRUE,FALSE,,,TRUE,,FALSE,FALSE,FALSE,FALSE,FALSE,FALSE,FALSE,FALSE,FALSE,FALSE,0,Follow Yaw,0,0,23.2,23.2,FALSE,FALSE,FALSE,FALSE,FALSE,FALSE,,TRUE,Normal,,100,1024,1024,1024,1024,1,FALSE,FALSE,FALSE,FALSE,FALSE,0,FALSE,FALSE,FALSE,FALSE,77,7.71,1585,2063,7.753,FALSE,3.856,3.854,0.01,FALSE,FALSE,NA,105.3,105.2,105.2,0,0,0,0,5,2804.8,701.22,,Idle,0,20,FALSE,5,TRUE,6,Go Home,FALSE,FALSE,FALSE,FALSE,FALSE,FALSE,FALSE,FALSE,FALSE,FALSE,FALSE,FALSE,6.974625539,79.91439274,0.8,181.3,328,TRUE,1,1,FALSE,FALSE,FALSE,FALSE,,TRUE,FALSE,FALSE,Course Lock,49.2,254.5,16.4,Calm,39,,1.12.8,Mavic Mini,1SDCH7G0169R0K,1SFLH6Q0AB03DJ,1SRCH7F014TAHX,1U5X071EXP6C9Y,59.5,0.2,19.6,9.90338,4.026492,0,374,Mavic Mini,1SDCH7G0169R0K,1SFLH6Q0AB03DJ,1SRCH7F014TAHX,1U5X071EXP6C9Y,DJI Fly,,1.12.8,4E0D8A0E-693A-B302-A39F-8E30B2387793,1SDCH7G0169R0K,,,,,6.974609918,79.91443494,5,,
2/27/2024,07:27.8,5m 5.7s,305.7,6.974626771,79.91439487,4.2,4.2,5.2,56,1.5,0,0.223694,0,0.223694,0,0,-2.23694,0,3.3,-0.7,24.6,24.6,,P-GPS,Other,,13,5,TRUE,,Mavic Mini,TRUE,FALSE,,Smart,RC,FALSE,TRUE,FALSE,,,TRUE,,FALSE,FALSE,FALSE,FALSE,FALSE,FALSE,FALSE,FALSE,FALSE,FALSE,0,Follow Yaw,0,0,23.2,23.2,FALSE,FALSE,FALSE,FALSE,FALSE,FALSE,,TRUE,Normal,,100,1024,1024,1024,1024,1,FALSE,FALSE,FALSE,FALSE,FALSE,0,FALSE,FALSE,FALSE,FALSE,77,7.71,1585,2063,7.753,FALSE,3.856,3.854,0.01,FALSE,FALSE,NA,105.3,105.2,105.2,0,0,0,0,5,2804.8,701.22,,Idle,0,20,FALSE,5,TRUE,6,Go Home,FALSE,FALSE,FALSE,FALSE,FALSE,FALSE,FALSE,FALSE,FALSE,FALSE,FALSE,FALSE,6.974625539,79.91439274,0.8,181.3,328,TRUE,1,1,FALSE,FALSE,FALSE,FALSE,,TRUE,FALSE,FALSE,Course Lock,49.2,254.5,16.4,Calm,39,,1.12.8,Mavic Mini,1SDCH7G0169R0K,1SFLH6Q0AB03DJ,1SRCH7F014TAHX,1U5X071EXP6C9Y,59.5,0.2,19.6,9.90338,4.026492,0,374,Mavic Mini,1SDCH7G0169R0K,1SFLH6Q0AB03DJ,1SRCH7F014TAHX,1U5X071EXP6C9Y,DJI Fly,,1.12.8,4E0D8A0E-693A-B302-A39F-8E30B2387793,1SDCH7G0169R0K,,,,,6.974609918,79.91443494,5,,
2/27/2024,07:27.9,5m 5.8s,305.8,6.97462673,79.91439489,4.5,4.5,5.5,56,1.5,0,0.223694,0,0.223694,0,0,-1.565858,0,3.6,-0.5,24.6,24.6,,P-GPS,Other,,13,5,TRUE,,Mavic Mini,TRUE,FALSE,,Smart,RC,FALSE,TRUE,FALSE,,,TRUE,,FALSE,FALSE,FALSE,FALSE,FALSE,FALSE,FALSE,FALSE,FALSE,FALSE,0,Follow Yaw,0,0,23.2,23.2,FALSE,FALSE,FALSE,FALSE,FALSE,FALSE,,TRUE,Normal,,100,1024,804,1024,1024,1,FALSE,FALSE,FALSE,FALSE,FALSE,0,FALSE,FALSE,FALSE,FALSE,77,7.71,1585,2063,7.753,FALSE,3.856,3.854,0.01,FALSE,FALSE,NA,105.3,105.2,105.2,0,0,0,0,5,2804.8,701.22,,Idle,0,20,FALSE,5,TRUE,6,Go Home,FALSE,FALSE,FALSE,FALSE,FALSE,FALSE,FALSE,FALSE,FALSE,FALSE,FALSE,FALSE,6.974625539,79.91439274,0.8,181.3,328,TRUE,1,1,FALSE,FALSE,FALSE,FALSE,,TRUE,FALSE,FALSE,Course Lock,49.2,254.5,16.4,Calm,39,,1.12.8,Mavic Mini,1SDCH7G0169R0K,1SFLH6Q0AB03DJ,1SRCH7F014TAHX,1U5X071EXP6C9Y,59.5,0.2,19.6,9.90338,4.026492,0,374,Mavic Mini,1SDCH7G0169R0K,1SFLH6Q0AB03DJ,1SRCH7F014TAHX,1U5X071EXP6C9Y,DJI Fly,,1.12.8,4E0D8A0E-693A-B302-A39F-8E30B2387793,1SDCH7G0169R0K,,,,,6.974609918,79.91443494,5,,
2/27/2024,07:28.1,5m 5.9s,305.9,6.974626732,79.91439491,4.5,4.5,5.5,56,1.5,0,0.223694,0,0.223694,0,0,-0.894776,0,3.5,-0.6,24.6,24.6,,P-GPS,Other,,13,5,TRUE,,Mavic Mini,TRUE,FALSE,,Smart,RC,FALSE,TRUE,FALSE,,,TRUE,,FALSE,FALSE,FALSE,FALSE,FALSE,FALSE,FALSE,FALSE,FALSE,FALSE,0,Follow Yaw,0,0,23.2,23.2,FALSE,FALSE,FALSE,FALSE,FALSE,FALSE,,TRUE,Normal,,100,1024,463,1024,1024,1,FALSE,FALSE,FALSE,FALSE,FALSE,0,FALSE,FALSE,FALSE,FALSE,77,7.71,1585,2063,7.733,FALSE,3.856,3.854,0.01,FALSE,FALSE,NA,105.3,105.2,105.2,0,0,0,0,5,3696.4,924.11,,Idle,0,20,FALSE,5,TRUE,6,Go Home,FALSE,FALSE,FALSE,FALSE,FALSE,FALSE,FALSE,FALSE,FALSE,FALSE,FALSE,FALSE,6.974625539,79.91439274,0.8,181.3,328,TRUE,1,1,FALSE,FALSE,FALSE,FALSE,,TRUE,FALSE,FALSE,Course Lock,49.2,254.5,16.4,Calm,39,,1.12.8,Mavic Mini,1SDCH7G0169R0K,1SFLH6Q0AB03DJ,1SRCH7F014TAHX,1U5X071EXP6C9Y,59.5,0.2,19.6,9.90338,4.026492,0,374,Mavic Mini,1SDCH7G0169R0K,1SFLH6Q0AB03DJ,1SRCH7F014TAHX,1U5X071EXP6C9Y,DJI Fly,,1.12.8,4E0D8A0E-693A-B302-A39F-8E30B2387793,1SDCH7G0169R0K,,,,,6.974609918,79.91443494,5,,
2/27/2024,07:28.2,5m 6.0s,306,6.974626715,79.91439489,4.5,4.5,5.9,56,1.6,0,0.223694,0,0.223694,0,0,-0.447388,0,3.3,-0.6,24.6,24.6,,P-GPS,Other,,13,5,TRUE,,Mavic Mini,TRUE,FALSE,,Smart,RC,FALSE,TRUE,FALSE,,,TRUE,,FALSE,FALSE,FALSE,FALSE,FALSE,FALSE,FALSE,FALSE,FALSE,FALSE,0,Follow Yaw,0,0,23.2,23.2,FALSE,FALSE,FALSE,FALSE,FALSE,FALSE,,TRUE,Normal,,100,1024,413,1024,1024,1,FALSE,FALSE,FALSE,FALSE,FALSE,0,FALSE,FALSE,FALSE,FALSE,77,7.71,1585,2063,7.733,FALSE,3.856,3.854,0.01,FALSE,FALSE,NA,105.3,105.2,105.2,0,0,0,0,5,3696.4,924.11,,Idle,0,20,FALSE,5,TRUE,6,Go Home,FALSE,FALSE,FALSE,FALSE,FALSE,FALSE,FALSE,FALSE,FALSE,FALSE,FALSE,FALSE,6.974625539,79.91439274,0.8,181.3,328,TRUE,1,1,FALSE,FALSE,FALSE,FALSE,,TRUE,FALSE,FALSE,Course Lock,49.2,254.5,16.4,Calm,39,,1.12.8,Mavic Mini,1SDCH7G0169R0K,1SFLH6Q0AB03DJ,1SRCH7F014TAHX,1U5X071EXP6C9Y,59.5,0.2,19.6,9.90338,4.026492,0,374,Mavic Mini,1SDCH7G0169R0K,1SFLH6Q0AB03DJ,1SRCH7F014TAHX,1U5X071EXP6C9Y,DJI Fly,,1.12.8,4E0D8A0E-693A-B302-A39F-8E30B2387793,1SDCH7G0169R0K,,,,,6.974609918,79.91443494,5,,
2/27/2024,07:28.3,5m 6.1s,306.1,6.974626651,79.91439487,4.5,4.5,5.9,56,1.6,0,0.223694,0,0.223694,0,0,0,0,6.9,-0.6,24.6,24.6,,P-GPS,Other,,13,5,TRUE,,Mavic Mini,TRUE,FALSE,,Smart,RC,FALSE,TRUE,FALSE,,,TRUE,,FALSE,FALSE,FALSE,FALSE,FALSE,FALSE,FALSE,FALSE,FALSE,FALSE,0,Follow Yaw,0,0,23.2,23.2,FALSE,FALSE,FALSE,FALSE,FALSE,FALSE,,TRUE,Normal,,100,1024,385,1024,1024,1,FALSE,FALSE,FALSE,FALSE,FALSE,0,FALSE,FALSE,FALSE,FALSE,77,7.71,1585,2063,7.733,FALSE,3.856,3.854,0.01,FALSE,FALSE,NA,105.3,105.2,105.2,0,0,0,0,5,3696.4,924.11,,Idle,0,20,FALSE,5,TRUE,6,Go Home,FALSE,FALSE,FALSE,FALSE,FALSE,FALSE,FALSE,FALSE,FALSE,FALSE,FALSE,FALSE,6.974625539,79.91439274,0.8,181.3,328,TRUE,1,1,FALSE,FALSE,FALSE,FALSE,,TRUE,FALSE,FALSE,Course Lock,49.2,254.5,16.4,Calm,39,,1.12.8,Mavic Mini,1SDCH7G0169R0K,1SFLH6Q0AB03DJ,1SRCH7F014TAHX,1U5X071EXP6C9Y,59.5,0.2,19.6,9.90338,4.026492,0,374,Mavic Mini,1SDCH7G0169R0K,1SFLH6Q0AB03DJ,1SRCH7F014TAHX,1U5X071EXP6C9Y,DJI Fly,,1.12.8,4E0D8A0E-693A-B302-A39F-8E30B2387793,1SDCH7G0169R0K,,,,,6.974609918,79.91443494,5,,
2/27/2024,07:28.4,5m 6.2s,306.2,6.974626456,79.91439458,4.5,4.5,5.9,56,1.7,0.223694,0.223694,-0.223694,0.223694,0,0,0,0,12.9,-0.7,24.5,24.5,229.3,P-GPS,Other,,13,5,TRUE,,Mavic Mini,TRUE,FALSE,,Smart,RC,FALSE,TRUE,FALSE,,,TRUE,,FALSE,FALSE,FALSE,FALSE,FALSE,FALSE,FALSE,FALSE,FALSE,FALSE,0,Follow Yaw,0,0,23.2,23.2,FALSE,FALSE,FALSE,FALSE,FALSE,FALSE,,TRUE,Normal,,100,1024,389,1024,1024,1,FALSE,FALSE,FALSE,FALSE,FALSE,0,FALSE,FALSE,FALSE,FALSE,77,7.71,1585,2063,7.733,FALSE,3.856,3.854,0.01,FALSE,FALSE,NA,105.3,105.2,105.2,0,0,0,0,5,3696.4,924.11,,Idle,0,20,FALSE,5,TRUE,6,Go Home,FALSE,FALSE,FALSE,FALSE,FALSE,FALSE,FALSE,FALSE,FALSE,FALSE,FALSE,FALSE,6.974625539,79.91439274,0.7,181.3,328,TRUE,1,1,FALSE,FALSE,FALSE,FALSE,,TRUE,FALSE,FALSE,Course Lock,49.2,254.5,16.4,Calm,39,,1.12.8,Mavic Mini,1SDCH7G0169R0K,1SFLH6Q0AB03DJ,1SRCH7F014TAHX,1U5X071EXP6C9Y,59.5,0.2,19.6,9.90338,4.026492,0,374,Mavic Mini,1SDCH7G0169R0K,1SFLH6Q0AB03DJ,1SRCH7F014TAHX,1U5X071EXP6C9Y,DJI Fly,,1.12.8,4E0D8A0E-693A-B302-A39F-8E30B2387793,1SDCH7G0169R0K,,,,,6.974609918,79.91443494,5,,
2/27/2024,07:28.4,5m 6.3s,306.3,6.974626215,79.91439459,4.5,4.5,5.9,56,1.8,0.671082,0.671082,-0.671082,0.223694,0,0,0,0,16.6,-0.8,24.5,24.5,178.2,P-GPS,Other,,13,5,TRUE,,Mavic Mini,TRUE,FALSE,,Smart,RC,FALSE,TRUE,FALSE,,,TRUE,,FALSE,FALSE,FALSE,FALSE,FALSE,FALSE,FALSE,FALSE,FALSE,FALSE,0,Follow Yaw,0,0,23.2,23.2,FALSE,FALSE,FALSE,FALSE,FALSE,FALSE,,TRUE,Normal,,100,1024,499,1024,1024,1,FALSE,FALSE,FALSE,FALSE,FALSE,0,FALSE,FALSE,FALSE,FALSE,77,7.71,1585,2063,7.733,FALSE,3.856,3.854,0.01,FALSE,FALSE,NA,105.3,105.2,105.2,0,0,0,0,5,3696.4,924.11,,Idle,0,20,FALSE,5,TRUE,6,Go Home,FALSE,FALSE,FALSE,FALSE,FALSE,FALSE,FALSE,FALSE,FALSE,FALSE,FALSE,FALSE,6.974625539,79.91439274,0.7,181.3,328,TRUE,1,1,FALSE,FALSE,FALSE,FALSE,,TRUE,FALSE,FALSE,Course Lock,49.2,254.5,16.4,Calm,39,,1.12.8,Mavic Mini,1SDCH7G0169R0K,1SFLH6Q0AB03DJ,1SRCH7F014TAHX,1U5X071EXP6C9Y,59.5,0.2,19.6,9.90338,4.026492,0,374,Mavic Mini,1SDCH7G0169R0K,1SFLH6Q0AB03DJ,1SRCH7F014TAHX,1U5X071EXP6C9Y,DJI Fly,,1.12.8,4E0D8A0E-693A-B302-A39F-8E30B2387793,1SDCH7G0169R0K,,,,,6.974609918,79.91443494,5,,
2/27/2024,07:28.5,5m 6.4s,306.4,6.974625781,79.91439455,4.5,4.5,5.9,56,2,1.14062,1.14062,-1.11847,0.223694,-0.223694,0,0,0,18,-0.8,24.5,24.5,184.5,P-GPS,Other,,13,5,TRUE,,Mavic Mini,TRUE,FALSE,,Smart,RC,FALSE,TRUE,FALSE,,,TRUE,,FALSE,FALSE,FALSE,FALSE,FALSE,FALSE,FALSE,FALSE,FALSE,FALSE,0,Follow Yaw,0,0,23.2,23.2,FALSE,FALSE,FALSE,FALSE,FALSE,FALSE,,TRUE,Normal,,100,1024,499,1024,1024,1,FALSE,FALSE,FALSE,FALSE,FALSE,0,FALSE,FALSE,FALSE,FALSE,77,7.71,1585,2063,7.733,FALSE,3.856,3.854,0.01,FALSE,FALSE,NA,105.3,105.2,105.2,0,0,0,0,5,3696.4,924.11,,Idle,0,20,FALSE,5,TRUE,6,Go Home,FALSE,FALSE,FALSE,FALSE,FALSE,FALSE,FALSE,FALSE,FALSE,FALSE,FALSE,FALSE,6.974625539,79.91439274,0.6,181.3,328,TRUE,1,1,FALSE,FALSE,FALSE,FALSE,,TRUE,FALSE,FALSE,Course Lock,49.2,254.5,16.4,Calm,39,,1.12.8,Mavic Mini,1SDCH7G0169R0K,1SFLH6Q0AB03DJ,1SRCH7F014TAHX,1U5X071EXP6C9Y,59.5,0.2,19.6,9.90338,4.026492,0,374,Mavic Mini,1SDCH7G0169R0K,1SFLH6Q0AB03DJ,1SRCH7F014TAHX,1U5X071EXP6C9Y,DJI Fly,,1.12.8,4E0D8A0E-693A-B302-A39F-8E30B2387793,1SDCH7G0169R0K,,,,,6.974613313,79.9144331,5,,
2/27/2024,07:28.7,5m 6.5s,306.5,6.974625146,79.91439441,4.5,4.5,5.9,56,2.2,1.628516,1.628516,-1.565858,0.223694,-0.447388,0,0,0,18.2,-1,24.5,24.5,189.4,P-GPS,Other,,13,5,TRUE,,Mavic Mini,TRUE,FALSE,,Smart,RC,FALSE,TRUE,FALSE,,,TRUE,,FALSE,FALSE,FALSE,FALSE,FALSE,FALSE,FALSE,FALSE,FALSE,FALSE,0,Follow Yaw,0,0,23.2,23.2,FALSE,FALSE,FALSE,FALSE,FALSE,FALSE,,TRUE,Normal,,100,1024,1024,1024,1024,1,FALSE,FALSE,FALSE,FALSE,FALSE,0,FALSE,FALSE,FALSE,FALSE,77,7.71,1585,2063,7.733,FALSE,3.856,3.854,0.01,FALSE,FALSE,NA,105.3,105.2,105.2,0,0,0,0,5,3696.4,924.11,,Idle,0,20,FALSE,5,TRUE,6,Go Home,FALSE,FALSE,FALSE,FALSE,FALSE,FALSE,FALSE,FALSE,FALSE,FALSE,FALSE,FALSE,6.974625539,79.91439274,0.6,181.3,328,TRUE,1,1,FALSE,FALSE,FALSE,FALSE,,TRUE,FALSE,FALSE,Course Lock,49.2,254.5,16.4,Calm,39,,1.12.8,Mavic Mini,1SDCH7G0169R0K,1SFLH6Q0AB03DJ,1SRCH7F014TAHX,1U5X071EXP6C9Y,59.5,0.2,19.6,9.90338,4.026492,0,374,Mavic Mini,1SDCH7G0169R0K,1SFLH6Q0AB03DJ,1SRCH7F014TAHX,1U5X071EXP6C9Y,DJI Fly,,1.12.8,4E0D8A0E-693A-B302-A39F-8E30B2387793,1SDCH7G0169R0K,,,,,6.974613313,79.9144331,5,,
2/27/2024,07:28.7,5m 6.6s,306.6,6.974624186,79.91439437,4.5,4.5,5.9,56,2.5,2.409258,2.409258,-2.23694,0.223694,-0.894776,0,0,0,16.5,-1,24.5,24.5,181.6,P-GPS,Other,,13,5,TRUE,,Mavic Mini,TRUE,FALSE,,Smart,RC,FALSE,TRUE,FALSE,,,TRUE,,FALSE,FALSE,FALSE,FALSE,FALSE,FALSE,FALSE,FALSE,FALSE,FALSE,0,Follow Yaw,0,0,23.2,23.2,FALSE,FALSE,FALSE,FALSE,FALSE,FALSE,,TRUE,Normal,,100,1024,1024,1024,1024,1,FALSE,FALSE,FALSE,FALSE,FALSE,0,FALSE,FALSE,FALSE,FALSE,77,7.71,1585,2063,7.733,FALSE,3.856,3.854,0.01,FALSE,FALSE,NA,105.3,105.2,105.2,0,0,0,0,5,3696.4,924.11,,Idle,0,20,FALSE,5,TRUE,6,Go Home,FALSE,FALSE,FALSE,FALSE,FALSE,FALSE,FALSE,FALSE,FALSE,FALSE,FALSE,FALSE,6.974625539,79.91439274,0.7,181.3,328,TRUE,1,1,FALSE,FALSE,FALSE,FALSE,,TRUE,FALSE,FALSE,Course Lock,49.2,254.5,16.4,Calm,39,,1.12.8,Mavic Mini,1SDCH7G0169R0K,1SFLH6Q0AB03DJ,1SRCH7F014TAHX,1U5X071EXP6C9Y,59.5,0.2,19.6,9.90338,4.026492,0,374,Mavic Mini,1SDCH7G0169R0K,1SFLH6Q0AB03DJ,1SRCH7F014TAHX,1U5X071EXP6C9Y,DJI Fly,,1.12.8,4E0D8A0E-693A-B302-A39F-8E30B2387793,1SDCH7G0169R0K,,,,,6.974613313,79.9144331,5,,
2/27/2024,07:28.8,5m 6.7s,306.7,6.974623155,79.91439401,4.2,4.5,5.9,56,2.9,2.82953,2.82953,-2.684328,0.223694,-0.894776,0,0,0,5.8,-1.2,24.7,24.7,195,P-GPS,Other,,13,5,TRUE,,Mavic Mini,TRUE,FALSE,,Smart,RC,FALSE,TRUE,FALSE,,,TRUE,,FALSE,FALSE,FALSE,FALSE,FALSE,FALSE,FALSE,FALSE,FALSE,FALSE,0,Follow Yaw,0,0,23.2,23.2,FALSE,FALSE,FALSE,FALSE,FALSE,FALSE,,TRUE,Normal,,100,1024,1024,1024,1024,1,FALSE,FALSE,FALSE,FALSE,FALSE,0,FALSE,FALSE,FALSE,FALSE,77,7.685,1584,2063,7.733,FALSE,3.846,3.839,0.01,FALSE,FALSE,NA,105.4,105.2,105.4,0,0,0,0,5,3696.4,924.11,,Idle,0,20,FALSE,5,TRUE,6,Go Home,FALSE,FALSE,FALSE,FALSE,FALSE,FALSE,FALSE,FALSE,FALSE,FALSE,FALSE,FALSE,6.974625539,79.91439274,0.9,181.3,328,TRUE,1,1,FALSE,FALSE,FALSE,FALSE,,TRUE,FALSE,FALSE,Course Lock,49.2,254.5,16.4,Calm,39,,1.12.8,Mavic Mini,1SDCH7G0169R0K,1SFLH6Q0AB03DJ,1SRCH7F014TAHX,1U5X071EXP6C9Y,59.5,0.2,19.6,9.90338,4.026492,0,374,Mavic Mini,1SDCH7G0169R0K,1SFLH6Q0AB03DJ,1SRCH7F014TAHX,1U5X071EXP6C9Y,DJI Fly,,1.12.8,4E0D8A0E-693A-B302-A39F-8E30B2387793,1SDCH7G0169R0K,,,,,6.974613313,79.9144331,5,,
2/27/2024,07:28.9,5m 6.8s,306.8,6.974622022,79.91439359,4.2,4.5,5.9,56,3.4,2.618271,2.82953,-2.460634,0.223694,-0.894776,0,0,0,-7.3,-1.1,24.8,24.8,195.8,P-GPS,Other,,13,5,TRUE,,Mavic Mini,TRUE,FALSE,,Smart,RC,FALSE,TRUE,FALSE,,,TRUE,,FALSE,FALSE,FALSE,FALSE,FALSE,FALSE,FALSE,FALSE,FALSE,FALSE,0,Follow Yaw,0,0,23.2,23.2,FALSE,FALSE,FALSE,FALSE,FALSE,FALSE,,TRUE,Normal,,100,1024,1024,1024,1024,1,FALSE,FALSE,FALSE,FALSE,FALSE,0,FALSE,FALSE,FALSE,FALSE,77,7.685,1584,2063,7.733,FALSE,3.846,3.839,0.01,FALSE,FALSE,NA,105.4,105.2,105.4,0,0,0,0,5,3696.4,924.11,,Idle,0,20,FALSE,5,TRUE,6,Go Home,FALSE,FALSE,FALSE,FALSE,FALSE,FALSE,FALSE,FALSE,FALSE,FALSE,FALSE,FALSE,6.974625539,79.91439274,1.3,181.3,328,TRUE,1,1,FALSE,FALSE,FALSE,FALSE,,TRUE,FALSE,FALSE,Course Lock,49.2,254.5,16.4,Calm,39,,1.12.8,Mavic Mini,1SDCH7G0169R0K,1SFLH6Q0AB03DJ,1SRCH7F014TAHX,1U5X071EXP6C9Y,59.5,0.2,19.6,9.90338,4.026492,0,374,Mavic Mini,1SDCH7G0169R0K,1SFLH6Q0AB03DJ,1SRCH7F014TAHX,1U5X071EXP6C9Y,DJI Fly,,1.12.8,4E0D8A0E-693A-B302-A39F-8E30B2387793,1SDCH7G0169R0K,,,,,6.974613313,79.9144331,5,,
2/27/2024,07:29.0,5m 6.9s,306.9,6.974620932,79.91439316,4.2,4.5,5.9,56,3.8,2.335433,2.82953,-2.23694,0.223694,-0.671082,0,0,0,-10.6,-1,24.8,24.8,197.2,P-GPS,Other,,13,5,TRUE,,Mavic Mini,TRUE,FALSE,,Smart,RC,FALSE,TRUE,FALSE,,,TRUE,,FALSE,FALSE,FALSE,FALSE,FALSE,FALSE,FALSE,FALSE,FALSE,FALSE,0,Follow Yaw,0,0,23.2,23.2,FALSE,FALSE,FALSE,FALSE,FALSE,FALSE,,TRUE,Normal,,100,1024,1024,1024,1024,1,FALSE,FALSE,FALSE,FALSE,FALSE,0,FALSE,FALSE,FALSE,FALSE,77,7.685,1584,2063,7.648,FALSE,3.846,3.839,0.01,FALSE,FALSE,NA,105.4,105.2,105.4,0,0,0,0,5,5509.2,1377.3,,Idle,0,20,FALSE,5,TRUE,6,Go Home,FALSE,FALSE,FALSE,FALSE,FALSE,FALSE,FALSE,FALSE,FALSE,FALSE,FALSE,FALSE,6.974625539,79.91439274,1.6,181.3,328,TRUE,1,1,FALSE,FALSE,FALSE,FALSE,,TRUE,FALSE,FALSE,Course Lock,49.2,254.5,16.4,Calm,39,,1.12.8,Mavic Mini,1SDCH7G0169R0K,1SFLH6Q0AB03DJ,1SRCH7F014TAHX,1U5X071EXP6C9Y,59.5,0.2,19.6,9.90338,4.026492,0,374,Mavic Mini,1SDCH7G0169R0K,1SFLH6Q0AB03DJ,1SRCH7F014TAHX,1U5X071EXP6C9Y,DJI Fly,,1.12.8,4E0D8A0E-693A-B302-A39F-8E30B2387793,1SDCH7G0169R0K,,,,,6.974613313,79.9144331,5,,
2/27/2024,07:29.2,5m 7.0s,307,6.974619931,79.91439275,4.2,4.5,5.9,56,4.2,1.844627,2.82953,-1.789552,0.223694,-0.447388,0,0,0,-9.8,-1,24.8,24.8,197.3,P-GPS,Other,,13,5,TRUE,,Mavic Mini,TRUE,FALSE,,Smart,RC,FALSE,TRUE,FALSE,,,TRUE,,FALSE,FALSE,FALSE,FALSE,FALSE,FALSE,FALSE,FALSE,FALSE,FALSE,0,Follow Yaw,0,0,23.2,23.2,FALSE,FALSE,FALSE,FALSE,FALSE,FALSE,,TRUE,Normal,,100,1024,1024,1024,1024,1,FALSE,FALSE,FALSE,FALSE,FALSE,0,FALSE,FALSE,FALSE,FALSE,77,7.685,1584,2063,7.648,FALSE,3.846,3.839,0.01,FALSE,FALSE,NA,105.4,105.2,105.4,0,0,0,0,5,5509.2,1377.3,,Idle,0,20,FALSE,5,TRUE,6,Go Home,FALSE,FALSE,FALSE,FALSE,FALSE,FALSE,FALSE,FALSE,FALSE,FALSE,FALSE,FALSE,6.974625539,79.91439274,2,181.3,328,TRUE,1,1,FALSE,FALSE,FALSE,FALSE,,TRUE,FALSE,FALSE,Course Lock,49.2,254.5,16.4,Calm,39,,1.12.8,Mavic Mini,1SDCH7G0169R0K,1SFLH6Q0AB03DJ,1SRCH7F014TAHX,1U5X071EXP6C9Y,59.5,0.2,19.6,9.90338,4.026492,0,374,Mavic Mini,1SDCH7G0169R0K,1SFLH6Q0AB03DJ,1SRCH7F014TAHX,1U5X071EXP6C9Y,DJI Fly,,1.12.8,4E0D8A0E-693A-B302-A39F-8E30B2387793,1SDCH7G0169R0K,,,,,6.974613313,79.9144331,5,,
2/27/2024,07:29.3,5m 7.1s,307.1,6.974618937,79.91439241,4.2,4.5,5.9,56,4.6,1.14062,2.82953,-1.11847,0.223694,-0.223694,0,0,0,-8,-1.1,24.9,24.9,194.6,P-GPS,Other,,13,5,TRUE,,Mavic Mini,TRUE,FALSE,,Smart,RC,FALSE,TRUE,FALSE,,,TRUE,,FALSE,FALSE,FALSE,FALSE,FALSE,FALSE,FALSE,FALSE,FALSE,FALSE,0,Follow Yaw,0,0,23.2,23.2,FALSE,FALSE,FALSE,FALSE,FALSE,FALSE,,TRUE,Normal,,100,1024,1024,1024,1024,1,FALSE,FALSE,FALSE,FALSE,FALSE,0,FALSE,FALSE,FALSE,FALSE,77,7.685,1584,2063,7.648,FALSE,3.846,3.839,0.01,FALSE,FALSE,NA,105.4,105.2,105.4,0,0,0,0,5,5509.2,1377.3,,Idle,0,20,FALSE,5,TRUE,6,Go Home,FALSE,FALSE,FALSE,FALSE,FALSE,FALSE,FALSE,FALSE,FALSE,FALSE,FALSE,FALSE,6.974625539,79.91439274,2.4,181.3,328,TRUE,1,1,FALSE,FALSE,FALSE,FALSE,,TRUE,FALSE,FALSE,Course Lock,49.2,254.5,16.4,Calm,39,,1.12.8,Mavic Mini,1SDCH7G0169R0K,1SFLH6Q0AB03DJ,1SRCH7F014TAHX,1U5X071EXP6C9Y,59.5,0.2,19.6,9.90338,4.026492,0,374,Mavic Mini,1SDCH7G0169R0K,1SFLH6Q0AB03DJ,1SRCH7F014TAHX,1U5X071EXP6C9Y,DJI Fly,,1.12.8,4E0D8A0E-693A-B302-A39F-8E30B2387793,1SDCH7G0169R0K,,,,,6.974613313,79.9144331,5,,
2/27/2024,07:29.4,5m 7.2s,307.2,6.974617983,79.91439211,4.2,4.5,5.9,56,4.9,0.922313,2.82953,-0.894776,0.223694,-0.223694,0,0,0,-5.9,-1.1,24.8,24.8,193.5,P-GPS,Other,,13,5,TRUE,,Mavic Mini,TRUE,FALSE,,Smart,RC,FALSE,TRUE,FALSE,,,TRUE,,FALSE,FALSE,FALSE,FALSE,FALSE,FALSE,FALSE,FALSE,FALSE,FALSE,0,Follow Yaw,0,0,23.2,23.2,FALSE,FALSE,FALSE,FALSE,FALSE,FALSE,,TRUE,Normal,,100,1024,1024,1024,1024,1,FALSE,FALSE,FALSE,FALSE,FALSE,0,FALSE,FALSE,FALSE,FALSE,77,7.685,1584,2063,7.648,FALSE,3.846,3.839,0.01,FALSE,FALSE,NA,105.4,105.2,105.4,0,0,0,0,5,5509.2,1377.3,,Idle,0,20,FALSE,5,TRUE,6,Go Home,FALSE,FALSE,FALSE,FALSE,FALSE,FALSE,FALSE,FALSE,FALSE,FALSE,FALSE,FALSE,6.974625539,79.91439274,2.7,181.3,328,TRUE,1,1,FALSE,FALSE,FALSE,FALSE,,TRUE,FALSE,FALSE,Course Lock,49.2,254.5,16.4,Calm,39,,1.12.8,Mavic Mini,1SDCH7G0169R0K,1SFLH6Q0AB03DJ,1SRCH7F014TAHX,1U5X071EXP6C9Y,59.5,0.2,19.6,9.90338,4.026492,0,374,Mavic Mini,1SDCH7G0169R0K,1SFLH6Q0AB03DJ,1SRCH7F014TAHX,1U5X071EXP6C9Y,DJI Fly,,1.12.8,4E0D8A0E-693A-B302-A39F-8E30B2387793,1SDCH7G0169R0K,,,,,6.974613313,79.9144331,5,,
2/27/2024,07:29.4,5m 7.3s,307.3,6.97461749,79.91439197,4.2,4.5,5.9,56,5.1,0.447388,2.82953,-0.447388,0.223694,0,0,0,0,-4,-1,24.9,24.9,192.3,P-GPS,Other,,13,5,TRUE,,Mavic Mini,TRUE,FALSE,,Smart,RC,FALSE,TRUE,FALSE,,,TRUE,,FALSE,FALSE,FALSE,FALSE,FALSE,FALSE,FALSE,FALSE,FALSE,FALSE,0,Follow Yaw,0,0,23.2,23.2,FALSE,FALSE,FALSE,FALSE,FALSE,FALSE,,TRUE,Normal,,100,1024,1024,1024,1024,1,FALSE,FALSE,FALSE,FALSE,FALSE,0,FALSE,FALSE,FALSE,FALSE,77,7.685,1584,2063,7.648,FALSE,3.846,3.839,0.01,FALSE,FALSE,NA,105.4,105.2,105.4,0,0,0,0,5,5509.2,1377.3,,Idle,0,20,FALSE,5,TRUE,6,Go Home,FALSE,FALSE,FALSE,FALSE,FALSE,FALSE,FALSE,FALSE,FALSE,FALSE,FALSE,FALSE,6.974625539,79.91439274,2.9,181.3,328,TRUE,1,1,FALSE,FALSE,FALSE,FALSE,,TRUE,FALSE,FALSE,Course Lock,49.2,254.5,16.4,Calm,39,,1.12.8,Mavic Mini,1SDCH7G0169R0K,1SFLH6Q0AB03DJ,1SRCH7F014TAHX,1U5X071EXP6C9Y,59.5,0.2,19.6,9.90338,4.026492,0,374,Mavic Mini,1SDCH7G0169R0K,1SFLH6Q0AB03DJ,1SRCH7F014TAHX,1U5X071EXP6C9Y,DJI Fly,,1.12.8,4E0D8A0E-693A-B302-A39F-8E30B2387793,1SDCH7G0169R0K,,,,,6.974613313,79.9144331,5,,
2/27/2024,07:29.5,5m 7.4s,307.4,6.974617174,79.9143919,4.2,4.5,5.9,56,5.3,0.223694,2.82953,-0.223694,0.223694,0,0,0,0,-2.5,-1,24.8,24.8,190.3,P-GPS,Other,,13,5,TRUE,,Mavic Mini,TRUE,FALSE,,Smart,RC,FALSE,TRUE,FALSE,,,TRUE,,FALSE,FALSE,FALSE,FALSE,FALSE,FALSE,FALSE,FALSE,FALSE,FALSE,0,Follow Yaw,0,0,23.2,23.2,FALSE,FALSE,FALSE,FALSE,FALSE,FALSE,,TRUE,Normal,,100,1024,1024,1024,1024,1,FALSE,FALSE,FALSE,FALSE,FALSE,0,FALSE,FALSE,FALSE,FALSE,77,7.685,1584,2063,7.648,FALSE,3.846,3.839,0.01,FALSE,FALSE,NA,105.4,105.2,105.4,0,0,0,0,5,5509.2,1377.3,,Idle,0,20,FALSE,5,TRUE,6,Go Home,FALSE,FALSE,FALSE,FALSE,FALSE,FALSE,FALSE,FALSE,FALSE,FALSE,FALSE,FALSE,6.974625539,79.91439274,3,181.3,328,TRUE,1,1,FALSE,FALSE,FALSE,FALSE,,TRUE,FALSE,FALSE,Course Lock,49.2,254.5,16.4,Calm,39,,1.12.8,Mavic Mini,1SDCH7G0169R0K,1SFLH6Q0AB03DJ,1SRCH7F014TAHX,1U5X071EXP6C9Y,59.5,0.2,19.6,9.90338,4.026492,0,374,Mavic Mini,1SDCH7G0169R0K,1SFLH6Q0AB03DJ,1SRCH7F014TAHX,1U5X071EXP6C9Y,DJI Fly,,1.12.8,4E0D8A0E-693A-B302-A39F-8E30B2387793,1SDCH7G0169R0K,,,,,6.974613313,79.9144331,5,,
2/27/2024,07:29.7,5m 7.5s,307.5,6.974617647,79.91439229,4.2,4.5,5.5,56,5.5,0.223694,2.82953,-0.223694,0.223694,0,0,0,0,-1.2,-1,24.9,24.9,32.2,P-GPS,Other,,13,5,TRUE,,Mavic Mini,TRUE,FALSE,,Smart,RC,FALSE,TRUE,FALSE,,,TRUE,,FALSE,FALSE,FALSE,FALSE,FALSE,FALSE,FALSE,FALSE,FALSE,FALSE,0,Follow Yaw,0,0,23.2,23.2,FALSE,FALSE,FALSE,FALSE,FALSE,FALSE,,TRUE,Normal,,100,1024,1024,1024,1024,1,FALSE,FALSE,FALSE,FALSE,FALSE,0,FALSE,FALSE,FALSE,FALSE,77,7.685,1584,2063,7.648,FALSE,3.846,3.839,0.01,FALSE,FALSE,NA,105.4,105.2,105.4,0,0,0,0,5,5509.2,1377.3,,Idle,0,20,FALSE,5,TRUE,6,Go Home,FALSE,FALSE,FALSE,FALSE,FALSE,FALSE,FALSE,FALSE,FALSE,FALSE,FALSE,FALSE,6.974625539,79.91439274,2.8,181.3,328,TRUE,1,1,FALSE,FALSE,FALSE,FALSE,,TRUE,FALSE,FALSE,Course Lock,49.2,254.5,16.4,Calm,39,,1.12.8,Mavic Mini,1SDCH7G0169R0K,1SFLH6Q0AB03DJ,1SRCH7F014TAHX,1U5X071EXP6C9Y,59.5,0.2,19.6,9.90338,4.026492,0,374,Mavic Mini,1SDCH7G0169R0K,1SFLH6Q0AB03DJ,1SRCH7F014TAHX,1U5X071EXP6C9Y,DJI Fly,,1.12.8,4E0D8A0E-693A-B302-A39F-8E30B2387793,1SDCH7G0169R0K,,,,,6.974613313,79.9144331,5,,
2/27/2024,07:29.7,5m 7.6s,307.6,6.974617684,79.91439242,3.9,4.5,5.5,56,5.5,0,2.82953,0,0.223694,0,0,0,0,-0.4,-1,24.8,24.8,,P-GPS,Other,,14,5,TRUE,,Mavic Mini,TRUE,FALSE,,Smart,RC,FALSE,TRUE,FALSE,,,TRUE,,FALSE,FALSE,FALSE,FALSE,FALSE,FALSE,FALSE,FALSE,FALSE,FALSE,0,Follow Yaw,0,0,23.2,23.2,FALSE,FALSE,FALSE,FALSE,FALSE,FALSE,,TRUE,Normal,,100,1024,1024,1024,1024,1,FALSE,FALSE,FALSE,FALSE,FALSE,0,FALSE,FALSE,FALSE,FALSE,77,7.685,1584,2063,7.648,FALSE,3.846,3.839,0.01,FALSE,FALSE,NA,105.4,105.2,105.4,0,0,0,0,5,5509.2,1377.3,,Idle,0,20,FALSE,5,TRUE,6,Go Home,FALSE,FALSE,FALSE,FALSE,FALSE,FALSE,FALSE,FALSE,FALSE,FALSE,FALSE,FALSE,6.974625539,79.91439274,2.8,181.3,328,TRUE,1,1,FALSE,FALSE,FALSE,FALSE,,TRUE,FALSE,FALSE,Course Lock,49.2,254.5,16.4,Calm,39,,1.12.8,Mavic Mini,1SDCH7G0169R0K,1SFLH6Q0AB03DJ,1SRCH7F014TAHX,1U5X071EXP6C9Y,59.5,0.2,19.6,9.90338,4.026492,0,374,Mavic Mini,1SDCH7G0169R0K,1SFLH6Q0AB03DJ,1SRCH7F014TAHX,1U5X071EXP6C9Y,DJI Fly,,1.12.8,4E0D8A0E-693A-B302-A39F-8E30B2387793,1SDCH7G0169R0K,,,,,6.974613313,79.9144331,5,,
