CUSTOM.date [local],CUSTOM.updateTime [local],OSD.flyTime,OSD.flyTime [s],OSD.latitude,OSD.longitude,OSD.height [ft],OSD.heightMax [ft],OSD.vpsHeight [ft],OSD.altitude [ft],OSD.mileage [ft],OSD.hSpeed [MPH],OSD.hSpeedMax [MPH],OSD.xSpeed [MPH],OSD.xSpeedMax [MPH],OSD.ySpeed [MPH],OSD.ySpeedMax [MPH],OSD.zSpeed [MPH],OSD.zSpeedMax [MPH],OSD.pitch,OSD.roll,OSD.yaw,OSD.yaw [360],OSD.directionOfTravel,OSD.flycState,OSD.flycCommand,OSD.flightAction,OSD.gpsNum,OSD.gpsLevel,OSD.isGPSUsed,OSD.nonGPSCause,OSD.droneType,OSD.isSwaveWork,OSD.waveError,OSD.goHomeStatus,OSD.batteryType,OSD.ctrlDevice,OSD.isOnGround,OSD.isMotorOn,OSD.isMotorBlocked,OSD.motorStartFailedCause,OSD.motorFailReason,OSD.isImuPreheated,OSD.imuInitFailReason,OSD.isAcceletorOverRange,OSD.isBarometerDeadInAir,OSD.isCompassError,OSD.isGoHomeHeightModified,OSD.canIOCWork,OSD.isNotEnoughForce,OSD.isOutOfLimit,OSD.isPropellerCatapult,OSD.isVibrating,OSD.isVisionUsed,OSD.voltageWarning,GIMBAL.mode,GIMBAL.pitch,GIMBAL.roll,GIMBAL.yaw,GIMBAL.yaw [360],GIMBAL.isPitchAtLimit,GIMBAL.isRollAtLimit,GIMBAL.isYawAtLimit,GIMBAL.isStuck,CAMERA.isPhoto,CAMERA.isVideo,CAMERA.filename,CAMERA.sdCardIsInserted,CAMERA.sdCardState,RC.downlinkSignal,RC.uplinkSignal,RC.aileron,RC.elevator,RC.throttle,RC.rudder,RC.mode,RC.goHomeDepressed,RC.recordDepressed,RC.shutterDepressed,RC.playbackDepressed,RC.wheelDepressed,RC.wheelOffset,RC.custom1Depressed,RC.custom2Depressed,RC.custom3Depressed,RC.custom4Depressed,BATTERY.chargeLevel,BATTERY.currentPV [V],BATTERY.currentCapacity [mAh],BATTERY.fullCapacity [mAh],BATTERY.voltage [V],BATTERY.isCellVoltageEstimated,BATTERY.cellVoltage1 [V],BATTERY.cellVoltage2 [V],BATTERY.maxCellVoltageDeviation,BATTERY.isCellVoltageDeviationHigh,BATTERY.isVoltageLow,BATTERY.current [A],BATTERY.temperature [F],BATTERY.minTemperature [F],BATTERY.maxTemperature [F],BATTERY.usefulTime [s],BATTERY.goHomeTime [s],BATTERY.landTime [s],BATTERY.goHomeBattery,BATTERY.landBattery,BATTERY.safeFlyRadius,BATTERY.volumeConsume,BATTERY.status,BATTERY.goHomeStatus,BATTERY.goHomeCountdown,BATTERY.lowWarning,BATTERY.lowWarningGoHome,BATTERY.seriousLowWarning,BATTERY.seriousLowWarningLanding,BATTERY.timesCharged,MC.failSafeAction,MC.isObstacleAvoidanceEnabled,MC.isCollisionAvoidanceEnabled,MC.isRthObstacleAvoidanceEnabled,MC.isBraking,MC.isAvoidingObstacle,MC.isAvoidingActiveObstacle,MC.isAscentLimitedByObstacle,MC.isLandingConfirmationNeeded,MC.atLowAltitudeLimit,MC.atDistanceLimit,MC.atAirportAltitudeLimit,MC.atAirportBoundary,HOME.latitude,HOME.longitude,HOME.distance [ft],HOME.height [ft],HOME.heightLimit [ft],HOME.isHomeRecord,HOME.goHomeMode,HOME.aircraftHeadDirection,HOME.isDynamicHomePointEnabled,HOME.isReachedLimitDistance,HOME.isReachedLimitHeight,HOME.isCompassCalibrating,HOME.compassCalibrationState,HOME.isMultipleFlightModeEnabled,HOME.isBeginnerMode,HOME.isIOCEnabled,HOME.iocMode,HOME.goHomeHeight [ft],HOME.courseLockAngle,HOME.forceLandingHeight [ft],HOME.wind,HOME.dataRecorderFileIndex,RECOVER.appType,RECOVER.appVersion,RECOVER.aircraftName,RECOVER.aircraftSerial,RECOVER.cameraSerial,RECOVER.rcSerial,RECOVER.batterySerial,DETAILS.totalTime [s],DETAILS.totalDistance [ft],DETAILS.maxHeight [ft],DETAILS.maxHorizontalSpeed [MPH],DETAILS.maxVerticalSpeed [MPH],DETAILS.photoNum,DETAILS.videoTime [s],DETAILS.aircraftName,DETAILS.aircraftSerial,DETAILS.cameraSerial,DETAILS.rcSerial,DETAILS.batterySerial,DETAILS.appName,DETAILS.appType,DETAILS.appVersion,DETAILS.guid,SERIAL.flightController,SERIAL.camera,SERIAL.gimbal,SERIAL.rc,SERIAL.battery,APPGPS.latitude,APPGPS.longitude,APPGPS.accuracy,APP.tip,APP.warning
2/21/2024,45:28.2,10m 1.9s,601.9,6.974135474,79.91427639,0,0,0.6,52,0,0,0,0,0,0,0,0,0,4.4,0.8,-58.7,301.3,,Tripod,Other,Takeoff (RC Assisted),14,5,TRUE,,Mavic Mini,FALSE,FALSE,,Smart,RC,TRUE,TRUE,FALSE,,,TRUE,,FALSE,FALSE,FALSE,FALSE,FALSE,FALSE,FALSE,FALSE,FALSE,FALSE,0,Follow Yaw,0,0,-47.2,312.8,FALSE,FALSE,FALSE,FALSE,FALSE,FALSE,,TRUE,Normal,,,364,364,364,1684,2,FALSE,FALSE,FALSE,FALSE,FALSE,0,FALSE,FALSE,FALSE,FALSE,34,7.204,678,2051,7.201,TRUE,3.601,3.601,,FALSE,FALSE,NA,112.3,112.2,112.2,0,0,0,0,5,2780.3,695.08,,Idle,0,20,FALSE,5,TRUE,10,Go Home,FALSE,FALSE,FALSE,FALSE,FALSE,FALSE,FALSE,FALSE,FALSE,FALSE,FALSE,FALSE,6.974132988,79.91426724,3.4,140.2,328,TRUE,1,1,FALSE,FALSE,FALSE,FALSE,,TRUE,FALSE,FALSE,Course Lock,49.2,,16.4,Calm,29,,1.12.8,Mavic Mini,1SDCH7G0169R0K,1SFLH6Q0AB03DJ,1SRCH7F014TAHX,1U5X071EXP5ZJG,63.3,0.3,19.6,8.712657,2.460634,0,0,Mavic Mini,1SDCH7G0169R0K,1SFLH6Q0AB03DJ,1SRCH7F014TAHX,1U5X071EXP5ZJG,DJI Fly,,1.12.8,B1931411-03CA-98FD-EBCA-EEEFA2A9FF0F,1SDCH7G0169R0K,,,,,,,,Data Recorder File Index is 29.; Set Return to Home (RTH) altitude to 15 m (49 ft).; Set maximum flight altitude to 100 m (328 ft).; Flight mode changed to Tripod.,
2/21/2024,35:26.5,10m 2.0s,602,6.97413543,79.91427639,0,0,0.6,52,0,0,0,0,0,0,0,0,0,4.4,0.8,-58.7,301.3,,Starting Motors,Other,Takeoff (RC Assisted),14,5,TRUE,,Mavic Mini,FALSE,FALSE,,Smart,RC,TRUE,TRUE,FALSE,,,TRUE,,FALSE,FALSE,FALSE,FALSE,FALSE,FALSE,FALSE,FALSE,FALSE,FALSE,0,Follow Yaw,0,0,-47.2,312.8,FALSE,FALSE,FALSE,FALSE,FALSE,FALSE,,TRUE,Normal,,,1024,1024,1020,1056,2,FALSE,FALSE,FALSE,FALSE,FALSE,0,FALSE,FALSE,FALSE,FALSE,34,7.204,678,2051,7.201,TRUE,3.601,3.601,,FALSE,FALSE,NA,112.3,112.2,112.2,0,0,0,0,5,2780.3,695.08,,Idle,0,20,FALSE,5,TRUE,10,Go Home,FALSE,FALSE,FALSE,FALSE,FALSE,FALSE,FALSE,FALSE,FALSE,FALSE,FALSE,FALSE,6.974132988,79.91426724,3.4,140.2,328,TRUE,1,1,FALSE,FALSE,FALSE,FALSE,,TRUE,FALSE,FALSE,Course Lock,49.2,,16.4,Calm,29,,1.12.8,Mavic Mini,1SDCH7G0169R0K,1SFLH6Q0AB03DJ,1SRCH7F014TAHX,1U5X071EXP5ZJG,63.3,0.3,19.6,8.712657,2.460634,0,0,Mavic Mini,1SDCH7G0169R0K,1SFLH6Q0AB03DJ,1SRCH7F014TAHX,1U5X071EXP5ZJG,DJI Fly,,1.12.8,B1931411-03CA-98FD-EBCA-EEEFA2A9FF0F,1SDCH7G0169R0K,,,,,,,,Flight mode changed to Starting Motors.,
2/21/2024,35:26.6,10m 2.1s,602.1,6.97413541,79.91427637,0,0,0.3,52,0,0,0,0,0,0,0,0,0,4.4,0.8,-58.7,301.3,,Starting Motors,Other,Takeoff (RC Assisted),14,5,TRUE,,Mavic Mini,TRUE,FALSE,,Smart,RC,TRUE,TRUE,FALSE,,,TRUE,,FALSE,FALSE,FALSE,FALSE,FALSE,FALSE,FALSE,FALSE,FALSE,FALSE,0,Follow Yaw,0,0,-47.2,312.8,FALSE,FALSE,FALSE,FALSE,FALSE,FALSE,,TRUE,Normal,,,1024,1024,1024,1024,2,FALSE,FALSE,FALSE,FALSE,FALSE,0,FALSE,FALSE,FALSE,FALSE,34,7.204,678,2051,7.201,TRUE,3.601,3.601,,FALSE,FALSE,NA,112.3,112.2,112.2,0,0,0,0,5,2780.3,695.08,,Idle,0,20,FALSE,5,TRUE,10,Go Home,FALSE,FALSE,FALSE,FALSE,FALSE,FALSE,FALSE,FALSE,FALSE,FALSE,FALSE,FALSE,6.974132988,79.91426724,3.4,140.2,328,TRUE,1,1,FALSE,FALSE,FALSE,FALSE,,TRUE,FALSE,FALSE,Course Lock,49.2,,16.4,Calm,29,,1.12.8,Mavic Mini,1SDCH7G0169R0K,1SFLH6Q0AB03DJ,1SRCH7F014TAHX,1U5X071EXP5ZJG,63.3,0.3,19.6,8.712657,2.460634,0,0,Mavic Mini,1SDCH7G0169R0K,1SFLH6Q0AB03DJ,1SRCH7F014TAHX,1U5X071EXP5ZJG,DJI Fly,,1.12.8,B1931411-03CA-98FD-EBCA-EEEFA2A9FF0F,1SDCH7G0169R0K,,,,,,,,,
2/21/2024,35:26.7,10m 2.2s,602.2,6.974135437,79.91427618,0,0,0.3,52,0,0,0,0,0,0,0,0,0,4.4,0.9,-58.7,301.3,,Starting Motors,Other,Takeoff (RC Assisted),14,5,TRUE,,Mavic Mini,TRUE,FALSE,,Smart,RC,TRUE,TRUE,FALSE,,,TRUE,,FALSE,FALSE,FALSE,FALSE,FALSE,FALSE,FALSE,FALSE,FALSE,FALSE,0,Follow Yaw,0,0,-47.2,312.8,FALSE,FALSE,FALSE,FALSE,FALSE,FALSE,,TRUE,Normal,,,1024,1024,1024,1024,2,FALSE,FALSE,FALSE,FALSE,FALSE,0,FALSE,FALSE,FALSE,FALSE,34,7.204,678,2051,7.201,TRUE,3.601,3.601,,FALSE,FALSE,NA,112.3,112.2,112.2,0,0,0,0,5,2780.3,695.08,,Idle,0,20,FALSE,5,TRUE,10,Go Home,FALSE,FALSE,FALSE,FALSE,FALSE,FALSE,FALSE,FALSE,FALSE,FALSE,FALSE,FALSE,6.974132988,79.91426724,3.3,140.2,328,TRUE,1,1,FALSE,FALSE,FALSE,FALSE,,TRUE,FALSE,FALSE,Course Lock,49.2,,16.4,Calm,29,,1.12.8,Mavic Mini,1SDCH7G0169R0K,1SFLH6Q0AB03DJ,1SRCH7F014TAHX,1U5X071EXP5ZJG,63.3,0.3,19.6,8.712657,2.460634,0,0,Mavic Mini,1SDCH7G0169R0K,1SFLH6Q0AB03DJ,1SRCH7F014TAHX,1U5X071EXP5ZJG,DJI Fly,,1.12.8,B1931411-03CA-98FD-EBCA-EEEFA2A9FF0F,1SDCH7G0169R0K,,,,,,,,,
2/21/2024,35:26.8,10m 2.3s,602.3,6.974135442,79.91427615,0,0,0.3,52,0,0,0,0,0,0,0,0,0,4.4,0.8,-58.7,301.3,,Starting Motors,Other,Takeoff (RC Assisted),14,5,TRUE,,Mavic Mini,TRUE,FALSE,,Smart,RC,TRUE,TRUE,FALSE,,,TRUE,,FALSE,FALSE,FALSE,FALSE,FALSE,FALSE,FALSE,FALSE,FALSE,FALSE,0,Follow Yaw,0,0,-47.2,312.8,FALSE,FALSE,FALSE,FALSE,FALSE,FALSE,,TRUE,Normal,,100,1024,1024,1024,1024,2,FALSE,FALSE,FALSE,FALSE,FALSE,0,FALSE,FALSE,FALSE,FALSE,34,7.204,678,2051,7.201,FALSE,3.603,3.601,0.002,FALSE,FALSE,NA,112.1,112.1,112.2,0,0,0,0,5,2780.3,695.08,,Idle,0,20,FALSE,5,TRUE,10,Go Home,FALSE,FALSE,FALSE,FALSE,FALSE,FALSE,FALSE,FALSE,FALSE,FALSE,FALSE,FALSE,6.974132988,79.91426724,3.3,140.2,328,TRUE,1,1,FALSE,FALSE,FALSE,FALSE,,TRUE,FALSE,FALSE,Course Lock,49.2,,16.4,Calm,29,,1.12.8,Mavic Mini,1SDCH7G0169R0K,1SFLH6Q0AB03DJ,1SRCH7F014TAHX,1U5X071EXP5ZJG,63.3,0.3,19.6,8.712657,2.460634,0,0,Mavic Mini,1SDCH7G0169R0K,1SFLH6Q0AB03DJ,1SRCH7F014TAHX,1U5X071EXP5ZJG,DJI Fly,,1.12.8,B1931411-03CA-98FD-EBCA-EEEFA2A9FF0F,1SDCH7G0169R0K,,,,,,,,,
2/21/2024,35:26.9,10m 2.4s,602.4,6.974135452,79.91427614,0,0,0.3,52,0,0,0,0,0,0,0,0,0,4.4,0.8,-58.7,301.3,,Starting Motors,Other,Takeoff (RC Assisted),14,5,TRUE,,Mavic Mini,TRUE,FALSE,,Smart,RC,TRUE,TRUE,FALSE,,,TRUE,,FALSE,FALSE,FALSE,FALSE,FALSE,FALSE,FALSE,FALSE,FALSE,FALSE,0,Follow Yaw,0,0,-47.2,312.8,FALSE,FALSE,FALSE,FALSE,FALSE,FALSE,,TRUE,Normal,,100,1024,1024,1024,1024,2,FALSE,FALSE,FALSE,FALSE,FALSE,0,FALSE,FALSE,FALSE,FALSE,34,7.204,678,2051,7.201,FALSE,3.603,3.601,0.002,FALSE,FALSE,NA,112.1,112.1,112.2,0,0,0,0,5,2780.3,695.08,,Idle,0,20,FALSE,5,TRUE,10,Go Home,FALSE,FALSE,FALSE,FALSE,FALSE,FALSE,FALSE,FALSE,FALSE,FALSE,FALSE,FALSE,6.974132988,79.91426724,3.3,140.2,328,TRUE,1,1,FALSE,FALSE,FALSE,FALSE,,TRUE,FALSE,FALSE,Course Lock,49.2,,16.4,Calm,29,,1.12.8,Mavic Mini,1SDCH7G0169R0K,1SFLH6Q0AB03DJ,1SRCH7F014TAHX,1U5X071EXP5ZJG,63.3,0.3,19.6,8.712657,2.460634,0,0,Mavic Mini,1SDCH7G0169R0K,1SFLH6Q0AB03DJ,1SRCH7F014TAHX,1U5X071EXP5ZJG,DJI Fly,,1.12.8,B1931411-03CA-98FD-EBCA-EEEFA2A9FF0F,1SDCH7G0169R0K,,,,,,,,,
2/21/2024,35:26.9,10m 2.5s,602.5,6.974135463,79.91427611,0,0,0.3,52,0.1,0,0,0,0,0,0,0,0,4.5,0.8,-58.8,301.2,,Starting Motors,Other,Takeoff (RC Assisted),14,5,TRUE,,Mavic Mini,TRUE,FALSE,,Smart,RC,TRUE,TRUE,FALSE,,,TRUE,,FALSE,FALSE,FALSE,FALSE,FALSE,FALSE,FALSE,FALSE,FALSE,FALSE,0,Follow Yaw,0,0,-47.2,312.8,FALSE,FALSE,FALSE,FALSE,FALSE,FALSE,,TRUE,Normal,,100,1024,1024,1024,1024,2,FALSE,FALSE,FALSE,FALSE,FALSE,0,FALSE,FALSE,FALSE,FALSE,34,7.204,678,2051,7.201,FALSE,3.603,3.601,0.002,FALSE,FALSE,NA,112.1,112.1,112.2,0,0,0,0,5,2780.3,695.08,,Idle,0,20,FALSE,5,TRUE,10,Go Home,FALSE,FALSE,FALSE,FALSE,FALSE,FALSE,FALSE,FALSE,FALSE,FALSE,FALSE,FALSE,6.974132988,79.91426724,3.3,140.2,328,TRUE,1,1,FALSE,FALSE,FALSE,FALSE,,TRUE,FALSE,FALSE,Course Lock,49.2,,16.4,Calm,29,,1.12.8,Mavic Mini,1SDCH7G0169R0K,1SFLH6Q0AB03DJ,1SRCH7F014TAHX,1U5X071EXP5ZJG,63.3,0.3,19.6,8.712657,2.460634,0,0,Mavic Mini,1SDCH7G0169R0K,1SFLH6Q0AB03DJ,1SRCH7F014TAHX,1U5X071EXP5ZJG,DJI Fly,,1.12.8,B1931411-03CA-98FD-EBCA-EEEFA2A9FF0F,1SDCH7G0169R0K,,,,,,,,,
2/21/2024,35:27.0,10m 2.6s,602.6,6.974135547,79.91427598,0,0,0.3,52,0.1,0,0,0,0,0,0,0,0,4.4,0.8,-58.8,301.2,,Starting Motors,Other,Takeoff (RC Assisted),14,5,TRUE,,Mavic Mini,TRUE,FALSE,,Smart,RC,TRUE,TRUE,FALSE,,,TRUE,,FALSE,FALSE,FALSE,FALSE,FALSE,FALSE,FALSE,FALSE,FALSE,FALSE,0,Follow Yaw,0,0,-47.2,312.8,FALSE,FALSE,FALSE,FALSE,FALSE,FALSE,,TRUE,Normal,,100,1024,1024,1024,1024,2,FALSE,FALSE,FALSE,FALSE,FALSE,0,FALSE,FALSE,FALSE,FALSE,34,7.204,678,2051,7.201,FALSE,3.603,3.601,0.002,FALSE,FALSE,NA,112.1,112.1,112.2,0,0,0,0,5,2780.3,695.08,,Idle,0,20,FALSE,5,TRUE,10,Go Home,FALSE,FALSE,FALSE,FALSE,FALSE,FALSE,FALSE,FALSE,FALSE,FALSE,FALSE,FALSE,6.974132988,79.91426724,3.2,140.2,328,TRUE,1,1,FALSE,FALSE,FALSE,FALSE,,TRUE,FALSE,FALSE,Course Lock,49.2,,16.4,Calm,29,,1.12.8,Mavic Mini,1SDCH7G0169R0K,1SFLH6Q0AB03DJ,1SRCH7F014TAHX,1U5X071EXP5ZJG,63.3,0.3,19.6,8.712657,2.460634,0,0,Mavic Mini,1SDCH7G0169R0K,1SFLH6Q0AB03DJ,1SRCH7F014TAHX,1U5X071EXP5ZJG,DJI Fly,,1.12.8,B1931411-03CA-98FD-EBCA-EEEFA2A9FF0F,1SDCH7G0169R0K,,,,,,,,,
2/21/2024,35:27.1,10m 2.7s,602.7,6.974135553,79.91427596,0,0,0.3,52,0.1,0,0,0,0,0,0,0,0,4.5,0.9,-58.9,301.1,,Starting Motors,Other,Takeoff (RC Assisted),14,5,TRUE,,Mavic Mini,TRUE,FALSE,,Smart,RC,TRUE,TRUE,FALSE,,,TRUE,,FALSE,FALSE,FALSE,FALSE,FALSE,FALSE,FALSE,FALSE,FALSE,FALSE,0,Follow Yaw,0,0,-47.2,312.8,FALSE,FALSE,FALSE,FALSE,FALSE,FALSE,,TRUE,Normal,,100,1024,1024,1024,1024,2,FALSE,FALSE,FALSE,FALSE,FALSE,0,FALSE,FALSE,FALSE,FALSE,34,7.204,678,2051,7.201,FALSE,3.603,3.601,0.002,FALSE,FALSE,NA,112.1,112.1,112.2,0,0,0,0,5,2780.3,695.08,,Idle,0,20,FALSE,5,TRUE,10,Go Home,FALSE,FALSE,FALSE,FALSE,FALSE,FALSE,FALSE,FALSE,FALSE,FALSE,FALSE,FALSE,6.974132988,79.91426724,3.2,140.2,328,TRUE,1,1,FALSE,FALSE,FALSE,FALSE,,TRUE,FALSE,FALSE,Course Lock,49.2,,16.4,Calm,29,,1.12.8,Mavic Mini,1SDCH7G0169R0K,1SFLH6Q0AB03DJ,1SRCH7F014TAHX,1U5X071EXP5ZJG,63.3,0.3,19.6,8.712657,2.460634,0,0,Mavic Mini,1SDCH7G0169R0K,1SFLH6Q0AB03DJ,1SRCH7F014TAHX,1U5X071EXP5ZJG,DJI Fly,,1.12.8,B1931411-03CA-98FD-EBCA-EEEFA2A9FF0F,1SDCH7G0169R0K,,,,,,,,,
2/21/2024,35:27.3,10m 2.8s,602.8,6.974135558,79.91427595,0,0,0.3,52,0.1,0,0,0,0,0,0,0,0,4.5,0.8,-58.8,301.2,,Starting Motors,Other,Takeoff (RC Assisted),14,5,TRUE,,Mavic Mini,TRUE,FALSE,,Smart,RC,TRUE,TRUE,FALSE,,,TRUE,,FALSE,FALSE,FALSE,FALSE,FALSE,FALSE,FALSE,FALSE,FALSE,FALSE,0,Follow Yaw,0,0,-47.2,312.8,FALSE,FALSE,FALSE,FALSE,FALSE,FALSE,,TRUE,Normal,,100,1024,1024,1024,1024,2,FALSE,FALSE,FALSE,FALSE,FALSE,0,FALSE,FALSE,FALSE,FALSE,34,7.204,678,2051,7.201,FALSE,3.603,3.601,0.002,FALSE,FALSE,NA,112.1,112.1,112.2,0,0,0,0,5,2780.3,695.08,,Idle,0,20,FALSE,5,TRUE,10,Go Home,FALSE,FALSE,FALSE,FALSE,FALSE,FALSE,FALSE,FALSE,FALSE,FALSE,FALSE,FALSE,6.974132988,79.91426724,3.2,140.2,328,TRUE,1,1,FALSE,FALSE,FALSE,FALSE,,TRUE,FALSE,FALSE,Course Lock,49.2,,16.4,Calm,29,,1.12.8,Mavic Mini,1SDCH7G0169R0K,1SFLH6Q0AB03DJ,1SRCH7F014TAHX,1U5X071EXP5ZJG,63.3,0.3,19.6,8.712657,2.460634,0,0,Mavic Mini,1SDCH7G0169R0K,1SFLH6Q0AB03DJ,1SRCH7F014TAHX,1U5X071EXP5ZJG,DJI Fly,,1.12.8,B1931411-03CA-98FD-EBCA-EEEFA2A9FF0F,1SDCH7G0169R0K,,,,,,,,,
2/21/2024,35:27.3,10m 2.9s,602.9,6.974135535,79.91427593,0,0,0.3,52,0.1,0,0,0,0,0,0,0,0,4.5,0.9,-59,301,,Starting Motors,Other,Takeoff (RC Assisted),14,5,TRUE,,Mavic Mini,TRUE,FALSE,,Smart,RC,TRUE,TRUE,FALSE,,,TRUE,,FALSE,FALSE,FALSE,FALSE,FALSE,FALSE,FALSE,FALSE,FALSE,FALSE,0,Follow Yaw,0,0,-47.3,312.7,FALSE,FALSE,FALSE,FALSE,FALSE,FALSE,,TRUE,Normal,,100,1024,1024,1024,1024,2,FALSE,FALSE,FALSE,FALSE,FALSE,0,FALSE,FALSE,FALSE,FALSE,34,7.204,678,2051,7.197,FALSE,3.603,3.601,0.002,FALSE,FALSE,NA,112.1,112.1,112.2,0,0,0,0,5,2743.9,685.98,,Idle,0,20,FALSE,5,TRUE,10,Go Home,FALSE,FALSE,FALSE,FALSE,FALSE,FALSE,FALSE,FALSE,FALSE,FALSE,FALSE,FALSE,6.974132988,79.91426724,3.2,140.2,328,TRUE,1,1,FALSE,FALSE,FALSE,FALSE,,TRUE,FALSE,FALSE,Course Lock,49.2,,16.4,Calm,29,,1.12.8,Mavic Mini,1SDCH7G0169R0K,1SFLH6Q0AB03DJ,1SRCH7F014TAHX,1U5X071EXP5ZJG,63.3,0.3,19.6,8.712657,2.460634,0,0,Mavic Mini,1SDCH7G0169R0K,1SFLH6Q0AB03DJ,1SRCH7F014TAHX,1U5X071EXP5ZJG,DJI Fly,,1.12.8,B1931411-03CA-98FD-EBCA-EEEFA2A9FF0F,1SDCH7G0169R0K,,,,,,,,,
2/21/2024,35:27.5,10m 3.0s,603,6.974135439,79.91427587,0,0,0.3,52,0.2,0,0,0,0,0,0,0,0,4.5,0.9,-59,301,,Starting Motors,Other,Takeoff (RC Assisted),14,5,TRUE,,Mavic Mini,TRUE,FALSE,,Smart,RC,TRUE,TRUE,FALSE,,,TRUE,,FALSE,FALSE,FALSE,FALSE,FALSE,FALSE,FALSE,FALSE,FALSE,FALSE,0,Follow Yaw,0,0,-47.3,312.7,FALSE,FALSE,FALSE,FALSE,FALSE,FALSE,,TRUE,Normal,,100,1024,1024,1024,1024,2,FALSE,FALSE,FALSE,FALSE,FALSE,0,FALSE,FALSE,FALSE,FALSE,34,7.204,678,2051,7.197,FALSE,3.603,3.601,0.002,FALSE,FALSE,NA,112.1,112.1,112.2,0,0,0,0,5,2743.9,685.98,,Idle,0,20,FALSE,5,TRUE,10,Go Home,FALSE,FALSE,FALSE,FALSE,FALSE,FALSE,FALSE,FALSE,FALSE,FALSE,FALSE,FALSE,6.974132988,79.91426724,3.2,140.2,328,TRUE,1,1,FALSE,FALSE,FALSE,FALSE,,TRUE,FALSE,FALSE,Course Lock,49.2,,16.4,Calm,29,,1.12.8,Mavic Mini,1SDCH7G0169R0K,1SFLH6Q0AB03DJ,1SRCH7F014TAHX,1U5X071EXP5ZJG,63.3,0.3,19.6,8.712657,2.460634,0,0,Mavic Mini,1SDCH7G0169R0K,1SFLH6Q0AB03DJ,1SRCH7F014TAHX,1U5X071EXP5ZJG,DJI Fly,,1.12.8,B1931411-03CA-98FD-EBCA-EEEFA2A9FF0F,1SDCH7G0169R0K,,,,,,,,,
2/21/2024,35:27.6,10m 3.1s,603.1,6.974135408,79.91427585,0,0,0.3,52,0.2,0,0,0,0,0,0,0,0,4.5,0.8,-58.9,301.1,,Manual Takeoff,Other,Takeoff (RC Assisted),14,5,TRUE,,Mavic Mini,TRUE,FALSE,,Smart,RC,TRUE,TRUE,FALSE,,,TRUE,,FALSE,FALSE,FALSE,FALSE,FALSE,FALSE,FALSE,FALSE,FALSE,FALSE,0,Follow Yaw,0,0,-47.3,312.7,FALSE,FALSE,FALSE,FALSE,FALSE,FALSE,,TRUE,Normal,,100,1024,1024,1024,1024,2,FALSE,FALSE,FALSE,FALSE,FALSE,0,FALSE,FALSE,FALSE,FALSE,34,7.204,678,2051,7.197,FALSE,3.603,3.601,0.002,FALSE,FALSE,NA,112.1,112.1,112.2,0,0,0,0,5,2743.9,685.98,,Idle,0,20,FALSE,5,TRUE,10,Go Home,FALSE,FALSE,FALSE,FALSE,FALSE,FALSE,FALSE,FALSE,FALSE,FALSE,FALSE,FALSE,6.974132988,79.91426724,3.2,140.2,328,TRUE,1,1,FALSE,FALSE,FALSE,FALSE,,TRUE,FALSE,FALSE,Course Lock,49.2,,16.4,Calm,29,,1.12.8,Mavic Mini,1SDCH7G0169R0K,1SFLH6Q0AB03DJ,1SRCH7F014TAHX,1U5X071EXP5ZJG,63.3,0.3,19.6,8.712657,2.460634,0,0,Mavic Mini,1SDCH7G0169R0K,1SFLH6Q0AB03DJ,1SRCH7F014TAHX,1U5X071EXP5ZJG,DJI Fly,,1.12.8,B1931411-03CA-98FD-EBCA-EEEFA2A9FF0F,1SDCH7G0169R0K,,,,,,,,Flight mode changed to Manual Takeoff.,
2/21/2024,35:27.7,10m 3.2s,603.2,6.974135392,79.91427584,0,0,0.3,52,0.2,0,0,0,0,0,0,0,0,4.5,0.8,-59,301,,Manual Takeoff,Other,Takeoff (RC Assisted),14,5,TRUE,,Mavic Mini,TRUE,FALSE,,Smart,RC,TRUE,TRUE,FALSE,,,TRUE,,FALSE,FALSE,FALSE,FALSE,FALSE,FALSE,FALSE,FALSE,FALSE,FALSE,0,Follow Yaw,0,0,-47.3,312.7,FALSE,FALSE,FALSE,FALSE,FALSE,FALSE,,TRUE,Normal,,100,1024,1024,1024,1024,2,FALSE,FALSE,FALSE,FALSE,FALSE,0,FALSE,FALSE,FALSE,FALSE,34,7.204,678,2051,7.197,FALSE,3.603,3.601,0.002,FALSE,FALSE,NA,112.1,112.1,112.2,0,0,0,0,5,2743.9,685.98,,Idle,0,20,FALSE,5,TRUE,10,Go Home,FALSE,FALSE,FALSE,FALSE,FALSE,FALSE,FALSE,FALSE,FALSE,FALSE,FALSE,FALSE,6.974132988,79.91426724,3.2,140.2,328,TRUE,1,1,FALSE,FALSE,FALSE,FALSE,,TRUE,FALSE,FALSE,Course Lock,49.2,,16.4,Calm,29,,1.12.8,Mavic Mini,1SDCH7G0169R0K,1SFLH6Q0AB03DJ,1SRCH7F014TAHX,1U5X071EXP5ZJG,63.3,0.3,19.6,8.712657,2.460634,0,0,Mavic Mini,1SDCH7G0169R0K,1SFLH6Q0AB03DJ,1SRCH7F014TAHX,1U5X071EXP5ZJG,DJI Fly,,1.12.8,B1931411-03CA-98FD-EBCA-EEEFA2A9FF0F,1SDCH7G0169R0K,,,,,,,,,
2/21/2024,35:27.8,10m 3.3s,603.3,6.974135359,79.91427585,0,0,0.3,52,0.2,0,0,0,0,0,0,0,0,4.4,0.9,-58.9,301.1,,Manual Takeoff,Other,Takeoff (RC Assisted),14,5,TRUE,,Mavic Mini,TRUE,FALSE,,Smart,RC,TRUE,TRUE,FALSE,,,TRUE,,FALSE,FALSE,FALSE,FALSE,FALSE,FALSE,FALSE,FALSE,FALSE,FALSE,0,Follow Yaw,0,0,-47.3,312.7,FALSE,FALSE,FALSE,FALSE,FALSE,FALSE,,TRUE,Normal,,100,1024,1024,1024,1024,2,FALSE,FALSE,FALSE,FALSE,FALSE,0,FALSE,FALSE,FALSE,FALSE,34,7.204,678,2051,7.197,FALSE,3.603,3.601,0.002,FALSE,FALSE,NA,112.1,112.1,112.2,0,0,0,0,5,2743.9,685.98,,Idle,0,20,FALSE,5,TRUE,10,Go Home,FALSE,FALSE,FALSE,FALSE,FALSE,FALSE,FALSE,FALSE,FALSE,FALSE,FALSE,FALSE,6.974132988,79.91426724,3.2,140.2,328,TRUE,1,1,FALSE,FALSE,FALSE,FALSE,,TRUE,FALSE,FALSE,Course Lock,49.2,,16.4,Calm,29,,1.12.8,Mavic Mini,1SDCH7G0169R0K,1SFLH6Q0AB03DJ,1SRCH7F014TAHX,1U5X071EXP5ZJG,63.3,0.3,19.6,8.712657,2.460634,0,0,Mavic Mini,1SDCH7G0169R0K,1SFLH6Q0AB03DJ,1SRCH7F014TAHX,1U5X071EXP5ZJG,DJI Fly,,1.12.8,B1931411-03CA-98FD-EBCA-EEEFA2A9FF0F,1SDCH7G0169R0K,,,,,,,,,
2/21/2024,35:27.9,10m 3.4s,603.4,6.974135261,79.91427593,0,0,0.3,52,0.3,0,0,0,0,0,0,0,0,4.4,0.9,-58.9,301.1,,Manual Takeoff,Other,Takeoff (RC Assisted),14,5,TRUE,,Mavic Mini,TRUE,FALSE,,Smart,RC,TRUE,TRUE,FALSE,,,TRUE,,FALSE,FALSE,FALSE,FALSE,FALSE,FALSE,FALSE,FALSE,FALSE,FALSE,0,Follow Yaw,0,0,-47.3,312.7,FALSE,FALSE,FALSE,FALSE,FALSE,FALSE,,TRUE,Normal,,100,1024,1024,1024,1024,2,FALSE,FALSE,FALSE,FALSE,FALSE,0,FALSE,FALSE,FALSE,FALSE,34,7.186,678,2051,7.197,FALSE,3.594,3.592,0.002,FALSE,FALSE,NA,112.1,112.1,112.2,0,0,0,0,5,2743.9,685.98,,Idle,0,20,FALSE,5,TRUE,10,Go Home,FALSE,FALSE,FALSE,FALSE,FALSE,FALSE,FALSE,FALSE,FALSE,FALSE,FALSE,FALSE,6.974132988,79.91426724,3.2,140.2,328,TRUE,1,1,FALSE,FALSE,FALSE,FALSE,,TRUE,FALSE,FALSE,Course Lock,49.2,,16.4,Calm,29,,1.12.8,Mavic Mini,1SDCH7G0169R0K,1SFLH6Q0AB03DJ,1SRCH7F014TAHX,1U5X071EXP5ZJG,63.3,0.3,19.6,8.712657,2.460634,0,0,Mavic Mini,1SDCH7G0169R0K,1SFLH6Q0AB03DJ,1SRCH7F014TAHX,1U5X071EXP5ZJG,DJI Fly,,1.12.8,B1931411-03CA-98FD-EBCA-EEEFA2A9FF0F,1SDCH7G0169R0K,,,,,,,,,
2/21/2024,35:28.0,10m 3.5s,603.5,6.974135231,79.91427594,0,0,0.3,52,0.3,0,0,0,0,0,0,0,0,4.4,0.9,-58.9,301.1,,Manual Takeoff,Other,Takeoff (RC Assisted),14,5,TRUE,,Mavic Mini,TRUE,FALSE,,Smart,RC,TRUE,TRUE,FALSE,,,TRUE,,FALSE,FALSE,FALSE,FALSE,FALSE,FALSE,FALSE,FALSE,FALSE,FALSE,0,Follow Yaw,0,0,-47.3,312.7,FALSE,FALSE,FALSE,FALSE,FALSE,FALSE,,TRUE,Normal,,100,1024,1024,1024,1024,2,FALSE,FALSE,FALSE,FALSE,FALSE,0,FALSE,FALSE,FALSE,FALSE,34,7.186,678,2051,7.197,FALSE,3.594,3.592,0.002,FALSE,FALSE,NA,112.1,112.1,112.2,0,0,0,0,5,2743.9,685.98,,Idle,0,20,FALSE,5,TRUE,10,Go Home,FALSE,FALSE,FALSE,FALSE,FALSE,FALSE,FALSE,FALSE,FALSE,FALSE,FALSE,FALSE,6.974132988,79.91426724,3.2,140.2,328,TRUE,1,1,FALSE,FALSE,FALSE,FALSE,,TRUE,FALSE,FALSE,Course Lock,49.2,,16.4,Calm,29,,1.12.8,Mavic Mini,1SDCH7G0169R0K,1SFLH6Q0AB03DJ,1SRCH7F014TAHX,1U5X071EXP5ZJG,63.3,0.3,19.6,8.712657,2.460634,0,0,Mavic Mini,1SDCH7G0169R0K,1SFLH6Q0AB03DJ,1SRCH7F014TAHX,1U5X071EXP5ZJG,DJI Fly,,1.12.8,B1931411-03CA-98FD-EBCA-EEEFA2A9FF0F,1SDCH7G0169R0K,,,,,,,,,
2/21/2024,35:28.1,10m 3.6s,603.6,6.974135221,79.91427596,0,0,0.3,52,0.3,0,0,0,0,0,0,0,0,4.4,0.8,-58.9,301.1,,Manual Takeoff,Other,Takeoff (RC Assisted),14,5,TRUE,,Mavic Mini,TRUE,FALSE,,Smart,RC,TRUE,TRUE,FALSE,,,TRUE,,FALSE,FALSE,FALSE,FALSE,FALSE,FALSE,FALSE,FALSE,FALSE,FALSE,0,Follow Yaw,0,0,-47.4,312.6,FALSE,FALSE,FALSE,FALSE,FALSE,FALSE,,TRUE,Normal,,100,1024,1024,1024,1024,2,FALSE,FALSE,FALSE,FALSE,FALSE,0,FALSE,FALSE,FALSE,FALSE,34,7.186,678,2051,7.197,FALSE,3.594,3.592,0.002,FALSE,FALSE,NA,112.1,112.1,112.2,0,0,0,0,5,2743.9,685.98,,Idle,0,20,FALSE,5,TRUE,10,Go Home,FALSE,FALSE,FALSE,FALSE,FALSE,FALSE,FALSE,FALSE,FALSE,FALSE,FALSE,FALSE,6.974132988,79.91426724,3.2,140.2,328,TRUE,1,1,FALSE,FALSE,FALSE,FALSE,,TRUE,FALSE,FALSE,Course Lock,49.2,,16.4,Calm,29,,1.12.8,Mavic Mini,1SDCH7G0169R0K,1SFLH6Q0AB03DJ,1SRCH7F014TAHX,1U5X071EXP5ZJG,63.3,0.3,19.6,8.712657,2.460634,0,0,Mavic Mini,1SDCH7G0169R0K,1SFLH6Q0AB03DJ,1SRCH7F014TAHX,1U5X071EXP5ZJG,DJI Fly,,1.12.8,B1931411-03CA-98FD-EBCA-EEEFA2A9FF0F,1SDCH7G0169R0K,,,,,,,,,
2/21/2024,35:28.2,10m 3.7s,603.7,6.97413522,79.91427598,0,0,0.3,52,0.3,0,0,0,0,0,0,0,0,4.4,0.8,-59,301,,Manual Takeoff,Other,Takeoff (RC Assisted),14,5,TRUE,,Mavic Mini,TRUE,FALSE,,Smart,RC,TRUE,TRUE,FALSE,,,TRUE,,FALSE,FALSE,FALSE,FALSE,FALSE,FALSE,FALSE,FALSE,FALSE,FALSE,0,Follow Yaw,0,0,-47.4,312.6,FALSE,FALSE,FALSE,FALSE,FALSE,FALSE,,TRUE,Normal,,100,1024,1024,1024,1024,2,FALSE,FALSE,FALSE,FALSE,FALSE,0,FALSE,FALSE,FALSE,FALSE,34,7.186,678,2051,7.197,FALSE,3.594,3.592,0.002,FALSE,FALSE,NA,112.1,112.1,112.2,0,0,0,0,5,2743.9,685.98,,Idle,0,20,FALSE,5,TRUE,10,Go Home,FALSE,FALSE,FALSE,FALSE,FALSE,FALSE,FALSE,FALSE,FALSE,FALSE,FALSE,FALSE,6.974132988,79.91426724,3.2,140.2,328,TRUE,1,1,FALSE,FALSE,FALSE,FALSE,,TRUE,FALSE,FALSE,Course Lock,49.2,,16.4,Calm,29,,1.12.8,Mavic Mini,1SDCH7G0169R0K,1SFLH6Q0AB03DJ,1SRCH7F014TAHX,1U5X071EXP5ZJG,63.3,0.3,19.6,8.712657,2.460634,0,0,Mavic Mini,1SDCH7G0169R0K,1SFLH6Q0AB03DJ,1SRCH7F014TAHX,1U5X071EXP5ZJG,DJI Fly,,1.12.8,B1931411-03CA-98FD-EBCA-EEEFA2A9FF0F,1SDCH7G0169R0K,,,,,,,,,
2/21/2024,35:28.3,10m 3.8s,603.8,6.974135226,79.91427599,0,0,0.3,52,0.3,0,0,0,0,0,0,0,0,4.4,0.8,-58.9,301.1,,Manual Takeoff,Other,Takeoff (RC Assisted),14,5,TRUE,,Mavic Mini,TRUE,FALSE,,Smart,RC,TRUE,TRUE,FALSE,,,TRUE,,FALSE,FALSE,FALSE,FALSE,FALSE,FALSE,FALSE,FALSE,FALSE,FALSE,0,Follow Yaw,0,0,-47.4,312.6,FALSE,FALSE,FALSE,FALSE,FALSE,FALSE,,TRUE,Normal,,100,1024,1024,1044,1024,2,FALSE,FALSE,FALSE,FALSE,FALSE,0,FALSE,FALSE,FALSE,FALSE,34,7.186,678,2051,7.197,FALSE,3.594,3.592,0.002,FALSE,FALSE,NA,112.1,112.1,112.2,0,0,0,0,5,2743.9,685.98,,Idle,0,20,FALSE,5,TRUE,10,Go Home,FALSE,FALSE,FALSE,FALSE,FALSE,FALSE,FALSE,FALSE,FALSE,FALSE,FALSE,FALSE,6.974132988,79.91426724,3.2,140.2,328,TRUE,1,1,FALSE,FALSE,FALSE,FALSE,,TRUE,FALSE,FALSE,Course Lock,49.2,,16.4,Calm,29,,1.12.8,Mavic Mini,1SDCH7G0169R0K,1SFLH6Q0AB03DJ,1SRCH7F014TAHX,1U5X071EXP5ZJG,63.3,0.3,19.6,8.712657,2.460634,0,0,Mavic Mini,1SDCH7G0169R0K,1SFLH6Q0AB03DJ,1SRCH7F014TAHX,1U5X071EXP5ZJG,DJI Fly,,1.12.8,B1931411-03CA-98FD-EBCA-EEEFA2A9FF0F,1SDCH7G0169R0K,,,,,,,,,
2/21/2024,35:28.4,10m 3.9s,603.9,6.974135297,79.91427602,0,0,0.3,52,0.3,0,0,0,0,0,0,0,0,4.4,0.8,-59,301,,Manual Takeoff,Other,Takeoff (RC Assisted),14,5,TRUE,,Mavic Mini,TRUE,FALSE,,Smart,RC,TRUE,TRUE,FALSE,,,TRUE,,FALSE,FALSE,FALSE,FALSE,FALSE,FALSE,FALSE,FALSE,FALSE,FALSE,0,Follow Yaw,0,0,-47.4,312.6,FALSE,FALSE,FALSE,FALSE,FALSE,FALSE,,TRUE,Normal,,100,1024,1024,1118,1024,2,FALSE,FALSE,FALSE,FALSE,FALSE,0,FALSE,FALSE,FALSE,FALSE,34,7.186,678,2051,7.19,FALSE,3.594,3.592,0.002,FALSE,FALSE,NA,112.1,112.1,112.2,0,0,0,0,5,2756,689.01,,Idle,0,20,FALSE,5,TRUE,10,Go Home,FALSE,FALSE,FALSE,FALSE,FALSE,FALSE,FALSE,FALSE,FALSE,FALSE,FALSE,FALSE,6.974132988,79.91426724,3.2,140.2,328,TRUE,1,1,FALSE,FALSE,FALSE,FALSE,,TRUE,FALSE,FALSE,Course Lock,49.2,,16.4,Calm,29,,1.12.8,Mavic Mini,1SDCH7G0169R0K,1SFLH6Q0AB03DJ,1SRCH7F014TAHX,1U5X071EXP5ZJG,63.3,0.3,19.6,8.712657,2.460634,0,0,Mavic Mini,1SDCH7G0169R0K,1SFLH6Q0AB03DJ,1SRCH7F014TAHX,1U5X071EXP5ZJG,DJI Fly,,1.12.8,B1931411-03CA-98FD-EBCA-EEEFA2A9FF0F,1SDCH7G0169R0K,,,,,6.974141747,79.91426546,5,,
2/21/2024,35:28.5,10m 4.0s,604,6.974135305,79.91427603,0,0,0.3,52,0.3,0,0,0,0,0,0,0,0,4.4,0.8,-59,301,,Manual Takeoff,Other,Takeoff (RC Assisted),14,5,TRUE,,Mavic Mini,TRUE,FALSE,,Smart,RC,TRUE,TRUE,FALSE,,,TRUE,,FALSE,FALSE,FALSE,FALSE,FALSE,FALSE,FALSE,FALSE,FALSE,FALSE,0,Follow Yaw,0,0,-47.4,312.6,FALSE,FALSE,FALSE,FALSE,FALSE,FALSE,,TRUE,Normal,,100,1024,1024,1131,1024,2,FALSE,FALSE,FALSE,FALSE,FALSE,0,FALSE,FALSE,FALSE,FALSE,34,7.186,678,2051,7.19,FALSE,3.594,3.592,0.002,FALSE,FALSE,NA,112.1,112.1,112.2,0,0,0,0,5,2756,689.01,,Idle,0,20,FALSE,5,TRUE,10,Go Home,FALSE,FALSE,FALSE,FALSE,FALSE,FALSE,FALSE,FALSE,FALSE,FALSE,FALSE,FALSE,6.974132988,79.91426724,3.2,140.2,328,TRUE,1,1,FALSE,FALSE,FALSE,FALSE,,TRUE,FALSE,FALSE,Course Lock,49.2,,16.4,Calm,29,,1.12.8,Mavic Mini,1SDCH7G0169R0K,1SFLH6Q0AB03DJ,1SRCH7F014TAHX,1U5X071EXP5ZJG,63.3,0.3,19.6,8.712657,2.460634,0,0,Mavic Mini,1SDCH7G0169R0K,1SFLH6Q0AB03DJ,1SRCH7F014TAHX,1U5X071EXP5ZJG,DJI Fly,,1.12.8,B1931411-03CA-98FD-EBCA-EEEFA2A9FF0F,1SDCH7G0169R0K,,,,,6.974141747,79.91426546,5,,
2/21/2024,35:28.6,10m 4.1s,604.1,6.974135284,79.91427604,0,0,0.3,52,0.3,0,0,0,0,0,0,0,0,4.5,0.8,-58.9,301.1,,Manual Takeoff,Other,Takeoff (RC Assisted),14,5,TRUE,,Mavic Mini,TRUE,FALSE,,Smart,RC,TRUE,TRUE,FALSE,,,TRUE,,FALSE,FALSE,FALSE,FALSE,FALSE,FALSE,FALSE,FALSE,FALSE,FALSE,0,Follow Yaw,0,0,-47.4,312.6,FALSE,FALSE,FALSE,FALSE,FALSE,FALSE,,TRUE,Normal,,100,1024,1024,1257,1024,2,FALSE,FALSE,FALSE,FALSE,FALSE,0,FALSE,FALSE,FALSE,FALSE,34,7.186,678,2051,7.19,FALSE,3.594,3.592,0.002,FALSE,FALSE,NA,112.1,112.1,112.2,0,0,0,0,5,2756,689.01,,Idle,0,20,FALSE,5,TRUE,10,Go Home,FALSE,FALSE,FALSE,FALSE,FALSE,FALSE,FALSE,FALSE,FALSE,FALSE,FALSE,FALSE,6.974132988,79.91426724,3.2,140.2,328,TRUE,1,1,FALSE,FALSE,FALSE,FALSE,,TRUE,FALSE,FALSE,Course Lock,49.2,,16.4,Calm,29,,1.12.8,Mavic Mini,1SDCH7G0169R0K,1SFLH6Q0AB03DJ,1SRCH7F014TAHX,1U5X071EXP5ZJG,63.3,0.3,19.6,8.712657,2.460634,0,0,Mavic Mini,1SDCH7G0169R0K,1SFLH6Q0AB03DJ,1SRCH7F014TAHX,1U5X071EXP5ZJG,DJI Fly,,1.12.8,B1931411-03CA-98FD-EBCA-EEEFA2A9FF0F,1SDCH7G0169R0K,,,,,6.974141747,79.91426546,5,,
2/21/2024,35:28.7,10m 4.2s,604.2,6.974135237,79.91427605,0,0,0.3,52,0.3,0,0,0,0,0,0,0,0,4.4,0.8,-58.9,301.1,,Manual Takeoff,Other,Takeoff (RC Assisted),14,5,TRUE,,Mavic Mini,TRUE,FALSE,,Smart,RC,TRUE,TRUE,FALSE,,,TRUE,,FALSE,FALSE,FALSE,FALSE,FALSE,FALSE,FALSE,FALSE,FALSE,FALSE,0,Follow Yaw,0,0,-47.4,312.6,FALSE,FALSE,FALSE,FALSE,FALSE,FALSE,,TRUE,Normal,,100,1024,1024,1289,1024,2,FALSE,FALSE,FALSE,FALSE,FALSE,0,FALSE,FALSE,FALSE,FALSE,34,7.186,678,2051,7.19,FALSE,3.594,3.592,0.002,FALSE,FALSE,NA,112.1,112.1,112.2,0,0,0,0,5,2756,689.01,,Idle,0,20,FALSE,5,TRUE,10,Go Home,FALSE,FALSE,FALSE,FALSE,FALSE,FALSE,FALSE,FALSE,FALSE,FALSE,FALSE,FALSE,6.974132988,79.91426724,3.2,140.2,328,TRUE,1,1,FALSE,FALSE,FALSE,FALSE,,TRUE,FALSE,FALSE,Course Lock,49.2,,16.4,Calm,29,,1.12.8,Mavic Mini,1SDCH7G0169R0K,1SFLH6Q0AB03DJ,1SRCH7F014TAHX,1U5X071EXP5ZJG,63.3,0.3,19.6,8.712657,2.460634,0,0,Mavic Mini,1SDCH7G0169R0K,1SFLH6Q0AB03DJ,1SRCH7F014TAHX,1U5X071EXP5ZJG,DJI Fly,,1.12.8,B1931411-03CA-98FD-EBCA-EEEFA2A9FF0F,1SDCH7G0169R0K,,,,,6.974141747,79.91426546,5,,
2/21/2024,35:28.7,10m 4.3s,604.3,6.974135206,79.91427604,0,0,0.3,52,0.4,0,0,0,0,0,0,0,0,4.5,0.8,-59.1,300.9,,Manual Takeoff,Other,Takeoff (RC Assisted),14,5,TRUE,,Mavic Mini,TRUE,FALSE,,Smart,RC,TRUE,TRUE,FALSE,,,TRUE,,FALSE,FALSE,FALSE,FALSE,FALSE,FALSE,FALSE,FALSE,FALSE,FALSE,0,Follow Yaw,0,0,-47.4,312.6,FALSE,FALSE,FALSE,FALSE,FALSE,FALSE,,TRUE,Normal,,100,1024,1024,1289,1024,2,FALSE,FALSE,FALSE,FALSE,FALSE,0,FALSE,FALSE,FALSE,FALSE,34,7.186,678,2051,7.19,FALSE,3.594,3.592,0.002,FALSE,FALSE,NA,112.1,112.1,112.2,0,0,0,0,5,2756,689.01,,Idle,0,20,FALSE,5,TRUE,10,Go Home,FALSE,FALSE,FALSE,FALSE,FALSE,FALSE,FALSE,FALSE,FALSE,FALSE,FALSE,FALSE,6.974132988,79.91426724,3.2,140.2,328,TRUE,1,1,FALSE,FALSE,FALSE,FALSE,,TRUE,FALSE,FALSE,Course Lock,49.2,,16.4,Calm,29,,1.12.8,Mavic Mini,1SDCH7G0169R0K,1SFLH6Q0AB03DJ,1SRCH7F014TAHX,1U5X071EXP5ZJG,63.3,0.3,19.6,8.712657,2.460634,0,0,Mavic Mini,1SDCH7G0169R0K,1SFLH6Q0AB03DJ,1SRCH7F014TAHX,1U5X071EXP5ZJG,DJI Fly,,1.12.8,B1931411-03CA-98FD-EBCA-EEEFA2A9FF0F,1SDCH7G0169R0K,,,,,6.974141747,79.91426546,5,,
2/21/2024,35:28.8,10m 4.4s,604.4,6.974135184,79.91427604,0,0,0.3,52,0.4,0,0,0,0,0,0,0,0,4.4,0.9,-59.2,300.8,,Manual Takeoff,Other,Takeoff (RC Assisted),14,5,TRUE,,Mavic Mini,TRUE,FALSE,,Smart,RC,TRUE,TRUE,FALSE,,,TRUE,,FALSE,FALSE,FALSE,FALSE,FALSE,FALSE,FALSE,FALSE,FALSE,FALSE,0,Follow Yaw,0,0,-47.4,312.6,FALSE,FALSE,FALSE,FALSE,FALSE,FALSE,,TRUE,Normal,,100,1024,1024,1289,1024,2,FALSE,FALSE,FALSE,FALSE,FALSE,0,FALSE,FALSE,FALSE,FALSE,34,7.186,678,2051,7.19,FALSE,3.594,3.592,0.002,FALSE,FALSE,NA,112.1,112.1,112.2,0,0,0,0,5,2756,689.01,,Idle,0,20,FALSE,5,TRUE,10,Go Home,FALSE,FALSE,FALSE,FALSE,FALSE,FALSE,FALSE,FALSE,FALSE,FALSE,FALSE,FALSE,6.974132988,79.91426724,3.2,140.2,328,TRUE,1,1,FALSE,FALSE,FALSE,FALSE,,TRUE,FALSE,FALSE,Course Lock,49.2,,16.4,Calm,29,,1.12.8,Mavic Mini,1SDCH7G0169R0K,1SFLH6Q0AB03DJ,1SRCH7F014TAHX,1U5X071EXP5ZJG,63.3,0.3,19.6,8.712657,2.460634,0,0,Mavic Mini,1SDCH7G0169R0K,1SFLH6Q0AB03DJ,1SRCH7F014TAHX,1U5X071EXP5ZJG,DJI Fly,,1.12.8,B1931411-03CA-98FD-EBCA-EEEFA2A9FF0F,1SDCH7G0169R0K,,,,,6.974141747,79.91426546,5,,
2/21/2024,35:29.0,10m 4.5s,604.5,6.974135148,79.91427604,0,0,0.3,52,0.4,0,0,0,0,0,0,0,0,4.4,0.9,-59.7,300.3,,Manual Takeoff,Other,Takeoff (RC Assisted),14,5,TRUE,,Mavic Mini,TRUE,FALSE,,Smart,RC,TRUE,TRUE,FALSE,,,TRUE,,FALSE,FALSE,FALSE,FALSE,FALSE,FALSE,FALSE,FALSE,FALSE,FALSE,0,Follow Yaw,0,0,-47.6,312.4,FALSE,FALSE,FALSE,FALSE,FALSE,FALSE,,TRUE,Normal,,100,1024,1024,1289,1024,2,FALSE,FALSE,FALSE,FALSE,FALSE,0,FALSE,FALSE,FALSE,FALSE,34,7.179,677,2051,7.19,FALSE,3.592,3.587,0.005,FALSE,FALSE,NA,112.1,112.1,112.2,0,0,0,0,5,2756,689.01,,Idle,0,20,FALSE,5,TRUE,10,Go Home,FALSE,FALSE,FALSE,FALSE,FALSE,FALSE,FALSE,FALSE,FALSE,FALSE,FALSE,FALSE,6.974132988,79.91426724,3.2,140.2,328,TRUE,1,1,FALSE,FALSE,FALSE,FALSE,,TRUE,FALSE,FALSE,Course Lock,49.2,,16.4,Calm,29,,1.12.8,Mavic Mini,1SDCH7G0169R0K,1SFLH6Q0AB03DJ,1SRCH7F014TAHX,1U5X071EXP5ZJG,63.3,0.3,19.6,8.712657,2.460634,0,0,Mavic Mini,1SDCH7G0169R0K,1SFLH6Q0AB03DJ,1SRCH7F014TAHX,1U5X071EXP5ZJG,DJI Fly,,1.12.8,B1931411-03CA-98FD-EBCA-EEEFA2A9FF0F,1SDCH7G0169R0K,,,,,6.974141747,79.91426546,5,,
2/21/2024,35:29.0,10m 4.6s,604.6,6.974135101,79.91427605,0,0,0.3,52,0.4,0,0,0,0,0,0,0,0,4.5,1,-61.4,298.6,,Manual Takeoff,Other,Takeoff (RC Assisted),14,5,TRUE,,Mavic Mini,TRUE,FALSE,,Smart,RC,TRUE,TRUE,FALSE,,,TRUE,,FALSE,FALSE,FALSE,FALSE,FALSE,FALSE,FALSE,FALSE,FALSE,FALSE,0,Follow Yaw,0,0,-48.6,311.4,FALSE,FALSE,FALSE,FALSE,FALSE,FALSE,,TRUE,Normal,,100,1024,1024,1289,1024,2,FALSE,FALSE,FALSE,FALSE,FALSE,0,FALSE,FALSE,FALSE,FALSE,34,7.179,677,2051,7.19,FALSE,3.592,3.587,0.005,FALSE,FALSE,NA,112.1,112.1,112.2,0,0,0,0,5,2756,689.01,,Idle,0,20,FALSE,5,TRUE,10,Go Home,FALSE,FALSE,FALSE,FALSE,FALSE,FALSE,FALSE,FALSE,FALSE,FALSE,FALSE,FALSE,6.974132988,79.91426724,3.2,140.2,328,TRUE,1,1,FALSE,FALSE,FALSE,FALSE,,TRUE,FALSE,FALSE,Course Lock,49.2,,16.4,Calm,29,,1.12.8,Mavic Mini,1SDCH7G0169R0K,1SFLH6Q0AB03DJ,1SRCH7F014TAHX,1U5X071EXP5ZJG,63.3,0.3,19.6,8.712657,2.460634,0,0,Mavic Mini,1SDCH7G0169R0K,1SFLH6Q0AB03DJ,1SRCH7F014TAHX,1U5X071EXP5ZJG,DJI Fly,,1.12.8,B1931411-03CA-98FD-EBCA-EEEFA2A9FF0F,1SDCH7G0169R0K,,,,,6.974141747,79.91426546,5,,
2/21/2024,35:29.2,10m 4.7s,604.7,6.974135072,79.91427603,0,0,0.3,52,0.4,0,0,0,0,0,0,0,0,4.4,1,-64.1,295.9,,Manual Takeoff,Other,Takeoff (RC Assisted),14,5,TRUE,,Mavic Mini,TRUE,FALSE,,Smart,RC,TRUE,TRUE,FALSE,,,TRUE,,FALSE,FALSE,FALSE,FALSE,FALSE,FALSE,FALSE,FALSE,FALSE,FALSE,0,Follow Yaw,0,0,-50.9,309.1,FALSE,FALSE,FALSE,FALSE,FALSE,FALSE,,TRUE,Normal,,100,1024,1024,1289,1024,2,FALSE,FALSE,FALSE,FALSE,FALSE,0,FALSE,FALSE,FALSE,FALSE,34,7.179,677,2051,7.19,FALSE,3.592,3.587,0.005,FALSE,FALSE,NA,112.1,112.1,112.2,0,0,0,0,5,2756,689.01,,Idle,0,20,FALSE,5,TRUE,10,Go Home,FALSE,FALSE,FALSE,FALSE,FALSE,FALSE,FALSE,FALSE,FALSE,FALSE,FALSE,FALSE,6.974132988,79.91426724,3.2,140.2,328,TRUE,1,1,FALSE,FALSE,FALSE,FALSE,,TRUE,FALSE,FALSE,Course Lock,49.2,,16.4,Calm,29,,1.12.8,Mavic Mini,1SDCH7G0169R0K,1SFLH6Q0AB03DJ,1SRCH7F014TAHX,1U5X071EXP5ZJG,63.3,0.3,19.6,8.712657,2.460634,0,0,Mavic Mini,1SDCH7G0169R0K,1SFLH6Q0AB03DJ,1SRCH7F014TAHX,1U5X071EXP5ZJG,DJI Fly,,1.12.8,B1931411-03CA-98FD-EBCA-EEEFA2A9FF0F,1SDCH7G0169R0K,,,,,6.974141747,79.91426546,5,,
2/21/2024,35:29.3,10m 4.8s,604.8,6.974135082,79.91427605,0,0,0.3,52,0.4,0,0,0,0,0,0,0,0,2.9,1.4,-66.9,293.1,,Manual Takeoff,Other,Takeoff (RC Assisted),15,5,TRUE,,Mavic Mini,TRUE,FALSE,,Smart,RC,TRUE,TRUE,FALSE,,,TRUE,,FALSE,FALSE,FALSE,FALSE,FALSE,FALSE,FALSE,FALSE,FALSE,FALSE,0,Follow Yaw,0,0,-53.6,306.4,FALSE,FALSE,FALSE,FALSE,FALSE,FALSE,,TRUE,Normal,,100,1024,1024,1289,1024,2,FALSE,FALSE,FALSE,FALSE,FALSE,0,FALSE,FALSE,FALSE,FALSE,34,7.179,677,2051,7.19,FALSE,3.592,3.587,0.005,FALSE,FALSE,NA,112.1,112.1,112.2,0,0,0,0,5,2756,689.01,,Idle,0,20,FALSE,5,TRUE,10,Go Home,FALSE,FALSE,FALSE,FALSE,FALSE,FALSE,FALSE,FALSE,FALSE,FALSE,FALSE,FALSE,6.974132988,79.91426724,3.2,140.2,328,TRUE,1,1,FALSE,FALSE,FALSE,FALSE,,TRUE,FALSE,FALSE,Course Lock,49.2,,16.4,Calm,29,,1.12.8,Mavic Mini,1SDCH7G0169R0K,1SFLH6Q0AB03DJ,1SRCH7F014TAHX,1U5X071EXP5ZJG,63.3,0.3,19.6,8.712657,2.460634,0,0,Mavic Mini,1SDCH7G0169R0K,1SFLH6Q0AB03DJ,1SRCH7F014TAHX,1U5X071EXP5ZJG,DJI Fly,,1.12.8,B1931411-03CA-98FD-EBCA-EEEFA2A9FF0F,1SDCH7G0169R0K,,,,,6.974141747,79.91426546,5,,
2/21/2024,35:29.4,10m 4.9s,604.9,6.974135138,79.91427606,0,0,0.3,52,0.4,0,0,0,0,0,0,0,0,1,1.7,-68.7,291.3,,Manual Takeoff,Other,Takeoff (RC Assisted),15,5,TRUE,,Mavic Mini,TRUE,FALSE,,Smart,RC,TRUE,TRUE,FALSE,,,TRUE,,FALSE,FALSE,FALSE,FALSE,FALSE,FALSE,FALSE,FALSE,FALSE,FALSE,0,Follow Yaw,0,0,-55.8,304.2,FALSE,FALSE,FALSE,FALSE,FALSE,FALSE,,TRUE,Normal,,100,1024,1024,1289,1024,2,FALSE,FALSE,FALSE,FALSE,FALSE,0,FALSE,FALSE,FALSE,FALSE,34,7.179,677,2051,7.145,FALSE,3.592,3.587,0.005,FALSE,FALSE,NA,112.1,112.1,112.2,0,0,0,0,5,2881.8,720.47,,Idle,0,20,FALSE,5,TRUE,10,Go Home,FALSE,FALSE,FALSE,FALSE,FALSE,FALSE,FALSE,FALSE,FALSE,FALSE,FALSE,FALSE,6.974132988,79.91426724,3.2,140.2,328,TRUE,1,1,FALSE,FALSE,FALSE,FALSE,,TRUE,FALSE,FALSE,Course Lock,49.2,,16.4,Calm,29,,1.12.8,Mavic Mini,1SDCH7G0169R0K,1SFLH6Q0AB03DJ,1SRCH7F014TAHX,1U5X071EXP5ZJG,63.3,0.3,19.6,8.712657,2.460634,0,0,Mavic Mini,1SDCH7G0169R0K,1SFLH6Q0AB03DJ,1SRCH7F014TAHX,1U5X071EXP5ZJG,DJI Fly,,1.12.8,B1931411-03CA-98FD-EBCA-EEEFA2A9FF0F,1SDCH7G0169R0K,,,,,6.974141747,79.91426546,5,,
2/21/2024,35:29.5,10m 5.0s,605,6.974135273,79.91427606,0,0,0.3,52,0.5,0.223694,0.223694,0.223694,0.223694,0,0,0,0,0,2.1,-69.8,290.2,0.3,Manual Takeoff,Other,Takeoff (RC Assisted),15,5,TRUE,,Mavic Mini,TRUE,FALSE,,Smart,RC,TRUE,TRUE,FALSE,,,TRUE,,FALSE,FALSE,FALSE,FALSE,FALSE,FALSE,FALSE,FALSE,FALSE,FALSE,0,Follow Yaw,0,0,-57.1,302.9,FALSE,FALSE,FALSE,FALSE,FALSE,FALSE,,TRUE,Normal,,100,1024,1024,1289,1024,2,FALSE,FALSE,FALSE,FALSE,FALSE,0,FALSE,FALSE,FALSE,FALSE,34,7.179,677,2051,7.145,FALSE,3.592,3.587,0.005,FALSE,FALSE,NA,112.1,112.1,112.2,0,0,0,0,5,2881.8,720.47,,Idle,0,20,FALSE,5,TRUE,10,Go Home,FALSE,FALSE,FALSE,FALSE,FALSE,FALSE,FALSE,FALSE,FALSE,FALSE,FALSE,FALSE,6.974132988,79.91426724,3.2,140.2,328,TRUE,1,1,FALSE,FALSE,FALSE,FALSE,,TRUE,FALSE,FALSE,Course Lock,49.2,,16.4,Calm,29,,1.12.8,Mavic Mini,1SDCH7G0169R0K,1SFLH6Q0AB03DJ,1SRCH7F014TAHX,1U5X071EXP5ZJG,63.3,0.3,19.6,8.712657,2.460634,0,0,Mavic Mini,1SDCH7G0169R0K,1SFLH6Q0AB03DJ,1SRCH7F014TAHX,1U5X071EXP5ZJG,DJI Fly,,1.12.8,B1931411-03CA-98FD-EBCA-EEEFA2A9FF0F,1SDCH7G0169R0K,,,,,6.974141747,79.91426546,5,,
2/21/2024,35:29.6,10m 5.1s,605.1,6.974135466,79.91427611,0,0,0.3,52,0.6,0.500194,0.500194,0.447388,0.447388,0.223694,0.223694,0,0,-0.2,1.2,-70.2,289.8,12.6,Manual Takeoff,Other,Takeoff (RC Assisted),15,5,TRUE,,Mavic Mini,TRUE,FALSE,,Smart,RC,TRUE,TRUE,FALSE,,,TRUE,,FALSE,FALSE,FALSE,FALSE,FALSE,FALSE,FALSE,FALSE,FALSE,FALSE,0,Follow Yaw,0,0,-57.8,302.2,FALSE,FALSE,FALSE,FALSE,FALSE,FALSE,,TRUE,Normal,,100,1024,1024,1289,1024,2,FALSE,FALSE,FALSE,FALSE,FALSE,0,FALSE,FALSE,FALSE,FALSE,34,7.179,677,2051,7.145,FALSE,3.592,3.587,0.005,FALSE,FALSE,NA,112.1,112.1,112.2,0,0,0,0,5,2881.8,720.47,,Idle,0,20,FALSE,5,TRUE,10,Go Home,FALSE,FALSE,FALSE,FALSE,FALSE,FALSE,FALSE,FALSE,FALSE,FALSE,FALSE,FALSE,6.974132988,79.91426724,3.3,140.2,328,TRUE,1,1,FALSE,FALSE,FALSE,FALSE,,TRUE,FALSE,FALSE,Course Lock,49.2,,16.4,Calm,29,,1.12.8,Mavic Mini,1SDCH7G0169R0K,1SFLH6Q0AB03DJ,1SRCH7F014TAHX,1U5X071EXP5ZJG,63.3,0.3,19.6,8.712657,2.460634,0,0,Mavic Mini,1SDCH7G0169R0K,1SFLH6Q0AB03DJ,1SRCH7F014TAHX,1U5X071EXP5ZJG,DJI Fly,,1.12.8,B1931411-03CA-98FD-EBCA-EEEFA2A9FF0F,1SDCH7G0169R0K,,,,,6.974141747,79.91426546,5,,
2/21/2024,35:29.7,10m 5.2s,605.2,6.974135742,79.91427623,0.3,0.3,0.3,52,0.7,0.922313,0.922313,0.894776,0.894776,0.223694,0.223694,-0.223694,0,-1,1,-70.2,289.8,18.1,Manual Takeoff,Other,Takeoff (RC Assisted),15,5,TRUE,,Mavic Mini,TRUE,FALSE,,Smart,RC,TRUE,TRUE,FALSE,,,TRUE,,FALSE,FALSE,FALSE,FALSE,FALSE,FALSE,FALSE,FALSE,FALSE,FALSE,0,Follow Yaw,0,0,-58.1,301.9,FALSE,FALSE,FALSE,FALSE,FALSE,FALSE,,TRUE,Normal,,100,1024,1024,1289,1024,2,FALSE,FALSE,FALSE,FALSE,FALSE,0,FALSE,FALSE,FALSE,FALSE,34,7.179,677,2051,7.145,FALSE,3.592,3.587,0.005,FALSE,FALSE,NA,112.1,112.1,112.2,0,0,0,0,5,2881.8,720.47,,Idle,0,20,FALSE,5,TRUE,10,Go Home,FALSE,FALSE,FALSE,FALSE,FALSE,FALSE,FALSE,FALSE,FALSE,FALSE,FALSE,FALSE,6.974132988,79.91426724,3.4,140.2,328,TRUE,1,1,FALSE,FALSE,FALSE,FALSE,,TRUE,FALSE,FALSE,Course Lock,49.2,,16.4,Calm,29,,1.12.8,Mavic Mini,1SDCH7G0169R0K,1SFLH6Q0AB03DJ,1SRCH7F014TAHX,1U5X071EXP5ZJG,63.3,0.3,19.6,8.712657,2.460634,0,0,Mavic Mini,1SDCH7G0169R0K,1SFLH6Q0AB03DJ,1SRCH7F014TAHX,1U5X071EXP5ZJG,DJI Fly,,1.12.8,B1931411-03CA-98FD-EBCA-EEEFA2A9FF0F,1SDCH7G0169R0K,,,,,6.974141747,79.91426546,5,,
2/21/2024,35:29.8,10m 5.3s,605.3,6.974136126,79.91427632,0.3,0.3,0.3,52,0.8,1.11847,1.11847,1.11847,1.11847,0,0.223694,-0.447388,0,-0.8,-0.1,-70.3,289.7,9.6,Tripod,Other,,15,5,TRUE,,Mavic Mini,TRUE,FALSE,,Smart,RC,FALSE,TRUE,FALSE,,,TRUE,,FALSE,FALSE,FALSE,FALSE,FALSE,FALSE,FALSE,FALSE,FALSE,FALSE,0,Follow Yaw,0,0,-58.2,301.8,FALSE,FALSE,FALSE,FALSE,FALSE,FALSE,,TRUE,Normal,,100,1024,1024,1289,1024,2,FALSE,FALSE,FALSE,FALSE,FALSE,0,FALSE,FALSE,FALSE,FALSE,34,7.179,677,2051,7.145,FALSE,3.592,3.587,0.005,FALSE,FALSE,NA,112.1,112.1,112.2,0,0,0,0,5,2881.8,720.47,,Idle,0,20,FALSE,5,TRUE,10,Go Home,FALSE,FALSE,FALSE,FALSE,FALSE,FALSE,FALSE,FALSE,FALSE,FALSE,FALSE,FALSE,6.974132988,79.91426724,3.4,140.2,328,TRUE,1,1,FALSE,FALSE,FALSE,FALSE,,TRUE,FALSE,FALSE,Course Lock,49.2,,16.4,Calm,29,,1.12.8,Mavic Mini,1SDCH7G0169R0K,1SFLH6Q0AB03DJ,1SRCH7F014TAHX,1U5X071EXP5ZJG,63.3,0.3,19.6,8.712657,2.460634,0,0,Mavic Mini,1SDCH7G0169R0K,1SFLH6Q0AB03DJ,1SRCH7F014TAHX,1U5X071EXP5ZJG,DJI Fly,,1.12.8,B1931411-03CA-98FD-EBCA-EEEFA2A9FF0F,1SDCH7G0169R0K,,,,,6.974141747,79.91426546,5,Flight mode changed to Tripod.,
2/21/2024,35:29.9,10m 5.4s,605.4,6.974136608,79.91427636,0.3,0.3,0.6,52,1,1.11847,1.11847,1.11847,1.11847,0,0.223694,-0.894776,0,1,-3.7,-70.2,289.8,4.3,Tripod,Other,,15,5,TRUE,,Mavic Mini,TRUE,FALSE,,Smart,RC,FALSE,TRUE,FALSE,,,TRUE,,FALSE,FALSE,FALSE,FALSE,FALSE,FALSE,FALSE,FALSE,FALSE,FALSE,0,Follow Yaw,0,0,-58.2,301.8,FALSE,FALSE,FALSE,FALSE,FALSE,FALSE,,TRUE,Normal,,100,1024,1024,1289,1024,2,FALSE,FALSE,FALSE,FALSE,FALSE,0,FALSE,FALSE,FALSE,FALSE,34,7.179,677,2051,7.145,FALSE,3.592,3.587,0.005,FALSE,FALSE,NA,112.1,112.1,112.2,0,0,0,0,5,2881.8,720.47,,Idle,0,20,FALSE,5,TRUE,10,Go Home,FALSE,FALSE,FALSE,FALSE,FALSE,FALSE,FALSE,FALSE,FALSE,FALSE,FALSE,FALSE,6.974132988,79.91426724,3.5,140.2,328,TRUE,1,1,FALSE,FALSE,FALSE,FALSE,,TRUE,FALSE,FALSE,Course Lock,49.2,,16.4,Calm,29,,1.12.8,Mavic Mini,1SDCH7G0169R0K,1SFLH6Q0AB03DJ,1SRCH7F014TAHX,1U5X071EXP5ZJG,63.3,0.3,19.6,8.712657,2.460634,0,0,Mavic Mini,1SDCH7G0169R0K,1SFLH6Q0AB03DJ,1SRCH7F014TAHX,1U5X071EXP5ZJG,DJI Fly,,1.12.8,B1931411-03CA-98FD-EBCA-EEEFA2A9FF0F,1SDCH7G0169R0K,,,,,6.974141747,79.91426546,5,,
2/21/2024,35:30.0,10m 5.5s,605.5,6.974137069,79.91427639,0.3,0.3,0.6,52,1.2,0.894776,1.11847,0.894776,1.11847,0,0.223694,-1.11847,0,2.4,-5.4,-70.2,289.8,2.6,Tripod,Other,,15,5,TRUE,,Mavic Mini,TRUE,FALSE,,Smart,RC,FALSE,TRUE,FALSE,,,TRUE,,FALSE,FALSE,FALSE,FALSE,FALSE,FALSE,FALSE,FALSE,FALSE,FALSE,0,Follow Yaw,0,0,-58.2,301.8,FALSE,FALSE,FALSE,FALSE,FALSE,FALSE,,TRUE,Normal,,100,1024,1024,1289,1024,2,FALSE,FALSE,FALSE,FALSE,FALSE,0,FALSE,FALSE,FALSE,FALSE,34,7.179,677,2051,7.145,FALSE,3.592,3.587,0.005,FALSE,FALSE,NA,112.1,112.1,112.2,0,0,0,0,5,2881.8,720.47,,Idle,0,20,FALSE,5,TRUE,10,Go Home,FALSE,FALSE,FALSE,FALSE,FALSE,FALSE,FALSE,FALSE,FALSE,FALSE,FALSE,FALSE,6.974132988,79.91426724,3.6,140.2,328,TRUE,1,1,FALSE,FALSE,FALSE,FALSE,,TRUE,FALSE,FALSE,Course Lock,49.2,,16.4,Calm,29,,1.12.8,Mavic Mini,1SDCH7G0169R0K,1SFLH6Q0AB03DJ,1SRCH7F014TAHX,1U5X071EXP5ZJG,63.3,0.3,19.6,8.712657,2.460634,0,0,Mavic Mini,1SDCH7G0169R0K,1SFLH6Q0AB03DJ,1SRCH7F014TAHX,1U5X071EXP5ZJG,DJI Fly,,1.12.8,B1931411-03CA-98FD-EBCA-EEEFA2A9FF0F,1SDCH7G0169R0K,,,,,6.974141747,79.91426546,5,,
2/21/2024,35:30.1,10m 5.6s,605.6,6.974137703,79.9142764,0.6,0.6,0.9,53,1.4,0.894776,1.11847,0.894776,1.11847,0,0.223694,-1.342164,0,2,-5.2,-70.3,289.7,0.7,Tripod,Other,,15,5,TRUE,,Mavic Mini,TRUE,FALSE,,Smart,RC,FALSE,TRUE,FALSE,,,TRUE,,FALSE,FALSE,FALSE,FALSE,FALSE,FALSE,FALSE,FALSE,FALSE,FALSE,0,Follow Yaw,0,0,-58.2,301.8,FALSE,FALSE,FALSE,FALSE,FALSE,FALSE,,TRUE,Normal,,100,1024,1024,1289,1024,2,FALSE,FALSE,FALSE,FALSE,FALSE,0,FALSE,FALSE,FALSE,FALSE,34,7.179,677,2051,7.145,FALSE,3.592,3.587,0.005,FALSE,FALSE,NA,112.1,112.1,112.2,0,0,0,0,5,2881.8,720.47,,Idle,0,20,FALSE,5,TRUE,10,Go Home,FALSE,FALSE,FALSE,FALSE,FALSE,FALSE,FALSE,FALSE,FALSE,FALSE,FALSE,FALSE,6.974132988,79.91426724,3.7,140.2,328,TRUE,1,1,FALSE,FALSE,FALSE,FALSE,,TRUE,FALSE,FALSE,Course Lock,49.2,,16.4,Calm,29,,1.12.8,Mavic Mini,1SDCH7G0169R0K,1SFLH6Q0AB03DJ,1SRCH7F014TAHX,1U5X071EXP5ZJG,63.3,0.3,19.6,8.712657,2.460634,0,0,Mavic Mini,1SDCH7G0169R0K,1SFLH6Q0AB03DJ,1SRCH7F014TAHX,1U5X071EXP5ZJG,DJI Fly,,1.12.8,B1931411-03CA-98FD-EBCA-EEEFA2A9FF0F,1SDCH7G0169R0K,,,,,6.974141747,79.91426546,5,,
2/21/2024,35:30.2,10m 5.7s,605.7,6.974138149,79.91427641,0.6,0.6,0.9,53,1.6,0.671082,1.11847,0.671082,1.11847,0,0.223694,-1.342164,0,1.9,-5.4,-70.3,289.7,0.5,Tripod,Other,,15,5,TRUE,,Mavic Mini,TRUE,FALSE,,Smart,RC,FALSE,TRUE,FALSE,,,TRUE,,FALSE,FALSE,FALSE,FALSE,FALSE,FALSE,FALSE,FALSE,FALSE,FALSE,0,Follow Yaw,0,0,-58.2,301.8,FALSE,FALSE,FALSE,FALSE,FALSE,FALSE,,TRUE,Normal,,100,1024,1024,1289,1024,2,FALSE,FALSE,FALSE,FALSE,FALSE,0,FALSE,FALSE,FALSE,FALSE,34,6.99,675,2051,7.145,FALSE,3.495,3.495,0.005,FALSE,TRUE,NA,112.1,112.1,112.2,0,0,0,0,5,2881.8,720.47,,Idle,0,20,FALSE,5,TRUE,10,Go Home,FALSE,FALSE,FALSE,FALSE,FALSE,FALSE,FALSE,FALSE,FALSE,FALSE,FALSE,FALSE,6.974132988,79.91426724,3.8,140.2,328,TRUE,1,1,FALSE,FALSE,FALSE,FALSE,,TRUE,FALSE,FALSE,Course Lock,49.2,,16.4,Calm,29,,1.12.8,Mavic Mini,1SDCH7G0169R0K,1SFLH6Q0AB03DJ,1SRCH7F014TAHX,1U5X071EXP5ZJG,63.3,0.3,19.6,8.712657,2.460634,0,0,Mavic Mini,1SDCH7G0169R0K,1SFLH6Q0AB03DJ,1SRCH7F014TAHX,1U5X071EXP5ZJG,DJI Fly,,1.12.8,B1931411-03CA-98FD-EBCA-EEEFA2A9FF0F,1SDCH7G0169R0K,,,,,6.974141747,79.91426546,5,,
2/21/2024,35:30.2,10m 5.8s,605.8,6.974138613,79.9142764,0.9,0.9,1.3,53,1.7,0.671082,1.11847,0.671082,1.11847,0,0.223694,-1.565858,0,2,-5.6,-70.4,289.6,359.4,Tripod,Other,,15,5,TRUE,,Mavic Mini,TRUE,FALSE,,Smart,RC,FALSE,TRUE,FALSE,,,TRUE,,FALSE,FALSE,FALSE,FALSE,FALSE,FALSE,FALSE,FALSE,FALSE,FALSE,0,Follow Yaw,0,0,-58.2,301.8,FALSE,FALSE,FALSE,FALSE,FALSE,FALSE,,TRUE,Normal,,100,1024,1024,1289,1024,2,FALSE,FALSE,FALSE,FALSE,FALSE,0,FALSE,FALSE,FALSE,FALSE,34,6.99,675,2051,7.145,FALSE,3.495,3.495,0.005,FALSE,TRUE,NA,112.1,112.1,112.2,0,0,0,0,5,2881.8,720.47,,Idle,0,20,FALSE,5,TRUE,10,Go Home,FALSE,FALSE,FALSE,FALSE,FALSE,FALSE,FALSE,FALSE,FALSE,FALSE,FALSE,FALSE,6.974132988,79.91426724,3.9,140.2,328,TRUE,1,1,FALSE,FALSE,FALSE,FALSE,,TRUE,FALSE,FALSE,Course Lock,49.2,,16.4,Calm,29,,1.12.8,Mavic Mini,1SDCH7G0169R0K,1SFLH6Q0AB03DJ,1SRCH7F014TAHX,1U5X071EXP5ZJG,63.3,0.3,19.6,8.712657,2.460634,0,0,Mavic Mini,1SDCH7G0169R0K,1SFLH6Q0AB03DJ,1SRCH7F014TAHX,1U5X071EXP5ZJG,DJI Fly,,1.12.8,B1931411-03CA-98FD-EBCA-EEEFA2A9FF0F,1SDCH7G0169R0K,,,,,6.974141747,79.91426546,5,,
2/21/2024,35:30.4,10m 5.9s,605.9,6.974138981,79.91427643,0.9,0.9,1.6,53,1.9,0.447388,1.11847,0.447388,1.11847,0,0.223694,-1.342164,0,1.8,-5.2,-70.4,289.6,3.9,Tripod,Other,,15,5,TRUE,,Mavic Mini,TRUE,FALSE,,Smart,RC,FALSE,TRUE,FALSE,,,TRUE,,FALSE,FALSE,FALSE,FALSE,FALSE,FALSE,FALSE,FALSE,FALSE,FALSE,0,Follow Yaw,0,0,-58.2,301.8,FALSE,FALSE,FALSE,FALSE,FALSE,FALSE,,TRUE,Normal,,100,1024,1024,1289,1024,2,FALSE,FALSE,FALSE,FALSE,FALSE,0,FALSE,FALSE,FALSE,FALSE,33,6.99,675,2051,7.116,FALSE,3.495,3.495,0.005,FALSE,TRUE,NA,112.1,112.1,112.2,0,0,5,0,5,3436.5,859.14,,Idle,0,20,FALSE,5,TRUE,10,Go Home,FALSE,FALSE,FALSE,FALSE,FALSE,FALSE,FALSE,FALSE,FALSE,FALSE,FALSE,FALSE,6.97413586,79.91427627,1.1,140.2,328,TRUE,1,1,FALSE,FALSE,FALSE,FALSE,,TRUE,FALSE,FALSE,Course Lock,49.2,,16.4,Calm,29,,1.12.8,Mavic Mini,1SDCH7G0169R0K,1SFLH6Q0AB03DJ,1SRCH7F014TAHX,1U5X071EXP5ZJG,63.3,0.3,19.6,8.712657,2.460634,0,0,Mavic Mini,1SDCH7G0169R0K,1SFLH6Q0AB03DJ,1SRCH7F014TAHX,1U5X071EXP5ZJG,DJI Fly,,1.12.8,B1931411-03CA-98FD-EBCA-EEEFA2A9FF0F,1SDCH7G0169R0K,,,,,6.974141747,79.91426546,5,Home Point Updated.,
2/21/2024,35:30.4,10m 6.0s,606,6.974139493,79.91427653,1.3,1.3,1.6,53,2,0.447388,1.11847,0.447388,1.11847,0,0.223694,-1.11847,0,1.9,-5,-70.3,289.7,7.8,Tripod,Other,,14,5,TRUE,,Mavic Mini,TRUE,FALSE,,Smart,RC,FALSE,TRUE,FALSE,,,TRUE,,FALSE,FALSE,FALSE,FALSE,FALSE,FALSE,FALSE,FALSE,FALSE,FALSE,0,Follow Yaw,0,0,-58.2,301.8,FALSE,FALSE,FALSE,FALSE,FALSE,FALSE,,TRUE,Normal,,100,1024,1024,1289,1024,2,FALSE,FALSE,FALSE,FALSE,FALSE,0,FALSE,FALSE,FALSE,FALSE,33,6.99,675,2051,7.116,FALSE,3.495,3.495,0.005,FALSE,TRUE,NA,112.1,112.1,112.2,0,0,5,0,5,3436.5,859.14,,Idle,0,20,FALSE,5,TRUE,10,Go Home,FALSE,FALSE,FALSE,FALSE,FALSE,FALSE,FALSE,FALSE,FALSE,FALSE,FALSE,FALSE,6.97413586,79.91427627,1.3,140.2,328,TRUE,1,1,FALSE,FALSE,FALSE,FALSE,,TRUE,FALSE,FALSE,Course Lock,49.2,,16.4,Calm,29,,1.12.8,Mavic Mini,1SDCH7G0169R0K,1SFLH6Q0AB03DJ,1SRCH7F014TAHX,1U5X071EXP5ZJG,63.3,0.3,19.6,8.712657,2.460634,0,0,Mavic Mini,1SDCH7G0169R0K,1SFLH6Q0AB03DJ,1SRCH7F014TAHX,1U5X071EXP5ZJG,DJI Fly,,1.12.8,B1931411-03CA-98FD-EBCA-EEEFA2A9FF0F,1SDCH7G0169R0K,,,,,6.974141747,79.91426546,5,,
2/21/2024,35:30.6,10m 6.1s,606.1,6.974139669,79.91427658,1.3,1.3,1.9,53,2.1,0.223694,1.11847,0.223694,1.11847,0,0.223694,-1.11847,0,1,-4.3,-70.3,289.7,13.2,Tripod,Other,,14,5,TRUE,,Mavic Mini,TRUE,FALSE,,Smart,RC,FALSE,TRUE,FALSE,,,TRUE,,FALSE,FALSE,FALSE,FALSE,FALSE,FALSE,FALSE,FALSE,FALSE,FALSE,0,Follow Yaw,0,0,-58.2,301.8,FALSE,FALSE,FALSE,FALSE,FALSE,FALSE,,TRUE,Normal,,100,1024,1024,1291,1024,2,FALSE,FALSE,FALSE,FALSE,FALSE,0,FALSE,FALSE,FALSE,FALSE,33,6.99,675,2051,7.116,FALSE,3.495,3.495,0.005,FALSE,TRUE,NA,112.1,112.1,112.2,0,0,5,0,5,3436.5,859.14,,Idle,0,20,FALSE,5,TRUE,10,Go Home,FALSE,FALSE,FALSE,FALSE,FALSE,FALSE,FALSE,FALSE,FALSE,FALSE,FALSE,FALSE,6.97413586,79.91427627,1.3,140.2,328,TRUE,1,1,FALSE,FALSE,FALSE,FALSE,,TRUE,FALSE,FALSE,Course Lock,49.2,,16.4,Calm,29,,1.12.8,Mavic Mini,1SDCH7G0169R0K,1SFLH6Q0AB03DJ,1SRCH7F014TAHX,1U5X071EXP5ZJG,63.3,0.3,19.6,8.712657,2.460634,0,0,Mavic Mini,1SDCH7G0169R0K,1SFLH6Q0AB03DJ,1SRCH7F014TAHX,1U5X071EXP5ZJG,DJI Fly,,1.12.8,B1931411-03CA-98FD-EBCA-EEEFA2A9FF0F,1SDCH7G0169R0K,,,,,6.974141747,79.91426546,5,,
2/21/2024,35:30.7,10m 6.2s,606.2,6.974139747,79.91427663,1.6,1.6,1.9,54,2.1,0.447388,1.11847,0.447388,1.11847,0,0.223694,-0.894776,0,0.6,-4.1,-70.3,289.7,26.9,Tripod,Other,,14,5,TRUE,,Mavic Mini,TRUE,FALSE,,Smart,RC,FALSE,TRUE,FALSE,,,TRUE,,FALSE,FALSE,FALSE,FALSE,FALSE,FALSE,FALSE,FALSE,FALSE,FALSE,0,Follow Yaw,0,0,-58.2,301.8,FALSE,FALSE,FALSE,FALSE,FALSE,FALSE,,TRUE,Normal,,100,1024,1024,1299,1024,2,FALSE,FALSE,FALSE,FALSE,FALSE,0,FALSE,FALSE,FALSE,FALSE,33,6.99,675,2051,7.116,FALSE,3.495,3.495,0.005,FALSE,TRUE,NA,112.1,112.1,112.2,0,0,5,0,5,3436.5,859.14,,Idle,0,20,FALSE,5,TRUE,10,Go Home,FALSE,FALSE,FALSE,FALSE,FALSE,FALSE,FALSE,FALSE,FALSE,FALSE,FALSE,FALSE,6.97413586,79.91427627,1.4,140.2,328,TRUE,1,1,FALSE,FALSE,FALSE,FALSE,,TRUE,FALSE,FALSE,Course Lock,49.2,,16.4,Calm,29,,1.12.8,Mavic Mini,1SDCH7G0169R0K,1SFLH6Q0AB03DJ,1SRCH7F014TAHX,1U5X071EXP5ZJG,63.3,0.3,19.6,8.712657,2.460634,0,0,Mavic Mini,1SDCH7G0169R0K,1SFLH6Q0AB03DJ,1SRCH7F014TAHX,1U5X071EXP5ZJG,DJI Fly,,1.12.8,B1931411-03CA-98FD-EBCA-EEEFA2A9FF0F,1SDCH7G0169R0K,,,,,6.974141747,79.91426546,5,Home Point updated. RTH altitude adjusted to 15 m! (Code: 120852).,
2/21/2024,35:30.8,10m 6.3s,606.3,6.974139852,79.91427668,1.6,1.6,2.2,54,2.2,0.223694,1.11847,0.223694,1.11847,0,0.223694,-0.671082,0,0.1,-4.2,-70.1,289.9,20.8,Tripod,Other,,14,5,TRUE,,Mavic Mini,TRUE,FALSE,,Smart,RC,FALSE,TRUE,FALSE,,,TRUE,,FALSE,FALSE,FALSE,FALSE,FALSE,FALSE,FALSE,FALSE,FALSE,FALSE,0,Follow Yaw,0,0,-58.2,301.8,FALSE,FALSE,FALSE,FALSE,FALSE,FALSE,,TRUE,Normal,,100,1024,1024,1330,1024,2,FALSE,FALSE,FALSE,FALSE,FALSE,0,FALSE,FALSE,FALSE,FALSE,33,6.99,675,2051,7.116,FALSE,3.495,3.495,0.005,FALSE,TRUE,NA,112.1,112.1,112.2,0,0,5,0,5,3436.5,859.14,,Idle,0,20,FALSE,5,TRUE,10,Go Home,FALSE,FALSE,FALSE,FALSE,FALSE,FALSE,FALSE,FALSE,FALSE,FALSE,FALSE,FALSE,6.97413586,79.91427627,1.4,140.2,328,TRUE,1,1,FALSE,FALSE,FALSE,FALSE,,TRUE,FALSE,FALSE,Course Lock,49.2,,16.4,Calm,29,,1.12.8,Mavic Mini,1SDCH7G0169R0K,1SFLH6Q0AB03DJ,1SRCH7F014TAHX,1U5X071EXP5ZJG,63.3,0.3,19.6,8.712657,2.460634,0,0,Mavic Mini,1SDCH7G0169R0K,1SFLH6Q0AB03DJ,1SRCH7F014TAHX,1U5X071EXP5ZJG,DJI Fly,,1.12.8,B1931411-03CA-98FD-EBCA-EEEFA2A9FF0F,1SDCH7G0169R0K,,,,,6.974141747,79.91426546,5,,
2/21/2024,35:30.9,10m 6.4s,606.4,6.974139701,79.91427667,1.6,1.6,2.2,54,2.2,0.223694,1.11847,0.223694,1.11847,0,0.223694,-0.671082,0,0.1,-4.5,-70,290,184,Tripod,Other,,13,5,TRUE,,Mavic Mini,TRUE,FALSE,,Smart,RC,FALSE,TRUE,FALSE,,,TRUE,,FALSE,FALSE,FALSE,FALSE,FALSE,FALSE,FALSE,FALSE,FALSE,FALSE,0,Follow Yaw,0,0,-58.2,301.8,FALSE,FALSE,FALSE,FALSE,FALSE,FALSE,,TRUE,Normal,,100,1024,1024,1474,1024,2,FALSE,FALSE,FALSE,FALSE,FALSE,0,FALSE,FALSE,FALSE,FALSE,33,6.99,675,2051,7.116,FALSE,3.495,3.495,0.005,FALSE,TRUE,NA,112.1,112.1,112.2,0,0,5,0,5,3436.5,859.14,,Idle,0,20,FALSE,5,TRUE,10,Go Home,FALSE,FALSE,FALSE,FALSE,FALSE,FALSE,FALSE,FALSE,FALSE,FALSE,FALSE,FALSE,6.97413586,79.91427627,1.4,140.2,328,TRUE,1,1,FALSE,FALSE,FALSE,FALSE,,TRUE,FALSE,FALSE,Course Lock,49.2,,16.4,Calm,29,,1.12.8,Mavic Mini,1SDCH7G0169R0K,1SFLH6Q0AB03DJ,1SRCH7F014TAHX,1U5X071EXP5ZJG,63.3,0.3,19.6,8.712657,2.460634,0,0,Mavic Mini,1SDCH7G0169R0K,1SFLH6Q0AB03DJ,1SRCH7F014TAHX,1U5X071EXP5ZJG,DJI Fly,,1.12.8,B1931411-03CA-98FD-EBCA-EEEFA2A9FF0F,1SDCH7G0169R0K,,,,,6.974141747,79.91426546,5,,
2/21/2024,35:31.0,10m 6.5s,606.5,6.974139806,79.91427673,1.9,1.9,2.2,54,2.3,0.223694,1.11847,0.223694,1.11847,0,0.223694,-0.671082,0,-0.1,-4.8,-70,290,23.3,Tripod,Other,,13,5,TRUE,,Mavic Mini,TRUE,FALSE,,Smart,RC,FALSE,TRUE,FALSE,,,TRUE,,FALSE,FALSE,FALSE,FALSE,FALSE,FALSE,FALSE,FALSE,FALSE,FALSE,0,Follow Yaw,0,0,-58.2,301.8,FALSE,FALSE,FALSE,FALSE,FALSE,FALSE,,TRUE,Normal,,100,1024,1024,1511,1024,2,FALSE,FALSE,FALSE,FALSE,FALSE,0,FALSE,FALSE,FALSE,FALSE,33,6.99,675,2051,7.116,FALSE,3.495,3.495,0.005,FALSE,TRUE,NA,112.1,112.1,112.2,0,0,5,0,5,3436.5,859.14,,Idle,0,20,FALSE,5,TRUE,10,Go Home,FALSE,FALSE,FALSE,FALSE,FALSE,FALSE,FALSE,FALSE,FALSE,FALSE,FALSE,FALSE,6.97413586,79.91427627,1.4,140.2,328,TRUE,1,1,FALSE,FALSE,FALSE,FALSE,,TRUE,FALSE,FALSE,Course Lock,49.2,,16.4,Calm,29,,1.12.8,Mavic Mini,1SDCH7G0169R0K,1SFLH6Q0AB03DJ,1SRCH7F014TAHX,1U5X071EXP5ZJG,63.3,0.3,19.6,8.712657,2.460634,0,0,Mavic Mini,1SDCH7G0169R0K,1SFLH6Q0AB03DJ,1SRCH7F014TAHX,1U5X071EXP5ZJG,DJI Fly,,1.12.8,B1931411-03CA-98FD-EBCA-EEEFA2A9FF0F,1SDCH7G0169R0K,,,,,6.974141747,79.91426546,5,,
2/21/2024,35:31.1,10m 6.6s,606.6,6.974139865,79.91427679,1.9,1.9,2.6,54,2.3,0.223694,1.11847,0.223694,1.11847,0,0.223694,-0.671082,0,-0.1,-5,-69.9,290.1,40.6,Tripod,Other,,13,5,TRUE,,Mavic Mini,TRUE,FALSE,,Smart,RC,FALSE,TRUE,FALSE,,,TRUE,,FALSE,FALSE,FALSE,FALSE,FALSE,FALSE,FALSE,FALSE,FALSE,FALSE,0,Follow Yaw,0,0,-58.2,301.8,FALSE,FALSE,FALSE,FALSE,FALSE,FALSE,,TRUE,Normal,,100,1024,1024,1523,1024,2,FALSE,FALSE,FALSE,FALSE,FALSE,0,FALSE,FALSE,FALSE,FALSE,33,6.99,675,2051,7.116,FALSE,3.495,3.495,0.005,FALSE,TRUE,NA,112.1,112.1,112.2,0,0,5,0,5,3436.5,859.14,,Idle,0,20,FALSE,5,TRUE,10,Go Home,FALSE,FALSE,FALSE,FALSE,FALSE,FALSE,FALSE,FALSE,FALSE,FALSE,FALSE,FALSE,6.97413586,79.91427627,1.4,140.2,328,TRUE,1,1,FALSE,FALSE,FALSE,FALSE,,TRUE,FALSE,FALSE,Course Lock,49.2,,16.4,Calm,29,,1.12.8,Mavic Mini,1SDCH7G0169R0K,1SFLH6Q0AB03DJ,1SRCH7F014TAHX,1U5X071EXP5ZJG,63.3,0.3,19.6,8.712657,2.460634,0,0,Mavic Mini,1SDCH7G0169R0K,1SFLH6Q0AB03DJ,1SRCH7F014TAHX,1U5X071EXP5ZJG,DJI Fly,,1.12.8,B1931411-03CA-98FD-EBCA-EEEFA2A9FF0F,1SDCH7G0169R0K,,,,,6.974141747,79.91426546,5,,
2/21/2024,35:31.2,10m 6.7s,606.7,6.974139968,79.91427686,2.2,2.2,2.6,54,2.4,0.223694,1.11847,0.223694,1.11847,0,0.223694,-0.894776,0,0.1,-4.6,-69.8,290.2,25.8,Tripod,Other,,13,5,TRUE,,Mavic Mini,TRUE,FALSE,,Smart,RC,FALSE,TRUE,FALSE,,,TRUE,,FALSE,FALSE,FALSE,FALSE,FALSE,FALSE,FALSE,FALSE,FALSE,FALSE,0,Follow Yaw,0,0,-58.2,301.8,FALSE,FALSE,FALSE,FALSE,FALSE,FALSE,,TRUE,Normal,,100,1024,1024,1525,1024,2,FALSE,FALSE,FALSE,FALSE,FALSE,0,FALSE,FALSE,FALSE,FALSE,33,6.99,675,2051,7.116,FALSE,3.495,3.495,0.005,FALSE,TRUE,NA,112.1,112.1,112.2,0,0,5,0,5,3436.5,859.14,,Idle,0,20,FALSE,5,TRUE,10,Go Home,FALSE,FALSE,FALSE,FALSE,FALSE,FALSE,FALSE,FALSE,FALSE,FALSE,FALSE,FALSE,6.97413586,79.91427627,1.5,140.2,328,TRUE,1,1,FALSE,FALSE,FALSE,FALSE,,TRUE,FALSE,FALSE,Course Lock,49.2,,16.4,Calm,29,,1.12.8,Mavic Mini,1SDCH7G0169R0K,1SFLH6Q0AB03DJ,1SRCH7F014TAHX,1U5X071EXP5ZJG,63.3,0.3,19.6,8.712657,2.460634,0,0,Mavic Mini,1SDCH7G0169R0K,1SFLH6Q0AB03DJ,1SRCH7F014TAHX,1U5X071EXP5ZJG,DJI Fly,,1.12.8,B1931411-03CA-98FD-EBCA-EEEFA2A9FF0F,1SDCH7G0169R0K,,,,,6.974141747,79.91426546,5,,
2/21/2024,35:31.3,10m 6.8s,606.8,6.97414008,79.91427703,2.2,2.2,2.9,54,2.4,0,1.11847,0,1.11847,0,0.223694,-1.11847,0,0.6,-4,-69.9,290.1,,Tripod,Other,,13,5,TRUE,,Mavic Mini,TRUE,FALSE,,Smart,RC,FALSE,TRUE,FALSE,,,TRUE,,FALSE,FALSE,FALSE,FALSE,FALSE,FALSE,FALSE,FALSE,FALSE,FALSE,0,Follow Yaw,0,0,-58.2,301.8,FALSE,FALSE,FALSE,FALSE,FALSE,FALSE,,TRUE,Normal,,100,1024,1024,1525,1024,2,FALSE,FALSE,FALSE,FALSE,FALSE,0,FALSE,FALSE,FALSE,FALSE,33,6.953,674,2051,7.116,FALSE,3.478,3.475,0.005,FALSE,TRUE,NA,112.1,112.1,112.2,0,0,5,0,5,3436.5,859.14,,Idle,0,20,FALSE,5,TRUE,10,Go Home,FALSE,FALSE,FALSE,FALSE,FALSE,FALSE,FALSE,FALSE,FALSE,FALSE,FALSE,FALSE,6.97413586,79.91427627,1.5,140.2,328,TRUE,1,1,FALSE,FALSE,FALSE,FALSE,,TRUE,FALSE,FALSE,Course Lock,49.2,,16.4,Calm,29,,1.12.8,Mavic Mini,1SDCH7G0169R0K,1SFLH6Q0AB03DJ,1SRCH7F014TAHX,1U5X071EXP5ZJG,63.3,0.3,19.6,8.712657,2.460634,0,0,Mavic Mini,1SDCH7G0169R0K,1SFLH6Q0AB03DJ,1SRCH7F014TAHX,1U5X071EXP5ZJG,DJI Fly,,1.12.8,B1931411-03CA-98FD-EBCA-EEEFA2A9FF0F,1SDCH7G0169R0K,,,,,6.974141747,79.91426546,5,,
2/21/2024,35:31.4,10m 6.9s,606.9,6.97414019,79.91427694,2.6,2.6,2.9,55,2.5,0,1.11847,0,1.11847,0,0.223694,-1.565858,0,1.4,-2.8,-69.8,290.2,,Tripod,Other,,13,5,TRUE,,Mavic Mini,TRUE,FALSE,,Smart,RC,FALSE,TRUE,FALSE,,,TRUE,,FALSE,FALSE,FALSE,FALSE,FALSE,FALSE,FALSE,FALSE,FALSE,FALSE,0,Follow Yaw,0,0,-58.2,301.8,FALSE,FALSE,FALSE,FALSE,FALSE,FALSE,,TRUE,Normal,,100,1024,1024,1525,1024,2,FALSE,FALSE,FALSE,FALSE,FALSE,0,FALSE,FALSE,FALSE,FALSE,33,6.953,674,2051,6.946,FALSE,3.478,3.475,0.005,FALSE,TRUE,NA,112.1,112.1,112.2,0,0,5,0,5,4868.5,1217.12,,Idle,0,20,FALSE,5,TRUE,10,Go Home,FALSE,FALSE,FALSE,FALSE,FALSE,FALSE,FALSE,FALSE,FALSE,FALSE,FALSE,FALSE,6.97413586,79.91427627,1.5,140.2,328,TRUE,1,1,FALSE,FALSE,FALSE,FALSE,,TRUE,FALSE,FALSE,Course Lock,49.2,,16.4,Calm,29,,1.12.8,Mavic Mini,1SDCH7G0169R0K,1SFLH6Q0AB03DJ,1SRCH7F014TAHX,1U5X071EXP5ZJG,63.3,0.3,19.6,8.712657,2.460634,0,0,Mavic Mini,1SDCH7G0169R0K,1SFLH6Q0AB03DJ,1SRCH7F014TAHX,1U5X071EXP5ZJG,DJI Fly,,1.12.8,B1931411-03CA-98FD-EBCA-EEEFA2A9FF0F,1SDCH7G0169R0K,,,,,6.974141747,79.91426546,5,,
2/21/2024,35:31.5,10m 7.0s,607,6.974140282,79.91427675,2.6,2.6,3.2,55,2.6,0,1.11847,0,1.11847,0,0.223694,-2.013246,0,2.1,-3.2,-69.9,290.1,,Tripod,Other,,14,5,TRUE,,Mavic Mini,TRUE,FALSE,,Smart,RC,FALSE,TRUE,FALSE,,,TRUE,,FALSE,FALSE,FALSE,FALSE,FALSE,FALSE,FALSE,FALSE,FALSE,FALSE,0,Follow Yaw,0,0,-58.2,301.8,FALSE,FALSE,FALSE,FALSE,FALSE,FALSE,,TRUE,Normal,,100,1024,1024,1468,1024,2,FALSE,FALSE,FALSE,FALSE,FALSE,0,FALSE,FALSE,FALSE,FALSE,33,6.953,674,2051,6.946,FALSE,3.478,3.475,0.005,FALSE,TRUE,NA,112.1,112.1,112.2,0,0,5,0,5,4868.5,1217.12,,Idle,0,20,FALSE,5,TRUE,10,Go Home,FALSE,FALSE,FALSE,FALSE,FALSE,FALSE,FALSE,FALSE,FALSE,FALSE,FALSE,FALSE,6.97413586,79.91427627,1.6,140.2,328,TRUE,1,1,FALSE,FALSE,FALSE,FALSE,,TRUE,FALSE,FALSE,Course Lock,49.2,,16.4,Calm,29,,1.12.8,Mavic Mini,1SDCH7G0169R0K,1SFLH6Q0AB03DJ,1SRCH7F014TAHX,1U5X071EXP5ZJG,63.3,0.3,19.6,8.712657,2.460634,0,0,Mavic Mini,1SDCH7G0169R0K,1SFLH6Q0AB03DJ,1SRCH7F014TAHX,1U5X071EXP5ZJG,DJI Fly,,1.12.8,B1931411-03CA-98FD-EBCA-EEEFA2A9FF0F,1SDCH7G0169R0K,,,,,6.974141747,79.91426546,5,,
2/21/2024,35:31.6,10m 7.1s,607.1,6.974140393,79.91427661,2.9,2.9,3.6,55,2.6,0,1.11847,0,1.11847,0,0.223694,-2.23694,0,1.9,-3.6,-70,290,,Tripod,Other,,14,5,TRUE,,Mavic Mini,TRUE,FALSE,,Smart,RC,FALSE,TRUE,FALSE,,,TRUE,,FALSE,FALSE,FALSE,FALSE,FALSE,FALSE,FALSE,FALSE,FALSE,FALSE,0,Follow Yaw,0,0,-58.2,301.8,FALSE,FALSE,FALSE,FALSE,FALSE,FALSE,,TRUE,Normal,,100,1024,1024,1347,1024,2,FALSE,FALSE,FALSE,FALSE,FALSE,0,FALSE,FALSE,FALSE,FALSE,33,6.953,674,2051,6.946,FALSE,3.478,3.475,0.005,FALSE,TRUE,NA,112.1,112.1,112.2,0,0,5,0,5,4868.5,1217.12,,Idle,0,20,FALSE,5,TRUE,10,Go Home,FALSE,FALSE,FALSE,FALSE,FALSE,FALSE,FALSE,FALSE,FALSE,FALSE,FALSE,FALSE,6.97413586,79.91427627,1.6,140.2,328,TRUE,1,1,FALSE,FALSE,FALSE,FALSE,,TRUE,FALSE,FALSE,Course Lock,49.2,,16.4,Calm,29,,1.12.8,Mavic Mini,1SDCH7G0169R0K,1SFLH6Q0AB03DJ,1SRCH7F014TAHX,1U5X071EXP5ZJG,63.3,0.3,19.6,8.712657,2.460634,0,0,Mavic Mini,1SDCH7G0169R0K,1SFLH6Q0AB03DJ,1SRCH7F014TAHX,1U5X071EXP5ZJG,DJI Fly,,1.12.8,B1931411-03CA-98FD-EBCA-EEEFA2A9FF0F,1SDCH7G0169R0K,,,,,6.974141747,79.91426546,5,,
