CUSTOM.date [local],CUSTOM.updateTime [local],OSD.flyTime,OSD.flyTime [s],OSD.latitude,OSD.longitude,OSD.height [ft],OSD.heightMax [ft],OSD.vpsHeight [ft],OSD.altitude [ft],OSD.mileage [ft],OSD.hSpeed [MPH],OSD.hSpeedMax [MPH],OSD.xSpeed [MPH],OSD.xSpeedMax [MPH],OSD.ySpeed [MPH],OSD.ySpeedMax [MPH],OSD.zSpeed [MPH],OSD.zSpeedMax [MPH],OSD.pitch,OSD.roll,OSD.yaw,OSD.yaw [360],OSD.directionOfTravel,OSD.flycState,OSD.flycCommand,OSD.flightAction,OSD.gpsNum,OSD.gpsLevel,OSD.isGPSUsed,OSD.nonGPSCause,OSD.droneType,OSD.isSwaveWork,OSD.waveError,OSD.goHomeStatus,OSD.batteryType,OSD.ctrlDevice,OSD.isOnGround,OSD.isMotorOn,OSD.isMotorBlocked,OSD.motorStartFailedCause,OSD.motorFailReason,OSD.isImuPreheated,OSD.imuInitFailReason,OSD.isAcceletorOverRange,OSD.isBarometerDeadInAir,OSD.isCompassError,OSD.isGoHomeHeightModified,OSD.canIOCWork,OSD.isNotEnoughForce,OSD.isOutOfLimit,OSD.isPropellerCatapult,OSD.isVibrating,OSD.isVisionUsed,OSD.voltageWarning,GIMBAL.mode,GIMBAL.pitch,GIMBAL.roll,GIMBAL.yaw,GIMBAL.yaw [360],GIMBAL.isPitchAtLimit,GIMBAL.isRollAtLimit,GIMBAL.isYawAtLimit,GIMBAL.isStuck,CAMERA.isPhoto,CAMERA.isVideo,CAMERA.filename,CAMERA.sdCardIsInserted,CAMERA.sdCardState,RC.downlinkSignal,RC.uplinkSignal,RC.aileron,RC.elevator,RC.throttle,RC.rudder,RC.mode,RC.goHomeDepressed,RC.recordDepressed,RC.shutterDepressed,RC.playbackDepressed,RC.wheelDepressed,RC.wheelOffset,RC.custom1Depressed,RC.custom2Depressed,RC.custom3Depressed,RC.custom4Depressed,BATTERY.chargeLevel,BATTERY.currentPV [V],BATTERY.currentCapacity [mAh],BATTERY.fullCapacity [mAh],BATTERY.voltage [V],BATTERY.isCellVoltageEstimated,BATTERY.cellVoltage1 [V],BATTERY.cellVoltage2 [V],BATTERY.maxCellVoltageDeviation,BATTERY.isCellVoltageDeviationHigh,BATTERY.isVoltageLow,BATTERY.current [A],BATTERY.temperature [F],BATTERY.minTemperature [F],BATTERY.maxTemperature [F],BATTERY.usefulTime [s],BATTERY.goHomeTime [s],BATTERY.landTime [s],BATTERY.goHomeBattery,BATTERY.landBattery,BATTERY.safeFlyRadius,BATTERY.volumeConsume,BATTERY.status,BATTERY.goHomeStatus,BATTERY.goHomeCountdown,BATTERY.lowWarning,BATTERY.lowWarningGoHome,BATTERY.seriousLowWarning,BATTERY.seriousLowWarningLanding,BATTERY.timesCharged,MC.failSafeAction,MC.isObstacleAvoidanceEnabled,MC.isCollisionAvoidanceEnabled,MC.isRthObstacleAvoidanceEnabled,MC.isBraking,MC.isAvoidingObstacle,MC.isAvoidingActiveObstacle,MC.isAscentLimitedByObstacle,MC.isLandingConfirmationNeeded,MC.atLowAltitudeLimit,MC.atDistanceLimit,MC.atAirportAltitudeLimit,MC.atAirportBoundary,HOME.latitude,HOME.longitude,HOME.distance [ft],HOME.height [ft],HOME.heightLimit [ft],HOME.isHomeRecord,HOME.goHomeMode,HOME.aircraftHeadDirection,HOME.isDynamicHomePointEnabled,HOME.isReachedLimitDistance,HOME.isReachedLimitHeight,HOME.isCompassCalibrating,HOME.compassCalibrationState,HOME.isMultipleFlightModeEnabled,HOME.isBeginnerMode,HOME.isIOCEnabled,HOME.iocMode,HOME.goHomeHeight [ft],HOME.courseLockAngle,HOME.forceLandingHeight [ft],HOME.wind,HOME.dataRecorderFileIndex,RECOVER.appType,RECOVER.appVersion,RECOVER.aircraftName,RECOVER.aircraftSerial,RECOVER.cameraSerial,RECOVER.rcSerial,RECOVER.batterySerial,DETAILS.totalTime [s],DETAILS.totalDistance [ft],DETAILS.maxHeight [ft],DETAILS.maxHorizontalSpeed [MPH],DETAILS.maxVerticalSpeed [MPH],DETAILS.photoNum,DETAILS.videoTime [s],DETAILS.aircraftName,DETAILS.aircraftSerial,DETAILS.cameraSerial,DETAILS.rcSerial,DETAILS.batterySerial,DETAILS.appName,DETAILS.appType,DETAILS.appVersion,DETAILS.guid,SERIAL.flightController,SERIAL.camera,SERIAL.gimbal,SERIAL.rc,SERIAL.battery,APPGPS.latitude,APPGPS.longitude,APPGPS.accuracy,APP.tip,APP.warning
2/25/2024,04:12.2,2m 56.9s,176.9,6.972715003,79.91578704,0,0,0.3,63,0,0,0,0,0,0,0,0,0,3.6,3.3,-5.2,354.8,,Starting Motors,Other,Takeoff (RC Assisted),15,5,TRUE,,Mavic Mini,FALSE,FALSE,,Smart,RC,TRUE,TRUE,FALSE,,,TRUE,,FALSE,FALSE,FALSE,FALSE,FALSE,FALSE,FALSE,FALSE,FALSE,FALSE,0,Follow Yaw,0,0,2.9,2.9,FALSE,FALSE,FALSE,FALSE,FALSE,FALSE,,TRUE,Normal,,,1024,1024,1024,1024,,FALSE,FALSE,FALSE,FALSE,FALSE,0,FALSE,FALSE,FALSE,FALSE,85,7.934,1747,2050,7.934,TRUE,3.967,3.967,,FALSE,FALSE,NA,95.7,95.7,95.7,,,,,,,,,Idle,,,TRUE,,FALSE,11,Go Home,FALSE,FALSE,FALSE,FALSE,FALSE,FALSE,FALSE,FALSE,FALSE,FALSE,FALSE,FALSE,,,,,,FALSE,,,FALSE,FALSE,FALSE,FALSE,,FALSE,FALSE,FALSE,,,,,Calm,,,1.12.8,Mavic Mini,1SDCH7G0169R0K,1SFLH6Q0AB03DJ,1SRCH7F014TAHX,1U5X071EXP5ZJG,90.7,0.1,101.7,7.395547,3.802798,0,0,Mavic Mini,1SDCH7G0169R0K,1SFLH6Q0AB03DJ,1SRCH7F014TAHX,1U5X071EXP5ZJG,DJI Fly,,1.12.8,02523FC3-213B-C523-E24D-E94A005ED46A,1SDCH7G0169R0K,,,,,,,,Flight mode changed to Starting Motors.,
2/25/2024,01:15.4,2m 57.0s,177,6.972714999,79.91578705,0,0,0.3,63,0,0,0,0,0,0,0,0,0,3.6,3.3,-5.2,354.8,,Starting Motors,Other,Takeoff (RC Assisted),15,5,TRUE,,Mavic Mini,FALSE,FALSE,,Smart,RC,TRUE,TRUE,FALSE,,,TRUE,,FALSE,FALSE,FALSE,FALSE,FALSE,FALSE,FALSE,FALSE,FALSE,FALSE,0,Follow Yaw,0,0,2.9,2.9,FALSE,FALSE,FALSE,FALSE,FALSE,FALSE,,TRUE,Normal,,,1024,1024,1024,1024,2,FALSE,FALSE,FALSE,FALSE,FALSE,0,FALSE,FALSE,FALSE,FALSE,85,7.934,1747,2050,7.934,TRUE,3.967,3.967,,FALSE,FALSE,NA,95.7,95.7,95.7,,,,,,,,,Idle,,,TRUE,,FALSE,11,Go Home,FALSE,FALSE,FALSE,FALSE,FALSE,FALSE,FALSE,FALSE,FALSE,FALSE,FALSE,FALSE,,,,,,FALSE,,,FALSE,FALSE,FALSE,FALSE,,FALSE,FALSE,FALSE,,,,,Calm,,,1.12.8,Mavic Mini,1SDCH7G0169R0K,1SFLH6Q0AB03DJ,1SRCH7F014TAHX,1U5X071EXP5ZJG,90.7,0.1,101.7,7.395547,3.802798,0,0,Mavic Mini,1SDCH7G0169R0K,1SFLH6Q0AB03DJ,1SRCH7F014TAHX,1U5X071EXP5ZJG,DJI Fly,,1.12.8,02523FC3-213B-C523-E24D-E94A005ED46A,1SDCH7G0169R0K,,,,,,,,,
2/25/2024,01:15.5,2m 57.1s,177.1,6.972715028,79.9157871,0,0,0.3,63,0,0,0,0,0,0,0,0,0,3.6,3.3,-5.2,354.8,,Starting Motors,Other,Takeoff (RC Assisted),15,5,TRUE,,Mavic Mini,TRUE,FALSE,,Smart,RC,TRUE,TRUE,FALSE,,,TRUE,,FALSE,FALSE,FALSE,FALSE,FALSE,FALSE,FALSE,FALSE,FALSE,FALSE,0,Follow Yaw,0,0,2.9,2.9,FALSE,FALSE,FALSE,FALSE,FALSE,FALSE,,TRUE,Normal,,,1024,1024,1024,1024,2,FALSE,FALSE,FALSE,FALSE,FALSE,0,FALSE,FALSE,FALSE,FALSE,85,7.934,1747,2050,7.934,TRUE,3.967,3.967,,FALSE,FALSE,NA,95.7,95.7,95.7,,,,,,,,,Idle,,,TRUE,,FALSE,11,Go Home,FALSE,FALSE,FALSE,FALSE,FALSE,FALSE,FALSE,FALSE,FALSE,FALSE,FALSE,FALSE,,,,,,FALSE,,,FALSE,FALSE,FALSE,FALSE,,FALSE,FALSE,FALSE,,,,,Calm,,,1.12.8,Mavic Mini,1SDCH7G0169R0K,1SFLH6Q0AB03DJ,1SRCH7F014TAHX,1U5X071EXP5ZJG,90.7,0.1,101.7,7.395547,3.802798,0,0,Mavic Mini,1SDCH7G0169R0K,1SFLH6Q0AB03DJ,1SRCH7F014TAHX,1U5X071EXP5ZJG,DJI Fly,,1.12.8,02523FC3-213B-C523-E24D-E94A005ED46A,1SDCH7G0169R0K,,,,,,,,,
2/25/2024,01:15.6,2m 57.2s,177.2,6.972715024,79.9157871,0,0,0.3,63,0,0,0,0,0,0,0,0,0,3.6,3.3,-5.2,354.8,,Starting Motors,Other,Takeoff (RC Assisted),15,5,TRUE,,Mavic Mini,TRUE,FALSE,,Smart,RC,TRUE,TRUE,FALSE,,,TRUE,,FALSE,FALSE,FALSE,FALSE,FALSE,FALSE,FALSE,FALSE,FALSE,FALSE,0,Follow Yaw,0,0,2.9,2.9,FALSE,FALSE,FALSE,FALSE,FALSE,FALSE,,TRUE,Normal,,,1024,1024,1024,1024,2,FALSE,FALSE,FALSE,FALSE,FALSE,0,FALSE,FALSE,FALSE,FALSE,85,7.934,1747,2050,7.934,TRUE,3.967,3.967,,FALSE,FALSE,NA,95.7,95.7,95.7,,,,,,,,,Idle,,,TRUE,,FALSE,11,Go Home,FALSE,FALSE,FALSE,FALSE,FALSE,FALSE,FALSE,FALSE,FALSE,FALSE,FALSE,FALSE,,,,,,FALSE,,,FALSE,FALSE,FALSE,FALSE,,FALSE,FALSE,FALSE,,,,,Calm,,,1.12.8,Mavic Mini,1SDCH7G0169R0K,1SFLH6Q0AB03DJ,1SRCH7F014TAHX,1U5X071EXP5ZJG,90.7,0.1,101.7,7.395547,3.802798,0,0,Mavic Mini,1SDCH7G0169R0K,1SFLH6Q0AB03DJ,1SRCH7F014TAHX,1U5X071EXP5ZJG,DJI Fly,,1.12.8,02523FC3-213B-C523-E24D-E94A005ED46A,1SDCH7G0169R0K,,,,,,,,,
2/25/2024,01:15.7,2m 57.3s,177.3,6.972715018,79.9157871,0,0,0.3,63,0,0,0,0,0,0,0,0,0,3.7,3.2,-5.2,354.8,,Starting Motors,Other,Takeoff (RC Assisted),15,5,TRUE,,Mavic Mini,TRUE,FALSE,,Smart,RC,TRUE,TRUE,FALSE,,,TRUE,,FALSE,FALSE,FALSE,FALSE,FALSE,FALSE,FALSE,FALSE,FALSE,FALSE,0,Follow Yaw,0,0,2.9,2.9,FALSE,FALSE,FALSE,FALSE,FALSE,FALSE,,TRUE,Normal,,100,1024,1024,1024,1024,2,FALSE,FALSE,FALSE,FALSE,FALSE,0,FALSE,FALSE,FALSE,FALSE,85,7.931,1747,2050,7.931,FALSE,3.965,3.966,0.001,FALSE,FALSE,NA,95.7,95.7,95.7,,,,,,,,,Idle,,,TRUE,,FALSE,11,Go Home,FALSE,FALSE,FALSE,FALSE,FALSE,FALSE,FALSE,FALSE,FALSE,FALSE,FALSE,FALSE,,,,,,FALSE,,,FALSE,FALSE,FALSE,FALSE,,FALSE,FALSE,FALSE,,,,,Calm,,,1.12.8,Mavic Mini,1SDCH7G0169R0K,1SFLH6Q0AB03DJ,1SRCH7F014TAHX,1U5X071EXP5ZJG,90.7,0.1,101.7,7.395547,3.802798,0,0,Mavic Mini,1SDCH7G0169R0K,1SFLH6Q0AB03DJ,1SRCH7F014TAHX,1U5X071EXP5ZJG,DJI Fly,,1.12.8,02523FC3-213B-C523-E24D-E94A005ED46A,1SDCH7G0169R0K,,,,,,,,,
2/25/2024,01:15.9,2m 57.4s,177.4,6.972715055,79.91578711,0,0,0.3,63,0,0,0,0,0,0,0,0,0,3.6,3.3,-5.4,354.6,,Starting Motors,Other,Takeoff (RC Assisted),15,5,TRUE,,Mavic Mini,TRUE,FALSE,,Smart,RC,TRUE,TRUE,FALSE,,,TRUE,,FALSE,FALSE,FALSE,FALSE,FALSE,FALSE,FALSE,FALSE,FALSE,FALSE,0,Follow Yaw,0,0,2.9,2.9,FALSE,FALSE,FALSE,FALSE,FALSE,FALSE,,TRUE,Normal,,100,1024,1024,1024,1024,2,FALSE,FALSE,FALSE,FALSE,FALSE,0,FALSE,FALSE,FALSE,FALSE,85,7.931,1747,2050,7.925,FALSE,3.965,3.966,0.001,FALSE,FALSE,NA,95.7,95.7,95.7,0,0,0,0,5,2636.5,659.13,,Idle,0,20,FALSE,5,TRUE,11,Go Home,FALSE,FALSE,FALSE,FALSE,FALSE,FALSE,FALSE,FALSE,FALSE,FALSE,FALSE,FALSE,6.972713127,79.91579187,1.8,210.8,328,TRUE,1,1,FALSE,FALSE,FALSE,FALSE,,TRUE,FALSE,FALSE,Course Lock,49.2,,16.4,Calm,37,,1.12.8,Mavic Mini,1SDCH7G0169R0K,1SFLH6Q0AB03DJ,1SRCH7F014TAHX,1U5X071EXP5ZJG,90.7,0.1,101.7,7.395547,3.802798,0,0,Mavic Mini,1SDCH7G0169R0K,1SFLH6Q0AB03DJ,1SRCH7F014TAHX,1U5X071EXP5ZJG,DJI Fly,,1.12.8,02523FC3-213B-C523-E24D-E94A005ED46A,1SDCH7G0169R0K,,,,,,,,Data Recorder File Index is 37.; Set Return to Home (RTH) altitude to 15 m (49 ft).; Set maximum flight altitude to 100 m (328 ft).,
2/25/2024,01:15.9,2m 57.5s,177.5,6.972715217,79.91578712,0,0,0.3,63,0,0,0,0,0,0,0,0,0,3.6,3.3,-5.5,354.5,,Starting Motors,Other,Takeoff (RC Assisted),15,5,TRUE,,Mavic Mini,TRUE,FALSE,,Smart,RC,TRUE,TRUE,FALSE,,,TRUE,,FALSE,FALSE,FALSE,FALSE,FALSE,FALSE,FALSE,FALSE,FALSE,FALSE,0,Follow Yaw,0,0,2.9,2.9,FALSE,FALSE,FALSE,FALSE,FALSE,FALSE,,TRUE,Normal,,100,1024,1024,1024,1024,2,FALSE,FALSE,FALSE,FALSE,FALSE,0,FALSE,FALSE,FALSE,FALSE,85,7.931,1747,2050,7.925,FALSE,3.965,3.966,0.001,FALSE,FALSE,NA,95.7,95.7,95.7,0,0,0,0,5,2636.5,659.13,,Idle,0,20,FALSE,5,TRUE,11,Go Home,FALSE,FALSE,FALSE,FALSE,FALSE,FALSE,FALSE,FALSE,FALSE,FALSE,FALSE,FALSE,6.972713127,79.91579187,1.8,210.8,328,TRUE,1,1,FALSE,FALSE,FALSE,FALSE,,TRUE,FALSE,FALSE,Course Lock,49.2,,16.4,Calm,37,,1.12.8,Mavic Mini,1SDCH7G0169R0K,1SFLH6Q0AB03DJ,1SRCH7F014TAHX,1U5X071EXP5ZJG,90.7,0.1,101.7,7.395547,3.802798,0,0,Mavic Mini,1SDCH7G0169R0K,1SFLH6Q0AB03DJ,1SRCH7F014TAHX,1U5X071EXP5ZJG,DJI Fly,,1.12.8,02523FC3-213B-C523-E24D-E94A005ED46A,1SDCH7G0169R0K,,,,,,,,,
2/25/2024,01:16.0,2m 57.6s,177.6,6.972715237,79.91578712,0,0,0.3,63,0.1,0,0,0,0,0,0,0,0,3.7,3.3,-5.5,354.5,,Starting Motors,Other,Takeoff (RC Assisted),15,5,TRUE,,Mavic Mini,TRUE,FALSE,,Smart,RC,TRUE,TRUE,FALSE,,,TRUE,,FALSE,FALSE,FALSE,FALSE,FALSE,FALSE,FALSE,FALSE,FALSE,FALSE,0,Follow Yaw,0,0,2.8,2.8,FALSE,FALSE,FALSE,FALSE,FALSE,FALSE,,TRUE,Normal,,100,1024,1024,1024,1024,2,FALSE,FALSE,FALSE,FALSE,FALSE,0,FALSE,FALSE,FALSE,FALSE,85,7.931,1747,2050,7.925,FALSE,3.965,3.966,0.001,FALSE,FALSE,NA,95.7,95.7,95.7,0,0,0,0,5,2636.5,659.13,,Idle,0,20,FALSE,5,TRUE,11,Go Home,FALSE,FALSE,FALSE,FALSE,FALSE,FALSE,FALSE,FALSE,FALSE,FALSE,FALSE,FALSE,6.972713127,79.91579187,1.8,210.8,328,TRUE,1,1,FALSE,FALSE,FALSE,FALSE,,TRUE,FALSE,FALSE,Course Lock,49.2,,16.4,Calm,37,,1.12.8,Mavic Mini,1SDCH7G0169R0K,1SFLH6Q0AB03DJ,1SRCH7F014TAHX,1U5X071EXP5ZJG,90.7,0.1,101.7,7.395547,3.802798,0,0,Mavic Mini,1SDCH7G0169R0K,1SFLH6Q0AB03DJ,1SRCH7F014TAHX,1U5X071EXP5ZJG,DJI Fly,,1.12.8,02523FC3-213B-C523-E24D-E94A005ED46A,1SDCH7G0169R0K,,,,,,,,,
2/25/2024,01:16.2,2m 57.7s,177.7,6.972715249,79.91578712,0,0,0.3,63,0.1,0,0,0,0,0,0,0,0,3.7,3.3,-5.6,354.4,,Starting Motors,Other,Takeoff (RC Assisted),15,5,TRUE,,Mavic Mini,TRUE,FALSE,,Smart,RC,TRUE,TRUE,FALSE,,,TRUE,,FALSE,FALSE,FALSE,FALSE,FALSE,FALSE,FALSE,FALSE,FALSE,FALSE,0,Follow Yaw,0,0,2.7,2.7,FALSE,FALSE,FALSE,FALSE,FALSE,FALSE,,TRUE,Normal,,100,1024,1024,1024,1024,2,FALSE,FALSE,FALSE,FALSE,FALSE,0,FALSE,FALSE,FALSE,FALSE,85,7.931,1747,2050,7.925,FALSE,3.965,3.966,0.001,FALSE,FALSE,NA,95.7,95.7,95.7,0,0,0,0,5,2636.5,659.13,,Idle,0,20,FALSE,5,TRUE,11,Go Home,FALSE,FALSE,FALSE,FALSE,FALSE,FALSE,FALSE,FALSE,FALSE,FALSE,FALSE,FALSE,6.972713127,79.91579187,1.8,210.8,328,TRUE,1,1,FALSE,FALSE,FALSE,FALSE,,TRUE,FALSE,FALSE,Course Lock,49.2,,16.4,Calm,37,,1.12.8,Mavic Mini,1SDCH7G0169R0K,1SFLH6Q0AB03DJ,1SRCH7F014TAHX,1U5X071EXP5ZJG,90.7,0.1,101.7,7.395547,3.802798,0,0,Mavic Mini,1SDCH7G0169R0K,1SFLH6Q0AB03DJ,1SRCH7F014TAHX,1U5X071EXP5ZJG,DJI Fly,,1.12.8,02523FC3-213B-C523-E24D-E94A005ED46A,1SDCH7G0169R0K,,,,,,,,,
2/25/2024,01:16.3,2m 57.8s,177.8,6.972715246,79.91578712,0,0,0.3,63,0.1,0,0,0,0,0,0,0,0,3.8,3.2,-5.6,354.4,,Starting Motors,Other,Takeoff (RC Assisted),15,5,TRUE,,Mavic Mini,TRUE,FALSE,,Smart,RC,TRUE,TRUE,FALSE,,,TRUE,,FALSE,FALSE,FALSE,FALSE,FALSE,FALSE,FALSE,FALSE,FALSE,FALSE,0,Follow Yaw,0,0,2.7,2.7,FALSE,FALSE,FALSE,FALSE,FALSE,FALSE,,TRUE,Normal,,100,1024,1024,1024,1024,2,FALSE,FALSE,FALSE,FALSE,FALSE,0,FALSE,FALSE,FALSE,FALSE,85,7.931,1747,2050,7.925,FALSE,3.965,3.966,0.001,FALSE,FALSE,NA,95.7,95.7,95.7,0,0,0,0,5,2636.5,659.13,,Idle,0,20,FALSE,5,TRUE,11,Go Home,FALSE,FALSE,FALSE,FALSE,FALSE,FALSE,FALSE,FALSE,FALSE,FALSE,FALSE,FALSE,6.972713127,79.91579187,1.8,210.8,328,TRUE,1,1,FALSE,FALSE,FALSE,FALSE,,TRUE,FALSE,FALSE,Course Lock,49.2,,16.4,Calm,37,,1.12.8,Mavic Mini,1SDCH7G0169R0K,1SFLH6Q0AB03DJ,1SRCH7F014TAHX,1U5X071EXP5ZJG,90.7,0.1,101.7,7.395547,3.802798,0,0,Mavic Mini,1SDCH7G0169R0K,1SFLH6Q0AB03DJ,1SRCH7F014TAHX,1U5X071EXP5ZJG,DJI Fly,,1.12.8,02523FC3-213B-C523-E24D-E94A005ED46A,1SDCH7G0169R0K,,,,,,,,,
2/25/2024,01:16.3,2m 57.9s,177.9,6.972715239,79.91578712,0,0,0.3,63,0.1,0,0,0,0,0,0,0,0,3.7,3.3,-5.6,354.4,,Starting Motors,Other,Takeoff (RC Assisted),15,5,TRUE,,Mavic Mini,TRUE,FALSE,,Smart,RC,TRUE,TRUE,FALSE,,,TRUE,,FALSE,FALSE,FALSE,FALSE,FALSE,FALSE,FALSE,FALSE,FALSE,FALSE,0,Follow Yaw,0,0,2.7,2.7,FALSE,FALSE,FALSE,FALSE,FALSE,FALSE,,TRUE,Normal,,100,1024,1024,1024,1024,2,FALSE,FALSE,FALSE,FALSE,FALSE,0,FALSE,FALSE,FALSE,FALSE,85,7.931,1747,2050,7.925,FALSE,3.965,3.966,0.001,FALSE,FALSE,NA,95.7,95.7,95.7,0,0,0,0,5,2636.5,659.13,,Idle,0,20,FALSE,5,TRUE,11,Go Home,FALSE,FALSE,FALSE,FALSE,FALSE,FALSE,FALSE,FALSE,FALSE,FALSE,FALSE,FALSE,6.972713127,79.91579187,1.8,210.8,328,TRUE,1,1,FALSE,FALSE,FALSE,FALSE,,TRUE,FALSE,FALSE,Course Lock,49.2,,16.4,Calm,37,,1.12.8,Mavic Mini,1SDCH7G0169R0K,1SFLH6Q0AB03DJ,1SRCH7F014TAHX,1U5X071EXP5ZJG,90.7,0.1,101.7,7.395547,3.802798,0,0,Mavic Mini,1SDCH7G0169R0K,1SFLH6Q0AB03DJ,1SRCH7F014TAHX,1U5X071EXP5ZJG,DJI Fly,,1.12.8,02523FC3-213B-C523-E24D-E94A005ED46A,1SDCH7G0169R0K,,,,,,,,,
2/25/2024,01:16.4,2m 58.0s,178,6.972715195,79.91578711,0,0,0.3,63,0.1,0,0,0,0,0,0,0,0,3.6,3.3,-5.6,354.4,,Manual Takeoff,Other,Takeoff (RC Assisted),15,5,TRUE,,Mavic Mini,TRUE,FALSE,,Smart,RC,TRUE,TRUE,FALSE,,,TRUE,,FALSE,FALSE,FALSE,FALSE,FALSE,FALSE,FALSE,FALSE,FALSE,FALSE,0,Follow Yaw,0,0,2.6,2.6,FALSE,FALSE,FALSE,FALSE,FALSE,FALSE,,TRUE,Normal,,100,1024,1024,1052,1024,2,FALSE,FALSE,FALSE,FALSE,FALSE,0,FALSE,FALSE,FALSE,FALSE,85,7.931,1747,2050,7.925,FALSE,3.965,3.966,0.001,FALSE,FALSE,NA,95.7,95.7,95.7,0,0,0,0,5,2636.5,659.13,,Idle,0,20,FALSE,5,TRUE,11,Go Home,FALSE,FALSE,FALSE,FALSE,FALSE,FALSE,FALSE,FALSE,FALSE,FALSE,FALSE,FALSE,6.972713127,79.91579187,1.8,210.8,328,TRUE,1,1,FALSE,FALSE,FALSE,FALSE,,TRUE,FALSE,FALSE,Course Lock,49.2,,16.4,Calm,37,,1.12.8,Mavic Mini,1SDCH7G0169R0K,1SFLH6Q0AB03DJ,1SRCH7F014TAHX,1U5X071EXP5ZJG,90.7,0.1,101.7,7.395547,3.802798,0,0,Mavic Mini,1SDCH7G0169R0K,1SFLH6Q0AB03DJ,1SRCH7F014TAHX,1U5X071EXP5ZJG,DJI Fly,,1.12.8,02523FC3-213B-C523-E24D-E94A005ED46A,1SDCH7G0169R0K,,,,,,,,Flight mode changed to Manual Takeoff.,
2/25/2024,01:16.5,2m 58.1s,178.1,6.97271518,79.91578711,0,0,0.3,63,0.1,0,0,0,0,0,0,0,0,3.7,3.2,-5.6,354.4,,Manual Takeoff,Other,Takeoff (RC Assisted),15,5,TRUE,,Mavic Mini,TRUE,FALSE,,Smart,RC,TRUE,TRUE,FALSE,,,TRUE,,FALSE,FALSE,FALSE,FALSE,FALSE,FALSE,FALSE,FALSE,FALSE,FALSE,0,Follow Yaw,0,0,2.6,2.6,FALSE,FALSE,FALSE,FALSE,FALSE,FALSE,,TRUE,Normal,,100,1024,1024,1238,1024,2,FALSE,FALSE,FALSE,FALSE,FALSE,0,FALSE,FALSE,FALSE,FALSE,85,7.931,1747,2050,7.925,FALSE,3.965,3.966,0.001,FALSE,FALSE,NA,95.7,95.7,95.7,0,0,0,0,5,2636.5,659.13,,Idle,0,20,FALSE,5,TRUE,11,Go Home,FALSE,FALSE,FALSE,FALSE,FALSE,FALSE,FALSE,FALSE,FALSE,FALSE,FALSE,FALSE,6.972713127,79.91579187,1.8,210.8,328,TRUE,1,1,FALSE,FALSE,FALSE,FALSE,,TRUE,FALSE,FALSE,Course Lock,49.2,,16.4,Calm,37,,1.12.8,Mavic Mini,1SDCH7G0169R0K,1SFLH6Q0AB03DJ,1SRCH7F014TAHX,1U5X071EXP5ZJG,90.7,0.1,101.7,7.395547,3.802798,0,0,Mavic Mini,1SDCH7G0169R0K,1SFLH6Q0AB03DJ,1SRCH7F014TAHX,1U5X071EXP5ZJG,DJI Fly,,1.12.8,02523FC3-213B-C523-E24D-E94A005ED46A,1SDCH7G0169R0K,,,,,,,,,
2/25/2024,01:16.6,2m 58.2s,178.2,6.972715168,79.9157871,0,0,0.3,63,0.1,0,0,0,0,0,0,0,0,3.7,3.2,-5.6,354.4,,Manual Takeoff,Other,Takeoff (RC Assisted),15,5,TRUE,,Mavic Mini,TRUE,FALSE,,Smart,RC,TRUE,TRUE,FALSE,,,TRUE,,FALSE,FALSE,FALSE,FALSE,FALSE,FALSE,FALSE,FALSE,FALSE,FALSE,0,Follow Yaw,0,0,2.6,2.6,FALSE,FALSE,FALSE,FALSE,FALSE,FALSE,,TRUE,Normal,,100,1024,1024,1684,1024,2,FALSE,FALSE,FALSE,FALSE,FALSE,0,FALSE,FALSE,FALSE,FALSE,85,7.931,1747,2050,7.925,FALSE,3.965,3.966,0.001,FALSE,FALSE,NA,95.7,95.7,95.7,0,0,0,0,5,2636.5,659.13,,Idle,0,20,FALSE,5,TRUE,11,Go Home,FALSE,FALSE,FALSE,FALSE,FALSE,FALSE,FALSE,FALSE,FALSE,FALSE,FALSE,FALSE,6.972713127,79.91579187,1.8,210.8,328,TRUE,1,1,FALSE,FALSE,FALSE,FALSE,,TRUE,FALSE,FALSE,Course Lock,49.2,,16.4,Calm,37,,1.12.8,Mavic Mini,1SDCH7G0169R0K,1SFLH6Q0AB03DJ,1SRCH7F014TAHX,1U5X071EXP5ZJG,90.7,0.1,101.7,7.395547,3.802798,0,0,Mavic Mini,1SDCH7G0169R0K,1SFLH6Q0AB03DJ,1SRCH7F014TAHX,1U5X071EXP5ZJG,DJI Fly,,1.12.8,02523FC3-213B-C523-E24D-E94A005ED46A,1SDCH7G0169R0K,,,,,,,,,
2/25/2024,01:16.7,2m 58.3s,178.3,6.972715153,79.9157871,0,0,0.3,63,0.1,0,0,0,0,0,0,0,0,3.7,3.2,-5.6,354.4,,Manual Takeoff,Other,Takeoff (RC Assisted),15,5,TRUE,,Mavic Mini,TRUE,FALSE,,Smart,RC,TRUE,TRUE,FALSE,,,TRUE,,FALSE,FALSE,FALSE,FALSE,FALSE,FALSE,FALSE,FALSE,FALSE,FALSE,0,Follow Yaw,0,0,2.6,2.6,FALSE,FALSE,FALSE,FALSE,FALSE,FALSE,,TRUE,Normal,,100,1024,1024,1684,1024,2,FALSE,FALSE,FALSE,FALSE,FALSE,0,FALSE,FALSE,FALSE,FALSE,85,7.931,1747,2050,7.925,FALSE,3.965,3.966,0.001,FALSE,FALSE,NA,95.7,95.7,95.7,0,0,0,0,5,2636.5,659.13,,Idle,0,20,FALSE,5,TRUE,11,Go Home,FALSE,FALSE,FALSE,FALSE,FALSE,FALSE,FALSE,FALSE,FALSE,FALSE,FALSE,FALSE,6.972713127,79.91579187,1.8,210.8,328,TRUE,1,1,FALSE,FALSE,FALSE,FALSE,,TRUE,FALSE,FALSE,Course Lock,49.2,,16.4,Calm,37,,1.12.8,Mavic Mini,1SDCH7G0169R0K,1SFLH6Q0AB03DJ,1SRCH7F014TAHX,1U5X071EXP5ZJG,90.7,0.1,101.7,7.395547,3.802798,0,0,Mavic Mini,1SDCH7G0169R0K,1SFLH6Q0AB03DJ,1SRCH7F014TAHX,1U5X071EXP5ZJG,DJI Fly,,1.12.8,02523FC3-213B-C523-E24D-E94A005ED46A,1SDCH7G0169R0K,,,,,,,,,
2/25/2024,01:16.8,2m 58.4s,178.4,6.972715146,79.9157871,0,0,0.3,63,0.1,0,0,0,0,0,0,0,0,3.6,2.7,-5.6,354.4,,Manual Takeoff,Other,Takeoff (RC Assisted),15,5,TRUE,,Mavic Mini,TRUE,FALSE,,Smart,RC,TRUE,TRUE,FALSE,,,TRUE,,FALSE,FALSE,FALSE,FALSE,FALSE,FALSE,FALSE,FALSE,FALSE,FALSE,0,Follow Yaw,0,0,2.6,2.6,FALSE,FALSE,FALSE,FALSE,FALSE,FALSE,,TRUE,Normal,,100,1024,1024,1684,1024,2,FALSE,FALSE,FALSE,FALSE,FALSE,0,FALSE,FALSE,FALSE,FALSE,85,7.931,1747,2050,7.93,FALSE,3.965,3.966,0.001,FALSE,FALSE,NA,95.7,95.7,95.7,0,0,0,0,5,2636.5,659.13,,Idle,0,20,FALSE,5,TRUE,11,Go Home,FALSE,FALSE,FALSE,FALSE,FALSE,FALSE,FALSE,FALSE,FALSE,FALSE,FALSE,FALSE,6.972713127,79.91579187,1.8,210.8,328,TRUE,1,1,FALSE,FALSE,FALSE,FALSE,,TRUE,FALSE,FALSE,Course Lock,49.2,,16.4,Calm,37,,1.12.8,Mavic Mini,1SDCH7G0169R0K,1SFLH6Q0AB03DJ,1SRCH7F014TAHX,1U5X071EXP5ZJG,90.7,0.1,101.7,7.395547,3.802798,0,0,Mavic Mini,1SDCH7G0169R0K,1SFLH6Q0AB03DJ,1SRCH7F014TAHX,1U5X071EXP5ZJG,DJI Fly,,1.12.8,02523FC3-213B-C523-E24D-E94A005ED46A,1SDCH7G0169R0K,,,,,,,,,
2/25/2024,01:16.9,2m 58.5s,178.5,6.972715135,79.91578709,0,0,0.3,63,0.1,0,0,0,0,0,0,0,0,3,0.7,-5.8,354.2,,Manual Takeoff,Other,Takeoff (RC Assisted),15,5,TRUE,,Mavic Mini,TRUE,FALSE,,Smart,RC,TRUE,TRUE,FALSE,,,TRUE,,FALSE,FALSE,FALSE,FALSE,FALSE,FALSE,FALSE,FALSE,FALSE,FALSE,0,Follow Yaw,0,0,2.6,2.6,FALSE,FALSE,FALSE,FALSE,FALSE,FALSE,,TRUE,Normal,,100,1024,1024,1684,1024,2,FALSE,FALSE,FALSE,FALSE,FALSE,0,FALSE,FALSE,FALSE,FALSE,85,7.92,1746,2050,7.93,FALSE,3.961,3.959,0.002,FALSE,FALSE,NA,95.7,95.7,95.7,0,0,0,0,5,2636.5,659.13,,Idle,0,20,FALSE,5,TRUE,11,Go Home,FALSE,FALSE,FALSE,FALSE,FALSE,FALSE,FALSE,FALSE,FALSE,FALSE,FALSE,FALSE,6.972713127,79.91579187,1.8,210.8,328,TRUE,1,1,FALSE,FALSE,FALSE,FALSE,,TRUE,FALSE,FALSE,Course Lock,49.2,,16.4,Calm,37,,1.12.8,Mavic Mini,1SDCH7G0169R0K,1SFLH6Q0AB03DJ,1SRCH7F014TAHX,1U5X071EXP5ZJG,90.7,0.1,101.7,7.395547,3.802798,0,0,Mavic Mini,1SDCH7G0169R0K,1SFLH6Q0AB03DJ,1SRCH7F014TAHX,1U5X071EXP5ZJG,DJI Fly,,1.12.8,02523FC3-213B-C523-E24D-E94A005ED46A,1SDCH7G0169R0K,,,,,,,,,
2/25/2024,01:17.1,2m 58.6s,178.6,6.972715128,79.91578708,0,0,0.3,63,0.1,0,0,0,0,0,0,0,0,3.1,0,-6,354,,Manual Takeoff,Other,Takeoff (RC Assisted),15,5,TRUE,,Mavic Mini,TRUE,FALSE,,Smart,RC,TRUE,TRUE,FALSE,,,TRUE,,FALSE,FALSE,FALSE,FALSE,FALSE,FALSE,FALSE,FALSE,FALSE,FALSE,0,Follow Yaw,0,0,2.6,2.6,FALSE,FALSE,FALSE,FALSE,FALSE,FALSE,,TRUE,Normal,,100,1024,1024,1684,1024,2,FALSE,FALSE,FALSE,FALSE,FALSE,0,FALSE,FALSE,FALSE,FALSE,85,7.92,1746,2050,7.93,FALSE,3.961,3.959,0.002,FALSE,FALSE,NA,95.7,95.7,95.7,0,0,0,0,5,2636.5,659.13,,Idle,0,20,FALSE,5,TRUE,11,Go Home,FALSE,FALSE,FALSE,FALSE,FALSE,FALSE,FALSE,FALSE,FALSE,FALSE,FALSE,FALSE,6.972713127,79.91579187,1.8,210.8,328,TRUE,1,1,FALSE,FALSE,FALSE,FALSE,,TRUE,FALSE,FALSE,Course Lock,49.2,,16.4,Calm,37,,1.12.8,Mavic Mini,1SDCH7G0169R0K,1SFLH6Q0AB03DJ,1SRCH7F014TAHX,1U5X071EXP5ZJG,90.7,0.1,101.7,7.395547,3.802798,0,0,Mavic Mini,1SDCH7G0169R0K,1SFLH6Q0AB03DJ,1SRCH7F014TAHX,1U5X071EXP5ZJG,DJI Fly,,1.12.8,02523FC3-213B-C523-E24D-E94A005ED46A,1SDCH7G0169R0K,,,,,,,,,
2/25/2024,01:17.1,2m 58.7s,178.7,6.972715118,79.91578706,0,0,0.3,63,0.1,0,0,0,0,0,0,0,0,2.9,-0.2,-6.3,353.7,,Manual Takeoff,Other,Takeoff (RC Assisted),15,5,TRUE,,Mavic Mini,TRUE,FALSE,,Smart,RC,TRUE,TRUE,FALSE,,,TRUE,,FALSE,FALSE,FALSE,FALSE,FALSE,FALSE,FALSE,FALSE,FALSE,FALSE,0,Follow Yaw,0,0,2.4,2.4,FALSE,FALSE,FALSE,FALSE,FALSE,FALSE,,TRUE,Normal,,100,1024,1024,1684,1024,2,FALSE,FALSE,FALSE,FALSE,FALSE,0,FALSE,FALSE,FALSE,FALSE,85,7.92,1746,2050,7.93,FALSE,3.961,3.959,0.002,FALSE,FALSE,NA,95.7,95.7,95.7,0,0,0,0,5,2636.5,659.13,,Idle,0,20,FALSE,5,TRUE,11,Go Home,FALSE,FALSE,FALSE,FALSE,FALSE,FALSE,FALSE,FALSE,FALSE,FALSE,FALSE,FALSE,6.972713127,79.91579187,1.8,210.8,328,TRUE,1,1,FALSE,FALSE,FALSE,FALSE,,TRUE,FALSE,FALSE,Course Lock,49.2,,16.4,Calm,37,,1.12.8,Mavic Mini,1SDCH7G0169R0K,1SFLH6Q0AB03DJ,1SRCH7F014TAHX,1U5X071EXP5ZJG,90.7,0.1,101.7,7.395547,3.802798,0,0,Mavic Mini,1SDCH7G0169R0K,1SFLH6Q0AB03DJ,1SRCH7F014TAHX,1U5X071EXP5ZJG,DJI Fly,,1.12.8,02523FC3-213B-C523-E24D-E94A005ED46A,1SDCH7G0169R0K,,,,,,,,,
2/25/2024,01:17.2,2m 58.8s,178.8,6.972715137,79.91578705,0,0,0.3,63,0.1,0,0,0,0,0,0,0,0,2.8,-0.9,-6.6,353.4,,Manual Takeoff,Other,Takeoff (RC Assisted),15,5,TRUE,,Mavic Mini,TRUE,FALSE,,Smart,RC,TRUE,TRUE,FALSE,,,TRUE,,FALSE,FALSE,FALSE,FALSE,FALSE,FALSE,FALSE,FALSE,FALSE,FALSE,0,Follow Yaw,0,0,2.2,2.2,FALSE,FALSE,FALSE,FALSE,FALSE,FALSE,,TRUE,Normal,,100,1024,1024,1684,1024,2,FALSE,FALSE,FALSE,FALSE,FALSE,0,FALSE,FALSE,FALSE,FALSE,85,7.92,1746,2050,7.93,FALSE,3.961,3.959,0.002,FALSE,FALSE,NA,95.7,95.7,95.7,0,0,0,0,5,2636.5,659.13,,Idle,0,20,FALSE,5,TRUE,11,Go Home,FALSE,FALSE,FALSE,FALSE,FALSE,FALSE,FALSE,FALSE,FALSE,FALSE,FALSE,FALSE,6.972713127,79.91579187,1.8,210.8,328,TRUE,1,1,FALSE,FALSE,FALSE,FALSE,,TRUE,FALSE,FALSE,Course Lock,49.2,,16.4,Calm,37,,1.12.8,Mavic Mini,1SDCH7G0169R0K,1SFLH6Q0AB03DJ,1SRCH7F014TAHX,1U5X071EXP5ZJG,90.7,0.1,101.7,7.395547,3.802798,0,0,Mavic Mini,1SDCH7G0169R0K,1SFLH6Q0AB03DJ,1SRCH7F014TAHX,1U5X071EXP5ZJG,DJI Fly,,1.12.8,02523FC3-213B-C523-E24D-E94A005ED46A,1SDCH7G0169R0K,,,,,,,,,
2/25/2024,01:17.3,2m 58.9s,178.9,6.972715114,79.91578702,0,0,0.3,63,0.1,0,0,0,0,0,0,0,0,2,-2.1,-7.4,352.6,,Manual Takeoff,Other,Takeoff (RC Assisted),15,5,TRUE,,Mavic Mini,TRUE,FALSE,,Smart,RC,TRUE,TRUE,FALSE,,,TRUE,,FALSE,FALSE,FALSE,FALSE,FALSE,FALSE,FALSE,FALSE,FALSE,FALSE,0,Follow Yaw,0,0,1.8,1.8,FALSE,FALSE,FALSE,FALSE,FALSE,FALSE,,TRUE,Normal,,100,1024,1024,1684,1024,2,FALSE,FALSE,FALSE,FALSE,FALSE,0,FALSE,FALSE,FALSE,FALSE,85,7.92,1746,2050,7.93,FALSE,3.961,3.959,0.002,FALSE,FALSE,NA,95.7,95.7,95.7,0,0,0,0,5,2636.5,659.13,,Idle,0,20,FALSE,5,TRUE,11,Go Home,FALSE,FALSE,FALSE,FALSE,FALSE,FALSE,FALSE,FALSE,FALSE,FALSE,FALSE,FALSE,6.972713127,79.91579187,1.8,210.8,328,TRUE,1,1,FALSE,FALSE,FALSE,FALSE,,TRUE,FALSE,FALSE,Course Lock,49.2,,16.4,Calm,37,,1.12.8,Mavic Mini,1SDCH7G0169R0K,1SFLH6Q0AB03DJ,1SRCH7F014TAHX,1U5X071EXP5ZJG,90.7,0.1,101.7,7.395547,3.802798,0,0,Mavic Mini,1SDCH7G0169R0K,1SFLH6Q0AB03DJ,1SRCH7F014TAHX,1U5X071EXP5ZJG,DJI Fly,,1.12.8,02523FC3-213B-C523-E24D-E94A005ED46A,1SDCH7G0169R0K,,,,,6.972689498,79.91577303,5,,
2/25/2024,01:17.4,2m 59.0s,179,6.972715073,79.91578698,0,0,0.3,63,0.2,0,0,0,0,0,0,-0.223694,0,1.3,-2.7,-8.8,351.2,,Manual Takeoff,Other,Takeoff (RC Assisted),15,5,TRUE,,Mavic Mini,TRUE,FALSE,,Smart,RC,TRUE,TRUE,FALSE,,,TRUE,,FALSE,FALSE,FALSE,FALSE,FALSE,FALSE,FALSE,FALSE,FALSE,FALSE,0,Follow Yaw,0,0,0.7,0.7,FALSE,FALSE,FALSE,FALSE,FALSE,FALSE,,TRUE,Normal,,100,1024,1024,1684,1024,2,FALSE,FALSE,FALSE,FALSE,FALSE,0,FALSE,FALSE,FALSE,FALSE,85,7.92,1746,2050,7.93,FALSE,3.961,3.959,0.002,FALSE,FALSE,NA,95.7,95.7,95.7,0,0,0,0,5,2636.5,659.13,,Idle,0,20,FALSE,5,TRUE,11,Go Home,FALSE,FALSE,FALSE,FALSE,FALSE,FALSE,FALSE,FALSE,FALSE,FALSE,FALSE,FALSE,6.972713127,79.91579187,1.9,210.8,328,TRUE,1,1,FALSE,FALSE,FALSE,FALSE,,TRUE,FALSE,FALSE,Course Lock,49.2,,16.4,Calm,37,,1.12.8,Mavic Mini,1SDCH7G0169R0K,1SFLH6Q0AB03DJ,1SRCH7F014TAHX,1U5X071EXP5ZJG,90.7,0.1,101.7,7.395547,3.802798,0,0,Mavic Mini,1SDCH7G0169R0K,1SFLH6Q0AB03DJ,1SRCH7F014TAHX,1U5X071EXP5ZJG,DJI Fly,,1.12.8,02523FC3-213B-C523-E24D-E94A005ED46A,1SDCH7G0169R0K,,,,,6.972689498,79.91577303,5,,
2/25/2024,01:17.5,2m 59.1s,179.1,6.972715005,79.91578688,0,0,0.3,63,0.2,0.223694,0.223694,0,0,-0.223694,0,-0.447388,0,1,-1.8,-9.5,350.5,226.2,Tripod,Other,,15,5,TRUE,,Mavic Mini,TRUE,FALSE,,Smart,RC,FALSE,TRUE,FALSE,,,TRUE,,FALSE,FALSE,FALSE,FALSE,FALSE,FALSE,FALSE,FALSE,FALSE,FALSE,0,Follow Yaw,0,0,-0.3,359.7,FALSE,FALSE,FALSE,FALSE,FALSE,FALSE,,TRUE,Normal,,100,1024,1024,1684,1024,2,FALSE,FALSE,FALSE,FALSE,FALSE,0,FALSE,FALSE,FALSE,FALSE,85,7.92,1746,2050,7.93,FALSE,3.961,3.959,0.002,FALSE,FALSE,NA,95.7,95.7,95.7,0,0,0,0,5,2636.5,659.13,,Idle,0,20,FALSE,5,TRUE,11,Go Home,FALSE,FALSE,FALSE,FALSE,FALSE,FALSE,FALSE,FALSE,FALSE,FALSE,FALSE,FALSE,6.972713127,79.91579187,1.9,210.8,328,TRUE,1,1,FALSE,FALSE,FALSE,FALSE,,TRUE,FALSE,FALSE,Course Lock,49.2,,16.4,Calm,37,,1.12.8,Mavic Mini,1SDCH7G0169R0K,1SFLH6Q0AB03DJ,1SRCH7F014TAHX,1U5X071EXP5ZJG,90.7,0.1,101.7,7.395547,3.802798,0,0,Mavic Mini,1SDCH7G0169R0K,1SFLH6Q0AB03DJ,1SRCH7F014TAHX,1U5X071EXP5ZJG,DJI Fly,,1.12.8,02523FC3-213B-C523-E24D-E94A005ED46A,1SDCH7G0169R0K,,,,,6.972689498,79.91577303,5,Flight mode changed to Tripod.,
2/25/2024,01:17.7,2m 59.2s,179.2,6.97271496,79.91578682,0.3,0.3,0.6,64,0.2,0.223694,0.223694,0,0,-0.223694,0,-0.894776,0,0.5,0.3,-9.4,350.6,229.6,Tripod,Other,,15,5,TRUE,,Mavic Mini,TRUE,FALSE,,Smart,RC,FALSE,TRUE,FALSE,,,TRUE,,FALSE,FALSE,FALSE,FALSE,FALSE,FALSE,FALSE,FALSE,FALSE,FALSE,0,Follow Yaw,0,0,-0.3,359.7,FALSE,FALSE,FALSE,FALSE,FALSE,FALSE,,TRUE,Normal,,100,1024,1024,1684,1024,2,FALSE,FALSE,FALSE,FALSE,FALSE,0,FALSE,FALSE,FALSE,FALSE,85,7.92,1746,2050,7.93,FALSE,3.961,3.959,0.002,FALSE,FALSE,NA,95.7,95.7,95.7,0,0,0,0,5,2636.5,659.13,,Idle,0,20,FALSE,5,TRUE,11,Go Home,FALSE,FALSE,FALSE,FALSE,FALSE,FALSE,FALSE,FALSE,FALSE,FALSE,FALSE,FALSE,6.972713127,79.91579187,1.9,210.8,328,TRUE,1,1,FALSE,FALSE,FALSE,FALSE,,TRUE,FALSE,FALSE,Course Lock,49.2,,16.4,Calm,37,,1.12.8,Mavic Mini,1SDCH7G0169R0K,1SFLH6Q0AB03DJ,1SRCH7F014TAHX,1U5X071EXP5ZJG,90.7,0.1,101.7,7.395547,3.802798,0,0,Mavic Mini,1SDCH7G0169R0K,1SFLH6Q0AB03DJ,1SRCH7F014TAHX,1U5X071EXP5ZJG,DJI Fly,,1.12.8,02523FC3-213B-C523-E24D-E94A005ED46A,1SDCH7G0169R0K,,,,,6.972689498,79.91577303,5,,
2/25/2024,01:17.8,2m 59.3s,179.3,6.972714885,79.91578668,0.3,0.3,0.6,64,0.3,0.223694,0.223694,0,0,-0.223694,0,-1.565858,0,0.2,1.5,-9.1,350.9,233.7,Tripod,Other,,15,5,TRUE,,Mavic Mini,TRUE,FALSE,,Smart,RC,FALSE,TRUE,FALSE,,,TRUE,,FALSE,FALSE,FALSE,FALSE,FALSE,FALSE,FALSE,FALSE,FALSE,FALSE,0,Follow Yaw,0,0,-0.3,359.7,FALSE,FALSE,FALSE,FALSE,FALSE,FALSE,,TRUE,Normal,,100,1024,1024,1684,1024,2,FALSE,FALSE,FALSE,FALSE,FALSE,0,FALSE,FALSE,FALSE,FALSE,85,7.92,1746,2050,7.93,FALSE,3.961,3.959,0.002,FALSE,FALSE,NA,95.7,95.7,95.7,0,0,0,0,5,2636.5,659.13,,Idle,0,20,FALSE,5,TRUE,11,Go Home,FALSE,FALSE,FALSE,FALSE,FALSE,FALSE,FALSE,FALSE,FALSE,FALSE,FALSE,FALSE,6.972713127,79.91579187,1.9,210.8,328,TRUE,1,1,FALSE,FALSE,FALSE,FALSE,,TRUE,FALSE,FALSE,Course Lock,49.2,,16.4,Calm,37,,1.12.8,Mavic Mini,1SDCH7G0169R0K,1SFLH6Q0AB03DJ,1SRCH7F014TAHX,1U5X071EXP5ZJG,90.7,0.1,101.7,7.395547,3.802798,0,0,Mavic Mini,1SDCH7G0169R0K,1SFLH6Q0AB03DJ,1SRCH7F014TAHX,1U5X071EXP5ZJG,DJI Fly,,1.12.8,02523FC3-213B-C523-E24D-E94A005ED46A,1SDCH7G0169R0K,,,,,6.972689498,79.91577303,5,,
2/25/2024,01:17.9,2m 59.4s,179.4,6.972714785,79.91578659,0.6,0.6,0.9,64,0.3,0.223694,0.223694,0,0,-0.223694,0,-2.013246,0,0.1,1.2,-9,351,215.6,Tripod,Other,,15,5,TRUE,,Mavic Mini,TRUE,FALSE,,Smart,RC,FALSE,TRUE,FALSE,,,TRUE,,FALSE,FALSE,FALSE,FALSE,FALSE,FALSE,FALSE,FALSE,FALSE,FALSE,0,Follow Yaw,0,0,-0.3,359.7,FALSE,FALSE,FALSE,FALSE,FALSE,FALSE,,TRUE,Normal,,100,1024,1024,1684,1024,2,FALSE,FALSE,FALSE,FALSE,FALSE,0,FALSE,FALSE,FALSE,FALSE,85,7.92,1746,2050,7.862,FALSE,3.961,3.959,0.002,FALSE,FALSE,NA,95.7,95.7,95.7,0,0,1,0,5,2690.2,672.56,,Idle,0,20,FALSE,5,TRUE,11,Go Home,FALSE,FALSE,FALSE,FALSE,FALSE,FALSE,FALSE,FALSE,FALSE,FALSE,FALSE,FALSE,6.972715039,79.91578693,0.1,210.8,328,TRUE,1,1,FALSE,FALSE,FALSE,FALSE,,TRUE,FALSE,FALSE,Course Lock,49.2,,16.4,Calm,37,,1.12.8,Mavic Mini,1SDCH7G0169R0K,1SFLH6Q0AB03DJ,1SRCH7F014TAHX,1U5X071EXP5ZJG,90.7,0.1,101.7,7.395547,3.802798,0,0,Mavic Mini,1SDCH7G0169R0K,1SFLH6Q0AB03DJ,1SRCH7F014TAHX,1U5X071EXP5ZJG,DJI Fly,,1.12.8,02523FC3-213B-C523-E24D-E94A005ED46A,1SDCH7G0169R0K,,,,,6.972689498,79.91577303,5,Home Point Updated.,
2/25/2024,01:17.9,2m 59.5s,179.5,6.972714667,79.91578652,0.9,0.9,1.3,64,0.4,0.223694,0.223694,-0.223694,0,0,0,-2.460634,0,-0.1,1.2,-9,351,204.4,Tripod,Other,,15,5,TRUE,,Mavic Mini,TRUE,FALSE,,Smart,RC,FALSE,TRUE,FALSE,,,TRUE,,FALSE,FALSE,FALSE,FALSE,FALSE,FALSE,FALSE,FALSE,FALSE,FALSE,0,Follow Yaw,0,0,-0.3,359.7,FALSE,FALSE,FALSE,FALSE,FALSE,FALSE,,TRUE,Normal,,100,1024,1024,1684,1024,2,FALSE,FALSE,FALSE,FALSE,FALSE,0,FALSE,FALSE,FALSE,FALSE,85,7.92,1746,2050,7.862,FALSE,3.961,3.959,0.002,FALSE,FALSE,NA,95.7,95.7,95.7,0,0,1,0,5,2690.2,672.56,,Idle,0,20,FALSE,5,TRUE,11,Go Home,FALSE,FALSE,FALSE,FALSE,FALSE,FALSE,FALSE,FALSE,FALSE,FALSE,FALSE,FALSE,6.972715039,79.91578693,0.2,210.8,328,TRUE,1,1,FALSE,FALSE,FALSE,FALSE,,TRUE,FALSE,FALSE,Course Lock,49.2,,16.4,Calm,37,,1.12.8,Mavic Mini,1SDCH7G0169R0K,1SFLH6Q0AB03DJ,1SRCH7F014TAHX,1U5X071EXP5ZJG,90.7,0.1,101.7,7.395547,3.802798,0,0,Mavic Mini,1SDCH7G0169R0K,1SFLH6Q0AB03DJ,1SRCH7F014TAHX,1U5X071EXP5ZJG,DJI Fly,,1.12.8,02523FC3-213B-C523-E24D-E94A005ED46A,1SDCH7G0169R0K,,,,,6.972689498,79.91577303,5,,
2/25/2024,01:18.1,2m 59.6s,179.6,6.972714567,79.91578645,1.3,1.3,1.6,65,0.4,0.223694,0.223694,-0.223694,0,0,0,-2.908022,0,-1.4,1.5,-9.1,350.9,209.8,Tripod,Other,,15,5,TRUE,,Mavic Mini,TRUE,FALSE,,Smart,RC,FALSE,TRUE,FALSE,,,TRUE,,FALSE,FALSE,FALSE,FALSE,FALSE,FALSE,FALSE,FALSE,FALSE,FALSE,0,Follow Yaw,0,0,-0.3,359.7,FALSE,FALSE,FALSE,FALSE,FALSE,FALSE,,TRUE,Normal,,100,1024,1024,1684,1024,2,FALSE,FALSE,FALSE,FALSE,FALSE,0,FALSE,FALSE,FALSE,FALSE,85,7.677,1745,2050,7.862,FALSE,3.84,3.837,0.003,FALSE,FALSE,NA,95.7,95.7,95.7,0,0,1,0,5,2690.2,672.56,,Idle,0,20,FALSE,5,TRUE,11,Go Home,FALSE,FALSE,FALSE,FALSE,FALSE,FALSE,FALSE,FALSE,FALSE,FALSE,FALSE,FALSE,6.972715039,79.91578693,0.2,210.8,328,TRUE,1,1,FALSE,FALSE,FALSE,FALSE,,TRUE,FALSE,FALSE,Course Lock,49.2,,16.4,Calm,37,,1.12.8,Mavic Mini,1SDCH7G0169R0K,1SFLH6Q0AB03DJ,1SRCH7F014TAHX,1U5X071EXP5ZJG,90.7,0.1,101.7,7.395547,3.802798,0,0,Mavic Mini,1SDCH7G0169R0K,1SFLH6Q0AB03DJ,1SRCH7F014TAHX,1U5X071EXP5ZJG,DJI Fly,,1.12.8,02523FC3-213B-C523-E24D-E94A005ED46A,1SDCH7G0169R0K,,,,,6.972689498,79.91577303,5,,
2/25/2024,01:18.1,2m 59.7s,179.7,6.972714439,79.91578636,1.9,1.9,1.9,65,0.5,0,0.223694,0,0,0,0,-3.131716,0,-2.3,1.6,-9.3,350.7,,Tripod,Other,,15,5,TRUE,,Mavic Mini,TRUE,FALSE,,Smart,RC,FALSE,TRUE,FALSE,,,TRUE,,FALSE,FALSE,FALSE,FALSE,FALSE,FALSE,FALSE,FALSE,FALSE,FALSE,0,Follow Yaw,0,0,-0.3,359.7,FALSE,FALSE,FALSE,FALSE,FALSE,FALSE,,TRUE,Normal,,100,1024,1024,1684,1024,2,FALSE,FALSE,FALSE,FALSE,FALSE,0,FALSE,FALSE,FALSE,FALSE,85,7.677,1745,2050,7.862,FALSE,3.84,3.837,0.003,FALSE,FALSE,NA,95.7,95.7,95.7,0,0,1,0,5,2690.2,672.56,,Idle,0,20,FALSE,5,TRUE,11,Go Home,FALSE,FALSE,FALSE,FALSE,FALSE,FALSE,FALSE,FALSE,FALSE,FALSE,FALSE,FALSE,6.972715039,79.91578693,0.3,210.8,328,TRUE,1,1,FALSE,FALSE,FALSE,FALSE,,TRUE,FALSE,FALSE,Course Lock,49.2,,16.4,Calm,37,,1.12.8,Mavic Mini,1SDCH7G0169R0K,1SFLH6Q0AB03DJ,1SRCH7F014TAHX,1U5X071EXP5ZJG,90.7,0.1,101.7,7.395547,3.802798,0,0,Mavic Mini,1SDCH7G0169R0K,1SFLH6Q0AB03DJ,1SRCH7F014TAHX,1U5X071EXP5ZJG,DJI Fly,,1.12.8,02523FC3-213B-C523-E24D-E94A005ED46A,1SDCH7G0169R0K,,,,,6.972689498,79.91577303,5,,
2/25/2024,01:18.2,2m 59.8s,179.8,6.972714379,79.91578634,2.2,2.2,2.6,66,0.5,0,0.223694,0,0,0,0,-3.35541,0,-1.4,0.3,-9.2,350.8,,Tripod,Other,,15,5,TRUE,,Mavic Mini,TRUE,FALSE,,Smart,RC,FALSE,TRUE,FALSE,,,TRUE,,FALSE,FALSE,FALSE,FALSE,FALSE,FALSE,FALSE,FALSE,FALSE,FALSE,0,Follow Yaw,0,0,-0.3,359.7,FALSE,FALSE,FALSE,FALSE,FALSE,FALSE,,TRUE,Normal,,100,1024,1024,1684,1024,2,FALSE,FALSE,FALSE,FALSE,FALSE,0,FALSE,FALSE,FALSE,FALSE,85,7.677,1745,2050,7.862,FALSE,3.84,3.837,0.003,FALSE,FALSE,NA,95.7,95.7,95.7,0,0,1,0,5,2690.2,672.56,,Idle,0,20,FALSE,5,TRUE,11,Go Home,FALSE,FALSE,FALSE,FALSE,FALSE,FALSE,FALSE,FALSE,FALSE,FALSE,FALSE,FALSE,6.972715039,79.91578693,0.3,210.8,328,TRUE,1,1,FALSE,FALSE,FALSE,FALSE,,TRUE,FALSE,FALSE,Course Lock,49.2,,16.4,Calm,37,,1.12.8,Mavic Mini,1SDCH7G0169R0K,1SFLH6Q0AB03DJ,1SRCH7F014TAHX,1U5X071EXP5ZJG,90.7,0.1,101.7,7.395547,3.802798,0,0,Mavic Mini,1SDCH7G0169R0K,1SFLH6Q0AB03DJ,1SRCH7F014TAHX,1U5X071EXP5ZJG,DJI Fly,,1.12.8,02523FC3-213B-C523-E24D-E94A005ED46A,1SDCH7G0169R0K,,,,,6.972689498,79.91577303,5,Home Point updated. RTH altitude adjusted to 15 m! (Code: 120852).,
2/25/2024,01:18.3,2m 59.9s,179.9,6.972714335,79.91578635,2.6,2.6,2.9,66,0.5,0,0.223694,0,0,0,0,-3.35541,0,-1.5,-0.1,-9.2,350.8,,Tripod,Other,,15,5,TRUE,,Mavic Mini,TRUE,FALSE,,Smart,RC,FALSE,TRUE,FALSE,,,TRUE,,FALSE,FALSE,FALSE,FALSE,FALSE,FALSE,FALSE,FALSE,FALSE,FALSE,0,Follow Yaw,0,0,-0.3,359.7,FALSE,FALSE,FALSE,FALSE,FALSE,FALSE,,TRUE,Normal,,100,1024,1024,1684,1024,2,FALSE,FALSE,FALSE,FALSE,FALSE,0,FALSE,FALSE,FALSE,FALSE,85,7.677,1745,2050,7.862,FALSE,3.84,3.837,0.003,FALSE,FALSE,NA,95.7,95.7,95.7,0,0,1,0,5,2690.2,672.56,,Idle,0,20,FALSE,5,TRUE,11,Go Home,FALSE,FALSE,FALSE,FALSE,FALSE,FALSE,FALSE,FALSE,FALSE,FALSE,FALSE,FALSE,6.972715039,79.91578693,0.3,210.8,328,TRUE,1,1,FALSE,FALSE,FALSE,FALSE,,TRUE,FALSE,FALSE,Course Lock,49.2,,16.4,Calm,37,,1.12.8,Mavic Mini,1SDCH7G0169R0K,1SFLH6Q0AB03DJ,1SRCH7F014TAHX,1U5X071EXP5ZJG,90.7,0.1,101.7,7.395547,3.802798,0,0,Mavic Mini,1SDCH7G0169R0K,1SFLH6Q0AB03DJ,1SRCH7F014TAHX,1U5X071EXP5ZJG,DJI Fly,,1.12.8,02523FC3-213B-C523-E24D-E94A005ED46A,1SDCH7G0169R0K,,,,,6.972689498,79.91577303,5,,
2/25/2024,01:18.4,3m 0.0s,180,6.972714311,79.91578644,3.2,3.2,3.6,67,0.6,0,0.223694,0,0,0,0,-3.579104,0,-1.7,-0.6,-9.1,350.9,,Tripod,Other,,15,5,TRUE,,Mavic Mini,TRUE,FALSE,,Smart,RC,FALSE,TRUE,FALSE,,,TRUE,,FALSE,FALSE,FALSE,FALSE,FALSE,FALSE,FALSE,FALSE,FALSE,FALSE,0,Follow Yaw,0,0,-0.3,359.7,FALSE,FALSE,FALSE,FALSE,FALSE,FALSE,,TRUE,Normal,,100,1024,1024,1684,1024,2,FALSE,FALSE,FALSE,FALSE,FALSE,0,FALSE,FALSE,FALSE,FALSE,85,7.677,1745,2050,7.862,FALSE,3.84,3.837,0.003,FALSE,FALSE,NA,95.7,95.7,95.7,0,0,1,0,5,2690.2,672.56,,Idle,0,20,FALSE,5,TRUE,11,Go Home,FALSE,FALSE,FALSE,FALSE,FALSE,FALSE,FALSE,FALSE,FALSE,FALSE,FALSE,FALSE,6.972715039,79.91578693,0.3,210.8,328,TRUE,1,1,FALSE,FALSE,FALSE,FALSE,,TRUE,FALSE,FALSE,Course Lock,49.2,,16.4,Calm,37,,1.12.8,Mavic Mini,1SDCH7G0169R0K,1SFLH6Q0AB03DJ,1SRCH7F014TAHX,1U5X071EXP5ZJG,90.7,0.1,101.7,7.395547,3.802798,0,0,Mavic Mini,1SDCH7G0169R0K,1SFLH6Q0AB03DJ,1SRCH7F014TAHX,1U5X071EXP5ZJG,DJI Fly,,1.12.8,02523FC3-213B-C523-E24D-E94A005ED46A,1SDCH7G0169R0K,,,,,6.972689498,79.91577303,5,,
2/25/2024,01:18.5,3m 0.1s,180.1,6.972714269,79.91578662,3.6,3.6,4.2,67,0.6,0,0.223694,0,0,0,0,-3.35541,0,-1.3,-1.3,-9,351,,Tripod,Other,,15,5,TRUE,,Mavic Mini,TRUE,FALSE,,Smart,RC,FALSE,TRUE,FALSE,,,TRUE,,FALSE,FALSE,FALSE,FALSE,FALSE,FALSE,FALSE,FALSE,FALSE,FALSE,0,Follow Yaw,0,0,-0.3,359.7,FALSE,FALSE,FALSE,FALSE,FALSE,FALSE,,TRUE,Normal,,100,1024,1024,1684,1024,2,FALSE,FALSE,FALSE,FALSE,FALSE,0,FALSE,FALSE,FALSE,FALSE,85,7.677,1745,2050,7.862,FALSE,3.84,3.837,0.003,FALSE,FALSE,NA,95.7,95.7,95.7,0,0,1,0,5,2690.2,672.56,,Idle,0,20,FALSE,5,TRUE,11,Go Home,FALSE,FALSE,FALSE,FALSE,FALSE,FALSE,FALSE,FALSE,FALSE,FALSE,FALSE,FALSE,6.972715039,79.91578693,0.3,210.8,328,TRUE,1,1,FALSE,FALSE,FALSE,FALSE,,TRUE,FALSE,FALSE,Course Lock,49.2,,16.4,Calm,37,,1.12.8,Mavic Mini,1SDCH7G0169R0K,1SFLH6Q0AB03DJ,1SRCH7F014TAHX,1U5X071EXP5ZJG,90.7,0.1,101.7,7.395547,3.802798,0,0,Mavic Mini,1SDCH7G0169R0K,1SFLH6Q0AB03DJ,1SRCH7F014TAHX,1U5X071EXP5ZJG,DJI Fly,,1.12.8,02523FC3-213B-C523-E24D-E94A005ED46A,1SDCH7G0169R0K,,,,,6.972689498,79.91577303,5,,
2/25/2024,01:18.6,3m 0.2s,180.2,6.972714271,79.91578669,4.2,4.2,4.5,68,0.7,0,0.223694,0,0,0,0,-3.35541,0,-0.7,-1.5,-9,351,,Tripod,Other,,15,5,TRUE,,Mavic Mini,TRUE,FALSE,,Smart,RC,FALSE,TRUE,FALSE,,,TRUE,,FALSE,FALSE,FALSE,FALSE,FALSE,FALSE,FALSE,FALSE,FALSE,FALSE,0,Follow Yaw,0,0,-0.3,359.7,FALSE,FALSE,FALSE,FALSE,FALSE,FALSE,,TRUE,Normal,,100,1024,1024,1684,1024,2,FALSE,FALSE,FALSE,FALSE,FALSE,0,FALSE,FALSE,FALSE,FALSE,85,7.677,1745,2050,7.862,FALSE,3.84,3.837,0.003,FALSE,FALSE,NA,95.7,95.7,95.7,0,0,1,0,5,2690.2,672.56,,Idle,0,20,FALSE,5,TRUE,11,Go Home,FALSE,FALSE,FALSE,FALSE,FALSE,FALSE,FALSE,FALSE,FALSE,FALSE,FALSE,FALSE,6.972715039,79.91578693,0.2,210.8,328,TRUE,1,1,FALSE,FALSE,FALSE,FALSE,,TRUE,FALSE,FALSE,Course Lock,49.2,,16.4,Calm,37,,1.12.8,Mavic Mini,1SDCH7G0169R0K,1SFLH6Q0AB03DJ,1SRCH7F014TAHX,1U5X071EXP5ZJG,90.7,0.1,101.7,7.395547,3.802798,0,0,Mavic Mini,1SDCH7G0169R0K,1SFLH6Q0AB03DJ,1SRCH7F014TAHX,1U5X071EXP5ZJG,DJI Fly,,1.12.8,02523FC3-213B-C523-E24D-E94A005ED46A,1SDCH7G0169R0K,,,,,6.972689498,79.91577303,5,,
2/25/2024,01:18.7,3m 0.3s,180.3,6.972714271,79.91578676,4.5,4.5,5.2,68,0.7,0,0.223694,0,0,0,0,-3.35541,0,-1,-1,-9,351,,Tripod,Other,,15,5,TRUE,,Mavic Mini,TRUE,FALSE,,Smart,RC,FALSE,TRUE,FALSE,,,TRUE,,FALSE,FALSE,FALSE,FALSE,FALSE,FALSE,FALSE,FALSE,FALSE,FALSE,0,Follow Yaw,0,0,-0.3,359.7,FALSE,FALSE,FALSE,FALSE,FALSE,FALSE,,TRUE,Normal,,100,1024,1024,1684,1024,2,FALSE,FALSE,FALSE,FALSE,FALSE,0,FALSE,FALSE,FALSE,FALSE,85,7.677,1745,2050,7.862,FALSE,3.84,3.837,0.003,FALSE,FALSE,NA,95.7,95.7,95.7,0,0,1,0,5,2690.2,672.56,,Idle,0,20,FALSE,5,TRUE,11,Go Home,FALSE,FALSE,FALSE,FALSE,FALSE,FALSE,FALSE,FALSE,FALSE,FALSE,FALSE,FALSE,6.972715039,79.91578693,0.2,210.8,328,TRUE,1,1,FALSE,FALSE,FALSE,FALSE,,TRUE,FALSE,FALSE,Course Lock,49.2,,16.4,Calm,37,,1.12.8,Mavic Mini,1SDCH7G0169R0K,1SFLH6Q0AB03DJ,1SRCH7F014TAHX,1U5X071EXP5ZJG,90.7,0.1,101.7,7.395547,3.802798,0,0,Mavic Mini,1SDCH7G0169R0K,1SFLH6Q0AB03DJ,1SRCH7F014TAHX,1U5X071EXP5ZJG,DJI Fly,,1.12.8,02523FC3-213B-C523-E24D-E94A005ED46A,1SDCH7G0169R0K,,,,,6.972689498,79.91577303,5,,
2/25/2024,01:18.8,3m 0.4s,180.4,6.97271436,79.91578686,4.9,4.9,5.5,68,0.7,0,0.223694,0,0,0,0,-3.35541,0,-1.1,-0.5,-9,351,,Tripod,Other,,15,5,TRUE,,Mavic Mini,TRUE,FALSE,,Smart,RC,FALSE,TRUE,FALSE,,,TRUE,,FALSE,FALSE,FALSE,FALSE,FALSE,FALSE,FALSE,FALSE,FALSE,FALSE,0,Follow Yaw,0,0,-0.3,359.7,FALSE,FALSE,FALSE,FALSE,FALSE,FALSE,,TRUE,Normal,,100,1024,1024,1684,1024,2,FALSE,FALSE,FALSE,FALSE,FALSE,0,FALSE,FALSE,FALSE,FALSE,85,7.677,1745,2050,7.698,FALSE,3.84,3.837,0.003,FALSE,FALSE,NA,95.7,95.7,95.7,0,0,1,0,5,3166.1,791.52,,Idle,0,20,FALSE,5,TRUE,11,Go Home,FALSE,FALSE,FALSE,FALSE,FALSE,FALSE,FALSE,FALSE,FALSE,FALSE,FALSE,FALSE,6.972715039,79.91578693,0.2,210.8,328,TRUE,1,1,FALSE,FALSE,FALSE,FALSE,,TRUE,FALSE,FALSE,Course Lock,49.2,,16.4,Calm,37,,1.12.8,Mavic Mini,1SDCH7G0169R0K,1SFLH6Q0AB03DJ,1SRCH7F014TAHX,1U5X071EXP5ZJG,90.7,0.1,101.7,7.395547,3.802798,0,0,Mavic Mini,1SDCH7G0169R0K,1SFLH6Q0AB03DJ,1SRCH7F014TAHX,1U5X071EXP5ZJG,DJI Fly,,1.12.8,02523FC3-213B-C523-E24D-E94A005ED46A,1SDCH7G0169R0K,,,,,6.972689498,79.91577303,5,,
2/25/2024,01:18.9,3m 0.5s,180.5,6.97271463,79.91578709,5.5,5.5,6.2,69,0.9,0,0.223694,0,0,0,0,-3.35541,0,-0.9,-0.4,-8.9,351.1,,Tripod,Other,,15,5,TRUE,,Mavic Mini,TRUE,FALSE,,Smart,RC,FALSE,TRUE,FALSE,,,TRUE,,FALSE,FALSE,FALSE,FALSE,FALSE,FALSE,FALSE,FALSE,FALSE,FALSE,0,Follow Yaw,0,0,-0.3,359.7,FALSE,FALSE,FALSE,FALSE,FALSE,FALSE,,TRUE,Normal,,100,1024,1024,1684,1024,2,FALSE,FALSE,FALSE,FALSE,FALSE,0,FALSE,FALSE,FALSE,FALSE,85,7.677,1745,2050,7.698,FALSE,3.84,3.837,0.003,FALSE,FALSE,NA,95.7,95.7,95.7,0,0,1,0,5,3166.1,791.52,,Idle,0,20,FALSE,5,TRUE,11,Go Home,FALSE,FALSE,FALSE,FALSE,FALSE,FALSE,FALSE,FALSE,FALSE,FALSE,FALSE,FALSE,6.972715039,79.91578693,0.1,210.8,328,TRUE,1,1,FALSE,FALSE,FALSE,FALSE,,TRUE,FALSE,FALSE,Course Lock,49.2,,16.4,Calm,37,,1.12.8,Mavic Mini,1SDCH7G0169R0K,1SFLH6Q0AB03DJ,1SRCH7F014TAHX,1U5X071EXP5ZJG,90.7,0.1,101.7,7.395547,3.802798,0,0,Mavic Mini,1SDCH7G0169R0K,1SFLH6Q0AB03DJ,1SRCH7F014TAHX,1U5X071EXP5ZJG,DJI Fly,,1.12.8,02523FC3-213B-C523-E24D-E94A005ED46A,1SDCH7G0169R0K,,,,,6.972689498,79.91577303,5,,
2/25/2024,01:19.0,3m 0.6s,180.6,6.972714698,79.91578716,5.9,5.9,6.5,69,0.9,0,0.223694,0,0,0,0,-3.35541,0,-0.7,-0.3,-8.8,351.2,,Tripod,Other,,15,5,TRUE,,Mavic Mini,TRUE,FALSE,,Smart,RC,FALSE,TRUE,FALSE,,,TRUE,,FALSE,FALSE,FALSE,FALSE,FALSE,FALSE,FALSE,FALSE,FALSE,FALSE,0,Follow Yaw,0,0,-0.3,359.7,FALSE,FALSE,FALSE,FALSE,FALSE,FALSE,,TRUE,Normal,,100,1024,1024,1684,1024,2,FALSE,FALSE,FALSE,FALSE,FALSE,0,FALSE,FALSE,FALSE,FALSE,85,7.677,1745,2050,7.698,FALSE,3.84,3.837,0.003,FALSE,FALSE,NA,95.7,95.7,95.7,0,0,1,0,5,3166.1,791.52,,Idle,0,20,FALSE,5,TRUE,11,Go Home,FALSE,FALSE,FALSE,FALSE,FALSE,FALSE,FALSE,FALSE,FALSE,FALSE,FALSE,FALSE,6.972715039,79.91578693,0.1,210.8,328,TRUE,1,1,FALSE,FALSE,FALSE,FALSE,,TRUE,FALSE,FALSE,Course Lock,49.2,,16.4,Calm,37,,1.12.8,Mavic Mini,1SDCH7G0169R0K,1SFLH6Q0AB03DJ,1SRCH7F014TAHX,1U5X071EXP5ZJG,90.7,0.1,101.7,7.395547,3.802798,0,0,Mavic Mini,1SDCH7G0169R0K,1SFLH6Q0AB03DJ,1SRCH7F014TAHX,1U5X071EXP5ZJG,DJI Fly,,1.12.8,02523FC3-213B-C523-E24D-E94A005ED46A,1SDCH7G0169R0K,,,,,6.972689498,79.91577303,5,,
2/25/2024,01:19.2,3m 0.7s,180.7,6.972714752,79.91578723,6.2,6.2,7.2,70,0.9,0,0.223694,0,0,0,0,-3.35541,0,-0.6,-0.6,-8.7,351.3,,Tripod,Other,,15,5,TRUE,,Mavic Mini,TRUE,FALSE,,Smart,RC,FALSE,TRUE,FALSE,,,TRUE,,FALSE,FALSE,FALSE,FALSE,FALSE,FALSE,FALSE,FALSE,FALSE,FALSE,0,Follow Yaw,0,0,-0.3,359.7,FALSE,FALSE,FALSE,FALSE,FALSE,FALSE,,TRUE,Normal,,100,1024,1024,1684,1024,2,FALSE,FALSE,FALSE,FALSE,FALSE,0,FALSE,FALSE,FALSE,FALSE,85,7.711,1745,2050,7.698,FALSE,3.855,3.856,0.003,FALSE,FALSE,NA,95.7,95.7,95.7,0,0,1,0,5,3166.1,791.52,,Idle,0,20,FALSE,5,TRUE,11,Go Home,FALSE,FALSE,FALSE,FALSE,FALSE,FALSE,FALSE,FALSE,FALSE,FALSE,FALSE,FALSE,6.972715039,79.91578693,0.1,210.8,328,TRUE,1,1,FALSE,FALSE,FALSE,FALSE,,TRUE,FALSE,FALSE,Course Lock,49.2,,16.4,Calm,37,,1.12.8,Mavic Mini,1SDCH7G0169R0K,1SFLH6Q0AB03DJ,1SRCH7F014TAHX,1U5X071EXP5ZJG,90.7,0.1,101.7,7.395547,3.802798,0,0,Mavic Mini,1SDCH7G0169R0K,1SFLH6Q0AB03DJ,1SRCH7F014TAHX,1U5X071EXP5ZJG,DJI Fly,,1.12.8,02523FC3-213B-C523-E24D-E94A005ED46A,1SDCH7G0169R0K,,,,,6.972689498,79.91577303,5,,
2/25/2024,01:19.2,3m 0.8s,180.8,6.972714841,79.91578729,6.8,6.8,7.8,70,1,0,0.223694,0,0,0,0,-3.35541,0,-1.4,-1.3,-8.7,351.3,,Tripod,Other,,15,5,TRUE,,Mavic Mini,TRUE,FALSE,,Smart,RC,FALSE,TRUE,FALSE,,,TRUE,,FALSE,FALSE,FALSE,FALSE,FALSE,FALSE,FALSE,FALSE,FALSE,FALSE,0,Follow Yaw,0,0,-0.3,359.7,FALSE,FALSE,FALSE,FALSE,FALSE,FALSE,,TRUE,Normal,,100,1024,1024,1684,1024,2,FALSE,FALSE,FALSE,FALSE,FALSE,0,FALSE,FALSE,FALSE,FALSE,85,7.711,1743,2050,7.698,FALSE,3.855,3.856,0.003,FALSE,FALSE,NA,95.9,95.7,95.9,0,0,1,0,5,3166.1,791.52,,Idle,0,20,FALSE,5,TRUE,11,Go Home,FALSE,FALSE,FALSE,FALSE,FALSE,FALSE,FALSE,FALSE,FALSE,FALSE,FALSE,FALSE,6.972715039,79.91578693,0.1,210.8,328,TRUE,1,1,FALSE,FALSE,FALSE,FALSE,,TRUE,FALSE,FALSE,Course Lock,49.2,,16.4,Calm,37,,1.12.8,Mavic Mini,1SDCH7G0169R0K,1SFLH6Q0AB03DJ,1SRCH7F014TAHX,1U5X071EXP5ZJG,90.7,0.1,101.7,7.395547,3.802798,0,0,Mavic Mini,1SDCH7G0169R0K,1SFLH6Q0AB03DJ,1SRCH7F014TAHX,1U5X071EXP5ZJG,DJI Fly,,1.12.8,02523FC3-213B-C523-E24D-E94A005ED46A,1SDCH7G0169R0K,,,,,6.972689498,79.91577303,5,,
2/25/2024,01:19.2,3m 0.9s,180.9,6.972715045,79.91578728,7.2,7.2,8.2,71,1,0,0.223694,0,0,0,0,-3.35541,0,-1.6,-1.9,-8.8,351.2,,Tripod,Other,,15,5,TRUE,,Mavic Mini,TRUE,FALSE,,Smart,RC,FALSE,TRUE,FALSE,,,TRUE,,FALSE,FALSE,FALSE,FALSE,FALSE,FALSE,FALSE,FALSE,FALSE,FALSE,0,Follow Yaw,0,0,-0.3,359.7,FALSE,FALSE,FALSE,FALSE,FALSE,FALSE,,TRUE,Normal,,100,1024,1024,1684,1024,2,FALSE,FALSE,FALSE,FALSE,FALSE,0,FALSE,FALSE,FALSE,FALSE,85,7.711,1743,2050,7.698,FALSE,3.855,3.856,0.003,FALSE,FALSE,NA,95.9,95.7,95.9,0,0,1,0,5,3166.1,791.52,,Idle,0,20,FALSE,5,TRUE,11,Go Home,FALSE,FALSE,FALSE,FALSE,FALSE,FALSE,FALSE,FALSE,FALSE,FALSE,FALSE,FALSE,6.972715039,79.91578693,0.1,210.8,328,TRUE,1,1,FALSE,FALSE,FALSE,FALSE,,TRUE,FALSE,FALSE,Course Lock,49.2,,16.4,Calm,37,,1.12.8,Mavic Mini,1SDCH7G0169R0K,1SFLH6Q0AB03DJ,1SRCH7F014TAHX,1U5X071EXP5ZJG,90.7,0.1,101.7,7.395547,3.802798,0,0,Mavic Mini,1SDCH7G0169R0K,1SFLH6Q0AB03DJ,1SRCH7F014TAHX,1U5X071EXP5ZJG,DJI Fly,,1.12.8,02523FC3-213B-C523-E24D-E94A005ED46A,1SDCH7G0169R0K,,,,,6.972689498,79.91577303,5,,
2/25/2024,01:19.5,3m 1.0s,181,6.972715109,79.91578731,7.5,7.5,8.8,71,1.1,0,0.223694,0,0,0,0,-3.35541,0,-1.6,-1.7,-8.7,351.3,,Tripod,Other,,15,5,TRUE,,Mavic Mini,TRUE,FALSE,,Smart,RC,FALSE,TRUE,FALSE,,,TRUE,,FALSE,FALSE,FALSE,FALSE,FALSE,FALSE,FALSE,FALSE,FALSE,FALSE,0,Follow Yaw,0,0,-0.3,359.7,FALSE,FALSE,FALSE,FALSE,FALSE,FALSE,,TRUE,Normal,,100,1024,1024,1684,1024,2,FALSE,FALSE,FALSE,FALSE,FALSE,0,FALSE,FALSE,FALSE,FALSE,85,7.711,1743,2050,7.698,FALSE,3.855,3.856,0.003,FALSE,FALSE,NA,95.9,95.7,95.9,0,0,1,0,5,3166.1,791.52,,Idle,0,20,FALSE,5,TRUE,11,Go Home,FALSE,FALSE,FALSE,FALSE,FALSE,FALSE,FALSE,FALSE,FALSE,FALSE,FALSE,FALSE,6.972715039,79.91578693,0.1,210.8,328,TRUE,1,1,FALSE,FALSE,FALSE,FALSE,,TRUE,FALSE,FALSE,Course Lock,49.2,,16.4,Calm,37,,1.12.8,Mavic Mini,1SDCH7G0169R0K,1SFLH6Q0AB03DJ,1SRCH7F014TAHX,1U5X071EXP5ZJG,90.7,0.1,101.7,7.395547,3.802798,0,0,Mavic Mini,1SDCH7G0169R0K,1SFLH6Q0AB03DJ,1SRCH7F014TAHX,1U5X071EXP5ZJG,DJI Fly,,1.12.8,02523FC3-213B-C523-E24D-E94A005ED46A,1SDCH7G0169R0K,,,,,6.972689498,79.91577303,5,,
2/25/2024,01:19.5,3m 1.1s,181.1,6.972715176,79.91578733,7.8,7.8,9.1,71,1.1,0,0.223694,0,0,0,0,-3.35541,0,-1.4,-1.4,-8.7,351.3,,Tripod,Other,,15,5,TRUE,,Mavic Mini,TRUE,FALSE,,Smart,RC,FALSE,TRUE,FALSE,,,TRUE,,FALSE,FALSE,FALSE,FALSE,FALSE,FALSE,FALSE,FALSE,FALSE,FALSE,0,Follow Yaw,0,0,-0.3,359.7,FALSE,FALSE,FALSE,FALSE,FALSE,FALSE,,TRUE,Normal,,100,1024,1024,1684,1024,2,FALSE,FALSE,FALSE,FALSE,FALSE,0,FALSE,FALSE,FALSE,FALSE,85,7.711,1743,2050,7.698,FALSE,3.855,3.856,0.003,FALSE,FALSE,NA,95.9,95.7,95.9,0,0,1,0,5,3166.1,791.52,,Idle,0,20,FALSE,5,TRUE,11,Go Home,FALSE,FALSE,FALSE,FALSE,FALSE,FALSE,FALSE,FALSE,FALSE,FALSE,FALSE,FALSE,6.972715039,79.91578693,0.1,210.8,328,TRUE,1,1,FALSE,FALSE,FALSE,FALSE,,TRUE,FALSE,FALSE,Course Lock,49.2,,16.4,Calm,37,,1.12.8,Mavic Mini,1SDCH7G0169R0K,1SFLH6Q0AB03DJ,1SRCH7F014TAHX,1U5X071EXP5ZJG,90.7,0.1,101.7,7.395547,3.802798,0,0,Mavic Mini,1SDCH7G0169R0K,1SFLH6Q0AB03DJ,1SRCH7F014TAHX,1U5X071EXP5ZJG,DJI Fly,,1.12.8,02523FC3-213B-C523-E24D-E94A005ED46A,1SDCH7G0169R0K,,,,,6.972689498,79.91577303,5,,
2/25/2024,01:19.6,3m 1.2s,181.2,6.972715185,79.91578737,8.5,8.5,9.8,72,1.1,0,0.223694,0,0,0,0,-3.35541,0,-1.5,-1.4,-8.8,351.2,,Tripod,Other,,15,5,TRUE,,Mavic Mini,TRUE,FALSE,,Smart,RC,FALSE,TRUE,FALSE,,,TRUE,,FALSE,FALSE,FALSE,FALSE,FALSE,FALSE,FALSE,FALSE,FALSE,FALSE,0,Follow Yaw,0,0,-0.3,359.7,FALSE,FALSE,FALSE,FALSE,FALSE,FALSE,,TRUE,Normal,,100,1024,1024,1684,1024,2,FALSE,FALSE,FALSE,FALSE,FALSE,0,FALSE,FALSE,FALSE,FALSE,85,7.711,1743,2050,7.698,FALSE,3.855,3.856,0.003,FALSE,FALSE,NA,95.9,95.7,95.9,0,0,1,0,5,3166.1,791.52,,Idle,0,20,FALSE,5,TRUE,11,Go Home,FALSE,FALSE,FALSE,FALSE,FALSE,FALSE,FALSE,FALSE,FALSE,FALSE,FALSE,FALSE,6.972715039,79.91578693,0.1,210.8,328,TRUE,1,1,FALSE,FALSE,FALSE,FALSE,,TRUE,FALSE,FALSE,Course Lock,49.2,,16.4,Calm,37,,1.12.8,Mavic Mini,1SDCH7G0169R0K,1SFLH6Q0AB03DJ,1SRCH7F014TAHX,1U5X071EXP5ZJG,90.7,0.1,101.7,7.395547,3.802798,0,0,Mavic Mini,1SDCH7G0169R0K,1SFLH6Q0AB03DJ,1SRCH7F014TAHX,1U5X071EXP5ZJG,DJI Fly,,1.12.8,02523FC3-213B-C523-E24D-E94A005ED46A,1SDCH7G0169R0K,,,,,6.972689498,79.91577303,5,,
2/25/2024,01:19.7,3m 1.3s,181.3,6.972715178,79.91578742,8.8,8.8,10.1,72,1.1,0,0.223694,0,0,0,0,-3.35541,0,-1.7,-1.4,-8.9,351.1,,Tripod,Other,,15,5,TRUE,,Mavic Mini,TRUE,FALSE,,Smart,RC,FALSE,TRUE,FALSE,,,TRUE,,FALSE,FALSE,FALSE,FALSE,FALSE,FALSE,FALSE,FALSE,FALSE,FALSE,0,Follow Yaw,0,0,-0.3,359.7,FALSE,FALSE,FALSE,FALSE,FALSE,FALSE,,TRUE,Normal,,100,1024,1024,1684,1024,2,FALSE,FALSE,FALSE,FALSE,FALSE,0,FALSE,FALSE,FALSE,FALSE,85,7.711,1743,2050,7.698,FALSE,3.855,3.856,0.003,FALSE,FALSE,NA,95.9,95.7,95.9,0,0,1,0,5,3166.1,791.52,,Idle,0,20,FALSE,5,TRUE,11,Go Home,FALSE,FALSE,FALSE,FALSE,FALSE,FALSE,FALSE,FALSE,FALSE,FALSE,FALSE,FALSE,6.972715039,79.91578693,0.1,210.8,328,TRUE,1,1,FALSE,FALSE,FALSE,FALSE,,TRUE,FALSE,FALSE,Course Lock,49.2,,16.4,Calm,37,,1.12.8,Mavic Mini,1SDCH7G0169R0K,1SFLH6Q0AB03DJ,1SRCH7F014TAHX,1U5X071EXP5ZJG,90.7,0.1,101.7,7.395547,3.802798,0,0,Mavic Mini,1SDCH7G0169R0K,1SFLH6Q0AB03DJ,1SRCH7F014TAHX,1U5X071EXP5ZJG,DJI Fly,,1.12.8,02523FC3-213B-C523-E24D-E94A005ED46A,1SDCH7G0169R0K,,,,,6.972689498,79.91577303,5,,
2/25/2024,01:19.8,3m 1.4s,181.4,6.972715094,79.91578731,9.1,9.1,10.8,73,1.2,0,0.223694,0,0,0,0,-3.35541,0,-2.6,-1.1,-8.9,351.1,,Tripod,Other,,15,5,TRUE,,Mavic Mini,TRUE,FALSE,,Smart,RC,FALSE,TRUE,FALSE,,,TRUE,,FALSE,FALSE,FALSE,FALSE,FALSE,FALSE,FALSE,FALSE,FALSE,FALSE,0,Follow Yaw,0,0,-0.3,359.7,FALSE,FALSE,FALSE,FALSE,FALSE,FALSE,,TRUE,Normal,,100,1024,1024,1684,1024,2,FALSE,FALSE,FALSE,FALSE,FALSE,0,FALSE,FALSE,FALSE,FALSE,85,7.711,1743,2050,7.713,FALSE,3.855,3.856,0.003,FALSE,FALSE,NA,95.9,95.7,95.9,0,0,2,0,5,4573.5,1143.38,,Idle,0,20,FALSE,5,TRUE,11,Go Home,FALSE,FALSE,FALSE,FALSE,FALSE,FALSE,FALSE,FALSE,FALSE,FALSE,FALSE,FALSE,6.972715039,79.91578693,0.1,210.8,328,TRUE,1,1,FALSE,FALSE,FALSE,FALSE,,TRUE,FALSE,FALSE,Course Lock,49.2,,16.4,Calm,37,,1.12.8,Mavic Mini,1SDCH7G0169R0K,1SFLH6Q0AB03DJ,1SRCH7F014TAHX,1U5X071EXP5ZJG,90.7,0.1,101.7,7.395547,3.802798,0,0,Mavic Mini,1SDCH7G0169R0K,1SFLH6Q0AB03DJ,1SRCH7F014TAHX,1U5X071EXP5ZJG,DJI Fly,,1.12.8,02523FC3-213B-C523-E24D-E94A005ED46A,1SDCH7G0169R0K,,,,,6.972689498,79.91577303,5,,
2/25/2024,01:19.9,3m 1.5s,181.5,6.972715145,79.91578735,9.5,9.5,11.1,73,1.2,0,0.223694,0,0,0,0,-3.131716,0,-2.1,-1.4,-9,351,,Tripod,Other,,15,5,TRUE,,Mavic Mini,TRUE,FALSE,,Smart,RC,FALSE,TRUE,FALSE,,,TRUE,,FALSE,FALSE,FALSE,FALSE,FALSE,FALSE,FALSE,FALSE,FALSE,FALSE,0,Follow Yaw,0,0,-0.3,359.7,FALSE,FALSE,FALSE,FALSE,FALSE,FALSE,,TRUE,Normal,,100,1024,1024,1684,1024,2,FALSE,FALSE,FALSE,FALSE,FALSE,0,FALSE,FALSE,FALSE,FALSE,85,7.711,1743,2050,7.713,FALSE,3.855,3.856,0.003,FALSE,FALSE,NA,95.9,95.7,95.9,0,0,2,0,5,4573.5,1143.38,,Idle,0,20,FALSE,5,TRUE,11,Go Home,FALSE,FALSE,FALSE,FALSE,FALSE,FALSE,FALSE,FALSE,FALSE,FALSE,FALSE,FALSE,6.972715039,79.91578693,0.1,210.8,328,TRUE,1,1,FALSE,FALSE,FALSE,FALSE,,TRUE,FALSE,FALSE,Course Lock,49.2,,16.4,Calm,37,,1.12.8,Mavic Mini,1SDCH7G0169R0K,1SFLH6Q0AB03DJ,1SRCH7F014TAHX,1U5X071EXP5ZJG,90.7,0.1,101.7,7.395547,3.802798,0,0,Mavic Mini,1SDCH7G0169R0K,1SFLH6Q0AB03DJ,1SRCH7F014TAHX,1U5X071EXP5ZJG,DJI Fly,,1.12.8,02523FC3-213B-C523-E24D-E94A005ED46A,1SDCH7G0169R0K,,,,,6.972689498,79.91577303,5,,
2/25/2024,01:20.0,3m 1.6s,181.6,6.972715271,79.91578735,10.1,10.1,11.8,73,1.2,0,0.223694,0,0,0,0,-3.131716,0,-1.6,-1.8,-9,351,,Tripod,Other,,15,5,TRUE,,Mavic Mini,TRUE,FALSE,,Smart,RC,FALSE,TRUE,FALSE,,,TRUE,,FALSE,FALSE,FALSE,FALSE,FALSE,FALSE,FALSE,FALSE,FALSE,FALSE,0,Follow Yaw,0,0,-0.3,359.7,FALSE,FALSE,FALSE,FALSE,FALSE,FALSE,,TRUE,Normal,,100,1024,1024,1684,1024,2,FALSE,FALSE,FALSE,FALSE,FALSE,0,FALSE,FALSE,FALSE,FALSE,85,7.711,1743,2050,7.713,FALSE,3.855,3.856,0.003,FALSE,FALSE,NA,95.9,95.7,95.9,0,0,2,0,5,4573.5,1143.38,,Idle,0,20,FALSE,5,TRUE,11,Go Home,FALSE,FALSE,FALSE,FALSE,FALSE,FALSE,FALSE,FALSE,FALSE,FALSE,FALSE,FALSE,6.972715039,79.91578693,0.1,210.8,328,TRUE,1,1,FALSE,FALSE,FALSE,FALSE,,TRUE,FALSE,FALSE,Course Lock,49.2,,16.4,Calm,37,,1.12.8,Mavic Mini,1SDCH7G0169R0K,1SFLH6Q0AB03DJ,1SRCH7F014TAHX,1U5X071EXP5ZJG,90.7,0.1,101.7,7.395547,3.802798,0,0,Mavic Mini,1SDCH7G0169R0K,1SFLH6Q0AB03DJ,1SRCH7F014TAHX,1U5X071EXP5ZJG,DJI Fly,,1.12.8,02523FC3-213B-C523-E24D-E94A005ED46A,1SDCH7G0169R0K,,,,,6.972689498,79.91577303,5,,
2/25/2024,01:20.1,3m 1.7s,181.7,6.972715429,79.91578736,10.4,10.4,12.1,74,1.3,0,0.223694,0,0,0,0,-3.131716,0,-1,-2.1,-9,351,,Tripod,Other,,15,5,TRUE,,Mavic Mini,TRUE,FALSE,,Smart,RC,FALSE,TRUE,FALSE,,,TRUE,,FALSE,FALSE,FALSE,FALSE,FALSE,FALSE,FALSE,FALSE,FALSE,FALSE,0,Follow Yaw,0,0,-0.3,359.7,FALSE,FALSE,FALSE,FALSE,FALSE,FALSE,,TRUE,Normal,,100,1024,1024,1684,1024,2,FALSE,FALSE,FALSE,FALSE,FALSE,0,FALSE,FALSE,FALSE,FALSE,85,7.711,1743,2050,7.713,FALSE,3.855,3.856,0.003,FALSE,FALSE,NA,95.9,95.7,95.9,0,0,2,0,5,4573.5,1143.38,,Idle,0,20,FALSE,5,TRUE,11,Go Home,FALSE,FALSE,FALSE,FALSE,FALSE,FALSE,FALSE,FALSE,FALSE,FALSE,FALSE,FALSE,6.972715039,79.91578693,0.2,210.8,328,TRUE,1,1,FALSE,FALSE,FALSE,FALSE,,TRUE,FALSE,FALSE,Course Lock,49.2,,16.4,Calm,37,,1.12.8,Mavic Mini,1SDCH7G0169R0K,1SFLH6Q0AB03DJ,1SRCH7F014TAHX,1U5X071EXP5ZJG,90.7,0.1,101.7,7.395547,3.802798,0,0,Mavic Mini,1SDCH7G0169R0K,1SFLH6Q0AB03DJ,1SRCH7F014TAHX,1U5X071EXP5ZJG,DJI Fly,,1.12.8,02523FC3-213B-C523-E24D-E94A005ED46A,1SDCH7G0169R0K,,,,,6.972689498,79.91577303,5,,
2/25/2024,01:20.2,3m 1.8s,181.8,6.972715672,79.91578734,10.8,10.8,12.7,74,1.4,0,0.223694,0,0,0,0,-3.131716,0,-0.5,-2.5,-9,351,,Tripod,Other,,15,5,TRUE,,Mavic Mini,TRUE,FALSE,,Smart,RC,FALSE,TRUE,FALSE,,,TRUE,,FALSE,FALSE,FALSE,FALSE,FALSE,FALSE,FALSE,FALSE,FALSE,FALSE,0,Follow Yaw,0,0,-0.3,359.7,FALSE,FALSE,FALSE,FALSE,FALSE,FALSE,,TRUE,Normal,,100,1024,1024,1684,1024,2,FALSE,FALSE,FALSE,FALSE,FALSE,0,FALSE,FALSE,FALSE,FALSE,85,7.718,1743,2050,7.713,FALSE,3.859,3.86,0.003,FALSE,FALSE,NA,95.9,95.7,95.9,0,0,2,0,5,4573.5,1143.38,,Idle,0,20,FALSE,5,TRUE,11,Go Home,FALSE,FALSE,FALSE,FALSE,FALSE,FALSE,FALSE,FALSE,FALSE,FALSE,FALSE,FALSE,6.972715039,79.91578693,0.2,210.8,328,TRUE,1,1,FALSE,FALSE,FALSE,FALSE,,TRUE,FALSE,FALSE,Course Lock,49.2,,16.4,Calm,37,,1.12.8,Mavic Mini,1SDCH7G0169R0K,1SFLH6Q0AB03DJ,1SRCH7F014TAHX,1U5X071EXP5ZJG,90.7,0.1,101.7,7.395547,3.802798,0,0,Mavic Mini,1SDCH7G0169R0K,1SFLH6Q0AB03DJ,1SRCH7F014TAHX,1U5X071EXP5ZJG,DJI Fly,,1.12.8,02523FC3-213B-C523-E24D-E94A005ED46A,1SDCH7G0169R0K,,,,,6.972689498,79.91577303,5,,
2/25/2024,01:20.3,3m 1.9s,181.9,6.972715798,79.9157874,11.1,11.1,13.1,74,1.4,0,0.223694,0,0,0,0,-3.131716,0,-0.6,-2.7,-9,351,,Tripod,Other,,15,5,TRUE,,Mavic Mini,TRUE,FALSE,,Smart,RC,FALSE,TRUE,FALSE,,,TRUE,,FALSE,FALSE,FALSE,FALSE,FALSE,FALSE,FALSE,FALSE,FALSE,FALSE,0,Follow Yaw,0,0,-0.3,359.7,FALSE,FALSE,FALSE,FALSE,FALSE,FALSE,,TRUE,Normal,,100,1024,1024,1684,1024,2,FALSE,FALSE,FALSE,FALSE,FALSE,0,FALSE,FALSE,FALSE,FALSE,85,7.718,1742,2050,7.713,FALSE,3.859,3.86,0.003,FALSE,FALSE,NA,95.9,95.7,95.9,0,0,2,0,5,4573.5,1143.38,,Idle,0,20,FALSE,5,TRUE,11,Go Home,FALSE,FALSE,FALSE,FALSE,FALSE,FALSE,FALSE,FALSE,FALSE,FALSE,FALSE,FALSE,6.972715039,79.91578693,0.3,210.8,328,TRUE,1,1,FALSE,FALSE,FALSE,FALSE,,TRUE,FALSE,FALSE,Course Lock,49.2,,16.4,Calm,37,,1.12.8,Mavic Mini,1SDCH7G0169R0K,1SFLH6Q0AB03DJ,1SRCH7F014TAHX,1U5X071EXP5ZJG,90.7,0.1,101.7,7.395547,3.802798,0,0,Mavic Mini,1SDCH7G0169R0K,1SFLH6Q0AB03DJ,1SRCH7F014TAHX,1U5X071EXP5ZJG,DJI Fly,,1.12.8,02523FC3-213B-C523-E24D-E94A005ED46A,1SDCH7G0169R0K,,,,,6.972689498,79.91577303,5,,
2/25/2024,01:20.4,3m 2.0s,182,6.972715933,79.91578742,11.8,11.8,13.7,75,1.5,0,0.223694,0,0,0,0,-3.35541,0,-0.5,-2.6,-9,351,,Tripod,Other,,15,5,TRUE,,Mavic Mini,TRUE,FALSE,,Smart,RC,FALSE,TRUE,FALSE,,,TRUE,,FALSE,FALSE,FALSE,FALSE,FALSE,FALSE,FALSE,FALSE,FALSE,FALSE,0,Follow Yaw,0,0,-0.3,359.7,FALSE,FALSE,FALSE,FALSE,FALSE,FALSE,,TRUE,Normal,,100,1024,1024,1684,1024,2,FALSE,FALSE,FALSE,FALSE,FALSE,0,FALSE,FALSE,FALSE,FALSE,85,7.718,1742,2050,7.713,FALSE,3.859,3.86,0.003,FALSE,FALSE,NA,95.9,95.7,95.9,0,0,2,0,5,4573.5,1143.38,,Idle,0,20,FALSE,5,TRUE,11,Go Home,FALSE,FALSE,FALSE,FALSE,FALSE,FALSE,FALSE,FALSE,FALSE,FALSE,FALSE,FALSE,6.972715039,79.91578693,0.3,210.8,328,TRUE,1,1,FALSE,FALSE,FALSE,FALSE,,TRUE,FALSE,FALSE,Course Lock,49.2,,16.4,Calm,37,,1.12.8,Mavic Mini,1SDCH7G0169R0K,1SFLH6Q0AB03DJ,1SRCH7F014TAHX,1U5X071EXP5ZJG,90.7,0.1,101.7,7.395547,3.802798,0,0,Mavic Mini,1SDCH7G0169R0K,1SFLH6Q0AB03DJ,1SRCH7F014TAHX,1U5X071EXP5ZJG,DJI Fly,,1.12.8,02523FC3-213B-C523-E24D-E94A005ED46A,1SDCH7G0169R0K,,,,,6.972689498,79.91577303,5,,
2/25/2024,01:20.6,3m 2.1s,182.1,6.972716079,79.91578744,12.1,12.1,14.1,75,1.5,0,0.223694,0,0,0,0,-3.131716,0,-0.1,-2.8,-9,351,,Tripod,Other,,15,5,TRUE,,Mavic Mini,TRUE,FALSE,,Smart,RC,FALSE,TRUE,FALSE,,,TRUE,,FALSE,FALSE,FALSE,FALSE,FALSE,FALSE,FALSE,FALSE,FALSE,FALSE,0,Follow Yaw,0,0,-0.3,359.7,FALSE,FALSE,FALSE,FALSE,FALSE,FALSE,,TRUE,Normal,,100,1024,1024,1684,1024,2,FALSE,FALSE,FALSE,FALSE,FALSE,0,FALSE,FALSE,FALSE,FALSE,85,7.718,1742,2050,7.713,FALSE,3.859,3.86,0.003,FALSE,FALSE,NA,95.9,95.7,95.9,0,0,2,0,5,4573.5,1143.38,,Idle,0,20,FALSE,5,TRUE,11,Go Home,FALSE,FALSE,FALSE,FALSE,FALSE,FALSE,FALSE,FALSE,FALSE,FALSE,FALSE,FALSE,6.972715039,79.91578693,0.4,210.8,328,TRUE,1,1,FALSE,FALSE,FALSE,FALSE,,TRUE,FALSE,FALSE,Course Lock,49.2,,16.4,Calm,37,,1.12.8,Mavic Mini,1SDCH7G0169R0K,1SFLH6Q0AB03DJ,1SRCH7F014TAHX,1U5X071EXP5ZJG,90.7,0.1,101.7,7.395547,3.802798,0,0,Mavic Mini,1SDCH7G0169R0K,1SFLH6Q0AB03DJ,1SRCH7F014TAHX,1U5X071EXP5ZJG,DJI Fly,,1.12.8,02523FC3-213B-C523-E24D-E94A005ED46A,1SDCH7G0169R0K,,,,,6.972689498,79.91577303,5,,
2/25/2024,01:20.7,3m 2.2s,182.2,6.972716346,79.91578741,12.7,12.7,14.7,76,1.6,0,0.223694,0,0,0,0,-3.131716,0,0.3,-2.7,-8.9,351.1,,Tripod,Other,,15,5,TRUE,,Mavic Mini,TRUE,FALSE,,Smart,RC,FALSE,TRUE,FALSE,,,TRUE,,FALSE,FALSE,FALSE,FALSE,FALSE,FALSE,FALSE,FALSE,FALSE,FALSE,0,Follow Yaw,0,0,-0.3,359.7,FALSE,FALSE,FALSE,FALSE,FALSE,FALSE,,TRUE,Normal,,100,1024,1024,1684,1024,2,FALSE,FALSE,FALSE,FALSE,FALSE,0,FALSE,FALSE,FALSE,FALSE,85,7.718,1742,2050,7.713,FALSE,3.859,3.86,0.003,FALSE,FALSE,NA,95.9,95.7,95.9,0,0,2,0,5,4573.5,1143.38,,Idle,0,20,FALSE,5,TRUE,11,Go Home,FALSE,FALSE,FALSE,FALSE,FALSE,FALSE,FALSE,FALSE,FALSE,FALSE,FALSE,FALSE,6.972715039,79.91578693,0.5,210.8,328,TRUE,1,1,FALSE,FALSE,FALSE,FALSE,,TRUE,FALSE,FALSE,Course Lock,49.2,,16.4,Calm,37,,1.12.8,Mavic Mini,1SDCH7G0169R0K,1SFLH6Q0AB03DJ,1SRCH7F014TAHX,1U5X071EXP5ZJG,90.7,0.1,101.7,7.395547,3.802798,0,0,Mavic Mini,1SDCH7G0169R0K,1SFLH6Q0AB03DJ,1SRCH7F014TAHX,1U5X071EXP5ZJG,DJI Fly,,1.12.8,02523FC3-213B-C523-E24D-E94A005ED46A,1SDCH7G0169R0K,,,,,6.972689498,79.91577303,5,,
