CUSTOM.date [local],CUSTOM.updateTime [local],OSD.flyTime,OSD.flyTime [s],OSD.latitude,OSD.longitude,OSD.height [ft],OSD.heightMax [ft],OSD.vpsHeight [ft],OSD.altitude [ft],OSD.mileage [ft],OSD.hSpeed [MPH],OSD.hSpeedMax [MPH],OSD.xSpeed [MPH],OSD.xSpeedMax [MPH],OSD.ySpeed [MPH],OSD.ySpeedMax [MPH],OSD.zSpeed [MPH],OSD.zSpeedMax [MPH],OSD.pitch,OSD.roll,OSD.yaw,OSD.yaw [360],OSD.directionOfTravel,OSD.flycState,OSD.flycCommand,OSD.flightAction,OSD.gpsNum,OSD.gpsLevel,OSD.isGPSUsed,OSD.nonGPSCause,OSD.droneType,OSD.isSwaveWork,OSD.waveError,OSD.goHomeStatus,OSD.batteryType,OSD.ctrlDevice,OSD.isOnGround,OSD.isMotorOn,OSD.isMotorBlocked,OSD.motorStartFailedCause,OSD.motorFailReason,OSD.isImuPreheated,OSD.imuInitFailReason,OSD.isAcceletorOverRange,OSD.isBarometerDeadInAir,OSD.isCompassError,OSD.isGoHomeHeightModified,OSD.canIOCWork,OSD.isNotEnoughForce,OSD.isOutOfLimit,OSD.isPropellerCatapult,OSD.isVibrating,OSD.isVisionUsed,OSD.voltageWarning,GIMBAL.mode,GIMBAL.pitch,GIMBAL.roll,GIMBAL.yaw,GIMBAL.yaw [360],GIMBAL.isPitchAtLimit,GIMBAL.isRollAtLimit,GIMBAL.isYawAtLimit,GIMBAL.isStuck,CAMERA.isPhoto,CAMERA.isVideo,CAMERA.filename,CAMERA.sdCardIsInserted,CAMERA.sdCardState,RC.downlinkSignal,RC.uplinkSignal,RC.aileron,RC.elevator,RC.throttle,RC.rudder,RC.mode,RC.goHomeDepressed,RC.recordDepressed,RC.shutterDepressed,RC.playbackDepressed,RC.wheelDepressed,RC.wheelOffset,RC.custom1Depressed,RC.custom2Depressed,RC.custom3Depressed,RC.custom4Depressed,BATTERY.chargeLevel,BATTERY.currentPV [V],BATTERY.currentCapacity [mAh],BATTERY.fullCapacity [mAh],BATTERY.voltage [V],BATTERY.isCellVoltageEstimated,BATTERY.cellVoltage1 [V],BATTERY.cellVoltage2 [V],BATTERY.maxCellVoltageDeviation,BATTERY.isCellVoltageDeviationHigh,BATTERY.isVoltageLow,BATTERY.current [A],BATTERY.temperature [F],BATTERY.minTemperature [F],BATTERY.maxTemperature [F],BATTERY.usefulTime [s],BATTERY.goHomeTime [s],BATTERY.landTime [s],BATTERY.goHomeBattery,BATTERY.landBattery,BATTERY.safeFlyRadius,BATTERY.volumeConsume,BATTERY.status,BATTERY.goHomeStatus,BATTERY.goHomeCountdown,BATTERY.lowWarning,BATTERY.lowWarningGoHome,BATTERY.seriousLowWarning,BATTERY.seriousLowWarningLanding,BATTERY.timesCharged,MC.failSafeAction,MC.isObstacleAvoidanceEnabled,MC.isCollisionAvoidanceEnabled,MC.isRthObstacleAvoidanceEnabled,MC.isBraking,MC.isAvoidingObstacle,MC.isAvoidingActiveObstacle,MC.isAscentLimitedByObstacle,MC.isLandingConfirmationNeeded,MC.atLowAltitudeLimit,MC.atDistanceLimit,MC.atAirportAltitudeLimit,MC.atAirportBoundary,HOME.latitude,HOME.longitude,HOME.distance [ft],HOME.height [ft],HOME.heightLimit [ft],HOME.isHomeRecord,HOME.goHomeMode,HOME.aircraftHeadDirection,HOME.isDynamicHomePointEnabled,HOME.isReachedLimitDistance,HOME.isReachedLimitHeight,HOME.isCompassCalibrating,HOME.compassCalibrationState,HOME.isMultipleFlightModeEnabled,HOME.isBeginnerMode,HOME.isIOCEnabled,HOME.iocMode,HOME.goHomeHeight [ft],HOME.courseLockAngle,HOME.forceLandingHeight [ft],HOME.wind,HOME.dataRecorderFileIndex,RECOVER.appType,RECOVER.appVersion,RECOVER.aircraftName,RECOVER.aircraftSerial,RECOVER.cameraSerial,RECOVER.rcSerial,RECOVER.batterySerial,DETAILS.totalTime [s],DETAILS.totalDistance [ft],DETAILS.maxHeight [ft],DETAILS.maxHorizontalSpeed [MPH],DETAILS.maxVerticalSpeed [MPH],DETAILS.photoNum,DETAILS.videoTime [s],DETAILS.aircraftName,DETAILS.aircraftSerial,DETAILS.cameraSerial,DETAILS.rcSerial,DETAILS.batterySerial,DETAILS.appName,DETAILS.appType,DETAILS.appVersion,DETAILS.guid,SERIAL.flightController,SERIAL.camera,SERIAL.gimbal,SERIAL.rc,SERIAL.battery,APPGPS.latitude,APPGPS.longitude,APPGPS.accuracy,APP.tip,APP.warning
2/13/2024,44:40.8,10m 17.6s,617.6,6.974663175,79.91479105,0,0,,67,0,0,0,0,0,0,0,0,0,3.4,2.3,-179.1,180.9,,Starting Motors,Auto Landing,Takeoff (RC Assisted),10,4,TRUE,,Mavic Mini,FALSE,FALSE,,Smart,RC,TRUE,TRUE,FALSE,,,TRUE,,FALSE,FALSE,FALSE,FALSE,FALSE,FALSE,FALSE,FALSE,FALSE,FALSE,0,Follow Yaw,0,0,-177.7,182.3,FALSE,FALSE,FALSE,FALSE,FALSE,FALSE,,TRUE,Normal,,,1024,1024,1024,1024,2,FALSE,FALSE,FALSE,FALSE,FALSE,0,FALSE,FALSE,FALSE,FALSE,53,7.508,1095,2054,7.508,FALSE,3.754,3.754,,FALSE,FALSE,NA,120.4,120.3,120.3,,,,,,,,,Idle,,,TRUE,,FALSE,8,Go Home,FALSE,FALSE,FALSE,FALSE,FALSE,FALSE,FALSE,FALSE,FALSE,FALSE,FALSE,FALSE,,,,,,FALSE,,,FALSE,FALSE,FALSE,FALSE,,FALSE,FALSE,FALSE,,,,,Calm,,,1.12.8,Mavic Mini,1SDCH7G0169R0K,1SFLH6Q0AB03DJ,1SRCH7F014TAHX,1U5X071EXP5ZJG,84.5,0.1,0,4.032755,1.789552,0,0,Mavic Mini,1SDCH7G0169R0K,1SFLH6Q0AB03DJ,1SRCH7F014TAHX,1U5X071EXP5ZJG,DJI Fly,,1.12.8,86B2A485-9180-D372-C14F-2D28F6723A17,1SDCH7G0169R0K,,,,,,,,Flight mode changed to Starting Motors.,
2/13/2024,34:23.3,10m 17.7s,617.7,6.974663213,79.91479102,0,0,,67,0,0,0,0,0,0,0,0,0,3.3,2.3,-179.1,180.9,,Starting Motors,Auto Landing,Takeoff (RC Assisted),10,4,TRUE,,Mavic Mini,FALSE,FALSE,,Smart,RC,TRUE,TRUE,FALSE,,,TRUE,,FALSE,FALSE,FALSE,FALSE,FALSE,FALSE,FALSE,FALSE,FALSE,FALSE,0,Follow Yaw,0,0,-177.7,182.3,FALSE,FALSE,FALSE,FALSE,FALSE,FALSE,,TRUE,Normal,,,1024,1024,1024,1024,2,FALSE,FALSE,FALSE,FALSE,FALSE,0,FALSE,FALSE,FALSE,FALSE,53,7.508,1095,2054,7.504,FALSE,3.754,3.754,,FALSE,FALSE,NA,120.4,120.3,120.3,0,2,0,0,5,2125.4,531.37,,Idle,0,20,FALSE,5,TRUE,8,Go Home,FALSE,FALSE,FALSE,FALSE,FALSE,FALSE,FALSE,FALSE,FALSE,FALSE,FALSE,FALSE,6.974657023,79.91479679,3,106.8,328,TRUE,1,1,FALSE,FALSE,FALSE,FALSE,,TRUE,FALSE,FALSE,Course Lock,246,303.7,16.4,Calm,23,,1.12.8,Mavic Mini,1SDCH7G0169R0K,1SFLH6Q0AB03DJ,1SRCH7F014TAHX,1U5X071EXP5ZJG,84.5,0.1,0,4.032755,1.789552,0,0,Mavic Mini,1SDCH7G0169R0K,1SFLH6Q0AB03DJ,1SRCH7F014TAHX,1U5X071EXP5ZJG,DJI Fly,,1.12.8,86B2A485-9180-D372-C14F-2D28F6723A17,1SDCH7G0169R0K,,,,,,,,Data Recorder File Index is 23.; Set Return to Home (RTH) altitude to 75 m (246 ft).; Set maximum flight altitude to 100 m (328 ft).,
2/13/2024,34:23.4,10m 17.8s,617.8,6.974663275,79.91479104,0,0,,67,0,0,0,0,0,0,0,0,0,3.3,2.3,-179.1,180.9,,Starting Motors,Auto Landing,Takeoff (RC Assisted),10,4,TRUE,,Mavic Mini,FALSE,FALSE,,Smart,RC,TRUE,TRUE,FALSE,,,TRUE,,FALSE,FALSE,FALSE,FALSE,FALSE,FALSE,FALSE,FALSE,FALSE,FALSE,0,Follow Yaw,0,0,-177.7,182.3,FALSE,FALSE,FALSE,FALSE,FALSE,FALSE,,TRUE,Normal,,,1024,1024,1024,1024,2,FALSE,FALSE,FALSE,FALSE,FALSE,0,FALSE,FALSE,FALSE,FALSE,53,7.508,1095,2054,7.504,FALSE,3.754,3.754,,FALSE,FALSE,NA,120.4,120.3,120.3,0,2,0,0,5,2125.4,531.37,,Idle,0,20,FALSE,5,TRUE,8,Go Home,FALSE,FALSE,FALSE,FALSE,FALSE,FALSE,FALSE,FALSE,FALSE,FALSE,FALSE,FALSE,6.974657023,79.91479679,3,106.8,328,TRUE,1,1,FALSE,FALSE,FALSE,FALSE,,TRUE,FALSE,FALSE,Course Lock,246,303.7,16.4,Calm,23,,1.12.8,Mavic Mini,1SDCH7G0169R0K,1SFLH6Q0AB03DJ,1SRCH7F014TAHX,1U5X071EXP5ZJG,84.5,0.1,0,4.032755,1.789552,0,0,Mavic Mini,1SDCH7G0169R0K,1SFLH6Q0AB03DJ,1SRCH7F014TAHX,1U5X071EXP5ZJG,DJI Fly,,1.12.8,86B2A485-9180-D372-C14F-2D28F6723A17,1SDCH7G0169R0K,,,,,,,,,
2/13/2024,34:23.5,10m 17.9s,617.9,6.974663363,79.91479103,0,0,,67,0,0,0,0,0,0,0,0,0,3.3,2.3,-179,181,,Starting Motors,Auto Landing,Takeoff (RC Assisted),10,4,TRUE,,Mavic Mini,FALSE,FALSE,,Smart,RC,TRUE,TRUE,FALSE,,,TRUE,,FALSE,FALSE,FALSE,FALSE,FALSE,FALSE,FALSE,FALSE,FALSE,FALSE,0,Follow Yaw,0,0,-177.7,182.3,FALSE,FALSE,FALSE,FALSE,FALSE,FALSE,,TRUE,Normal,,100,1024,1024,1024,1024,2,FALSE,FALSE,FALSE,FALSE,FALSE,0,FALSE,FALSE,FALSE,FALSE,53,7.508,1095,2054,7.504,FALSE,3.754,3.754,,FALSE,FALSE,NA,120.4,120.3,120.3,0,2,0,0,5,2125.4,531.37,,Idle,0,20,FALSE,5,TRUE,8,Go Home,FALSE,FALSE,FALSE,FALSE,FALSE,FALSE,FALSE,FALSE,FALSE,FALSE,FALSE,FALSE,6.974657023,79.91479679,3.1,106.8,328,TRUE,1,1,FALSE,FALSE,FALSE,FALSE,,TRUE,FALSE,FALSE,Course Lock,246,303.7,16.4,Calm,23,,1.12.8,Mavic Mini,1SDCH7G0169R0K,1SFLH6Q0AB03DJ,1SRCH7F014TAHX,1U5X071EXP5ZJG,84.5,0.1,0,4.032755,1.789552,0,0,Mavic Mini,1SDCH7G0169R0K,1SFLH6Q0AB03DJ,1SRCH7F014TAHX,1U5X071EXP5ZJG,DJI Fly,,1.12.8,86B2A485-9180-D372-C14F-2D28F6723A17,1SDCH7G0169R0K,,,,,,,,,
2/13/2024,34:23.6,10m 18.0s,618,6.974663469,79.91479104,0,0,,67,0,0,0,0,0,0,0,0,0,3.3,2.3,-179.1,180.9,,Starting Motors,Auto Landing,Takeoff (RC Assisted),10,4,TRUE,,Mavic Mini,FALSE,FALSE,,Smart,RC,TRUE,TRUE,FALSE,,,TRUE,,FALSE,FALSE,FALSE,FALSE,FALSE,FALSE,FALSE,FALSE,FALSE,FALSE,0,Follow Yaw,0,0,-177.7,182.3,FALSE,FALSE,FALSE,FALSE,FALSE,FALSE,,TRUE,Normal,,100,1024,1024,1024,1024,2,FALSE,FALSE,FALSE,FALSE,FALSE,0,FALSE,FALSE,FALSE,FALSE,53,7.508,1095,2054,7.504,FALSE,3.754,3.754,,FALSE,FALSE,NA,120.4,120.3,120.3,0,2,0,0,5,2125.4,531.37,,Idle,0,20,FALSE,5,TRUE,8,Go Home,FALSE,FALSE,FALSE,FALSE,FALSE,FALSE,FALSE,FALSE,FALSE,FALSE,FALSE,FALSE,6.974657023,79.91479679,3.1,106.8,328,TRUE,1,1,FALSE,FALSE,FALSE,FALSE,,TRUE,FALSE,FALSE,Course Lock,246,303.7,16.4,Calm,23,,1.12.8,Mavic Mini,1SDCH7G0169R0K,1SFLH6Q0AB03DJ,1SRCH7F014TAHX,1U5X071EXP5ZJG,84.5,0.1,0,4.032755,1.789552,0,0,Mavic Mini,1SDCH7G0169R0K,1SFLH6Q0AB03DJ,1SRCH7F014TAHX,1U5X071EXP5ZJG,DJI Fly,,1.12.8,86B2A485-9180-D372-C14F-2D28F6723A17,1SDCH7G0169R0K,,,,,,,,,
2/13/2024,34:23.8,10m 18.1s,618.1,6.97466355,79.91479104,0,0,,67,0.1,0,0,0,0,0,0,0,0,3.3,2.3,-179.1,180.9,,Starting Motors,Auto Landing,Takeoff (RC Assisted),10,4,TRUE,,Mavic Mini,FALSE,FALSE,,Smart,RC,TRUE,TRUE,FALSE,,,TRUE,,FALSE,FALSE,FALSE,FALSE,FALSE,FALSE,FALSE,FALSE,FALSE,FALSE,0,Follow Yaw,0,0,-177.7,182.3,FALSE,FALSE,FALSE,FALSE,FALSE,FALSE,,TRUE,Normal,,100,1024,1024,1024,1024,2,FALSE,FALSE,FALSE,FALSE,FALSE,0,FALSE,FALSE,FALSE,FALSE,53,7.508,1095,2054,7.504,FALSE,3.754,3.754,,FALSE,FALSE,NA,120.4,120.3,120.3,0,2,0,0,5,2125.4,531.37,,Idle,0,20,FALSE,5,TRUE,8,Go Home,FALSE,FALSE,FALSE,FALSE,FALSE,FALSE,FALSE,FALSE,FALSE,FALSE,FALSE,FALSE,6.974657023,79.91479679,3.1,106.8,328,TRUE,1,1,FALSE,FALSE,FALSE,FALSE,,TRUE,FALSE,FALSE,Course Lock,246,303.7,16.4,Calm,23,,1.12.8,Mavic Mini,1SDCH7G0169R0K,1SFLH6Q0AB03DJ,1SRCH7F014TAHX,1U5X071EXP5ZJG,84.5,0.1,0,4.032755,1.789552,0,0,Mavic Mini,1SDCH7G0169R0K,1SFLH6Q0AB03DJ,1SRCH7F014TAHX,1U5X071EXP5ZJG,DJI Fly,,1.12.8,86B2A485-9180-D372-C14F-2D28F6723A17,1SDCH7G0169R0K,,,,,,,,,
2/13/2024,34:23.8,10m 18.2s,618.2,6.974663688,79.91479107,0,0,,67,0.1,0,0,0,0,0,0,0,0,3.3,2.2,-179,181,,Starting Motors,Auto Landing,Takeoff (RC Assisted),10,4,TRUE,,Mavic Mini,FALSE,FALSE,,Smart,RC,TRUE,TRUE,FALSE,,,TRUE,,FALSE,FALSE,FALSE,FALSE,FALSE,FALSE,FALSE,FALSE,FALSE,FALSE,0,Follow Yaw,0,0,-177.7,182.3,FALSE,FALSE,FALSE,FALSE,FALSE,FALSE,,TRUE,Normal,,100,1024,1024,1024,1024,2,FALSE,FALSE,FALSE,FALSE,FALSE,0,FALSE,FALSE,FALSE,FALSE,53,7.508,1095,2054,7.504,FALSE,3.754,3.754,,FALSE,FALSE,NA,120.4,120.3,120.3,0,2,0,0,5,2125.4,531.37,,Idle,0,20,FALSE,5,TRUE,8,Go Home,FALSE,FALSE,FALSE,FALSE,FALSE,FALSE,FALSE,FALSE,FALSE,FALSE,FALSE,FALSE,6.974657023,79.91479679,3.1,106.8,328,TRUE,1,1,FALSE,FALSE,FALSE,FALSE,,TRUE,FALSE,FALSE,Course Lock,246,303.7,16.4,Calm,23,,1.12.8,Mavic Mini,1SDCH7G0169R0K,1SFLH6Q0AB03DJ,1SRCH7F014TAHX,1U5X071EXP5ZJG,84.5,0.1,0,4.032755,1.789552,0,0,Mavic Mini,1SDCH7G0169R0K,1SFLH6Q0AB03DJ,1SRCH7F014TAHX,1U5X071EXP5ZJG,DJI Fly,,1.12.8,86B2A485-9180-D372-C14F-2D28F6723A17,1SDCH7G0169R0K,,,,,,,,,
2/13/2024,34:24.0,10m 18.3s,618.3,6.974663759,79.91479103,0,0,,67,0.2,0,0,0,0,0,0,0,0,3.3,2.3,-179,181,,Starting Motors,Auto Landing,Takeoff (RC Assisted),10,4,TRUE,,Mavic Mini,FALSE,FALSE,,Smart,RC,TRUE,TRUE,FALSE,,,TRUE,,FALSE,FALSE,FALSE,FALSE,FALSE,FALSE,FALSE,FALSE,FALSE,FALSE,0,Follow Yaw,0,0,-177.7,182.3,FALSE,FALSE,FALSE,FALSE,FALSE,FALSE,,TRUE,Normal,,100,1024,1024,1024,1024,2,FALSE,FALSE,FALSE,FALSE,FALSE,0,FALSE,FALSE,FALSE,FALSE,53,7.508,1095,2054,7.504,FALSE,3.754,3.754,,FALSE,FALSE,NA,120.4,120.3,120.3,0,2,0,0,5,2125.4,531.37,,Idle,0,20,FALSE,5,TRUE,8,Go Home,FALSE,FALSE,FALSE,FALSE,FALSE,FALSE,FALSE,FALSE,FALSE,FALSE,FALSE,FALSE,6.974657023,79.91479679,3.2,106.8,328,TRUE,1,1,FALSE,FALSE,FALSE,FALSE,,TRUE,FALSE,FALSE,Course Lock,246,303.7,16.4,Calm,23,,1.12.8,Mavic Mini,1SDCH7G0169R0K,1SFLH6Q0AB03DJ,1SRCH7F014TAHX,1U5X071EXP5ZJG,84.5,0.1,0,4.032755,1.789552,0,0,Mavic Mini,1SDCH7G0169R0K,1SFLH6Q0AB03DJ,1SRCH7F014TAHX,1U5X071EXP5ZJG,DJI Fly,,1.12.8,86B2A485-9180-D372-C14F-2D28F6723A17,1SDCH7G0169R0K,,,,,,,,,
2/13/2024,34:24.1,10m 18.4s,618.4,6.97466385,79.91479098,0,0,,67,0.2,0,0,0,0,0,0,0,0,3.3,2.1,-179,181,,Starting Motors,Auto Landing,Takeoff (RC Assisted),10,4,TRUE,,Mavic Mini,FALSE,FALSE,,Smart,RC,TRUE,TRUE,FALSE,,,TRUE,,FALSE,FALSE,FALSE,FALSE,FALSE,FALSE,FALSE,FALSE,FALSE,FALSE,0,Follow Yaw,0,0,-177.6,182.4,FALSE,FALSE,FALSE,FALSE,FALSE,FALSE,,TRUE,Normal,,100,1024,1024,1024,1024,2,FALSE,FALSE,FALSE,FALSE,FALSE,0,FALSE,FALSE,FALSE,FALSE,53,7.508,1095,2054,7.504,FALSE,3.754,3.754,,FALSE,FALSE,NA,120.4,120.3,120.3,0,2,0,0,5,2125.4,531.37,,Idle,0,20,FALSE,5,TRUE,8,Go Home,FALSE,FALSE,FALSE,FALSE,FALSE,FALSE,FALSE,FALSE,FALSE,FALSE,FALSE,FALSE,6.974657023,79.91479679,3.2,106.8,328,TRUE,1,1,FALSE,FALSE,FALSE,FALSE,,TRUE,FALSE,FALSE,Course Lock,246,303.7,16.4,Calm,23,,1.12.8,Mavic Mini,1SDCH7G0169R0K,1SFLH6Q0AB03DJ,1SRCH7F014TAHX,1U5X071EXP5ZJG,84.5,0.1,0,4.032755,1.789552,0,0,Mavic Mini,1SDCH7G0169R0K,1SFLH6Q0AB03DJ,1SRCH7F014TAHX,1U5X071EXP5ZJG,DJI Fly,,1.12.8,86B2A485-9180-D372-C14F-2D28F6723A17,1SDCH7G0169R0K,,,,,,,,,
2/13/2024,34:24.2,10m 18.5s,618.5,6.97466392,79.91479094,0,0,,67,0.2,0,0,0,0,0,0,0,0,3.3,2.1,-179,181,,Starting Motors,Auto Landing,Takeoff (RC Assisted),10,4,TRUE,,Mavic Mini,FALSE,FALSE,,Smart,RC,TRUE,TRUE,FALSE,,,TRUE,,FALSE,FALSE,FALSE,FALSE,FALSE,FALSE,FALSE,FALSE,FALSE,FALSE,0,Follow Yaw,0,0,-177.6,182.4,FALSE,FALSE,FALSE,FALSE,FALSE,FALSE,,TRUE,Normal,,100,1024,1024,1024,1024,2,FALSE,FALSE,FALSE,FALSE,FALSE,0,FALSE,FALSE,FALSE,FALSE,53,7.508,1095,2054,7.504,FALSE,3.754,3.754,,FALSE,FALSE,NA,120.4,120.3,120.3,0,2,0,0,5,2125.4,531.37,,Idle,0,20,FALSE,5,TRUE,8,Go Home,FALSE,FALSE,FALSE,FALSE,FALSE,FALSE,FALSE,FALSE,FALSE,FALSE,FALSE,FALSE,6.974657023,79.91479679,3.2,106.8,328,TRUE,1,1,FALSE,FALSE,FALSE,FALSE,,TRUE,FALSE,FALSE,Course Lock,246,303.7,16.4,Calm,23,,1.12.8,Mavic Mini,1SDCH7G0169R0K,1SFLH6Q0AB03DJ,1SRCH7F014TAHX,1U5X071EXP5ZJG,84.5,0.1,0,4.032755,1.789552,0,0,Mavic Mini,1SDCH7G0169R0K,1SFLH6Q0AB03DJ,1SRCH7F014TAHX,1U5X071EXP5ZJG,DJI Fly,,1.12.8,86B2A485-9180-D372-C14F-2D28F6723A17,1SDCH7G0169R0K,,,,,,,,,
2/13/2024,34:24.3,10m 18.6s,618.6,6.974663985,79.91479081,0,0,,67,0.3,0,0,0,0,0,0,0,0,3.2,2.1,-179,181,,Starting Motors,Auto Landing,Takeoff (RC Assisted),10,4,TRUE,,Mavic Mini,FALSE,FALSE,,Smart,RC,TRUE,TRUE,FALSE,,,TRUE,,FALSE,FALSE,FALSE,FALSE,FALSE,FALSE,FALSE,FALSE,FALSE,FALSE,0,Follow Yaw,0,0,-177.6,182.4,FALSE,FALSE,FALSE,FALSE,FALSE,FALSE,,TRUE,Normal,,100,1024,1024,1024,1024,2,FALSE,FALSE,FALSE,FALSE,FALSE,0,FALSE,FALSE,FALSE,FALSE,53,7.508,1095,2054,7.504,FALSE,3.754,3.754,,FALSE,FALSE,NA,120.4,120.3,120.3,0,2,0,0,5,2125.4,531.37,,Idle,0,20,FALSE,5,TRUE,8,Go Home,FALSE,FALSE,FALSE,FALSE,FALSE,FALSE,FALSE,FALSE,FALSE,FALSE,FALSE,FALSE,6.974657023,79.91479679,3.3,106.8,328,TRUE,1,1,FALSE,FALSE,FALSE,FALSE,,TRUE,FALSE,FALSE,Course Lock,246,303.7,16.4,Calm,23,,1.12.8,Mavic Mini,1SDCH7G0169R0K,1SFLH6Q0AB03DJ,1SRCH7F014TAHX,1U5X071EXP5ZJG,84.5,0.1,0,4.032755,1.789552,0,0,Mavic Mini,1SDCH7G0169R0K,1SFLH6Q0AB03DJ,1SRCH7F014TAHX,1U5X071EXP5ZJG,DJI Fly,,1.12.8,86B2A485-9180-D372-C14F-2D28F6723A17,1SDCH7G0169R0K,,,,,,,,,
2/13/2024,34:24.4,10m 18.7s,618.7,6.97466405,79.91479073,0,0,,67,0.3,0,0,0,0,0,0,0,0,3.4,2.1,-179,181,,Manual Takeoff,Auto Landing,Takeoff (RC Assisted),10,4,TRUE,,Mavic Mini,FALSE,FALSE,,Smart,RC,TRUE,TRUE,FALSE,,,TRUE,,FALSE,FALSE,FALSE,FALSE,FALSE,FALSE,FALSE,FALSE,FALSE,FALSE,0,Follow Yaw,0,0,-177.6,182.4,FALSE,FALSE,FALSE,FALSE,FALSE,FALSE,,TRUE,Normal,,100,1024,1024,1024,1024,2,FALSE,FALSE,FALSE,FALSE,FALSE,0,FALSE,FALSE,FALSE,FALSE,53,7.466,1095,2054,7.508,FALSE,3.746,3.72,0.026,FALSE,FALSE,NA,120.4,120.3,120.3,0,3,0,0,5,2125.4,531.37,,Idle,0,20,FALSE,5,TRUE,8,Go Home,FALSE,FALSE,FALSE,FALSE,FALSE,FALSE,FALSE,FALSE,FALSE,FALSE,FALSE,FALSE,6.974657023,79.91479679,3.3,106.8,328,TRUE,1,1,FALSE,FALSE,FALSE,FALSE,,TRUE,FALSE,FALSE,Course Lock,246,303.7,16.4,Calm,23,,1.12.8,Mavic Mini,1SDCH7G0169R0K,1SFLH6Q0AB03DJ,1SRCH7F014TAHX,1U5X071EXP5ZJG,84.5,0.1,0,4.032755,1.789552,0,0,Mavic Mini,1SDCH7G0169R0K,1SFLH6Q0AB03DJ,1SRCH7F014TAHX,1U5X071EXP5ZJG,DJI Fly,,1.12.8,86B2A485-9180-D372-C14F-2D28F6723A17,1SDCH7G0169R0K,,,,,,,,Flight mode changed to Manual Takeoff.,
2/13/2024,34:24.5,10m 18.8s,618.8,6.974664137,79.91479063,0,0,,67,0.4,0,0,0,0,0,0,0,0,3.3,2.2,-179,181,,Manual Takeoff,Auto Landing,Takeoff (RC Assisted),10,4,TRUE,,Mavic Mini,FALSE,FALSE,,Smart,RC,TRUE,TRUE,FALSE,,,TRUE,,FALSE,FALSE,FALSE,FALSE,FALSE,FALSE,FALSE,FALSE,FALSE,FALSE,0,Follow Yaw,0,0,-177.6,182.4,FALSE,FALSE,FALSE,FALSE,FALSE,FALSE,,TRUE,Normal,,100,1024,1024,1024,1024,2,FALSE,FALSE,FALSE,FALSE,FALSE,0,FALSE,FALSE,FALSE,FALSE,53,7.466,1095,2054,7.508,FALSE,3.746,3.72,0.026,FALSE,FALSE,NA,120.4,120.3,120.3,0,3,0,0,5,2125.4,531.37,,Idle,0,20,FALSE,5,TRUE,8,Go Home,FALSE,FALSE,FALSE,FALSE,FALSE,FALSE,FALSE,FALSE,FALSE,FALSE,FALSE,FALSE,6.974657023,79.91479679,3.4,106.8,328,TRUE,1,1,FALSE,FALSE,FALSE,FALSE,,TRUE,FALSE,FALSE,Course Lock,246,303.7,16.4,Calm,23,,1.12.8,Mavic Mini,1SDCH7G0169R0K,1SFLH6Q0AB03DJ,1SRCH7F014TAHX,1U5X071EXP5ZJG,84.5,0.1,0,4.032755,1.789552,0,0,Mavic Mini,1SDCH7G0169R0K,1SFLH6Q0AB03DJ,1SRCH7F014TAHX,1U5X071EXP5ZJG,DJI Fly,,1.12.8,86B2A485-9180-D372-C14F-2D28F6723A17,1SDCH7G0169R0K,,,,,,,,,
2/13/2024,34:24.5,10m 18.9s,618.9,6.974664205,79.91479052,0,0,,67,0.4,0,0,0,0,0,0,0,0,3.3,2.1,-179,181,,Manual Takeoff,Auto Landing,Takeoff (RC Assisted),10,4,TRUE,,Mavic Mini,FALSE,FALSE,,Smart,RC,TRUE,TRUE,FALSE,,,TRUE,,FALSE,FALSE,FALSE,FALSE,FALSE,FALSE,FALSE,FALSE,FALSE,FALSE,0,Follow Yaw,0,0,-177.6,182.4,FALSE,FALSE,FALSE,FALSE,FALSE,FALSE,,TRUE,Normal,,100,1024,1024,1024,1024,2,FALSE,FALSE,FALSE,FALSE,FALSE,0,FALSE,FALSE,FALSE,FALSE,53,7.466,1095,2054,7.508,FALSE,3.746,3.72,0.026,FALSE,FALSE,NA,120.4,120.3,120.3,0,3,0,0,5,2125.4,531.37,,Idle,0,20,FALSE,5,TRUE,8,Go Home,FALSE,FALSE,FALSE,FALSE,FALSE,FALSE,FALSE,FALSE,FALSE,FALSE,FALSE,FALSE,6.974657023,79.91479679,3.4,106.8,328,TRUE,1,1,FALSE,FALSE,FALSE,FALSE,,TRUE,FALSE,FALSE,Course Lock,246,303.7,16.4,Calm,23,,1.12.8,Mavic Mini,1SDCH7G0169R0K,1SFLH6Q0AB03DJ,1SRCH7F014TAHX,1U5X071EXP5ZJG,84.5,0.1,0,4.032755,1.789552,0,0,Mavic Mini,1SDCH7G0169R0K,1SFLH6Q0AB03DJ,1SRCH7F014TAHX,1U5X071EXP5ZJG,DJI Fly,,1.12.8,86B2A485-9180-D372-C14F-2D28F6723A17,1SDCH7G0169R0K,,,,,,,,,
2/13/2024,34:24.6,10m 19.0s,619,6.974664287,79.91479022,0,0,,67,0.5,0,0,0,0,0,0,0,0,3.3,2.1,-179.1,180.9,,Manual Takeoff,Auto Landing,Takeoff (RC Assisted),10,4,TRUE,,Mavic Mini,FALSE,FALSE,,Smart,RC,TRUE,TRUE,FALSE,,,TRUE,,FALSE,FALSE,FALSE,FALSE,FALSE,FALSE,FALSE,FALSE,FALSE,FALSE,0,Follow Yaw,0,0,-177.6,182.4,FALSE,FALSE,FALSE,FALSE,FALSE,FALSE,,TRUE,Normal,,100,1024,1024,1024,1024,2,FALSE,FALSE,FALSE,FALSE,FALSE,0,FALSE,FALSE,FALSE,FALSE,53,7.466,1095,2054,7.508,FALSE,3.746,3.72,0.026,FALSE,FALSE,NA,120.4,120.3,120.3,0,3,0,0,5,2125.4,531.37,,Idle,0,20,FALSE,5,TRUE,8,Go Home,FALSE,FALSE,FALSE,FALSE,FALSE,FALSE,FALSE,FALSE,FALSE,FALSE,FALSE,FALSE,6.974657023,79.91479679,3.5,106.8,328,TRUE,1,1,FALSE,FALSE,FALSE,FALSE,,TRUE,FALSE,FALSE,Course Lock,246,303.7,16.4,Calm,23,,1.12.8,Mavic Mini,1SDCH7G0169R0K,1SFLH6Q0AB03DJ,1SRCH7F014TAHX,1U5X071EXP5ZJG,84.5,0.1,0,4.032755,1.789552,0,0,Mavic Mini,1SDCH7G0169R0K,1SFLH6Q0AB03DJ,1SRCH7F014TAHX,1U5X071EXP5ZJG,DJI Fly,,1.12.8,86B2A485-9180-D372-C14F-2D28F6723A17,1SDCH7G0169R0K,,,,,,,,,
2/13/2024,34:24.8,10m 19.1s,619.1,6.974664355,79.91479015,0,0,,67,0.6,0,0,0,0,0,0,0,0,3.3,2.1,-179,181,,Manual Takeoff,Auto Landing,Takeoff (RC Assisted),10,4,TRUE,,Mavic Mini,FALSE,FALSE,,Smart,RC,TRUE,TRUE,FALSE,,,TRUE,,FALSE,FALSE,FALSE,FALSE,FALSE,FALSE,FALSE,FALSE,FALSE,FALSE,0,Follow Yaw,0,0,-177.6,182.4,FALSE,FALSE,FALSE,FALSE,FALSE,FALSE,,TRUE,Normal,,100,1024,1024,1024,1024,2,FALSE,FALSE,FALSE,FALSE,FALSE,0,FALSE,FALSE,FALSE,FALSE,53,7.466,1095,2054,7.508,FALSE,3.746,3.72,0.026,FALSE,FALSE,NA,120.4,120.3,120.3,0,3,0,0,5,2125.4,531.37,,Idle,0,20,FALSE,5,TRUE,8,Go Home,FALSE,FALSE,FALSE,FALSE,FALSE,FALSE,FALSE,FALSE,FALSE,FALSE,FALSE,FALSE,6.974657023,79.91479679,3.5,106.8,328,TRUE,1,1,FALSE,FALSE,FALSE,FALSE,,TRUE,FALSE,FALSE,Course Lock,246,303.7,16.4,Calm,23,,1.12.8,Mavic Mini,1SDCH7G0169R0K,1SFLH6Q0AB03DJ,1SRCH7F014TAHX,1U5X071EXP5ZJG,84.5,0.1,0,4.032755,1.789552,0,0,Mavic Mini,1SDCH7G0169R0K,1SFLH6Q0AB03DJ,1SRCH7F014TAHX,1U5X071EXP5ZJG,DJI Fly,,1.12.8,86B2A485-9180-D372-C14F-2D28F6723A17,1SDCH7G0169R0K,,,,,,,,,
2/13/2024,34:24.8,10m 19.2s,619.2,6.974664447,79.91479014,0,0,,67,0.6,0,0,0,0,0,0,0,0,3.3,2.1,-179,181,,Manual Takeoff,Auto Landing,Takeoff (RC Assisted),10,4,TRUE,,Mavic Mini,FALSE,FALSE,,Smart,RC,TRUE,TRUE,FALSE,,,TRUE,,FALSE,FALSE,FALSE,FALSE,FALSE,FALSE,FALSE,FALSE,FALSE,FALSE,0,Follow Yaw,0,0,-177.6,182.4,FALSE,FALSE,FALSE,FALSE,FALSE,FALSE,,TRUE,Normal,,100,1024,1024,1024,1024,2,FALSE,FALSE,FALSE,FALSE,FALSE,0,FALSE,FALSE,FALSE,FALSE,53,7.466,1095,2054,7.508,FALSE,3.746,3.72,0.026,FALSE,FALSE,NA,120.4,120.3,120.3,0,3,0,0,5,2125.4,531.37,,Idle,0,20,FALSE,5,TRUE,8,Go Home,FALSE,FALSE,FALSE,FALSE,FALSE,FALSE,FALSE,FALSE,FALSE,FALSE,FALSE,FALSE,6.974657023,79.91479679,3.6,106.8,328,TRUE,1,1,FALSE,FALSE,FALSE,FALSE,,TRUE,FALSE,FALSE,Course Lock,246,303.7,16.4,Calm,23,,1.12.8,Mavic Mini,1SDCH7G0169R0K,1SFLH6Q0AB03DJ,1SRCH7F014TAHX,1U5X071EXP5ZJG,84.5,0.1,0,4.032755,1.789552,0,0,Mavic Mini,1SDCH7G0169R0K,1SFLH6Q0AB03DJ,1SRCH7F014TAHX,1U5X071EXP5ZJG,DJI Fly,,1.12.8,86B2A485-9180-D372-C14F-2D28F6723A17,1SDCH7G0169R0K,,,,,,,,,
2/13/2024,34:24.9,10m 19.3s,619.3,6.974664542,79.9147901,0,0,,67,0.6,0,0,0,0,0,0,0,0,3.3,2,-179,181,,Manual Takeoff,Auto Landing,Takeoff (RC Assisted),10,4,TRUE,,Mavic Mini,FALSE,FALSE,,Smart,RC,TRUE,TRUE,FALSE,,,TRUE,,FALSE,FALSE,FALSE,FALSE,FALSE,FALSE,FALSE,FALSE,FALSE,FALSE,0,Follow Yaw,0,0,-177.6,182.4,FALSE,FALSE,FALSE,FALSE,FALSE,FALSE,,TRUE,Normal,,100,1024,1024,1024,1024,2,FALSE,FALSE,FALSE,FALSE,FALSE,0,FALSE,FALSE,FALSE,FALSE,53,7.466,1095,2054,7.508,FALSE,3.746,3.72,0.026,FALSE,FALSE,NA,120.4,120.3,120.3,0,3,0,0,5,2125.4,531.37,,Idle,0,20,FALSE,5,TRUE,8,Go Home,FALSE,FALSE,FALSE,FALSE,FALSE,FALSE,FALSE,FALSE,FALSE,FALSE,FALSE,FALSE,6.974657023,79.91479679,3.6,106.8,328,TRUE,1,1,FALSE,FALSE,FALSE,FALSE,,TRUE,FALSE,FALSE,Course Lock,246,303.7,16.4,Calm,23,,1.12.8,Mavic Mini,1SDCH7G0169R0K,1SFLH6Q0AB03DJ,1SRCH7F014TAHX,1U5X071EXP5ZJG,84.5,0.1,0,4.032755,1.789552,0,0,Mavic Mini,1SDCH7G0169R0K,1SFLH6Q0AB03DJ,1SRCH7F014TAHX,1U5X071EXP5ZJG,DJI Fly,,1.12.8,86B2A485-9180-D372-C14F-2D28F6723A17,1SDCH7G0169R0K,,,,,,,,,
2/13/2024,34:25.0,10m 19.4s,619.4,6.974664648,79.91479003,0,0,,67,0.7,0,0,0,0,0,0,0,0,3.3,2.1,-179,181,,Manual Takeoff,Auto Landing,Takeoff (RC Assisted),10,4,TRUE,,Mavic Mini,FALSE,FALSE,,Smart,RC,TRUE,TRUE,FALSE,,,TRUE,,FALSE,FALSE,FALSE,FALSE,FALSE,FALSE,FALSE,FALSE,FALSE,FALSE,0,Follow Yaw,0,0,-177.6,182.4,FALSE,FALSE,FALSE,FALSE,FALSE,FALSE,,TRUE,Normal,,100,1024,1024,1024,1024,2,FALSE,FALSE,FALSE,FALSE,FALSE,0,FALSE,FALSE,FALSE,FALSE,53,7.466,1095,2054,7.508,FALSE,3.746,3.72,0.026,FALSE,FALSE,NA,120.4,120.3,120.3,0,3,0,0,5,2125.4,531.37,,Idle,0,20,FALSE,5,TRUE,8,Go Home,FALSE,FALSE,FALSE,FALSE,FALSE,FALSE,FALSE,FALSE,FALSE,FALSE,FALSE,FALSE,6.974657023,79.91479679,3.7,106.8,328,TRUE,1,1,FALSE,FALSE,FALSE,FALSE,,TRUE,FALSE,FALSE,Course Lock,246,303.7,16.4,Calm,23,,1.12.8,Mavic Mini,1SDCH7G0169R0K,1SFLH6Q0AB03DJ,1SRCH7F014TAHX,1U5X071EXP5ZJG,84.5,0.1,0,4.032755,1.789552,0,0,Mavic Mini,1SDCH7G0169R0K,1SFLH6Q0AB03DJ,1SRCH7F014TAHX,1U5X071EXP5ZJG,DJI Fly,,1.12.8,86B2A485-9180-D372-C14F-2D28F6723A17,1SDCH7G0169R0K,,,,,,,,,
2/13/2024,34:25.1,10m 19.5s,619.5,6.974664825,79.91479006,0,0,,67,0.7,0,0,0,0,0,0,0,0,3.3,2.1,-179.1,180.9,,Manual Takeoff,Auto Landing,Takeoff (RC Assisted),10,4,TRUE,,Mavic Mini,FALSE,FALSE,,Smart,RC,TRUE,TRUE,FALSE,,,TRUE,,FALSE,FALSE,FALSE,FALSE,FALSE,FALSE,FALSE,FALSE,FALSE,FALSE,0,Follow Yaw,0,0,-177.6,182.4,FALSE,FALSE,FALSE,FALSE,FALSE,FALSE,,TRUE,Normal,,100,1024,1024,1024,1084,2,FALSE,FALSE,FALSE,FALSE,FALSE,0,FALSE,FALSE,FALSE,FALSE,53,7.466,1095,2054,7.508,FALSE,3.746,3.72,0.026,FALSE,FALSE,NA,120.4,120.3,120.3,0,3,0,0,5,2125.4,531.37,,Idle,0,20,FALSE,5,TRUE,8,Go Home,FALSE,FALSE,FALSE,FALSE,FALSE,FALSE,FALSE,FALSE,FALSE,FALSE,FALSE,FALSE,6.974657023,79.91479679,3.7,106.8,328,TRUE,1,1,FALSE,FALSE,FALSE,FALSE,,TRUE,FALSE,FALSE,Course Lock,246,303.7,16.4,Calm,23,,1.12.8,Mavic Mini,1SDCH7G0169R0K,1SFLH6Q0AB03DJ,1SRCH7F014TAHX,1U5X071EXP5ZJG,84.5,0.1,0,4.032755,1.789552,0,0,Mavic Mini,1SDCH7G0169R0K,1SFLH6Q0AB03DJ,1SRCH7F014TAHX,1U5X071EXP5ZJG,DJI Fly,,1.12.8,86B2A485-9180-D372-C14F-2D28F6723A17,1SDCH7G0169R0K,,,,,,,,,
2/13/2024,34:25.2,10m 19.6s,619.6,6.974664883,79.91479006,0,0,,67,0.8,0,0,0,0,0,0,0,0,3.3,2.1,-179.1,180.9,,Manual Takeoff,Auto Landing,Takeoff (RC Assisted),10,4,TRUE,,Mavic Mini,FALSE,FALSE,,Smart,RC,TRUE,TRUE,FALSE,,,TRUE,,FALSE,FALSE,FALSE,FALSE,FALSE,FALSE,FALSE,FALSE,FALSE,FALSE,0,Follow Yaw,0,0,-177.6,182.4,FALSE,FALSE,FALSE,FALSE,FALSE,FALSE,,TRUE,Normal,,100,1024,1024,1024,1140,2,FALSE,FALSE,FALSE,FALSE,FALSE,0,FALSE,FALSE,FALSE,FALSE,53,7.466,1095,2054,7.508,FALSE,3.746,3.72,0.026,FALSE,FALSE,NA,120.4,120.3,120.3,0,3,0,0,5,2125.4,531.37,,Idle,0,20,FALSE,5,TRUE,8,Go Home,FALSE,FALSE,FALSE,FALSE,FALSE,FALSE,FALSE,FALSE,FALSE,FALSE,FALSE,FALSE,6.974657023,79.91479679,3.7,106.8,328,TRUE,1,1,FALSE,FALSE,FALSE,FALSE,,TRUE,FALSE,FALSE,Course Lock,246,303.7,16.4,Calm,23,,1.12.8,Mavic Mini,1SDCH7G0169R0K,1SFLH6Q0AB03DJ,1SRCH7F014TAHX,1U5X071EXP5ZJG,84.5,0.1,0,4.032755,1.789552,0,0,Mavic Mini,1SDCH7G0169R0K,1SFLH6Q0AB03DJ,1SRCH7F014TAHX,1U5X071EXP5ZJG,DJI Fly,,1.12.8,86B2A485-9180-D372-C14F-2D28F6723A17,1SDCH7G0169R0K,,,,,6.974660545,79.91480945,10,,
2/13/2024,34:25.3,10m 19.7s,619.7,6.974664928,79.91479005,0,0,,67,0.8,0,0,0,0,0,0,0,0,3.3,2.1,-179,181,,Manual Takeoff,Auto Landing,Takeoff (RC Assisted),10,4,TRUE,,Mavic Mini,FALSE,FALSE,,Smart,RC,TRUE,TRUE,FALSE,,,TRUE,,FALSE,FALSE,FALSE,FALSE,FALSE,FALSE,FALSE,FALSE,FALSE,FALSE,0,Follow Yaw,0,0,-177.6,182.4,FALSE,FALSE,FALSE,FALSE,FALSE,FALSE,,TRUE,Normal,,100,1024,1024,1024,1203,2,FALSE,FALSE,FALSE,FALSE,FALSE,0,FALSE,FALSE,FALSE,FALSE,53,7.466,1095,2054,7.469,FALSE,3.746,3.72,0.026,FALSE,FALSE,NA,120.4,120.3,120.3,0,3,0,0,5,2234.8,558.71,,Idle,0,20,FALSE,5,TRUE,8,Go Home,FALSE,FALSE,FALSE,FALSE,FALSE,FALSE,FALSE,FALSE,FALSE,FALSE,FALSE,FALSE,6.974657023,79.91479679,3.7,106.8,328,TRUE,1,1,FALSE,FALSE,FALSE,FALSE,,TRUE,FALSE,FALSE,Course Lock,246,303.7,16.4,Calm,23,,1.12.8,Mavic Mini,1SDCH7G0169R0K,1SFLH6Q0AB03DJ,1SRCH7F014TAHX,1U5X071EXP5ZJG,84.5,0.1,0,4.032755,1.789552,0,0,Mavic Mini,1SDCH7G0169R0K,1SFLH6Q0AB03DJ,1SRCH7F014TAHX,1U5X071EXP5ZJG,DJI Fly,,1.12.8,86B2A485-9180-D372-C14F-2D28F6723A17,1SDCH7G0169R0K,,,,,6.974660545,79.91480945,10,,
2/13/2024,34:25.4,10m 19.8s,619.8,6.974664965,79.91479003,0,0,,67,0.8,0,0,0,0,0,0,0,0,3.3,2.1,-179.1,180.9,,Manual Takeoff,Auto Landing,Takeoff (RC Assisted),10,4,TRUE,,Mavic Mini,FALSE,FALSE,,Smart,RC,TRUE,TRUE,FALSE,,,TRUE,,FALSE,FALSE,FALSE,FALSE,FALSE,FALSE,FALSE,FALSE,FALSE,FALSE,0,Follow Yaw,0,0,-177.6,182.4,FALSE,FALSE,FALSE,FALSE,FALSE,FALSE,,TRUE,Normal,,100,1024,1024,1024,1203,2,FALSE,FALSE,FALSE,FALSE,FALSE,0,FALSE,FALSE,FALSE,FALSE,53,7.498,1094,2054,7.469,FALSE,3.75,3.748,0.026,FALSE,FALSE,NA,120.6,120.3,120.5,0,3,0,0,5,2234.8,558.71,,Idle,0,20,FALSE,5,TRUE,8,Go Home,FALSE,FALSE,FALSE,FALSE,FALSE,FALSE,FALSE,FALSE,FALSE,FALSE,FALSE,FALSE,6.974657023,79.91479679,3.7,106.8,328,TRUE,1,1,FALSE,FALSE,FALSE,FALSE,,TRUE,FALSE,FALSE,Course Lock,246,303.7,16.4,Calm,23,,1.12.8,Mavic Mini,1SDCH7G0169R0K,1SFLH6Q0AB03DJ,1SRCH7F014TAHX,1U5X071EXP5ZJG,84.5,0.1,0,4.032755,1.789552,0,0,Mavic Mini,1SDCH7G0169R0K,1SFLH6Q0AB03DJ,1SRCH7F014TAHX,1U5X071EXP5ZJG,DJI Fly,,1.12.8,86B2A485-9180-D372-C14F-2D28F6723A17,1SDCH7G0169R0K,,,,,6.974660545,79.91480945,10,,
2/13/2024,34:25.6,10m 19.9s,619.9,6.974664935,79.91479008,0,0,,67,0.8,0,0,0,0,0,0,0,0,3.3,2.1,-179.1,180.9,,Manual Takeoff,Auto Landing,Takeoff (RC Assisted),10,4,TRUE,,Mavic Mini,FALSE,FALSE,,Smart,RC,TRUE,TRUE,FALSE,,,TRUE,,FALSE,FALSE,FALSE,FALSE,FALSE,FALSE,FALSE,FALSE,FALSE,FALSE,0,Follow Yaw,0,0,-177.6,182.4,FALSE,FALSE,FALSE,FALSE,FALSE,FALSE,,TRUE,Normal,,100,1024,1024,1024,1240,2,FALSE,FALSE,FALSE,FALSE,FALSE,0,FALSE,FALSE,FALSE,FALSE,53,7.498,1094,2054,7.469,FALSE,3.75,3.748,0.026,FALSE,FALSE,NA,120.6,120.3,120.5,0,3,0,0,5,2234.8,558.71,,Idle,0,20,FALSE,5,TRUE,8,Go Home,FALSE,FALSE,FALSE,FALSE,FALSE,FALSE,FALSE,FALSE,FALSE,FALSE,FALSE,FALSE,6.974657023,79.91479679,3.7,106.8,328,TRUE,1,1,FALSE,FALSE,FALSE,FALSE,,TRUE,FALSE,FALSE,Course Lock,246,303.7,16.4,Calm,23,,1.12.8,Mavic Mini,1SDCH7G0169R0K,1SFLH6Q0AB03DJ,1SRCH7F014TAHX,1U5X071EXP5ZJG,84.5,0.1,0,4.032755,1.789552,0,0,Mavic Mini,1SDCH7G0169R0K,1SFLH6Q0AB03DJ,1SRCH7F014TAHX,1U5X071EXP5ZJG,DJI Fly,,1.12.8,86B2A485-9180-D372-C14F-2D28F6723A17,1SDCH7G0169R0K,,,,,6.974660545,79.91480945,10,,
2/13/2024,34:25.7,10m 20.0s,620,6.974665021,79.91479004,0,0,,67,0.9,0,0,0,0,0,0,0,0,3.3,2.2,-179,181,,Manual Takeoff,Auto Landing,Takeoff (RC Assisted),10,4,TRUE,,Mavic Mini,FALSE,FALSE,,Smart,RC,TRUE,TRUE,FALSE,,,TRUE,,FALSE,FALSE,FALSE,FALSE,FALSE,FALSE,FALSE,FALSE,FALSE,FALSE,0,Follow Yaw,0,0,-177.6,182.4,FALSE,FALSE,FALSE,FALSE,FALSE,FALSE,,TRUE,Normal,,100,1024,1024,1024,1247,2,FALSE,FALSE,FALSE,FALSE,FALSE,0,FALSE,FALSE,FALSE,FALSE,53,7.498,1094,2054,7.469,FALSE,3.75,3.748,0.026,FALSE,FALSE,NA,120.6,120.3,120.5,0,3,0,0,5,2234.8,558.71,,Idle,0,20,FALSE,5,TRUE,8,Go Home,FALSE,FALSE,FALSE,FALSE,FALSE,FALSE,FALSE,FALSE,FALSE,FALSE,FALSE,FALSE,6.974657023,79.91479679,3.8,106.8,328,TRUE,1,1,FALSE,FALSE,FALSE,FALSE,,TRUE,FALSE,FALSE,Course Lock,246,303.7,16.4,Calm,23,,1.12.8,Mavic Mini,1SDCH7G0169R0K,1SFLH6Q0AB03DJ,1SRCH7F014TAHX,1U5X071EXP5ZJG,84.5,0.1,0,4.032755,1.789552,0,0,Mavic Mini,1SDCH7G0169R0K,1SFLH6Q0AB03DJ,1SRCH7F014TAHX,1U5X071EXP5ZJG,DJI Fly,,1.12.8,86B2A485-9180-D372-C14F-2D28F6723A17,1SDCH7G0169R0K,,,,,6.974660545,79.91480945,10,,
2/13/2024,34:25.7,10m 20.1s,620.1,6.974665089,79.91478998,0,0,,67,0.9,0,0,0,0,0,0,0,0,3.3,2.2,-179.1,180.9,,Manual Takeoff,Auto Landing,Takeoff (RC Assisted),10,4,TRUE,,Mavic Mini,FALSE,FALSE,,Smart,RC,TRUE,TRUE,FALSE,,,TRUE,,FALSE,FALSE,FALSE,FALSE,FALSE,FALSE,FALSE,FALSE,FALSE,FALSE,0,Follow Yaw,0,0,-177.6,182.4,FALSE,FALSE,FALSE,FALSE,FALSE,FALSE,,TRUE,Normal,,100,1024,1024,1024,1024,2,FALSE,FALSE,FALSE,FALSE,FALSE,0,FALSE,FALSE,FALSE,FALSE,53,7.498,1094,2054,7.469,FALSE,3.75,3.748,0.026,FALSE,FALSE,NA,120.6,120.3,120.5,0,3,0,0,5,2234.8,558.71,,Idle,0,20,FALSE,5,TRUE,8,Go Home,FALSE,FALSE,FALSE,FALSE,FALSE,FALSE,FALSE,FALSE,FALSE,FALSE,FALSE,FALSE,6.974657023,79.91479679,3.8,106.8,328,TRUE,1,1,FALSE,FALSE,FALSE,FALSE,,TRUE,FALSE,FALSE,Course Lock,246,303.7,16.4,Calm,23,,1.12.8,Mavic Mini,1SDCH7G0169R0K,1SFLH6Q0AB03DJ,1SRCH7F014TAHX,1U5X071EXP5ZJG,84.5,0.1,0,4.032755,1.789552,0,0,Mavic Mini,1SDCH7G0169R0K,1SFLH6Q0AB03DJ,1SRCH7F014TAHX,1U5X071EXP5ZJG,DJI Fly,,1.12.8,86B2A485-9180-D372-C14F-2D28F6723A17,1SDCH7G0169R0K,,,,,6.974660545,79.91480945,10,,
2/13/2024,34:25.8,10m 20.2s,620.2,6.974665142,79.91478987,0,0,,67,0.9,0,0,0,0,0,0,0,0,3.3,2.1,-179,181,,Manual Takeoff,Auto Landing,Takeoff (RC Assisted),9,4,TRUE,,Mavic Mini,FALSE,FALSE,,Smart,RC,TRUE,TRUE,FALSE,,,TRUE,,FALSE,FALSE,FALSE,FALSE,FALSE,FALSE,FALSE,FALSE,FALSE,FALSE,0,Follow Yaw,0,0,-177.6,182.4,FALSE,FALSE,FALSE,FALSE,FALSE,FALSE,,TRUE,Normal,,100,1024,1024,1024,1024,2,FALSE,FALSE,FALSE,FALSE,FALSE,0,FALSE,FALSE,FALSE,FALSE,53,7.498,1094,2054,7.469,FALSE,3.75,3.748,0.026,FALSE,FALSE,NA,120.6,120.3,120.5,0,3,0,0,5,2234.8,558.71,,Idle,0,20,FALSE,5,TRUE,8,Go Home,FALSE,FALSE,FALSE,FALSE,FALSE,FALSE,FALSE,FALSE,FALSE,FALSE,FALSE,FALSE,6.974657023,79.91479679,3.8,106.8,328,TRUE,1,1,FALSE,FALSE,FALSE,FALSE,,TRUE,FALSE,FALSE,Course Lock,246,303.7,16.4,Calm,23,,1.12.8,Mavic Mini,1SDCH7G0169R0K,1SFLH6Q0AB03DJ,1SRCH7F014TAHX,1U5X071EXP5ZJG,84.5,0.1,0,4.032755,1.789552,0,0,Mavic Mini,1SDCH7G0169R0K,1SFLH6Q0AB03DJ,1SRCH7F014TAHX,1U5X071EXP5ZJG,DJI Fly,,1.12.8,86B2A485-9180-D372-C14F-2D28F6723A17,1SDCH7G0169R0K,,,,,6.974660545,79.91480945,10,,
2/13/2024,34:25.9,10m 20.3s,620.3,6.974665181,79.91478973,0,0,,67,1,0,0,0,0,0,0,0,0,3.3,2.1,-179,181,,Manual Takeoff,Auto Landing,Takeoff (RC Assisted),9,4,TRUE,,Mavic Mini,FALSE,FALSE,,Smart,RC,TRUE,TRUE,FALSE,,,TRUE,,FALSE,FALSE,FALSE,FALSE,FALSE,FALSE,FALSE,FALSE,FALSE,FALSE,0,Follow Yaw,0,0,-177.6,182.4,FALSE,FALSE,FALSE,FALSE,FALSE,FALSE,,TRUE,Normal,,100,1024,1024,1024,1024,2,FALSE,FALSE,FALSE,FALSE,FALSE,0,FALSE,FALSE,FALSE,FALSE,53,7.498,1094,2054,7.469,FALSE,3.75,3.748,0.026,FALSE,FALSE,NA,120.6,120.3,120.5,0,3,0,0,5,2234.8,558.71,,Idle,0,20,FALSE,5,TRUE,8,Go Home,FALSE,FALSE,FALSE,FALSE,FALSE,FALSE,FALSE,FALSE,FALSE,FALSE,FALSE,FALSE,6.974657023,79.91479679,3.9,106.8,328,TRUE,1,1,FALSE,FALSE,FALSE,FALSE,,TRUE,FALSE,FALSE,Course Lock,246,303.7,16.4,Calm,23,,1.12.8,Mavic Mini,1SDCH7G0169R0K,1SFLH6Q0AB03DJ,1SRCH7F014TAHX,1U5X071EXP5ZJG,84.5,0.1,0,4.032755,1.789552,0,0,Mavic Mini,1SDCH7G0169R0K,1SFLH6Q0AB03DJ,1SRCH7F014TAHX,1U5X071EXP5ZJG,DJI Fly,,1.12.8,86B2A485-9180-D372-C14F-2D28F6723A17,1SDCH7G0169R0K,,,,,6.974660545,79.91480945,10,,
2/13/2024,34:26.1,10m 20.4s,620.4,6.97466522,79.91478972,0,0,,67,1,0,0,0,0,0,0,0,0,3.3,2.1,-179,181,,Manual Takeoff,Auto Landing,Takeoff (RC Assisted),9,4,TRUE,,Mavic Mini,FALSE,FALSE,,Smart,RC,TRUE,TRUE,FALSE,,,TRUE,,FALSE,FALSE,FALSE,FALSE,FALSE,FALSE,FALSE,FALSE,FALSE,FALSE,0,Follow Yaw,0,0,-177.6,182.4,FALSE,FALSE,FALSE,FALSE,FALSE,FALSE,,TRUE,Normal,,100,1024,1024,1117,1024,2,FALSE,FALSE,FALSE,FALSE,FALSE,0,FALSE,FALSE,FALSE,FALSE,53,7.498,1094,2054,7.469,FALSE,3.75,3.748,0.026,FALSE,FALSE,NA,120.6,120.3,120.5,0,3,0,0,5,2234.8,558.71,,Idle,0,20,FALSE,5,TRUE,8,Go Home,FALSE,FALSE,FALSE,FALSE,FALSE,FALSE,FALSE,FALSE,FALSE,FALSE,FALSE,FALSE,6.974657023,79.91479679,3.9,106.8,328,TRUE,1,1,FALSE,FALSE,FALSE,FALSE,,TRUE,FALSE,FALSE,Course Lock,246,303.7,16.4,Calm,23,,1.12.8,Mavic Mini,1SDCH7G0169R0K,1SFLH6Q0AB03DJ,1SRCH7F014TAHX,1U5X071EXP5ZJG,84.5,0.1,0,4.032755,1.789552,0,0,Mavic Mini,1SDCH7G0169R0K,1SFLH6Q0AB03DJ,1SRCH7F014TAHX,1U5X071EXP5ZJG,DJI Fly,,1.12.8,86B2A485-9180-D372-C14F-2D28F6723A17,1SDCH7G0169R0K,,,,,6.974660545,79.91480945,10,,
2/13/2024,34:26.1,10m 20.5s,620.5,6.974665256,79.91478969,0,0,,67,1,0,0,0,0,0,0,0,0,3.3,2.1,-179,181,,Manual Takeoff,Auto Landing,Takeoff (RC Assisted),9,4,TRUE,,Mavic Mini,FALSE,FALSE,,Smart,RC,TRUE,TRUE,FALSE,,,TRUE,,FALSE,FALSE,FALSE,FALSE,FALSE,FALSE,FALSE,FALSE,FALSE,FALSE,0,Follow Yaw,0,0,-177.6,182.4,FALSE,FALSE,FALSE,FALSE,FALSE,FALSE,,TRUE,Normal,,100,1024,1024,1447,1024,2,FALSE,FALSE,FALSE,FALSE,FALSE,0,FALSE,FALSE,FALSE,FALSE,53,7.498,1094,2054,7.469,FALSE,3.75,3.748,0.026,FALSE,FALSE,NA,120.6,120.3,120.5,0,3,0,0,5,2234.8,558.71,,Idle,0,20,FALSE,5,TRUE,8,Go Home,FALSE,FALSE,FALSE,FALSE,FALSE,FALSE,FALSE,FALSE,FALSE,FALSE,FALSE,FALSE,6.974657023,79.91479679,3.9,106.8,328,TRUE,1,1,FALSE,FALSE,FALSE,FALSE,,TRUE,FALSE,FALSE,Course Lock,246,303.7,16.4,Calm,23,,1.12.8,Mavic Mini,1SDCH7G0169R0K,1SFLH6Q0AB03DJ,1SRCH7F014TAHX,1U5X071EXP5ZJG,84.5,0.1,0,4.032755,1.789552,0,0,Mavic Mini,1SDCH7G0169R0K,1SFLH6Q0AB03DJ,1SRCH7F014TAHX,1U5X071EXP5ZJG,DJI Fly,,1.12.8,86B2A485-9180-D372-C14F-2D28F6723A17,1SDCH7G0169R0K,,,,,6.974660545,79.91480945,10,,
2/13/2024,34:26.2,10m 20.6s,620.6,6.974665294,79.91478966,0,0,,67,1,0,0,0,0,0,0,0,0,3.3,2.1,-179,181,,Manual Takeoff,Auto Landing,Takeoff (RC Assisted),9,4,TRUE,,Mavic Mini,FALSE,FALSE,,Smart,RC,TRUE,TRUE,FALSE,,,TRUE,,FALSE,FALSE,FALSE,FALSE,FALSE,FALSE,FALSE,FALSE,FALSE,FALSE,0,Follow Yaw,0,0,-177.6,182.4,FALSE,FALSE,FALSE,FALSE,FALSE,FALSE,,TRUE,Normal,,100,1024,1024,1618,1024,2,FALSE,FALSE,FALSE,FALSE,FALSE,0,FALSE,FALSE,FALSE,FALSE,53,7.498,1094,2054,7.469,FALSE,3.75,3.748,0.026,FALSE,FALSE,NA,120.6,120.3,120.5,0,3,0,0,5,2234.8,558.71,,Idle,0,20,FALSE,5,TRUE,8,Go Home,FALSE,FALSE,FALSE,FALSE,FALSE,FALSE,FALSE,FALSE,FALSE,FALSE,FALSE,FALSE,6.974657023,79.91479679,3.9,106.8,328,TRUE,1,1,FALSE,FALSE,FALSE,FALSE,,TRUE,FALSE,FALSE,Course Lock,246,303.7,16.4,Calm,23,,1.12.8,Mavic Mini,1SDCH7G0169R0K,1SFLH6Q0AB03DJ,1SRCH7F014TAHX,1U5X071EXP5ZJG,84.5,0.1,0,4.032755,1.789552,0,0,Mavic Mini,1SDCH7G0169R0K,1SFLH6Q0AB03DJ,1SRCH7F014TAHX,1U5X071EXP5ZJG,DJI Fly,,1.12.8,86B2A485-9180-D372-C14F-2D28F6723A17,1SDCH7G0169R0K,,,,,6.974660545,79.91480945,10,,
2/13/2024,34:26.3,10m 20.7s,620.7,6.974665308,79.91478962,0,0,,67,1,0,0,0,0,0,0,0,0,3.2,1.8,-179.1,180.9,,Manual Takeoff,Auto Landing,Takeoff (RC Assisted),9,4,TRUE,,Mavic Mini,FALSE,FALSE,,Smart,RC,TRUE,TRUE,FALSE,,,TRUE,,FALSE,FALSE,FALSE,FALSE,FALSE,FALSE,FALSE,FALSE,FALSE,FALSE,0,Follow Yaw,0,0,-177.6,182.4,FALSE,FALSE,FALSE,FALSE,FALSE,FALSE,,TRUE,Normal,,100,1024,1024,1618,1024,2,FALSE,FALSE,FALSE,FALSE,FALSE,0,FALSE,FALSE,FALSE,FALSE,53,7.498,1094,2054,7.494,FALSE,3.75,3.748,0.026,FALSE,FALSE,NA,120.6,120.3,120.5,0,3,0,0,5,2443.9,610.97,,Idle,0,20,FALSE,5,TRUE,8,Go Home,FALSE,FALSE,FALSE,FALSE,FALSE,FALSE,FALSE,FALSE,FALSE,FALSE,FALSE,FALSE,6.974657023,79.91479679,3.9,106.8,328,TRUE,1,1,FALSE,FALSE,FALSE,FALSE,,TRUE,FALSE,FALSE,Course Lock,246,303.7,16.4,Calm,23,,1.12.8,Mavic Mini,1SDCH7G0169R0K,1SFLH6Q0AB03DJ,1SRCH7F014TAHX,1U5X071EXP5ZJG,84.5,0.1,0,4.032755,1.789552,0,0,Mavic Mini,1SDCH7G0169R0K,1SFLH6Q0AB03DJ,1SRCH7F014TAHX,1U5X071EXP5ZJG,DJI Fly,,1.12.8,86B2A485-9180-D372-C14F-2D28F6723A17,1SDCH7G0169R0K,,,,,6.974660545,79.91480945,10,,
2/13/2024,34:26.4,10m 20.8s,620.8,6.974665347,79.91478958,0,0,,67,1.1,0,0,0,0,0,0,0,0,3.1,1.3,-179,181,,Manual Takeoff,Auto Landing,Takeoff (RC Assisted),10,4,TRUE,,Mavic Mini,FALSE,FALSE,,Smart,RC,TRUE,TRUE,FALSE,,,TRUE,,FALSE,FALSE,FALSE,FALSE,FALSE,FALSE,FALSE,FALSE,FALSE,FALSE,0,Follow Yaw,0,0,-177.6,182.4,FALSE,FALSE,FALSE,FALSE,FALSE,FALSE,,TRUE,Normal,,100,1024,1024,1657,1024,2,FALSE,FALSE,FALSE,FALSE,FALSE,0,FALSE,FALSE,FALSE,FALSE,53,7.498,1094,2054,7.494,FALSE,3.75,3.748,0.026,FALSE,FALSE,NA,120.6,120.3,120.5,0,3,0,0,5,2443.9,610.97,,Idle,0,20,FALSE,5,TRUE,8,Go Home,FALSE,FALSE,FALSE,FALSE,FALSE,FALSE,FALSE,FALSE,FALSE,FALSE,FALSE,FALSE,6.974657023,79.91479679,4,106.8,328,TRUE,1,1,FALSE,FALSE,FALSE,FALSE,,TRUE,FALSE,FALSE,Course Lock,246,303.7,16.4,Calm,23,,1.12.8,Mavic Mini,1SDCH7G0169R0K,1SFLH6Q0AB03DJ,1SRCH7F014TAHX,1U5X071EXP5ZJG,84.5,0.1,0,4.032755,1.789552,0,0,Mavic Mini,1SDCH7G0169R0K,1SFLH6Q0AB03DJ,1SRCH7F014TAHX,1U5X071EXP5ZJG,DJI Fly,,1.12.8,86B2A485-9180-D372-C14F-2D28F6723A17,1SDCH7G0169R0K,,,,,6.974660545,79.91480945,10,,
2/13/2024,34:26.5,10m 20.9s,620.9,6.974665385,79.91478957,0,0,,67,1.1,0,0,0,0,0,0,0,0,2.9,0.6,-179.2,180.8,,Manual Takeoff,Auto Landing,Takeoff (RC Assisted),10,4,TRUE,,Mavic Mini,FALSE,FALSE,,Smart,RC,TRUE,TRUE,FALSE,,,TRUE,,FALSE,FALSE,FALSE,FALSE,FALSE,FALSE,FALSE,FALSE,FALSE,FALSE,0,Follow Yaw,0,0,-177.6,182.4,FALSE,FALSE,FALSE,FALSE,FALSE,FALSE,,TRUE,Normal,,100,1024,1024,1657,1024,2,FALSE,FALSE,FALSE,FALSE,FALSE,0,FALSE,FALSE,FALSE,FALSE,53,7.498,1094,2054,7.494,FALSE,3.75,3.748,0.026,FALSE,FALSE,NA,120.4,120.3,120.5,0,3,0,0,5,2443.9,610.97,,Idle,0,20,FALSE,5,TRUE,8,Go Home,FALSE,FALSE,FALSE,FALSE,FALSE,FALSE,FALSE,FALSE,FALSE,FALSE,FALSE,FALSE,6.974657023,79.91479679,4,106.8,328,TRUE,1,1,FALSE,FALSE,FALSE,FALSE,,TRUE,FALSE,FALSE,Course Lock,246,303.7,16.4,Calm,23,,1.12.8,Mavic Mini,1SDCH7G0169R0K,1SFLH6Q0AB03DJ,1SRCH7F014TAHX,1U5X071EXP5ZJG,84.5,0.1,0,4.032755,1.789552,0,0,Mavic Mini,1SDCH7G0169R0K,1SFLH6Q0AB03DJ,1SRCH7F014TAHX,1U5X071EXP5ZJG,DJI Fly,,1.12.8,86B2A485-9180-D372-C14F-2D28F6723A17,1SDCH7G0169R0K,,,,,6.974660545,79.91480945,10,,
2/13/2024,34:26.6,10m 21.0s,621,6.974665427,79.91478958,0,0,,67,1.1,0,0,0,0,0,0,0,0,3.2,0.2,-179.3,180.7,,Manual Takeoff,Auto Landing,Takeoff (RC Assisted),10,4,TRUE,,Mavic Mini,FALSE,FALSE,,Smart,RC,TRUE,TRUE,FALSE,,,TRUE,,FALSE,FALSE,FALSE,FALSE,FALSE,FALSE,FALSE,FALSE,FALSE,FALSE,0,Follow Yaw,0,0,-177.6,182.4,FALSE,FALSE,FALSE,FALSE,FALSE,FALSE,,TRUE,Normal,,100,1024,1024,1654,1024,2,FALSE,FALSE,FALSE,FALSE,FALSE,0,FALSE,FALSE,FALSE,FALSE,53,7.498,1094,2054,7.494,FALSE,3.75,3.748,0.026,FALSE,FALSE,NA,120.4,120.3,120.5,0,3,0,0,5,2443.9,610.97,,Idle,0,20,FALSE,5,TRUE,8,Go Home,FALSE,FALSE,FALSE,FALSE,FALSE,FALSE,FALSE,FALSE,FALSE,FALSE,FALSE,FALSE,6.974657023,79.91479679,4,106.8,328,TRUE,1,1,FALSE,FALSE,FALSE,FALSE,,TRUE,FALSE,FALSE,Course Lock,246,303.7,16.4,Calm,23,,1.12.8,Mavic Mini,1SDCH7G0169R0K,1SFLH6Q0AB03DJ,1SRCH7F014TAHX,1U5X071EXP5ZJG,84.5,0.1,0,4.032755,1.789552,0,0,Mavic Mini,1SDCH7G0169R0K,1SFLH6Q0AB03DJ,1SRCH7F014TAHX,1U5X071EXP5ZJG,DJI Fly,,1.12.8,86B2A485-9180-D372-C14F-2D28F6723A17,1SDCH7G0169R0K,,,,,6.974660545,79.91480945,10,,
2/13/2024,34:26.7,10m 21.1s,621.1,6.974665471,79.91478958,0,0,,67,1.1,0,0,0,0,0,0,0,0,2.8,-0.2,-179.9,180.1,,Manual Takeoff,Auto Landing,Takeoff (RC Assisted),10,4,TRUE,,Mavic Mini,FALSE,FALSE,,Smart,RC,TRUE,TRUE,FALSE,,,TRUE,,FALSE,FALSE,FALSE,FALSE,FALSE,FALSE,FALSE,FALSE,FALSE,FALSE,0,Follow Yaw,0,0,-177.7,182.3,FALSE,FALSE,FALSE,FALSE,FALSE,FALSE,,TRUE,Normal,,100,1024,1024,1638,1024,2,FALSE,FALSE,FALSE,FALSE,FALSE,0,FALSE,FALSE,FALSE,FALSE,53,7.498,1094,2054,7.494,FALSE,3.75,3.748,0.026,FALSE,FALSE,NA,120.4,120.3,120.5,0,3,0,0,5,2443.9,610.97,,Idle,0,20,FALSE,5,TRUE,8,Go Home,FALSE,FALSE,FALSE,FALSE,FALSE,FALSE,FALSE,FALSE,FALSE,FALSE,FALSE,FALSE,6.974657023,79.91479679,4,106.8,328,TRUE,1,1,FALSE,FALSE,FALSE,FALSE,,TRUE,FALSE,FALSE,Course Lock,246,303.7,16.4,Calm,23,,1.12.8,Mavic Mini,1SDCH7G0169R0K,1SFLH6Q0AB03DJ,1SRCH7F014TAHX,1U5X071EXP5ZJG,84.5,0.1,0,4.032755,1.789552,0,0,Mavic Mini,1SDCH7G0169R0K,1SFLH6Q0AB03DJ,1SRCH7F014TAHX,1U5X071EXP5ZJG,DJI Fly,,1.12.8,86B2A485-9180-D372-C14F-2D28F6723A17,1SDCH7G0169R0K,,,,,6.974660545,79.91480945,10,,
2/13/2024,34:26.8,10m 21.2s,621.2,6.974665546,79.91478961,0,0,,67,1.1,0,0,0,0,0,0,0,0,2.6,-1,179.3,179.3,,Manual Takeoff,Auto Landing,Takeoff (RC Assisted),10,4,TRUE,,Mavic Mini,FALSE,FALSE,,Smart,RC,TRUE,TRUE,FALSE,,,TRUE,,FALSE,FALSE,FALSE,FALSE,FALSE,FALSE,FALSE,FALSE,FALSE,FALSE,0,Follow Yaw,0,0,-178,182,FALSE,FALSE,FALSE,FALSE,FALSE,FALSE,,TRUE,Normal,,100,1024,1024,1634,1024,2,FALSE,FALSE,FALSE,FALSE,FALSE,0,FALSE,FALSE,FALSE,FALSE,53,7.498,1094,2054,7.494,FALSE,3.75,3.748,0.026,FALSE,FALSE,NA,120.4,120.3,120.5,0,3,0,0,5,2443.9,610.97,,Idle,0,20,FALSE,5,TRUE,8,Go Home,FALSE,FALSE,FALSE,FALSE,FALSE,FALSE,FALSE,FALSE,FALSE,FALSE,FALSE,FALSE,6.974657023,79.91479679,4,106.8,328,TRUE,1,1,FALSE,FALSE,FALSE,FALSE,,TRUE,FALSE,FALSE,Course Lock,246,303.7,16.4,Calm,23,,1.12.8,Mavic Mini,1SDCH7G0169R0K,1SFLH6Q0AB03DJ,1SRCH7F014TAHX,1U5X071EXP5ZJG,84.5,0.1,0,4.032755,1.789552,0,0,Mavic Mini,1SDCH7G0169R0K,1SFLH6Q0AB03DJ,1SRCH7F014TAHX,1U5X071EXP5ZJG,DJI Fly,,1.12.8,86B2A485-9180-D372-C14F-2D28F6723A17,1SDCH7G0169R0K,,,,,6.974660545,79.91480945,10,,
2/13/2024,34:27.0,10m 21.3s,621.3,6.974665617,79.91478963,0,0,,67,1.2,0,0,0,0,0,0,0,0,0.1,-2,178.7,178.7,,Manual Takeoff,Auto Landing,Takeoff (RC Assisted),10,4,TRUE,,Mavic Mini,FALSE,FALSE,,Smart,RC,TRUE,TRUE,FALSE,,,TRUE,,FALSE,FALSE,FALSE,FALSE,FALSE,FALSE,FALSE,FALSE,FALSE,FALSE,0,Follow Yaw,0,0,-178.5,181.5,FALSE,FALSE,FALSE,FALSE,FALSE,FALSE,,TRUE,Normal,,100,1024,1024,1618,1024,2,FALSE,FALSE,FALSE,FALSE,FALSE,0,FALSE,FALSE,FALSE,FALSE,53,7.498,1094,2054,7.494,FALSE,3.75,3.748,0.026,FALSE,FALSE,NA,120.4,120.3,120.5,0,3,0,0,5,2443.9,610.97,,Idle,0,20,FALSE,5,TRUE,8,Go Home,FALSE,FALSE,FALSE,FALSE,FALSE,FALSE,FALSE,FALSE,FALSE,FALSE,FALSE,FALSE,6.974657023,79.91479679,4,106.8,328,TRUE,1,1,FALSE,FALSE,FALSE,FALSE,,TRUE,FALSE,FALSE,Course Lock,246,303.7,16.4,Calm,23,,1.12.8,Mavic Mini,1SDCH7G0169R0K,1SFLH6Q0AB03DJ,1SRCH7F014TAHX,1U5X071EXP5ZJG,84.5,0.1,0,4.032755,1.789552,0,0,Mavic Mini,1SDCH7G0169R0K,1SFLH6Q0AB03DJ,1SRCH7F014TAHX,1U5X071EXP5ZJG,DJI Fly,,1.12.8,86B2A485-9180-D372-C14F-2D28F6723A17,1SDCH7G0169R0K,,,,,6.974660545,79.91480945,10,,
2/13/2024,34:27.1,10m 21.4s,621.4,6.974665703,79.91478973,0,0,,67,1.2,0,0,0,0,0,0,0,0,-0.4,-2.1,177.5,177.5,,Manual Takeoff,Auto Landing,Takeoff (RC Assisted),9,4,TRUE,,Mavic Mini,FALSE,FALSE,,Smart,RC,TRUE,TRUE,FALSE,,,TRUE,,FALSE,FALSE,FALSE,FALSE,FALSE,FALSE,FALSE,FALSE,FALSE,FALSE,0,Follow Yaw,0,0,-179.2,180.8,FALSE,FALSE,FALSE,FALSE,FALSE,FALSE,,TRUE,Normal,,100,1024,1024,1603,1024,2,FALSE,FALSE,FALSE,FALSE,FALSE,0,FALSE,FALSE,FALSE,FALSE,53,7.498,1094,2054,7.494,FALSE,3.75,3.748,0.026,FALSE,FALSE,NA,120.4,120.3,120.5,0,3,0,0,5,2443.9,610.97,,Idle,0,20,FALSE,5,TRUE,8,Go Home,FALSE,FALSE,FALSE,FALSE,FALSE,FALSE,FALSE,FALSE,FALSE,FALSE,FALSE,FALSE,6.974657023,79.91479679,4,106.8,328,TRUE,1,1,FALSE,FALSE,FALSE,FALSE,,TRUE,FALSE,FALSE,Course Lock,246,303.7,16.4,Calm,23,,1.12.8,Mavic Mini,1SDCH7G0169R0K,1SFLH6Q0AB03DJ,1SRCH7F014TAHX,1U5X071EXP5ZJG,84.5,0.1,0,4.032755,1.789552,0,0,Mavic Mini,1SDCH7G0169R0K,1SFLH6Q0AB03DJ,1SRCH7F014TAHX,1U5X071EXP5ZJG,DJI Fly,,1.12.8,86B2A485-9180-D372-C14F-2D28F6723A17,1SDCH7G0169R0K,,,,,6.974660545,79.91480945,10,,
2/13/2024,34:27.2,10m 21.5s,621.5,6.974665747,79.91478985,0,0,,67,1.3,0.223694,0.223694,0,0,0.223694,0.223694,-0.447388,0,-0.6,-1.9,176.8,176.8,64.1,Tripod,Auto Landing,,9,4,TRUE,,Mavic Mini,FALSE,FALSE,,Smart,RC,FALSE,TRUE,FALSE,,,TRUE,,FALSE,FALSE,FALSE,FALSE,FALSE,FALSE,FALSE,FALSE,FALSE,FALSE,0,Follow Yaw,0,0,179.8,179.8,FALSE,FALSE,FALSE,FALSE,FALSE,FALSE,,TRUE,Normal,,100,1024,1024,1544,1024,2,FALSE,FALSE,FALSE,FALSE,FALSE,0,FALSE,FALSE,FALSE,FALSE,53,7.498,1094,2054,7.494,FALSE,3.75,3.748,0.026,FALSE,FALSE,NA,120.4,120.3,120.5,0,3,0,0,5,2443.9,610.97,,Idle,0,20,FALSE,5,TRUE,8,Go Home,FALSE,FALSE,FALSE,FALSE,FALSE,FALSE,FALSE,FALSE,FALSE,FALSE,FALSE,FALSE,6.974657023,79.91479679,4,106.8,328,TRUE,1,1,FALSE,FALSE,FALSE,FALSE,,TRUE,FALSE,FALSE,Course Lock,246,303.7,16.4,Calm,23,,1.12.8,Mavic Mini,1SDCH7G0169R0K,1SFLH6Q0AB03DJ,1SRCH7F014TAHX,1U5X071EXP5ZJG,84.5,0.1,0,4.032755,1.789552,0,0,Mavic Mini,1SDCH7G0169R0K,1SFLH6Q0AB03DJ,1SRCH7F014TAHX,1U5X071EXP5ZJG,DJI Fly,,1.12.8,86B2A485-9180-D372-C14F-2D28F6723A17,1SDCH7G0169R0K,,,,,6.974660545,79.91480945,10,Flight mode changed to Tripod.,
2/13/2024,34:27.2,10m 21.6s,621.6,6.974665838,79.91479011,0,0,0.3,67,1.4,0.316351,0.316351,-0.223694,0,0.223694,0.223694,-0.671082,0,0.5,0.2,176.7,176.7,65.7,Tripod,Auto Landing,,9,4,TRUE,,Mavic Mini,TRUE,FALSE,,Smart,RC,FALSE,TRUE,FALSE,,,TRUE,,FALSE,FALSE,FALSE,FALSE,FALSE,FALSE,FALSE,FALSE,FALSE,FALSE,0,Follow Yaw,0,0,179.3,179.3,FALSE,FALSE,FALSE,FALSE,FALSE,FALSE,,TRUE,Normal,,100,1024,1024,1544,1024,2,FALSE,FALSE,FALSE,FALSE,FALSE,0,FALSE,FALSE,FALSE,FALSE,53,7.498,1094,2054,7.494,FALSE,3.75,3.748,0.026,FALSE,FALSE,NA,120.4,120.3,120.5,0,3,0,0,5,2443.9,610.97,,Idle,0,20,FALSE,5,TRUE,8,Go Home,FALSE,FALSE,FALSE,FALSE,FALSE,FALSE,FALSE,FALSE,FALSE,FALSE,FALSE,FALSE,6.974657023,79.91479679,4,106.8,328,TRUE,1,1,FALSE,FALSE,FALSE,FALSE,,TRUE,FALSE,FALSE,Course Lock,246,303.7,16.4,Calm,23,,1.12.8,Mavic Mini,1SDCH7G0169R0K,1SFLH6Q0AB03DJ,1SRCH7F014TAHX,1U5X071EXP5ZJG,84.5,0.1,0,4.032755,1.789552,0,0,Mavic Mini,1SDCH7G0169R0K,1SFLH6Q0AB03DJ,1SRCH7F014TAHX,1U5X071EXP5ZJG,DJI Fly,,1.12.8,86B2A485-9180-D372-C14F-2D28F6723A17,1SDCH7G0169R0K,,,,,6.974660545,79.91480945,10,,
2/13/2024,34:27.3,10m 21.7s,621.7,6.974665791,79.91479021,0,0,0.3,67,1.4,0.316351,0.316351,-0.223694,0,0.223694,0.223694,-1.11847,0,1.8,0.9,176.7,176.7,121.4,Tripod,Auto Landing,,9,4,TRUE,,Mavic Mini,TRUE,FALSE,,Smart,RC,FALSE,TRUE,FALSE,,,TRUE,,FALSE,FALSE,FALSE,FALSE,FALSE,FALSE,FALSE,FALSE,FALSE,FALSE,0,Follow Yaw,0,0,179.2,179.2,FALSE,FALSE,FALSE,FALSE,FALSE,FALSE,,TRUE,Normal,,100,1024,1024,1232,1024,2,FALSE,FALSE,FALSE,FALSE,FALSE,0,FALSE,FALSE,FALSE,FALSE,53,7.498,1094,2054,7.451,FALSE,3.75,3.748,0.026,FALSE,FALSE,NA,120.4,120.3,120.5,0,0,1,0,5,2712.7,678.17,,Idle,0,20,FALSE,5,TRUE,8,Go Home,FALSE,FALSE,FALSE,FALSE,FALSE,FALSE,FALSE,FALSE,FALSE,FALSE,FALSE,FALSE,6.974665741,79.9147898,0.1,106.8,328,TRUE,1,1,FALSE,FALSE,FALSE,FALSE,,TRUE,FALSE,FALSE,Course Lock,246,303.7,16.4,Calm,23,,1.12.8,Mavic Mini,1SDCH7G0169R0K,1SFLH6Q0AB03DJ,1SRCH7F014TAHX,1U5X071EXP5ZJG,84.5,0.1,0,4.032755,1.789552,0,0,Mavic Mini,1SDCH7G0169R0K,1SFLH6Q0AB03DJ,1SRCH7F014TAHX,1U5X071EXP5ZJG,DJI Fly,,1.12.8,86B2A485-9180-D372-C14F-2D28F6723A17,1SDCH7G0169R0K,,,,,6.974660545,79.91480945,10,Home Point Updated.,
2/13/2024,34:27.4,10m 21.8s,621.8,6.974665721,79.91479024,0.3,0.3,0.6,68,1.4,0.223694,0.316351,-0.223694,0,0,0.223694,-1.565858,0,2.4,0.6,177.1,177.1,160.6,Tripod,Auto Landing,,9,4,TRUE,,Mavic Mini,TRUE,FALSE,,Smart,RC,FALSE,TRUE,FALSE,,,TRUE,,FALSE,FALSE,FALSE,FALSE,FALSE,FALSE,FALSE,FALSE,FALSE,FALSE,0,Follow Yaw,0,0,179.2,179.2,FALSE,FALSE,FALSE,FALSE,FALSE,FALSE,,TRUE,Normal,,100,1024,1024,1024,1024,2,FALSE,FALSE,FALSE,FALSE,FALSE,0,FALSE,FALSE,FALSE,FALSE,53,7.498,1094,2054,7.451,FALSE,3.75,3.748,0.026,FALSE,FALSE,NA,120.4,120.3,120.5,0,0,1,0,5,2712.7,678.17,,Idle,0,20,FALSE,5,TRUE,8,Go Home,FALSE,FALSE,FALSE,FALSE,FALSE,FALSE,FALSE,FALSE,FALSE,FALSE,FALSE,FALSE,6.974665741,79.9147898,0.1,106.8,328,TRUE,1,1,FALSE,FALSE,FALSE,FALSE,,TRUE,FALSE,FALSE,Course Lock,246,303.7,16.4,Calm,23,,1.12.8,Mavic Mini,1SDCH7G0169R0K,1SFLH6Q0AB03DJ,1SRCH7F014TAHX,1U5X071EXP5ZJG,84.5,0.1,0,4.032755,1.789552,0,0,Mavic Mini,1SDCH7G0169R0K,1SFLH6Q0AB03DJ,1SRCH7F014TAHX,1U5X071EXP5ZJG,DJI Fly,,1.12.8,86B2A485-9180-D372-C14F-2D28F6723A17,1SDCH7G0169R0K,,,,,6.974660545,79.91480945,10,Home Point updated. RTH altitude adjusted to 75 m! (Code: 120852).,
2/13/2024,34:27.5,10m 21.9s,621.9,6.974665661,79.91479026,0.6,0.6,0.9,68,1.5,0.223694,0.316351,-0.223694,0,0,0.223694,-1.789552,0,2.3,0.6,177.3,177.3,162.1,Tripod,Auto Landing,,9,4,TRUE,,Mavic Mini,TRUE,FALSE,,Smart,RC,FALSE,TRUE,FALSE,,,TRUE,,FALSE,FALSE,FALSE,FALSE,FALSE,FALSE,FALSE,FALSE,FALSE,FALSE,0,Follow Yaw,0,0,179.2,179.2,FALSE,FALSE,FALSE,FALSE,FALSE,FALSE,,TRUE,Normal,,100,1024,1024,1024,1024,2,FALSE,FALSE,FALSE,FALSE,FALSE,0,FALSE,FALSE,FALSE,FALSE,53,7.498,1094,2054,7.451,FALSE,3.75,3.748,0.026,FALSE,FALSE,NA,120.4,120.3,120.5,0,0,1,0,5,2712.7,678.17,,Idle,0,20,FALSE,5,TRUE,8,Go Home,FALSE,FALSE,FALSE,FALSE,FALSE,FALSE,FALSE,FALSE,FALSE,FALSE,FALSE,FALSE,6.974665741,79.9147898,0.1,106.8,328,TRUE,1,1,FALSE,FALSE,FALSE,FALSE,,TRUE,FALSE,FALSE,Course Lock,246,303.7,16.4,Calm,23,,1.12.8,Mavic Mini,1SDCH7G0169R0K,1SFLH6Q0AB03DJ,1SRCH7F014TAHX,1U5X071EXP5ZJG,84.5,0.1,0,4.032755,1.789552,0,0,Mavic Mini,1SDCH7G0169R0K,1SFLH6Q0AB03DJ,1SRCH7F014TAHX,1U5X071EXP5ZJG,DJI Fly,,1.12.8,86B2A485-9180-D372-C14F-2D28F6723A17,1SDCH7G0169R0K,,,,,6.974660545,79.91480945,10,,
2/13/2024,34:27.6,10m 22.0s,622,6.974665579,79.9147902,0.6,0.6,1.3,68,1.5,0.223694,0.316351,-0.223694,0,0,0.223694,-1.789552,0,2.5,0.5,177.4,177.4,210.1,Tripod,Auto Landing,,9,4,TRUE,,Mavic Mini,TRUE,FALSE,,Smart,RC,FALSE,TRUE,FALSE,,,TRUE,,FALSE,FALSE,FALSE,FALSE,FALSE,FALSE,FALSE,FALSE,FALSE,FALSE,0,Follow Yaw,0,0,179.2,179.2,FALSE,FALSE,FALSE,FALSE,FALSE,FALSE,,TRUE,Normal,,100,1024,1024,1024,1024,2,FALSE,FALSE,FALSE,FALSE,FALSE,0,FALSE,FALSE,FALSE,FALSE,53,7.498,1094,2054,7.451,FALSE,3.75,3.748,0.026,FALSE,FALSE,NA,120.4,120.3,120.5,0,0,1,0,5,2712.7,678.17,,Idle,0,20,FALSE,5,TRUE,8,Go Home,FALSE,FALSE,FALSE,FALSE,FALSE,FALSE,FALSE,FALSE,FALSE,FALSE,FALSE,FALSE,6.974665741,79.9147898,0.1,106.8,328,TRUE,1,1,FALSE,FALSE,FALSE,FALSE,,TRUE,FALSE,FALSE,Course Lock,246,303.7,16.4,Calm,23,,1.12.8,Mavic Mini,1SDCH7G0169R0K,1SFLH6Q0AB03DJ,1SRCH7F014TAHX,1U5X071EXP5ZJG,84.5,0.1,0,4.032755,1.789552,0,0,Mavic Mini,1SDCH7G0169R0K,1SFLH6Q0AB03DJ,1SRCH7F014TAHX,1U5X071EXP5ZJG,DJI Fly,,1.12.8,86B2A485-9180-D372-C14F-2D28F6723A17,1SDCH7G0169R0K,,,,,6.974660545,79.91480945,10,,
2/13/2024,34:27.7,10m 22.1s,622.1,6.97466552,79.91479025,0.9,0.9,1.3,68,1.5,0,0.316351,0,0,0,0.223694,-1.565858,0,2.6,0.3,177.4,177.4,,Tripod,Auto Landing,,9,4,TRUE,,Mavic Mini,TRUE,FALSE,,Smart,RC,FALSE,TRUE,FALSE,,,TRUE,,FALSE,FALSE,FALSE,FALSE,FALSE,FALSE,FALSE,FALSE,FALSE,FALSE,0,Follow Yaw,0,0,179.2,179.2,FALSE,FALSE,FALSE,FALSE,FALSE,FALSE,,TRUE,Normal,,100,1024,1024,1024,1024,2,FALSE,FALSE,FALSE,FALSE,FALSE,0,FALSE,FALSE,FALSE,FALSE,53,7.326,1093,2054,7.451,FALSE,3.663,3.663,0.026,FALSE,FALSE,NA,120.4,120.3,120.5,0,0,1,0,5,2712.7,678.17,,Idle,0,20,FALSE,5,TRUE,8,Go Home,FALSE,FALSE,FALSE,FALSE,FALSE,FALSE,FALSE,FALSE,FALSE,FALSE,FALSE,FALSE,6.974665741,79.9147898,0.1,106.8,328,TRUE,1,1,FALSE,FALSE,FALSE,FALSE,,TRUE,FALSE,FALSE,Course Lock,246,303.7,16.4,Calm,23,,1.12.8,Mavic Mini,1SDCH7G0169R0K,1SFLH6Q0AB03DJ,1SRCH7F014TAHX,1U5X071EXP5ZJG,84.5,0.1,0,4.032755,1.789552,0,0,Mavic Mini,1SDCH7G0169R0K,1SFLH6Q0AB03DJ,1SRCH7F014TAHX,1U5X071EXP5ZJG,DJI Fly,,1.12.8,86B2A485-9180-D372-C14F-2D28F6723A17,1SDCH7G0169R0K,,,,,6.974660545,79.91480945,10,,
2/13/2024,34:27.8,10m 22.2s,622.2,6.974665445,79.91479031,0.9,0.9,1.6,68,1.6,0,0.316351,0,0,0,0.223694,-1.11847,0,2.6,0.2,177.4,177.4,,Tripod,Auto Landing,,8,4,TRUE,,Mavic Mini,TRUE,FALSE,,Smart,RC,FALSE,TRUE,FALSE,,,TRUE,,FALSE,FALSE,FALSE,FALSE,FALSE,FALSE,FALSE,FALSE,FALSE,FALSE,0,Follow Yaw,0,0,179.2,179.2,FALSE,FALSE,FALSE,FALSE,FALSE,FALSE,,TRUE,Normal,,100,1024,1024,1024,1024,2,FALSE,FALSE,FALSE,FALSE,FALSE,0,FALSE,FALSE,FALSE,FALSE,53,7.326,1093,2054,7.451,FALSE,3.663,3.663,0.026,FALSE,FALSE,NA,120.4,120.3,120.5,0,0,1,0,5,2712.7,678.17,,Idle,0,20,FALSE,5,TRUE,8,Go Home,FALSE,FALSE,FALSE,FALSE,FALSE,FALSE,FALSE,FALSE,FALSE,FALSE,FALSE,FALSE,6.974665741,79.9147898,0.2,106.8,328,TRUE,1,1,FALSE,FALSE,FALSE,FALSE,,TRUE,FALSE,FALSE,Course Lock,246,303.7,16.4,Calm,23,,1.12.8,Mavic Mini,1SDCH7G0169R0K,1SFLH6Q0AB03DJ,1SRCH7F014TAHX,1U5X071EXP5ZJG,84.5,0.1,0,4.032755,1.789552,0,0,Mavic Mini,1SDCH7G0169R0K,1SFLH6Q0AB03DJ,1SRCH7F014TAHX,1U5X071EXP5ZJG,DJI Fly,,1.12.8,86B2A485-9180-D372-C14F-2D28F6723A17,1SDCH7G0169R0K,,,,,6.974660545,79.91480945,10,,
2/13/2024,34:27.9,10m 22.3s,622.3,6.974665369,79.91479036,1.3,1.3,1.9,69,1.6,0,0.316351,0,0,0,0.223694,-0.894776,0,2.4,0,177.4,177.4,,Tripod,Auto Landing,,8,4,TRUE,,Mavic Mini,TRUE,FALSE,,Smart,RC,FALSE,TRUE,FALSE,,,TRUE,,FALSE,FALSE,FALSE,FALSE,FALSE,FALSE,FALSE,FALSE,FALSE,FALSE,0,Follow Yaw,0,0,179.2,179.2,FALSE,FALSE,FALSE,FALSE,FALSE,FALSE,,TRUE,Normal,,100,1024,1024,1024,1124,2,FALSE,FALSE,FALSE,FALSE,FALSE,0,FALSE,FALSE,FALSE,FALSE,53,7.326,1093,2054,7.451,FALSE,3.663,3.663,0.026,FALSE,FALSE,NA,120.4,120.3,120.5,0,0,1,0,5,2712.7,678.17,,Idle,0,20,FALSE,5,TRUE,8,Go Home,FALSE,FALSE,FALSE,FALSE,FALSE,FALSE,FALSE,FALSE,FALSE,FALSE,FALSE,FALSE,6.974665741,79.9147898,0.2,106.8,328,TRUE,1,1,FALSE,FALSE,FALSE,FALSE,,TRUE,FALSE,FALSE,Course Lock,246,303.7,16.4,Calm,23,,1.12.8,Mavic Mini,1SDCH7G0169R0K,1SFLH6Q0AB03DJ,1SRCH7F014TAHX,1U5X071EXP5ZJG,84.5,0.1,0,4.032755,1.789552,0,0,Mavic Mini,1SDCH7G0169R0K,1SFLH6Q0AB03DJ,1SRCH7F014TAHX,1U5X071EXP5ZJG,DJI Fly,,1.12.8,86B2A485-9180-D372-C14F-2D28F6723A17,1SDCH7G0169R0K,,,,,6.974660545,79.91480945,10,,
2/13/2024,34:28.0,10m 22.4s,622.4,6.974665159,79.9147905,1.3,1.3,1.9,69,1.7,0,0.316351,0,0,0,0.223694,-0.447388,0,2.5,0,177.5,177.5,,Tripod,Auto Landing,,8,4,TRUE,,Mavic Mini,TRUE,FALSE,,Smart,RC,FALSE,TRUE,FALSE,,,TRUE,,FALSE,FALSE,FALSE,FALSE,FALSE,FALSE,FALSE,FALSE,FALSE,FALSE,0,Follow Yaw,0,0,179.2,179.2,FALSE,FALSE,FALSE,FALSE,FALSE,FALSE,,TRUE,Normal,,100,1024,1024,1024,1253,2,FALSE,FALSE,FALSE,FALSE,FALSE,0,FALSE,FALSE,FALSE,FALSE,53,7.326,1093,2054,7.451,FALSE,3.663,3.663,0.026,FALSE,FALSE,NA,120.4,120.3,120.5,0,0,1,0,5,2712.7,678.17,,Idle,0,20,FALSE,5,TRUE,8,Go Home,FALSE,FALSE,FALSE,FALSE,FALSE,FALSE,FALSE,FALSE,FALSE,FALSE,FALSE,FALSE,6.974665741,79.9147898,0.3,106.8,328,TRUE,1,1,FALSE,FALSE,FALSE,FALSE,,TRUE,FALSE,FALSE,Course Lock,246,303.7,16.4,Calm,23,,1.12.8,Mavic Mini,1SDCH7G0169R0K,1SFLH6Q0AB03DJ,1SRCH7F014TAHX,1U5X071EXP5ZJG,84.5,0.1,0,4.032755,1.789552,0,0,Mavic Mini,1SDCH7G0169R0K,1SFLH6Q0AB03DJ,1SRCH7F014TAHX,1U5X071EXP5ZJG,DJI Fly,,1.12.8,86B2A485-9180-D372-C14F-2D28F6723A17,1SDCH7G0169R0K,,,,,6.974660545,79.91480945,10,,
2/13/2024,34:28.1,10m 22.5s,622.5,6.974665101,79.91479059,1.3,1.3,1.9,69,1.7,0,0.316351,0,0,0,0.223694,-0.223694,0,2.4,0.2,177.4,177.4,,Tripod,Auto Landing,,8,4,TRUE,,Mavic Mini,TRUE,FALSE,,Smart,RC,FALSE,TRUE,FALSE,,,TRUE,,FALSE,FALSE,FALSE,FALSE,FALSE,FALSE,FALSE,FALSE,FALSE,FALSE,0,Follow Yaw,0,0,179.2,179.2,FALSE,FALSE,FALSE,FALSE,FALSE,FALSE,,TRUE,Normal,,100,1024,1024,1024,1253,2,FALSE,FALSE,FALSE,FALSE,FALSE,0,FALSE,FALSE,FALSE,FALSE,53,7.326,1093,2054,7.451,FALSE,3.663,3.663,0.026,FALSE,FALSE,NA,120.4,120.3,120.5,0,0,1,0,5,2712.7,678.17,,Idle,0,20,FALSE,5,TRUE,8,Go Home,FALSE,FALSE,FALSE,FALSE,FALSE,FALSE,FALSE,FALSE,FALSE,FALSE,FALSE,FALSE,6.974665741,79.9147898,0.3,106.8,328,TRUE,1,1,FALSE,FALSE,FALSE,FALSE,,TRUE,FALSE,FALSE,Course Lock,246,303.7,16.4,Calm,23,,1.12.8,Mavic Mini,1SDCH7G0169R0K,1SFLH6Q0AB03DJ,1SRCH7F014TAHX,1U5X071EXP5ZJG,84.5,0.1,0,4.032755,1.789552,0,0,Mavic Mini,1SDCH7G0169R0K,1SFLH6Q0AB03DJ,1SRCH7F014TAHX,1U5X071EXP5ZJG,DJI Fly,,1.12.8,86B2A485-9180-D372-C14F-2D28F6723A17,1SDCH7G0169R0K,,,,,6.974660545,79.91480945,10,,
2/13/2024,34:28.3,10m 22.6s,622.6,6.974665066,79.91479074,1.3,1.3,1.9,69,1.8,0,0.316351,0,0,0,0.223694,0,0,2.5,0,177.4,177.4,,Tripod,Auto Landing,,8,4,TRUE,,Mavic Mini,TRUE,FALSE,,Smart,RC,FALSE,TRUE,FALSE,,,TRUE,,FALSE,FALSE,FALSE,FALSE,FALSE,FALSE,FALSE,FALSE,FALSE,FALSE,0,Follow Yaw,0,0,179.3,179.3,FALSE,FALSE,FALSE,FALSE,FALSE,FALSE,,TRUE,Normal,,100,1024,1024,1024,1317,2,FALSE,FALSE,FALSE,FALSE,FALSE,0,FALSE,FALSE,FALSE,FALSE,53,7.326,1093,2054,7.451,FALSE,3.663,3.663,0.026,FALSE,FALSE,NA,120.4,120.3,120.5,0,0,1,0,5,2712.7,678.17,,Idle,0,20,FALSE,5,TRUE,8,Go Home,FALSE,FALSE,FALSE,FALSE,FALSE,FALSE,FALSE,FALSE,FALSE,FALSE,FALSE,FALSE,6.974665741,79.9147898,0.4,106.8,328,TRUE,1,1,FALSE,FALSE,FALSE,FALSE,,TRUE,FALSE,FALSE,Course Lock,246,303.7,16.4,Calm,23,,1.12.8,Mavic Mini,1SDCH7G0169R0K,1SFLH6Q0AB03DJ,1SRCH7F014TAHX,1U5X071EXP5ZJG,84.5,0.1,0,4.032755,1.789552,0,0,Mavic Mini,1SDCH7G0169R0K,1SFLH6Q0AB03DJ,1SRCH7F014TAHX,1U5X071EXP5ZJG,DJI Fly,,1.12.8,86B2A485-9180-D372-C14F-2D28F6723A17,1SDCH7G0169R0K,,,,,6.974660545,79.91480945,10,,
2/13/2024,34:28.4,10m 22.7s,622.7,6.974665039,79.91479083,1.3,1.3,1.9,69,1.8,0,0.316351,0,0,0,0.223694,0,0,2.2,0,177.5,177.5,,Tripod,Auto Landing,,8,4,TRUE,,Mavic Mini,TRUE,FALSE,,Smart,RC,FALSE,TRUE,FALSE,,,TRUE,,FALSE,FALSE,FALSE,FALSE,FALSE,FALSE,FALSE,FALSE,FALSE,FALSE,0,Follow Yaw,0,0,179.6,179.6,FALSE,FALSE,FALSE,FALSE,FALSE,FALSE,,TRUE,Normal,,100,1024,1024,1024,1373,2,FALSE,FALSE,FALSE,FALSE,FALSE,0,FALSE,FALSE,FALSE,FALSE,53,7.326,1093,2054,7.348,FALSE,3.663,3.663,0.026,FALSE,FALSE,NA,120.4,120.3,120.5,0,0,1,0,5,3336,834,,Idle,0,20,FALSE,5,TRUE,8,Go Home,FALSE,FALSE,FALSE,FALSE,FALSE,FALSE,FALSE,FALSE,FALSE,FALSE,FALSE,FALSE,6.974665741,79.9147898,0.4,106.8,328,TRUE,1,1,FALSE,FALSE,FALSE,FALSE,,TRUE,FALSE,FALSE,Course Lock,246,303.7,16.4,Calm,23,,1.12.8,Mavic Mini,1SDCH7G0169R0K,1SFLH6Q0AB03DJ,1SRCH7F014TAHX,1U5X071EXP5ZJG,84.5,0.1,0,4.032755,1.789552,0,0,Mavic Mini,1SDCH7G0169R0K,1SFLH6Q0AB03DJ,1SRCH7F014TAHX,1U5X071EXP5ZJG,DJI Fly,,1.12.8,86B2A485-9180-D372-C14F-2D28F6723A17,1SDCH7G0169R0K,,,,,6.974660545,79.91480945,10,,
2/13/2024,34:28.5,10m 22.8s,622.8,6.974665014,79.91479088,1.3,1.3,1.9,69,1.8,0,0.316351,0,0,0,0.223694,0,0,2.3,-0.1,177.7,177.7,,Tripod,Auto Landing,,9,4,TRUE,,Mavic Mini,TRUE,FALSE,,Smart,RC,FALSE,TRUE,FALSE,,,TRUE,,FALSE,FALSE,FALSE,FALSE,FALSE,FALSE,FALSE,FALSE,FALSE,FALSE,0,Follow Yaw,0,0,-179.8,180.2,FALSE,FALSE,FALSE,FALSE,FALSE,FALSE,,TRUE,Normal,,100,1024,1024,1024,1392,2,FALSE,FALSE,FALSE,FALSE,FALSE,0,FALSE,FALSE,FALSE,FALSE,53,7.326,1093,2054,7.348,FALSE,3.663,3.663,0.026,FALSE,FALSE,NA,120.4,120.3,120.5,0,0,1,0,5,3336,834,,Idle,0,20,FALSE,5,TRUE,8,Go Home,FALSE,FALSE,FALSE,FALSE,FALSE,FALSE,FALSE,FALSE,FALSE,FALSE,FALSE,FALSE,6.974665741,79.9147898,0.4,106.8,328,TRUE,1,1,FALSE,FALSE,FALSE,FALSE,,TRUE,FALSE,FALSE,Course Lock,246,303.7,16.4,Calm,23,,1.12.8,Mavic Mini,1SDCH7G0169R0K,1SFLH6Q0AB03DJ,1SRCH7F014TAHX,1U5X071EXP5ZJG,84.5,0.1,0,4.032755,1.789552,0,0,Mavic Mini,1SDCH7G0169R0K,1SFLH6Q0AB03DJ,1SRCH7F014TAHX,1U5X071EXP5ZJG,DJI Fly,,1.12.8,86B2A485-9180-D372-C14F-2D28F6723A17,1SDCH7G0169R0K,,,,,6.974660545,79.91480945,10,,
