CUSTOM.date [local],CUSTOM.updateTime [local],OSD.flyTime,OSD.flyTime [s],OSD.latitude,OSD.longitude,OSD.height [ft],OSD.heightMax [ft],OSD.vpsHeight [ft],OSD.altitude [ft],OSD.mileage [ft],OSD.hSpeed [MPH],OSD.hSpeedMax [MPH],OSD.xSpeed [MPH],OSD.xSpeedMax [MPH],OSD.ySpeed [MPH],OSD.ySpeedMax [MPH],OSD.zSpeed [MPH],OSD.zSpeedMax [MPH],OSD.pitch,OSD.roll,OSD.yaw,OSD.yaw [360],OSD.directionOfTravel,OSD.flycState,OSD.flycCommand,OSD.flightAction,OSD.gpsNum,OSD.gpsLevel,OSD.isGPSUsed,OSD.nonGPSCause,OSD.droneType,OSD.isSwaveWork,OSD.waveError,OSD.goHomeStatus,OSD.batteryType,OSD.ctrlDevice,OSD.isOnGround,OSD.isMotorOn,OSD.isMotorBlocked,OSD.motorStartFailedCause,OSD.motorFailReason,OSD.isImuPreheated,OSD.imuInitFailReason,OSD.isAcceletorOverRange,OSD.isBarometerDeadInAir,OSD.isCompassError,OSD.isGoHomeHeightModified,OSD.canIOCWork,OSD.isNotEnoughForce,OSD.isOutOfLimit,OSD.isPropellerCatapult,OSD.isVibrating,OSD.isVisionUsed,OSD.voltageWarning,GIMBAL.mode,GIMBAL.pitch,GIMBAL.roll,GIMBAL.yaw,GIMBAL.yaw [360],GIMBAL.isPitchAtLimit,GIMBAL.isRollAtLimit,GIMBAL.isYawAtLimit,GIMBAL.isStuck,CAMERA.isPhoto,CAMERA.isVideo,CAMERA.filename,CAMERA.sdCardIsInserted,CAMERA.sdCardState,RC.downlinkSignal,RC.uplinkSignal,RC.aileron,RC.elevator,RC.throttle,RC.rudder,RC.mode,RC.goHomeDepressed,RC.recordDepressed,RC.shutterDepressed,RC.playbackDepressed,RC.wheelDepressed,RC.wheelOffset,RC.custom1Depressed,RC.custom2Depressed,RC.custom3Depressed,RC.custom4Depressed,BATTERY.chargeLevel,BATTERY.currentPV [V],BATTERY.currentCapacity [mAh],BATTERY.fullCapacity [mAh],BATTERY.voltage [V],BATTERY.isCellVoltageEstimated,BATTERY.cellVoltage1 [V],BATTERY.cellVoltage2 [V],BATTERY.maxCellVoltageDeviation,BATTERY.isCellVoltageDeviationHigh,BATTERY.isVoltageLow,BATTERY.current [A],BATTERY.temperature [F],BATTERY.minTemperature [F],BATTERY.maxTemperature [F],BATTERY.usefulTime [s],BATTERY.goHomeTime [s],BATTERY.landTime [s],BATTERY.goHomeBattery,BATTERY.landBattery,BATTERY.safeFlyRadius,BATTERY.volumeConsume,BATTERY.status,BATTERY.goHomeStatus,BATTERY.goHomeCountdown,BATTERY.lowWarning,BATTERY.lowWarningGoHome,BATTERY.seriousLowWarning,BATTERY.seriousLowWarningLanding,BATTERY.timesCharged,MC.failSafeAction,MC.isObstacleAvoidanceEnabled,MC.isCollisionAvoidanceEnabled,MC.isRthObstacleAvoidanceEnabled,MC.isBraking,MC.isAvoidingObstacle,MC.isAvoidingActiveObstacle,MC.isAscentLimitedByObstacle,MC.isLandingConfirmationNeeded,MC.atLowAltitudeLimit,MC.atDistanceLimit,MC.atAirportAltitudeLimit,MC.atAirportBoundary,HOME.latitude,HOME.longitude,HOME.distance [ft],HOME.height [ft],HOME.heightLimit [ft],HOME.isHomeRecord,HOME.goHomeMode,HOME.aircraftHeadDirection,HOME.isDynamicHomePointEnabled,HOME.isReachedLimitDistance,HOME.isReachedLimitHeight,HOME.isCompassCalibrating,HOME.compassCalibrationState,HOME.isMultipleFlightModeEnabled,HOME.isBeginnerMode,HOME.isIOCEnabled,HOME.iocMode,HOME.goHomeHeight [ft],HOME.courseLockAngle,HOME.forceLandingHeight [ft],HOME.wind,HOME.dataRecorderFileIndex,RECOVER.appType,RECOVER.appVersion,RECOVER.aircraftName,RECOVER.aircraftSerial,RECOVER.cameraSerial,RECOVER.rcSerial,RECOVER.batterySerial,DETAILS.totalTime [s],DETAILS.totalDistance [ft],DETAILS.maxHeight [ft],DETAILS.maxHorizontalSpeed [MPH],DETAILS.maxVerticalSpeed [MPH],DETAILS.photoNum,DETAILS.videoTime [s],DETAILS.aircraftName,DETAILS.aircraftSerial,DETAILS.cameraSerial,DETAILS.rcSerial,DETAILS.batterySerial,DETAILS.appName,DETAILS.appType,DETAILS.appVersion,DETAILS.guid,SERIAL.flightController,SERIAL.camera,SERIAL.gimbal,SERIAL.rc,SERIAL.battery,APPGPS.latitude,APPGPS.longitude,APPGPS.accuracy,APP.tip,APP.warning
3/2/2024,48:51.1,5m 46.8s,346.8,6.972887127,79.91594235,0,0,,57,0,0,0,0,0,0,0,0,0,1.5,-0.6,34,34,,Starting Motors,Auto Fly,Takeoff (RC Assisted),15,5,TRUE,,Mavic Mini,FALSE,FALSE,,Smart,RC,TRUE,TRUE,FALSE,,,TRUE,,FALSE,FALSE,FALSE,FALSE,FALSE,FALSE,FALSE,FALSE,FALSE,FALSE,0,Follow Yaw,0,0,38.1,38.1,FALSE,FALSE,FALSE,FALSE,FALSE,TRUE,,TRUE,Normal,,,744,763,364,1684,2,FALSE,FALSE,FALSE,FALSE,FALSE,0,FALSE,FALSE,FALSE,FALSE,73,7.777,1511,2075,7.777,TRUE,3.889,3.889,,FALSE,FALSE,NA,106.3,106.3,106.3,,,,,,,,,Idle,,,TRUE,,FALSE,7,Go Home,FALSE,FALSE,FALSE,FALSE,FALSE,FALSE,FALSE,FALSE,FALSE,FALSE,FALSE,FALSE,,,,,,FALSE,,,FALSE,FALSE,FALSE,FALSE,,FALSE,FALSE,FALSE,,,,,Calm,,,1.12.8,Mavic Mini,1SDCH7G0169R0K,1SFLH6Q0AB03DJ,1SRCH7F014TAHX,1U5X071EXP6C8G,53,0.1,3.2,8.324995,2.908022,0,5846,Mavic Mini,1SDCH7G0169R0K,1SFLH6Q0AB03DJ,1SRCH7F014TAHX,1U5X071EXP6C8G,DJI Fly,,1.12.8,03BFB7E5-9CD8-CB27-EE9E-F3BA8024ECED,1SDCH7G0169R0K,,,,,,,,Flight mode changed to Starting Motors.,
3/2/2024,43:04.4,5m 46.9s,346.9,6.9728871,79.91594237,0,0,,57,0,0,0,0,0,0,0,0,0,1.5,-0.6,34,34,,Starting Motors,Auto Fly,Takeoff (RC Assisted),15,5,TRUE,,Mavic Mini,FALSE,FALSE,,Smart,RC,TRUE,TRUE,FALSE,,,TRUE,,FALSE,FALSE,FALSE,FALSE,FALSE,FALSE,FALSE,FALSE,FALSE,FALSE,0,Follow Yaw,0,0,38.1,38.1,FALSE,FALSE,FALSE,FALSE,FALSE,TRUE,,TRUE,Normal,,100,1024,1024,1024,1191,2,FALSE,FALSE,FALSE,FALSE,FALSE,0,FALSE,FALSE,FALSE,FALSE,73,7.777,1511,2075,7.777,TRUE,3.889,3.889,,FALSE,FALSE,NA,106.3,106.3,106.3,,,,,,,,,Idle,,,TRUE,,FALSE,7,Go Home,FALSE,FALSE,FALSE,FALSE,FALSE,FALSE,FALSE,FALSE,FALSE,FALSE,FALSE,FALSE,,,,,,FALSE,,,FALSE,FALSE,FALSE,FALSE,,FALSE,FALSE,FALSE,,,,,Calm,,,1.12.8,Mavic Mini,1SDCH7G0169R0K,1SFLH6Q0AB03DJ,1SRCH7F014TAHX,1U5X071EXP6C8G,53,0.1,3.2,8.324995,2.908022,0,5846,Mavic Mini,1SDCH7G0169R0K,1SFLH6Q0AB03DJ,1SRCH7F014TAHX,1U5X071EXP6C8G,DJI Fly,,1.12.8,03BFB7E5-9CD8-CB27-EE9E-F3BA8024ECED,1SDCH7G0169R0K,,,,,,,,,
3/2/2024,43:04.7,5m 47.0s,347,6.972887108,79.91594237,0,0,0.3,57,0,0,0,0,0,0,0,0,0,1.5,-0.6,34,34,,Starting Motors,Auto Fly,Takeoff (RC Assisted),15,5,TRUE,,Mavic Mini,TRUE,FALSE,,Smart,RC,TRUE,TRUE,FALSE,,,TRUE,,FALSE,FALSE,FALSE,FALSE,FALSE,FALSE,FALSE,FALSE,FALSE,FALSE,0,Follow Yaw,0,0,38.1,38.1,FALSE,FALSE,FALSE,FALSE,FALSE,TRUE,,TRUE,Normal,,100,1024,1024,1024,1024,2,FALSE,FALSE,FALSE,FALSE,FALSE,0,FALSE,FALSE,FALSE,FALSE,73,7.777,1511,2075,7.777,TRUE,3.889,3.889,,FALSE,FALSE,NA,106.3,106.3,106.3,,,,,,,,,Idle,,,TRUE,,FALSE,7,Go Home,FALSE,FALSE,FALSE,FALSE,FALSE,FALSE,FALSE,FALSE,FALSE,FALSE,FALSE,FALSE,,,,,,FALSE,,,FALSE,FALSE,FALSE,FALSE,,FALSE,FALSE,FALSE,,,,,Calm,,,1.12.8,Mavic Mini,1SDCH7G0169R0K,1SFLH6Q0AB03DJ,1SRCH7F014TAHX,1U5X071EXP6C8G,53,0.1,3.2,8.324995,2.908022,0,5846,Mavic Mini,1SDCH7G0169R0K,1SFLH6Q0AB03DJ,1SRCH7F014TAHX,1U5X071EXP6C8G,DJI Fly,,1.12.8,03BFB7E5-9CD8-CB27-EE9E-F3BA8024ECED,1SDCH7G0169R0K,,,,,,,,,
3/2/2024,43:04.8,5m 47.1s,347.1,6.972887116,79.91594237,0,0,0.3,57,0,0,0,0,0,0,0,0,0,1.5,-0.6,34,34,,Starting Motors,Auto Fly,Takeoff (RC Assisted),15,5,TRUE,,Mavic Mini,TRUE,FALSE,,Smart,RC,TRUE,TRUE,FALSE,,,TRUE,,FALSE,FALSE,FALSE,FALSE,FALSE,FALSE,FALSE,FALSE,FALSE,FALSE,0,Follow Yaw,0,0,38.1,38.1,FALSE,FALSE,FALSE,FALSE,FALSE,TRUE,,TRUE,Normal,,100,1024,1024,1024,1024,2,FALSE,FALSE,FALSE,FALSE,FALSE,0,FALSE,FALSE,FALSE,FALSE,73,7.777,1511,2075,7.777,TRUE,3.889,3.889,,FALSE,FALSE,NA,106.3,106.3,106.3,,,,,,,,,Idle,,,TRUE,,FALSE,7,Go Home,FALSE,FALSE,FALSE,FALSE,FALSE,FALSE,FALSE,FALSE,FALSE,FALSE,FALSE,FALSE,,,,,,FALSE,,,FALSE,FALSE,FALSE,FALSE,,FALSE,FALSE,FALSE,,,,,Calm,,,1.12.8,Mavic Mini,1SDCH7G0169R0K,1SFLH6Q0AB03DJ,1SRCH7F014TAHX,1U5X071EXP6C8G,53,0.1,3.2,8.324995,2.908022,0,5846,Mavic Mini,1SDCH7G0169R0K,1SFLH6Q0AB03DJ,1SRCH7F014TAHX,1U5X071EXP6C8G,DJI Fly,,1.12.8,03BFB7E5-9CD8-CB27-EE9E-F3BA8024ECED,1SDCH7G0169R0K,,,,,,,,,
3/2/2024,43:04.8,5m 47.2s,347.2,6.972887127,79.91594237,0,0,0.3,57,0,0,0,0,0,0,0,0,0,1.5,-0.6,34,34,,Starting Motors,Auto Fly,Takeoff (RC Assisted),15,5,TRUE,,Mavic Mini,TRUE,FALSE,,Smart,RC,TRUE,TRUE,FALSE,,,TRUE,,FALSE,FALSE,FALSE,FALSE,FALSE,FALSE,FALSE,FALSE,FALSE,FALSE,0,Follow Yaw,0,0,38.1,38.1,FALSE,FALSE,FALSE,FALSE,FALSE,TRUE,,TRUE,Normal,,100,1024,1024,1024,1024,2,FALSE,FALSE,FALSE,FALSE,FALSE,0,FALSE,FALSE,FALSE,FALSE,73,7.777,1511,2075,7.777,TRUE,3.889,3.889,,FALSE,FALSE,NA,106.3,106.3,106.3,,,,,,,,,Idle,,,TRUE,,FALSE,7,Go Home,FALSE,FALSE,FALSE,FALSE,FALSE,FALSE,FALSE,FALSE,FALSE,FALSE,FALSE,FALSE,,,,,,FALSE,,,FALSE,FALSE,FALSE,FALSE,,FALSE,FALSE,FALSE,,,,,Calm,,,1.12.8,Mavic Mini,1SDCH7G0169R0K,1SFLH6Q0AB03DJ,1SRCH7F014TAHX,1U5X071EXP6C8G,53,0.1,3.2,8.324995,2.908022,0,5846,Mavic Mini,1SDCH7G0169R0K,1SFLH6Q0AB03DJ,1SRCH7F014TAHX,1U5X071EXP6C8G,DJI Fly,,1.12.8,03BFB7E5-9CD8-CB27-EE9E-F3BA8024ECED,1SDCH7G0169R0K,,,,,,,,,
3/2/2024,43:04.9,5m 47.3s,347.3,6.972887139,79.91594237,0,0,0.3,57,0,0,0,0,0,0,0,0,0,1.5,-0.6,34,34,,Starting Motors,Auto Fly,Takeoff (RC Assisted),15,5,TRUE,,Mavic Mini,TRUE,FALSE,,Smart,RC,TRUE,TRUE,FALSE,,,TRUE,,FALSE,FALSE,FALSE,FALSE,FALSE,FALSE,FALSE,FALSE,FALSE,FALSE,0,Follow Yaw,0,0,38.1,38.1,FALSE,FALSE,FALSE,FALSE,FALSE,TRUE,,TRUE,Normal,,100,1024,1024,1024,1024,2,FALSE,FALSE,FALSE,FALSE,FALSE,0,FALSE,FALSE,FALSE,FALSE,73,7.777,1511,2075,7.777,TRUE,3.889,3.889,,FALSE,FALSE,NA,106.3,106.3,106.3,,,,,,,,,Idle,,,TRUE,,FALSE,7,Go Home,FALSE,FALSE,FALSE,FALSE,FALSE,FALSE,FALSE,FALSE,FALSE,FALSE,FALSE,FALSE,,,,,,FALSE,,,FALSE,FALSE,FALSE,FALSE,,FALSE,FALSE,FALSE,,,,,Calm,,,1.12.8,Mavic Mini,1SDCH7G0169R0K,1SFLH6Q0AB03DJ,1SRCH7F014TAHX,1U5X071EXP6C8G,53,0.1,3.2,8.324995,2.908022,0,5846,Mavic Mini,1SDCH7G0169R0K,1SFLH6Q0AB03DJ,1SRCH7F014TAHX,1U5X071EXP6C8G,DJI Fly,,1.12.8,03BFB7E5-9CD8-CB27-EE9E-F3BA8024ECED,1SDCH7G0169R0K,,,,,,,,,
3/2/2024,43:05.0,5m 47.4s,347.4,6.972887164,79.91594233,0,0,0.3,57,0,0,0,0,0,0,0,0,0,1.6,-0.6,34,34,,Starting Motors,Auto Fly,Takeoff (RC Assisted),15,5,TRUE,,Mavic Mini,TRUE,FALSE,,Smart,RC,TRUE,TRUE,FALSE,,,TRUE,,FALSE,FALSE,FALSE,FALSE,FALSE,FALSE,FALSE,FALSE,FALSE,FALSE,0,Follow Yaw,0,0,38.1,38.1,FALSE,FALSE,FALSE,FALSE,FALSE,TRUE,,TRUE,Normal,,100,1024,1024,1024,1024,2,FALSE,FALSE,FALSE,FALSE,FALSE,0,FALSE,FALSE,FALSE,FALSE,73,7.777,1511,2075,7.777,TRUE,3.889,3.889,,FALSE,FALSE,NA,106.3,106.3,106.3,,,,,,,,,Idle,,,TRUE,,FALSE,7,Go Home,FALSE,FALSE,FALSE,FALSE,FALSE,FALSE,FALSE,FALSE,FALSE,FALSE,FALSE,FALSE,,,,,,FALSE,,,FALSE,FALSE,FALSE,FALSE,,FALSE,FALSE,FALSE,,,,,Calm,,,1.12.8,Mavic Mini,1SDCH7G0169R0K,1SFLH6Q0AB03DJ,1SRCH7F014TAHX,1U5X071EXP6C8G,53,0.1,3.2,8.324995,2.908022,0,5846,Mavic Mini,1SDCH7G0169R0K,1SFLH6Q0AB03DJ,1SRCH7F014TAHX,1U5X071EXP6C8G,DJI Fly,,1.12.8,03BFB7E5-9CD8-CB27-EE9E-F3BA8024ECED,1SDCH7G0169R0K,,,,,,,,,
3/2/2024,43:05.1,5m 47.5s,347.5,6.972887122,79.91594227,0,0,0.3,57,0,0,0,0,0,0,0,0,0,1.5,-0.6,34,34,,Starting Motors,Auto Fly,Takeoff (RC Assisted),15,5,TRUE,,Mavic Mini,TRUE,FALSE,,Smart,RC,TRUE,TRUE,FALSE,,,TRUE,,FALSE,FALSE,FALSE,FALSE,FALSE,FALSE,FALSE,FALSE,FALSE,FALSE,0,Follow Yaw,0,0,38.1,38.1,FALSE,FALSE,FALSE,FALSE,FALSE,TRUE,,TRUE,Normal,,100,1024,1024,1024,1024,2,FALSE,FALSE,FALSE,FALSE,FALSE,0,FALSE,FALSE,FALSE,FALSE,73,7.777,1511,2075,7.76,TRUE,3.88,3.88,,FALSE,FALSE,NA,106.3,106.3,106.3,0,26,0,18,5,3204.5,801.14,,Idle,0,20,FALSE,5,TRUE,7,Go Home,FALSE,FALSE,FALSE,FALSE,FALSE,FALSE,FALSE,FALSE,FALSE,FALSE,FALSE,FALSE,6.972772655,79.91568235,102.9,124,328,TRUE,1,1,FALSE,FALSE,FALSE,FALSE,,TRUE,FALSE,FALSE,Course Lock,49.2,14.3,16.4,Calm,40,,1.12.8,Mavic Mini,1SDCH7G0169R0K,1SFLH6Q0AB03DJ,1SRCH7F014TAHX,1U5X071EXP6C8G,53,0.1,3.2,8.324995,2.908022,0,5846,Mavic Mini,1SDCH7G0169R0K,1SFLH6Q0AB03DJ,1SRCH7F014TAHX,1U5X071EXP6C8G,DJI Fly,,1.12.8,03BFB7E5-9CD8-CB27-EE9E-F3BA8024ECED,1SDCH7G0169R0K,,,,,,,,Data Recorder File Index is 40.; Set Return to Home (RTH) altitude to 15 m (49 ft).; Set maximum flight altitude to 100 m (328 ft).,
3/2/2024,43:05.2,5m 47.6s,347.6,6.97288711,79.9159423,0,0,0.3,57,0,0,0,0,0,0,0,0,0,1.5,-0.7,34.1,34.1,,Starting Motors,Auto Fly,Takeoff (RC Assisted),15,5,TRUE,,Mavic Mini,TRUE,FALSE,,Smart,RC,TRUE,TRUE,FALSE,,,TRUE,,FALSE,FALSE,FALSE,FALSE,FALSE,FALSE,FALSE,FALSE,FALSE,FALSE,0,Follow Yaw,0,0,38.1,38.1,FALSE,FALSE,FALSE,FALSE,FALSE,TRUE,,TRUE,Normal,,100,1024,1024,1024,1024,2,FALSE,FALSE,FALSE,FALSE,FALSE,0,FALSE,FALSE,FALSE,FALSE,73,7.777,1511,2075,7.76,TRUE,3.88,3.88,,FALSE,FALSE,NA,106.3,106.3,106.3,0,26,0,18,5,3204.5,801.14,,Idle,0,20,FALSE,5,TRUE,7,Go Home,FALSE,FALSE,FALSE,FALSE,FALSE,FALSE,FALSE,FALSE,FALSE,FALSE,FALSE,FALSE,6.972772655,79.91568235,102.9,124,328,TRUE,1,1,FALSE,FALSE,FALSE,FALSE,,TRUE,FALSE,FALSE,Course Lock,49.2,14.3,16.4,Calm,40,,1.12.8,Mavic Mini,1SDCH7G0169R0K,1SFLH6Q0AB03DJ,1SRCH7F014TAHX,1U5X071EXP6C8G,53,0.1,3.2,8.324995,2.908022,0,5846,Mavic Mini,1SDCH7G0169R0K,1SFLH6Q0AB03DJ,1SRCH7F014TAHX,1U5X071EXP6C8G,DJI Fly,,1.12.8,03BFB7E5-9CD8-CB27-EE9E-F3BA8024ECED,1SDCH7G0169R0K,,,,,,,,,
3/2/2024,43:05.3,5m 47.7s,347.7,6.972887099,79.91594233,0,0,0.3,57,0,0,0,0,0,0,0,0,0,1.5,-0.7,34,34,,Starting Motors,Auto Fly,Takeoff (RC Assisted),15,5,TRUE,,Mavic Mini,TRUE,FALSE,,Smart,RC,TRUE,TRUE,FALSE,,,TRUE,,FALSE,FALSE,FALSE,FALSE,FALSE,FALSE,FALSE,FALSE,FALSE,FALSE,0,Follow Yaw,0,0,38.1,38.1,FALSE,FALSE,FALSE,FALSE,FALSE,TRUE,,TRUE,Normal,,100,1024,1024,1024,1024,2,FALSE,FALSE,FALSE,FALSE,FALSE,0,FALSE,FALSE,FALSE,FALSE,73,7.759,1510,2075,7.76,FALSE,3.881,3.878,0.003,FALSE,FALSE,NA,106.3,106.3,106.3,0,26,0,18,5,3204.5,801.14,,Idle,0,20,FALSE,5,TRUE,7,Go Home,FALSE,FALSE,FALSE,FALSE,FALSE,FALSE,FALSE,FALSE,FALSE,FALSE,FALSE,FALSE,6.972772655,79.91568235,102.9,124,328,TRUE,1,1,FALSE,FALSE,FALSE,FALSE,,TRUE,FALSE,FALSE,Course Lock,49.2,14.3,16.4,Calm,40,,1.12.8,Mavic Mini,1SDCH7G0169R0K,1SFLH6Q0AB03DJ,1SRCH7F014TAHX,1U5X071EXP6C8G,53,0.1,3.2,8.324995,2.908022,0,5846,Mavic Mini,1SDCH7G0169R0K,1SFLH6Q0AB03DJ,1SRCH7F014TAHX,1U5X071EXP6C8G,DJI Fly,,1.12.8,03BFB7E5-9CD8-CB27-EE9E-F3BA8024ECED,1SDCH7G0169R0K,,,,,,,,,
3/2/2024,43:05.4,5m 47.8s,347.8,6.972887075,79.91594238,0,0,0.3,57,0.1,0,0,0,0,0,0,0,0,1.6,-0.7,34.1,34.1,,Starting Motors,Auto Fly,Takeoff (RC Assisted),15,5,TRUE,,Mavic Mini,TRUE,FALSE,,Smart,RC,TRUE,TRUE,FALSE,,,TRUE,,FALSE,FALSE,FALSE,FALSE,FALSE,FALSE,FALSE,FALSE,FALSE,FALSE,0,Follow Yaw,0,0,38.1,38.1,FALSE,FALSE,FALSE,FALSE,FALSE,TRUE,,TRUE,Normal,,100,1024,1024,1024,1024,2,FALSE,FALSE,FALSE,FALSE,FALSE,0,FALSE,FALSE,FALSE,FALSE,73,7.759,1510,2075,7.76,FALSE,3.881,3.878,0.003,FALSE,FALSE,NA,106.3,106.3,106.3,0,26,0,18,5,3204.5,801.14,,Idle,0,20,FALSE,5,TRUE,7,Go Home,FALSE,FALSE,FALSE,FALSE,FALSE,FALSE,FALSE,FALSE,FALSE,FALSE,FALSE,FALSE,6.972772655,79.91568235,102.9,124,328,TRUE,1,1,FALSE,FALSE,FALSE,FALSE,,TRUE,FALSE,FALSE,Course Lock,49.2,14.3,16.4,Calm,40,,1.12.8,Mavic Mini,1SDCH7G0169R0K,1SFLH6Q0AB03DJ,1SRCH7F014TAHX,1U5X071EXP6C8G,53,0.1,3.2,8.324995,2.908022,0,5846,Mavic Mini,1SDCH7G0169R0K,1SFLH6Q0AB03DJ,1SRCH7F014TAHX,1U5X071EXP6C8G,DJI Fly,,1.12.8,03BFB7E5-9CD8-CB27-EE9E-F3BA8024ECED,1SDCH7G0169R0K,,,,,,,,,
3/2/2024,43:05.5,5m 47.9s,347.9,6.97288708,79.9159424,0,0,0.3,57,0.1,0,0,0,0,0,0,0,0,1.5,-0.6,34,34,,Manual Takeoff,Auto Fly,Takeoff (RC Assisted),15,5,TRUE,,Mavic Mini,TRUE,FALSE,,Smart,RC,TRUE,TRUE,FALSE,,,TRUE,,FALSE,FALSE,FALSE,FALSE,FALSE,FALSE,FALSE,FALSE,FALSE,FALSE,0,Follow Yaw,0,0,38.1,38.1,FALSE,FALSE,FALSE,FALSE,FALSE,TRUE,,TRUE,Normal,,100,1024,1024,1024,1024,2,FALSE,FALSE,FALSE,FALSE,FALSE,0,FALSE,FALSE,FALSE,FALSE,73,7.759,1510,2075,7.76,FALSE,3.881,3.878,0.003,FALSE,FALSE,NA,106.3,106.3,106.3,0,26,0,18,5,3204.5,801.14,,Idle,0,20,FALSE,5,TRUE,7,Go Home,FALSE,FALSE,FALSE,FALSE,FALSE,FALSE,FALSE,FALSE,FALSE,FALSE,FALSE,FALSE,6.972772655,79.91568235,103,124,328,TRUE,1,1,FALSE,FALSE,FALSE,FALSE,,TRUE,FALSE,FALSE,Course Lock,49.2,14.3,16.4,Calm,40,,1.12.8,Mavic Mini,1SDCH7G0169R0K,1SFLH6Q0AB03DJ,1SRCH7F014TAHX,1U5X071EXP6C8G,53,0.1,3.2,8.324995,2.908022,0,5846,Mavic Mini,1SDCH7G0169R0K,1SFLH6Q0AB03DJ,1SRCH7F014TAHX,1U5X071EXP6C8G,DJI Fly,,1.12.8,03BFB7E5-9CD8-CB27-EE9E-F3BA8024ECED,1SDCH7G0169R0K,,,,,,,,Flight mode changed to Manual Takeoff.,
3/2/2024,43:05.5,5m 48.0s,348,6.972887088,79.9159424,0,0,0.3,57,0.1,0,0,0,0,0,0,0,0,1.5,-0.6,34,34,,Manual Takeoff,Auto Fly,Takeoff (RC Assisted),15,5,TRUE,,Mavic Mini,TRUE,FALSE,,Smart,RC,TRUE,TRUE,FALSE,,,TRUE,,FALSE,FALSE,FALSE,FALSE,FALSE,FALSE,FALSE,FALSE,FALSE,FALSE,0,Follow Yaw,0,0,38.1,38.1,FALSE,FALSE,FALSE,FALSE,FALSE,TRUE,,TRUE,Normal,,100,1024,1024,1024,1024,2,FALSE,FALSE,FALSE,FALSE,FALSE,0,FALSE,FALSE,FALSE,FALSE,73,7.759,1510,2075,7.76,FALSE,3.881,3.878,0.003,FALSE,FALSE,NA,106.3,106.3,106.3,0,26,0,18,5,3204.5,801.14,,Idle,0,20,FALSE,5,TRUE,7,Go Home,FALSE,FALSE,FALSE,FALSE,FALSE,FALSE,FALSE,FALSE,FALSE,FALSE,FALSE,FALSE,6.972772655,79.91568235,103,124,328,TRUE,1,1,FALSE,FALSE,FALSE,FALSE,,TRUE,FALSE,FALSE,Course Lock,49.2,14.3,16.4,Calm,40,,1.12.8,Mavic Mini,1SDCH7G0169R0K,1SFLH6Q0AB03DJ,1SRCH7F014TAHX,1U5X071EXP6C8G,53,0.1,3.2,8.324995,2.908022,0,5846,Mavic Mini,1SDCH7G0169R0K,1SFLH6Q0AB03DJ,1SRCH7F014TAHX,1U5X071EXP6C8G,DJI Fly,,1.12.8,03BFB7E5-9CD8-CB27-EE9E-F3BA8024ECED,1SDCH7G0169R0K,,,,,,,,,
3/2/2024,43:05.6,5m 48.1s,348.1,6.972887096,79.9159424,0,0,0.3,57,0.1,0,0,0,0,0,0,0,0,1.5,-0.6,34.1,34.1,,Manual Takeoff,Auto Fly,Takeoff (RC Assisted),15,5,TRUE,,Mavic Mini,TRUE,FALSE,,Smart,RC,TRUE,TRUE,FALSE,,,TRUE,,FALSE,FALSE,FALSE,FALSE,FALSE,FALSE,FALSE,FALSE,FALSE,FALSE,0,Follow Yaw,0,0,38.1,38.1,FALSE,FALSE,FALSE,FALSE,FALSE,TRUE,,TRUE,Normal,,100,1024,1024,1024,1024,2,FALSE,FALSE,FALSE,FALSE,FALSE,0,FALSE,FALSE,FALSE,FALSE,73,7.759,1510,2075,7.76,FALSE,3.881,3.878,0.003,FALSE,FALSE,NA,106.3,106.3,106.3,0,26,0,18,5,3204.5,801.14,,Idle,0,20,FALSE,5,TRUE,7,Go Home,FALSE,FALSE,FALSE,FALSE,FALSE,FALSE,FALSE,FALSE,FALSE,FALSE,FALSE,FALSE,6.972772655,79.91568235,103,124,328,TRUE,1,1,FALSE,FALSE,FALSE,FALSE,,TRUE,FALSE,FALSE,Course Lock,49.2,14.3,16.4,Calm,40,,1.12.8,Mavic Mini,1SDCH7G0169R0K,1SFLH6Q0AB03DJ,1SRCH7F014TAHX,1U5X071EXP6C8G,53,0.1,3.2,8.324995,2.908022,0,5846,Mavic Mini,1SDCH7G0169R0K,1SFLH6Q0AB03DJ,1SRCH7F014TAHX,1U5X071EXP6C8G,DJI Fly,,1.12.8,03BFB7E5-9CD8-CB27-EE9E-F3BA8024ECED,1SDCH7G0169R0K,,,,,,,,,
3/2/2024,43:05.8,5m 48.2s,348.2,6.972887123,79.9159424,0,0,0.3,57,0.1,0,0,0,0,0,0,0,0,1.6,-0.6,34,34,,Manual Takeoff,Auto Fly,Takeoff (RC Assisted),15,5,TRUE,,Mavic Mini,TRUE,FALSE,,Smart,RC,TRUE,TRUE,FALSE,,,TRUE,,FALSE,FALSE,FALSE,FALSE,FALSE,FALSE,FALSE,FALSE,FALSE,FALSE,0,Follow Yaw,0,0,38.1,38.1,FALSE,FALSE,FALSE,FALSE,FALSE,TRUE,,TRUE,Normal,,100,1024,1024,1024,1024,2,FALSE,FALSE,FALSE,FALSE,FALSE,0,FALSE,FALSE,FALSE,FALSE,73,7.759,1510,2075,7.76,FALSE,3.881,3.878,0.003,FALSE,FALSE,NA,106.3,106.3,106.3,0,26,0,18,5,3204.5,801.14,,Idle,0,20,FALSE,5,TRUE,7,Go Home,FALSE,FALSE,FALSE,FALSE,FALSE,FALSE,FALSE,FALSE,FALSE,FALSE,FALSE,FALSE,6.972772655,79.91568235,103,124,328,TRUE,1,1,FALSE,FALSE,FALSE,FALSE,,TRUE,FALSE,FALSE,Course Lock,49.2,14.3,16.4,Calm,40,,1.12.8,Mavic Mini,1SDCH7G0169R0K,1SFLH6Q0AB03DJ,1SRCH7F014TAHX,1U5X071EXP6C8G,53,0.1,3.2,8.324995,2.908022,0,5846,Mavic Mini,1SDCH7G0169R0K,1SFLH6Q0AB03DJ,1SRCH7F014TAHX,1U5X071EXP6C8G,DJI Fly,,1.12.8,03BFB7E5-9CD8-CB27-EE9E-F3BA8024ECED,1SDCH7G0169R0K,,,,,,,,,
3/2/2024,43:06.0,5m 48.3s,348.3,6.972887127,79.9159424,0,0,0.3,57,0.1,0,0,0,0,0,0,0,0,1.5,-0.6,34.1,34.1,,Manual Takeoff,Auto Fly,Takeoff (RC Assisted),15,5,TRUE,,Mavic Mini,TRUE,FALSE,,Smart,RC,TRUE,TRUE,FALSE,,,TRUE,,FALSE,FALSE,FALSE,FALSE,FALSE,FALSE,FALSE,FALSE,FALSE,FALSE,0,Follow Yaw,0,0,38.1,38.1,FALSE,FALSE,FALSE,FALSE,FALSE,TRUE,,TRUE,Normal,,100,1024,1024,1024,1024,2,FALSE,FALSE,FALSE,FALSE,FALSE,0,FALSE,FALSE,FALSE,FALSE,73,7.759,1510,2075,7.76,FALSE,3.881,3.878,0.003,FALSE,FALSE,NA,106.3,106.3,106.3,0,26,0,18,5,3204.5,801.14,,Idle,0,20,FALSE,5,TRUE,7,Go Home,FALSE,FALSE,FALSE,FALSE,FALSE,FALSE,FALSE,FALSE,FALSE,FALSE,FALSE,FALSE,6.972772655,79.91568235,103,124,328,TRUE,1,1,FALSE,FALSE,FALSE,FALSE,,TRUE,FALSE,FALSE,Course Lock,49.2,14.3,16.4,Calm,40,,1.12.8,Mavic Mini,1SDCH7G0169R0K,1SFLH6Q0AB03DJ,1SRCH7F014TAHX,1U5X071EXP6C8G,53,0.1,3.2,8.324995,2.908022,0,5846,Mavic Mini,1SDCH7G0169R0K,1SFLH6Q0AB03DJ,1SRCH7F014TAHX,1U5X071EXP6C8G,DJI Fly,,1.12.8,03BFB7E5-9CD8-CB27-EE9E-F3BA8024ECED,1SDCH7G0169R0K,,,,,,,,,
3/2/2024,43:06.1,5m 48.4s,348.4,6.972887129,79.9159424,0,0,0.3,57,0.1,0,0,0,0,0,0,0,0,1.5,-0.6,34,34,,Manual Takeoff,Auto Fly,Takeoff (RC Assisted),15,5,TRUE,,Mavic Mini,TRUE,FALSE,,Smart,RC,TRUE,TRUE,FALSE,,,TRUE,,FALSE,FALSE,FALSE,FALSE,FALSE,FALSE,FALSE,FALSE,FALSE,FALSE,0,Follow Yaw,0,0,38.1,38.1,FALSE,FALSE,FALSE,FALSE,FALSE,TRUE,,TRUE,Normal,,100,1024,1024,1024,1024,2,FALSE,FALSE,FALSE,FALSE,FALSE,0,FALSE,FALSE,FALSE,FALSE,73,7.759,1510,2075,7.76,FALSE,3.881,3.878,0.003,FALSE,FALSE,NA,106.3,106.3,106.3,0,26,0,18,5,3204.5,801.14,,Idle,0,20,FALSE,5,TRUE,7,Go Home,FALSE,FALSE,FALSE,FALSE,FALSE,FALSE,FALSE,FALSE,FALSE,FALSE,FALSE,FALSE,6.972772655,79.91568235,103,124,328,TRUE,1,1,FALSE,FALSE,FALSE,FALSE,,TRUE,FALSE,FALSE,Course Lock,49.2,14.3,16.4,Calm,40,,1.12.8,Mavic Mini,1SDCH7G0169R0K,1SFLH6Q0AB03DJ,1SRCH7F014TAHX,1U5X071EXP6C8G,53,0.1,3.2,8.324995,2.908022,0,5846,Mavic Mini,1SDCH7G0169R0K,1SFLH6Q0AB03DJ,1SRCH7F014TAHX,1U5X071EXP6C8G,DJI Fly,,1.12.8,03BFB7E5-9CD8-CB27-EE9E-F3BA8024ECED,1SDCH7G0169R0K,,,,,,,,,
3/2/2024,43:06.1,5m 48.5s,348.5,6.972887131,79.9159424,0,0,0.3,57,0.1,0,0,0,0,0,0,0,0,1.5,-0.6,34,34,,Manual Takeoff,Auto Fly,Takeoff (RC Assisted),15,5,TRUE,,Mavic Mini,TRUE,FALSE,,Smart,RC,TRUE,TRUE,FALSE,,,TRUE,,FALSE,FALSE,FALSE,FALSE,FALSE,FALSE,FALSE,FALSE,FALSE,FALSE,0,Follow Yaw,0,0,38.1,38.1,FALSE,FALSE,FALSE,FALSE,FALSE,TRUE,,TRUE,Normal,,100,1024,1024,1024,1024,2,FALSE,FALSE,FALSE,FALSE,FALSE,0,FALSE,FALSE,FALSE,FALSE,73,7.759,1510,2075,7.756,FALSE,3.881,3.878,0.003,FALSE,FALSE,NA,106.3,106.3,106.3,0,26,0,18,5,3246.1,811.52,,Idle,0,20,FALSE,5,TRUE,7,Go Home,FALSE,FALSE,FALSE,FALSE,FALSE,FALSE,FALSE,FALSE,FALSE,FALSE,FALSE,FALSE,6.972772655,79.91568235,103,124,328,TRUE,1,1,FALSE,FALSE,FALSE,FALSE,,TRUE,FALSE,FALSE,Course Lock,49.2,14.3,16.4,Calm,40,,1.12.8,Mavic Mini,1SDCH7G0169R0K,1SFLH6Q0AB03DJ,1SRCH7F014TAHX,1U5X071EXP6C8G,53,0.1,3.2,8.324995,2.908022,0,5846,Mavic Mini,1SDCH7G0169R0K,1SFLH6Q0AB03DJ,1SRCH7F014TAHX,1U5X071EXP6C8G,DJI Fly,,1.12.8,03BFB7E5-9CD8-CB27-EE9E-F3BA8024ECED,1SDCH7G0169R0K,,,,,,,,,
3/2/2024,43:06.2,5m 48.6s,348.6,6.972887135,79.91594251,0,0,0.3,57,0.1,0,0,0,0,0,0,0,0,1.5,-0.6,34,34,,Manual Takeoff,Auto Fly,Takeoff (RC Assisted),15,5,TRUE,,Mavic Mini,TRUE,FALSE,,Smart,RC,TRUE,TRUE,FALSE,,,TRUE,,FALSE,FALSE,FALSE,FALSE,FALSE,FALSE,FALSE,FALSE,FALSE,FALSE,0,Follow Yaw,0,0,38.1,38.1,FALSE,FALSE,FALSE,FALSE,FALSE,TRUE,,TRUE,Normal,,100,1024,1024,1024,1024,2,FALSE,FALSE,FALSE,FALSE,FALSE,0,FALSE,FALSE,FALSE,FALSE,73,7.759,1510,2075,7.756,FALSE,3.881,3.878,0.003,FALSE,FALSE,NA,106.3,106.3,106.3,0,26,0,18,5,3246.1,811.52,,Idle,0,20,FALSE,5,TRUE,7,Go Home,FALSE,FALSE,FALSE,FALSE,FALSE,FALSE,FALSE,FALSE,FALSE,FALSE,FALSE,FALSE,6.972772655,79.91568235,103,124,328,TRUE,1,1,FALSE,FALSE,FALSE,FALSE,,TRUE,FALSE,FALSE,Course Lock,49.2,14.3,16.4,Calm,40,,1.12.8,Mavic Mini,1SDCH7G0169R0K,1SFLH6Q0AB03DJ,1SRCH7F014TAHX,1U5X071EXP6C8G,53,0.1,3.2,8.324995,2.908022,0,5846,Mavic Mini,1SDCH7G0169R0K,1SFLH6Q0AB03DJ,1SRCH7F014TAHX,1U5X071EXP6C8G,DJI Fly,,1.12.8,03BFB7E5-9CD8-CB27-EE9E-F3BA8024ECED,1SDCH7G0169R0K,,,,,,,,,
3/2/2024,43:06.3,5m 48.7s,348.7,6.972887136,79.91594256,0,0,0.3,57,0.1,0,0,0,0,0,0,0,0,1.6,-0.6,34,34,,Manual Takeoff,Auto Fly,Takeoff (RC Assisted),15,5,TRUE,,Mavic Mini,TRUE,FALSE,,Smart,RC,TRUE,TRUE,FALSE,,,TRUE,,FALSE,FALSE,FALSE,FALSE,FALSE,FALSE,FALSE,FALSE,FALSE,FALSE,0,Follow Yaw,0,0,38.1,38.1,FALSE,FALSE,FALSE,FALSE,FALSE,TRUE,,TRUE,Normal,,100,1024,1024,1024,1024,2,FALSE,FALSE,FALSE,FALSE,FALSE,0,FALSE,FALSE,FALSE,FALSE,73,7.759,1510,2075,7.756,FALSE,3.881,3.878,0.003,FALSE,FALSE,NA,106.3,106.3,106.3,0,26,0,18,5,3246.1,811.52,,Idle,0,20,FALSE,5,TRUE,7,Go Home,FALSE,FALSE,FALSE,FALSE,FALSE,FALSE,FALSE,FALSE,FALSE,FALSE,FALSE,FALSE,6.972772655,79.91568235,103,124,328,TRUE,1,1,FALSE,FALSE,FALSE,FALSE,,TRUE,FALSE,FALSE,Course Lock,49.2,14.3,16.4,Calm,40,,1.12.8,Mavic Mini,1SDCH7G0169R0K,1SFLH6Q0AB03DJ,1SRCH7F014TAHX,1U5X071EXP6C8G,53,0.1,3.2,8.324995,2.908022,0,5846,Mavic Mini,1SDCH7G0169R0K,1SFLH6Q0AB03DJ,1SRCH7F014TAHX,1U5X071EXP6C8G,DJI Fly,,1.12.8,03BFB7E5-9CD8-CB27-EE9E-F3BA8024ECED,1SDCH7G0169R0K,,,,,,,,,
3/2/2024,43:06.4,5m 48.8s,348.8,6.972887136,79.91594257,0,0,0.3,57,0.1,0,0,0,0,0,0,0,0,1.6,-0.7,34,34,,Manual Takeoff,Auto Fly,Takeoff (RC Assisted),15,5,TRUE,,Mavic Mini,TRUE,FALSE,,Smart,RC,TRUE,TRUE,FALSE,,,TRUE,,FALSE,FALSE,FALSE,FALSE,FALSE,FALSE,FALSE,FALSE,FALSE,FALSE,0,Follow Yaw,0,0,38.1,38.1,FALSE,FALSE,FALSE,FALSE,FALSE,TRUE,,TRUE,Normal,,100,1024,1024,1024,1024,2,FALSE,FALSE,FALSE,FALSE,FALSE,0,FALSE,FALSE,FALSE,FALSE,73,7.763,1510,2075,7.756,FALSE,3.885,3.879,0.006,FALSE,FALSE,NA,106.3,106.3,106.3,0,26,0,18,5,3246.1,811.52,,Idle,0,20,FALSE,5,TRUE,7,Go Home,FALSE,FALSE,FALSE,FALSE,FALSE,FALSE,FALSE,FALSE,FALSE,FALSE,FALSE,FALSE,6.972772655,79.91568235,103,124,328,TRUE,1,1,FALSE,FALSE,FALSE,FALSE,,TRUE,FALSE,FALSE,Course Lock,49.2,14.3,16.4,Calm,40,,1.12.8,Mavic Mini,1SDCH7G0169R0K,1SFLH6Q0AB03DJ,1SRCH7F014TAHX,1U5X071EXP6C8G,53,0.1,3.2,8.324995,2.908022,0,5846,Mavic Mini,1SDCH7G0169R0K,1SFLH6Q0AB03DJ,1SRCH7F014TAHX,1U5X071EXP6C8G,DJI Fly,,1.12.8,03BFB7E5-9CD8-CB27-EE9E-F3BA8024ECED,1SDCH7G0169R0K,,,,,6.972828889,79.9159239,5,,
3/2/2024,43:06.5,5m 48.9s,348.9,6.972887136,79.91594259,0,0,0.3,57,0.1,0,0,0,0,0,0,0,0,1.6,-0.6,34,34,,Manual Takeoff,Auto Fly,Takeoff (RC Assisted),15,5,TRUE,,Mavic Mini,TRUE,FALSE,,Smart,RC,TRUE,TRUE,FALSE,,,TRUE,,FALSE,FALSE,FALSE,FALSE,FALSE,FALSE,FALSE,FALSE,FALSE,FALSE,0,Follow Yaw,0,0,38.1,38.1,FALSE,FALSE,FALSE,FALSE,FALSE,TRUE,,TRUE,Normal,,100,1024,1024,1024,1024,2,FALSE,FALSE,FALSE,FALSE,FALSE,0,FALSE,FALSE,FALSE,FALSE,73,7.763,1510,2075,7.756,FALSE,3.885,3.879,0.006,FALSE,FALSE,NA,106.3,106.3,106.3,0,26,0,18,5,3246.1,811.52,,Idle,0,20,FALSE,5,TRUE,7,Go Home,FALSE,FALSE,FALSE,FALSE,FALSE,FALSE,FALSE,FALSE,FALSE,FALSE,FALSE,FALSE,6.972772655,79.91568235,103,124,328,TRUE,1,1,FALSE,FALSE,FALSE,FALSE,,TRUE,FALSE,FALSE,Course Lock,49.2,14.3,16.4,Calm,40,,1.12.8,Mavic Mini,1SDCH7G0169R0K,1SFLH6Q0AB03DJ,1SRCH7F014TAHX,1U5X071EXP6C8G,53,0.1,3.2,8.324995,2.908022,0,5846,Mavic Mini,1SDCH7G0169R0K,1SFLH6Q0AB03DJ,1SRCH7F014TAHX,1U5X071EXP6C8G,DJI Fly,,1.12.8,03BFB7E5-9CD8-CB27-EE9E-F3BA8024ECED,1SDCH7G0169R0K,,,,,6.972828889,79.9159239,5,,
3/2/2024,43:06.6,5m 49.0s,349,6.972887132,79.91594243,0,0,0.3,57,0.2,0,0,0,0,0,0,0,0,1.5,-0.6,34.1,34.1,,Manual Takeoff,Auto Fly,Takeoff (RC Assisted),15,5,TRUE,,Mavic Mini,TRUE,FALSE,,Smart,RC,TRUE,TRUE,FALSE,,,TRUE,,FALSE,FALSE,FALSE,FALSE,FALSE,FALSE,FALSE,FALSE,FALSE,FALSE,0,Follow Yaw,0,0,38.1,38.1,FALSE,FALSE,FALSE,FALSE,FALSE,TRUE,,TRUE,Normal,,100,1024,1024,1024,1024,2,FALSE,FALSE,FALSE,FALSE,FALSE,0,FALSE,FALSE,FALSE,FALSE,73,7.763,1510,2075,7.756,FALSE,3.885,3.879,0.006,FALSE,FALSE,NA,106.3,106.3,106.3,0,26,0,18,5,3246.1,811.52,,Idle,0,20,FALSE,5,TRUE,7,Go Home,FALSE,FALSE,FALSE,FALSE,FALSE,FALSE,FALSE,FALSE,FALSE,FALSE,FALSE,FALSE,6.972772655,79.91568235,103,124,328,TRUE,1,1,FALSE,FALSE,FALSE,FALSE,,TRUE,FALSE,FALSE,Course Lock,49.2,14.3,16.4,Calm,40,,1.12.8,Mavic Mini,1SDCH7G0169R0K,1SFLH6Q0AB03DJ,1SRCH7F014TAHX,1U5X071EXP6C8G,53,0.1,3.2,8.324995,2.908022,0,5846,Mavic Mini,1SDCH7G0169R0K,1SFLH6Q0AB03DJ,1SRCH7F014TAHX,1U5X071EXP6C8G,DJI Fly,,1.12.8,03BFB7E5-9CD8-CB27-EE9E-F3BA8024ECED,1SDCH7G0169R0K,,,,,6.972828889,79.9159239,5,,
3/2/2024,43:06.7,5m 49.1s,349.1,6.972887132,79.91594238,0,0,0.3,57,0.2,0,0,0,0,0,0,0,0,1.5,-0.6,34,34,,Manual Takeoff,Auto Fly,Takeoff (RC Assisted),15,5,TRUE,,Mavic Mini,TRUE,FALSE,,Smart,RC,TRUE,TRUE,FALSE,,,TRUE,,FALSE,FALSE,FALSE,FALSE,FALSE,FALSE,FALSE,FALSE,FALSE,FALSE,0,Follow Yaw,0,0,38.1,38.1,FALSE,FALSE,FALSE,FALSE,FALSE,TRUE,,TRUE,Normal,,100,1024,1024,1024,1024,2,FALSE,FALSE,FALSE,FALSE,FALSE,0,FALSE,FALSE,FALSE,FALSE,73,7.763,1510,2075,7.756,FALSE,3.885,3.879,0.006,FALSE,FALSE,NA,106.3,106.3,106.3,0,26,0,18,5,3246.1,811.52,,Idle,0,20,FALSE,5,TRUE,7,Go Home,FALSE,FALSE,FALSE,FALSE,FALSE,FALSE,FALSE,FALSE,FALSE,FALSE,FALSE,FALSE,6.972772655,79.91568235,103,124,328,TRUE,1,1,FALSE,FALSE,FALSE,FALSE,,TRUE,FALSE,FALSE,Course Lock,49.2,14.3,16.4,Calm,40,,1.12.8,Mavic Mini,1SDCH7G0169R0K,1SFLH6Q0AB03DJ,1SRCH7F014TAHX,1U5X071EXP6C8G,53,0.1,3.2,8.324995,2.908022,0,5846,Mavic Mini,1SDCH7G0169R0K,1SFLH6Q0AB03DJ,1SRCH7F014TAHX,1U5X071EXP6C8G,DJI Fly,,1.12.8,03BFB7E5-9CD8-CB27-EE9E-F3BA8024ECED,1SDCH7G0169R0K,,,,,6.972828889,79.9159239,5,,
3/2/2024,43:06.8,5m 49.2s,349.2,6.972887132,79.9159424,0,0,0.3,57,0.2,0,0,0,0,0,0,0,0,1.5,-0.7,34,34,,Manual Takeoff,Auto Fly,Takeoff (RC Assisted),15,5,TRUE,,Mavic Mini,TRUE,FALSE,,Smart,RC,TRUE,TRUE,FALSE,,,TRUE,,FALSE,FALSE,FALSE,FALSE,FALSE,FALSE,FALSE,FALSE,FALSE,FALSE,0,Follow Yaw,0,0,38.1,38.1,FALSE,FALSE,FALSE,FALSE,FALSE,TRUE,,TRUE,Normal,,100,1024,1024,1024,1024,2,FALSE,FALSE,FALSE,FALSE,FALSE,0,FALSE,FALSE,FALSE,FALSE,73,7.763,1510,2075,7.756,FALSE,3.885,3.879,0.006,FALSE,FALSE,NA,106.3,106.3,106.3,0,26,0,18,5,3246.1,811.52,,Idle,0,20,FALSE,5,TRUE,7,Go Home,FALSE,FALSE,FALSE,FALSE,FALSE,FALSE,FALSE,FALSE,FALSE,FALSE,FALSE,FALSE,6.972772655,79.91568235,103,124,328,TRUE,1,1,FALSE,FALSE,FALSE,FALSE,,TRUE,FALSE,FALSE,Course Lock,49.2,14.3,16.4,Calm,40,,1.12.8,Mavic Mini,1SDCH7G0169R0K,1SFLH6Q0AB03DJ,1SRCH7F014TAHX,1U5X071EXP6C8G,53,0.1,3.2,8.324995,2.908022,0,5846,Mavic Mini,1SDCH7G0169R0K,1SFLH6Q0AB03DJ,1SRCH7F014TAHX,1U5X071EXP6C8G,DJI Fly,,1.12.8,03BFB7E5-9CD8-CB27-EE9E-F3BA8024ECED,1SDCH7G0169R0K,,,,,6.972828889,79.9159239,5,,
3/2/2024,43:06.9,5m 49.3s,349.3,6.972887132,79.91594242,0,0,0.3,57,0.2,0,0,0,0,0,0,0,0,1.5,-0.7,34,34,,Manual Takeoff,Auto Fly,Takeoff (RC Assisted),15,5,TRUE,,Mavic Mini,TRUE,FALSE,,Smart,RC,TRUE,TRUE,FALSE,,,TRUE,,FALSE,FALSE,FALSE,FALSE,FALSE,FALSE,FALSE,FALSE,FALSE,FALSE,0,Follow Yaw,0,0,38.1,38.1,FALSE,FALSE,FALSE,FALSE,FALSE,TRUE,,TRUE,Normal,,100,1024,1024,1024,1024,2,FALSE,FALSE,FALSE,FALSE,FALSE,0,FALSE,FALSE,FALSE,FALSE,73,7.763,1510,2075,7.756,FALSE,3.885,3.879,0.006,FALSE,FALSE,NA,106.3,106.3,106.3,0,26,0,18,5,3246.1,811.52,,Idle,0,20,FALSE,5,TRUE,7,Go Home,FALSE,FALSE,FALSE,FALSE,FALSE,FALSE,FALSE,FALSE,FALSE,FALSE,FALSE,FALSE,6.972772655,79.91568235,103,124,328,TRUE,1,1,FALSE,FALSE,FALSE,FALSE,,TRUE,FALSE,FALSE,Course Lock,49.2,14.3,16.4,Calm,40,,1.12.8,Mavic Mini,1SDCH7G0169R0K,1SFLH6Q0AB03DJ,1SRCH7F014TAHX,1U5X071EXP6C8G,53,0.1,3.2,8.324995,2.908022,0,5846,Mavic Mini,1SDCH7G0169R0K,1SFLH6Q0AB03DJ,1SRCH7F014TAHX,1U5X071EXP6C8G,DJI Fly,,1.12.8,03BFB7E5-9CD8-CB27-EE9E-F3BA8024ECED,1SDCH7G0169R0K,,,,,6.972828889,79.9159239,5,,
3/2/2024,43:06.9,5m 49.4s,349.4,6.972887133,79.91594243,0,0,0.3,57,0.2,0,0,0,0,0,0,0,0,1.5,-0.6,34,34,,Manual Takeoff,Auto Fly,Takeoff (RC Assisted),15,5,TRUE,,Mavic Mini,TRUE,FALSE,,Smart,RC,TRUE,TRUE,FALSE,,,TRUE,,FALSE,FALSE,FALSE,FALSE,FALSE,FALSE,FALSE,FALSE,FALSE,FALSE,0,Follow Yaw,0,0,38.1,38.1,FALSE,FALSE,FALSE,FALSE,FALSE,TRUE,,TRUE,Normal,,100,1024,1024,1173,1024,2,FALSE,FALSE,FALSE,FALSE,FALSE,0,FALSE,FALSE,FALSE,FALSE,73,7.763,1510,2075,7.756,FALSE,3.885,3.879,0.006,FALSE,FALSE,NA,106.3,106.3,106.3,0,26,0,18,5,3246.1,811.52,,Idle,0,20,FALSE,5,TRUE,7,Go Home,FALSE,FALSE,FALSE,FALSE,FALSE,FALSE,FALSE,FALSE,FALSE,FALSE,FALSE,FALSE,6.972772655,79.91568235,103,124,328,TRUE,1,1,FALSE,FALSE,FALSE,FALSE,,TRUE,FALSE,FALSE,Course Lock,49.2,14.3,16.4,Calm,40,,1.12.8,Mavic Mini,1SDCH7G0169R0K,1SFLH6Q0AB03DJ,1SRCH7F014TAHX,1U5X071EXP6C8G,53,0.1,3.2,8.324995,2.908022,0,5846,Mavic Mini,1SDCH7G0169R0K,1SFLH6Q0AB03DJ,1SRCH7F014TAHX,1U5X071EXP6C8G,DJI Fly,,1.12.8,03BFB7E5-9CD8-CB27-EE9E-F3BA8024ECED,1SDCH7G0169R0K,,,,,6.972828889,79.9159239,5,,
3/2/2024,43:07.2,5m 49.5s,349.5,6.97288714,79.91594251,0,0,0.3,57,0.3,0,0,0,0,0,0,0,0,1.5,-0.6,34,34,,Manual Takeoff,Auto Fly,Takeoff (RC Assisted),15,5,TRUE,,Mavic Mini,TRUE,FALSE,,Smart,RC,TRUE,TRUE,FALSE,,,TRUE,,FALSE,FALSE,FALSE,FALSE,FALSE,FALSE,FALSE,FALSE,FALSE,FALSE,0,Follow Yaw,0,0,38.1,38.1,FALSE,FALSE,FALSE,FALSE,FALSE,TRUE,,TRUE,Normal,,100,1024,1024,1358,1024,2,FALSE,FALSE,FALSE,FALSE,FALSE,0,FALSE,FALSE,FALSE,FALSE,73,7.763,1510,2075,7.759,FALSE,3.885,3.879,0.006,FALSE,FALSE,NA,106.3,106.3,106.3,0,26,0,18,5,3378.2,844.56,,Idle,0,20,FALSE,5,TRUE,7,Go Home,FALSE,FALSE,FALSE,FALSE,FALSE,FALSE,FALSE,FALSE,FALSE,FALSE,FALSE,FALSE,6.972772655,79.91568235,103,124,328,TRUE,1,1,FALSE,FALSE,FALSE,FALSE,,TRUE,FALSE,FALSE,Course Lock,49.2,14.3,16.4,Calm,40,,1.12.8,Mavic Mini,1SDCH7G0169R0K,1SFLH6Q0AB03DJ,1SRCH7F014TAHX,1U5X071EXP6C8G,53,0.1,3.2,8.324995,2.908022,0,5846,Mavic Mini,1SDCH7G0169R0K,1SFLH6Q0AB03DJ,1SRCH7F014TAHX,1U5X071EXP6C8G,DJI Fly,,1.12.8,03BFB7E5-9CD8-CB27-EE9E-F3BA8024ECED,1SDCH7G0169R0K,,,,,6.972828889,79.9159239,5,,
3/2/2024,43:07.2,5m 49.6s,349.6,6.972887142,79.91594251,0,0,0.3,57,0.3,0,0,0,0,0,0,0,0,1.6,-0.7,34,34,,Manual Takeoff,Auto Fly,Takeoff (RC Assisted),15,5,TRUE,,Mavic Mini,TRUE,FALSE,,Smart,RC,TRUE,TRUE,FALSE,,,TRUE,,FALSE,FALSE,FALSE,FALSE,FALSE,FALSE,FALSE,FALSE,FALSE,FALSE,0,Follow Yaw,0,0,38.1,38.1,FALSE,FALSE,FALSE,FALSE,FALSE,TRUE,,TRUE,Normal,,100,1024,1024,1358,1024,2,FALSE,FALSE,FALSE,FALSE,FALSE,0,FALSE,FALSE,FALSE,FALSE,73,7.763,1510,2075,7.759,FALSE,3.885,3.879,0.006,FALSE,FALSE,NA,106.3,106.3,106.3,0,26,0,18,5,3378.2,844.56,,Idle,0,20,FALSE,5,TRUE,7,Go Home,FALSE,FALSE,FALSE,FALSE,FALSE,FALSE,FALSE,FALSE,FALSE,FALSE,FALSE,FALSE,6.972772655,79.91568235,103,124,328,TRUE,1,1,FALSE,FALSE,FALSE,FALSE,,TRUE,FALSE,FALSE,Course Lock,49.2,14.3,16.4,Calm,40,,1.12.8,Mavic Mini,1SDCH7G0169R0K,1SFLH6Q0AB03DJ,1SRCH7F014TAHX,1U5X071EXP6C8G,53,0.1,3.2,8.324995,2.908022,0,5846,Mavic Mini,1SDCH7G0169R0K,1SFLH6Q0AB03DJ,1SRCH7F014TAHX,1U5X071EXP6C8G,DJI Fly,,1.12.8,03BFB7E5-9CD8-CB27-EE9E-F3BA8024ECED,1SDCH7G0169R0K,,,,,6.972828889,79.9159239,5,,
3/2/2024,43:07.4,5m 49.7s,349.7,6.972887143,79.91594251,0,0,0.3,57,0.3,0,0,0,0,0,0,0,0,1.6,-0.7,34.1,34.1,,Manual Takeoff,Auto Fly,Takeoff (RC Assisted),15,5,TRUE,,Mavic Mini,TRUE,FALSE,,Smart,RC,TRUE,TRUE,FALSE,,,TRUE,,FALSE,FALSE,FALSE,FALSE,FALSE,FALSE,FALSE,FALSE,FALSE,FALSE,0,Follow Yaw,0,0,38.1,38.1,FALSE,FALSE,FALSE,FALSE,FALSE,TRUE,,TRUE,Normal,,100,1024,1024,1500,1024,2,FALSE,FALSE,FALSE,FALSE,FALSE,0,FALSE,FALSE,FALSE,FALSE,73,7.763,1510,2075,7.759,FALSE,3.885,3.879,0.006,FALSE,FALSE,NA,106.3,106.3,106.3,0,26,0,18,5,3378.2,844.56,,Idle,0,20,FALSE,5,TRUE,7,Go Home,FALSE,FALSE,FALSE,FALSE,FALSE,FALSE,FALSE,FALSE,FALSE,FALSE,FALSE,FALSE,6.972772655,79.91568235,103,124,328,TRUE,1,1,FALSE,FALSE,FALSE,FALSE,,TRUE,FALSE,FALSE,Course Lock,49.2,14.3,16.4,Calm,40,,1.12.8,Mavic Mini,1SDCH7G0169R0K,1SFLH6Q0AB03DJ,1SRCH7F014TAHX,1U5X071EXP6C8G,53,0.1,3.2,8.324995,2.908022,0,5846,Mavic Mini,1SDCH7G0169R0K,1SFLH6Q0AB03DJ,1SRCH7F014TAHX,1U5X071EXP6C8G,DJI Fly,,1.12.8,03BFB7E5-9CD8-CB27-EE9E-F3BA8024ECED,1SDCH7G0169R0K,,,,,6.972828889,79.9159239,5,,
3/2/2024,43:07.4,5m 49.8s,349.8,6.972887144,79.91594251,0,0,0.3,57,0.3,0,0,0,0,0,0,0,0,1.5,-0.7,34,34,,Manual Takeoff,Auto Fly,Takeoff (RC Assisted),15,5,TRUE,,Mavic Mini,TRUE,FALSE,,Smart,RC,TRUE,TRUE,FALSE,,,TRUE,,FALSE,FALSE,FALSE,FALSE,FALSE,FALSE,FALSE,FALSE,FALSE,FALSE,0,Follow Yaw,0,0,38.1,38.1,FALSE,FALSE,FALSE,FALSE,FALSE,TRUE,,TRUE,Normal,,100,1024,1024,1590,1024,2,FALSE,FALSE,FALSE,FALSE,FALSE,0,FALSE,FALSE,FALSE,FALSE,73,7.763,1510,2075,7.759,FALSE,3.885,3.879,0.006,FALSE,FALSE,NA,106.3,106.3,106.3,0,26,0,18,5,3378.2,844.56,,Idle,0,20,FALSE,5,TRUE,7,Go Home,FALSE,FALSE,FALSE,FALSE,FALSE,FALSE,FALSE,FALSE,FALSE,FALSE,FALSE,FALSE,6.972772655,79.91568235,103,124,328,TRUE,1,1,FALSE,FALSE,FALSE,FALSE,,TRUE,FALSE,FALSE,Course Lock,49.2,14.3,16.4,Calm,40,,1.12.8,Mavic Mini,1SDCH7G0169R0K,1SFLH6Q0AB03DJ,1SRCH7F014TAHX,1U5X071EXP6C8G,53,0.1,3.2,8.324995,2.908022,0,5846,Mavic Mini,1SDCH7G0169R0K,1SFLH6Q0AB03DJ,1SRCH7F014TAHX,1U5X071EXP6C8G,DJI Fly,,1.12.8,03BFB7E5-9CD8-CB27-EE9E-F3BA8024ECED,1SDCH7G0169R0K,,,,,6.972828889,79.9159239,5,,
3/2/2024,43:07.5,5m 49.9s,349.9,6.972887136,79.91594249,0,0,0.3,57,0.3,0,0,0,0,0,0,0,0,1.5,-0.7,34.1,34.1,,Manual Takeoff,Auto Fly,Takeoff (RC Assisted),15,5,TRUE,,Mavic Mini,TRUE,FALSE,,Smart,RC,TRUE,TRUE,FALSE,,,TRUE,,FALSE,FALSE,FALSE,FALSE,FALSE,FALSE,FALSE,FALSE,FALSE,FALSE,0,Follow Yaw,0,0,38.1,38.1,FALSE,FALSE,FALSE,FALSE,FALSE,TRUE,,TRUE,Normal,,100,1024,1024,1631,1024,2,FALSE,FALSE,FALSE,FALSE,FALSE,0,FALSE,FALSE,FALSE,FALSE,73,7.756,1510,2075,7.759,FALSE,3.884,3.872,0.012,FALSE,FALSE,NA,106.3,106.3,106.3,0,26,0,18,5,3378.2,844.56,,Idle,0,20,FALSE,5,TRUE,7,Go Home,FALSE,FALSE,FALSE,FALSE,FALSE,FALSE,FALSE,FALSE,FALSE,FALSE,FALSE,FALSE,6.972772655,79.91568235,103,124,328,TRUE,1,1,FALSE,FALSE,FALSE,FALSE,,TRUE,FALSE,FALSE,Course Lock,49.2,14.3,16.4,Calm,40,,1.12.8,Mavic Mini,1SDCH7G0169R0K,1SFLH6Q0AB03DJ,1SRCH7F014TAHX,1U5X071EXP6C8G,53,0.1,3.2,8.324995,2.908022,0,5846,Mavic Mini,1SDCH7G0169R0K,1SFLH6Q0AB03DJ,1SRCH7F014TAHX,1U5X071EXP6C8G,DJI Fly,,1.12.8,03BFB7E5-9CD8-CB27-EE9E-F3BA8024ECED,1SDCH7G0169R0K,,,,,6.972828889,79.9159239,5,,
3/2/2024,43:07.6,5m 50.0s,350,6.972887138,79.91594253,0,0,0.3,57,0.3,0,0,0,0,0,0,0,0,1.4,-0.7,33.8,33.8,,Manual Takeoff,Auto Fly,Takeoff (RC Assisted),15,5,TRUE,,Mavic Mini,TRUE,FALSE,,Smart,RC,TRUE,TRUE,FALSE,,,TRUE,,FALSE,FALSE,FALSE,FALSE,FALSE,FALSE,FALSE,FALSE,FALSE,FALSE,0,Follow Yaw,0,0,38.1,38.1,FALSE,FALSE,FALSE,FALSE,FALSE,TRUE,,TRUE,Normal,,100,1024,1024,1641,1024,2,FALSE,FALSE,FALSE,FALSE,FALSE,0,FALSE,FALSE,FALSE,FALSE,73,7.756,1510,2075,7.759,FALSE,3.884,3.872,0.012,FALSE,FALSE,NA,106.3,106.3,106.3,0,26,0,18,5,3378.2,844.56,,Idle,0,20,FALSE,5,TRUE,7,Go Home,FALSE,FALSE,FALSE,FALSE,FALSE,FALSE,FALSE,FALSE,FALSE,FALSE,FALSE,FALSE,6.972772655,79.91568235,103,124,328,TRUE,1,1,FALSE,FALSE,FALSE,FALSE,,TRUE,FALSE,FALSE,Course Lock,49.2,14.3,16.4,Calm,40,,1.12.8,Mavic Mini,1SDCH7G0169R0K,1SFLH6Q0AB03DJ,1SRCH7F014TAHX,1U5X071EXP6C8G,53,0.1,3.2,8.324995,2.908022,0,5846,Mavic Mini,1SDCH7G0169R0K,1SFLH6Q0AB03DJ,1SRCH7F014TAHX,1U5X071EXP6C8G,DJI Fly,,1.12.8,03BFB7E5-9CD8-CB27-EE9E-F3BA8024ECED,1SDCH7G0169R0K,,,,,6.972828889,79.9159239,5,,
3/2/2024,43:07.7,5m 50.1s,350.1,6.972887141,79.91594258,0,0,0.3,57,0.3,0,0,0,0,0,0,0,0,1.5,-0.9,33.2,33.2,,Manual Takeoff,Auto Fly,Takeoff (RC Assisted),15,5,TRUE,,Mavic Mini,TRUE,FALSE,,Smart,RC,TRUE,TRUE,FALSE,,,TRUE,,FALSE,FALSE,FALSE,FALSE,FALSE,FALSE,FALSE,FALSE,FALSE,FALSE,0,Follow Yaw,0,0,37.9,37.9,FALSE,FALSE,FALSE,FALSE,FALSE,TRUE,,TRUE,Normal,,100,1024,1024,1660,1024,2,FALSE,FALSE,FALSE,FALSE,FALSE,0,FALSE,FALSE,FALSE,FALSE,73,7.756,1510,2075,7.759,FALSE,3.884,3.872,0.012,FALSE,FALSE,NA,106.3,106.3,106.3,0,26,0,18,5,3378.2,844.56,,Idle,0,20,FALSE,5,TRUE,7,Go Home,FALSE,FALSE,FALSE,FALSE,FALSE,FALSE,FALSE,FALSE,FALSE,FALSE,FALSE,FALSE,6.972772655,79.91568235,103,124,328,TRUE,1,1,FALSE,FALSE,FALSE,FALSE,,TRUE,FALSE,FALSE,Course Lock,49.2,14.3,16.4,Calm,40,,1.12.8,Mavic Mini,1SDCH7G0169R0K,1SFLH6Q0AB03DJ,1SRCH7F014TAHX,1U5X071EXP6C8G,53,0.1,3.2,8.324995,2.908022,0,5846,Mavic Mini,1SDCH7G0169R0K,1SFLH6Q0AB03DJ,1SRCH7F014TAHX,1U5X071EXP6C8G,DJI Fly,,1.12.8,03BFB7E5-9CD8-CB27-EE9E-F3BA8024ECED,1SDCH7G0169R0K,,,,,6.972828889,79.9159239,5,,
3/2/2024,43:07.8,5m 50.2s,350.2,6.972887141,79.9159426,0,0,0.3,57,0.3,0,0,0,0,0,0,0,0,1.5,-0.9,32.9,32.9,,Manual Takeoff,Auto Fly,Takeoff (RC Assisted),15,5,TRUE,,Mavic Mini,TRUE,FALSE,,Smart,RC,TRUE,TRUE,FALSE,,,TRUE,,FALSE,FALSE,FALSE,FALSE,FALSE,FALSE,FALSE,FALSE,FALSE,FALSE,0,Follow Yaw,0,0,37.7,37.7,FALSE,FALSE,FALSE,FALSE,FALSE,TRUE,,TRUE,Normal,,100,1024,1024,1660,1024,2,FALSE,FALSE,FALSE,FALSE,FALSE,0,FALSE,FALSE,FALSE,FALSE,73,7.756,1510,2075,7.759,FALSE,3.884,3.872,0.012,FALSE,FALSE,NA,106.3,106.3,106.3,0,26,0,18,5,3378.2,844.56,,Idle,0,20,FALSE,5,TRUE,7,Go Home,FALSE,FALSE,FALSE,FALSE,FALSE,FALSE,FALSE,FALSE,FALSE,FALSE,FALSE,FALSE,6.972772655,79.91568235,103,124,328,TRUE,1,1,FALSE,FALSE,FALSE,FALSE,,TRUE,FALSE,FALSE,Course Lock,49.2,14.3,16.4,Calm,40,,1.12.8,Mavic Mini,1SDCH7G0169R0K,1SFLH6Q0AB03DJ,1SRCH7F014TAHX,1U5X071EXP6C8G,53,0.1,3.2,8.324995,2.908022,0,5846,Mavic Mini,1SDCH7G0169R0K,1SFLH6Q0AB03DJ,1SRCH7F014TAHX,1U5X071EXP6C8G,DJI Fly,,1.12.8,03BFB7E5-9CD8-CB27-EE9E-F3BA8024ECED,1SDCH7G0169R0K,,,,,6.972828889,79.9159239,5,,
3/2/2024,43:07.9,5m 50.3s,350.3,6.972887135,79.91594268,0,0,0.3,57,0.3,0,0,0,0,0,0,0,0,1.2,-1,32.4,32.4,,Manual Takeoff,Auto Fly,Takeoff (RC Assisted),15,5,TRUE,,Mavic Mini,TRUE,FALSE,,Smart,RC,TRUE,TRUE,FALSE,,,TRUE,,FALSE,FALSE,FALSE,FALSE,FALSE,FALSE,FALSE,FALSE,FALSE,FALSE,0,Follow Yaw,0,0,37.3,37.3,FALSE,FALSE,FALSE,FALSE,FALSE,TRUE,,TRUE,Normal,,100,1024,1024,1661,1024,2,FALSE,FALSE,FALSE,FALSE,FALSE,0,FALSE,FALSE,FALSE,FALSE,73,7.756,1510,2075,7.759,FALSE,3.884,3.872,0.012,FALSE,FALSE,NA,106.3,106.3,106.3,0,26,0,18,5,3378.2,844.56,,Idle,0,20,FALSE,5,TRUE,7,Go Home,FALSE,FALSE,FALSE,FALSE,FALSE,FALSE,FALSE,FALSE,FALSE,FALSE,FALSE,FALSE,6.972772655,79.91568235,103.1,124,328,TRUE,1,1,FALSE,FALSE,FALSE,FALSE,,TRUE,FALSE,FALSE,Course Lock,49.2,14.3,16.4,Calm,40,,1.12.8,Mavic Mini,1SDCH7G0169R0K,1SFLH6Q0AB03DJ,1SRCH7F014TAHX,1U5X071EXP6C8G,53,0.1,3.2,8.324995,2.908022,0,5846,Mavic Mini,1SDCH7G0169R0K,1SFLH6Q0AB03DJ,1SRCH7F014TAHX,1U5X071EXP6C8G,DJI Fly,,1.12.8,03BFB7E5-9CD8-CB27-EE9E-F3BA8024ECED,1SDCH7G0169R0K,,,,,6.972828889,79.9159239,5,,
3/2/2024,43:08.0,5m 50.4s,350.4,6.972887129,79.91594268,0,0,0.3,57,0.4,0,0,0,0,0,0,0,0,0.5,-1.1,32.1,32.1,,Manual Takeoff,Auto Fly,Takeoff (RC Assisted),15,5,TRUE,,Mavic Mini,TRUE,FALSE,,Smart,RC,TRUE,TRUE,FALSE,,,TRUE,,FALSE,FALSE,FALSE,FALSE,FALSE,FALSE,FALSE,FALSE,FALSE,FALSE,0,Follow Yaw,0,0,37,37,FALSE,FALSE,FALSE,FALSE,FALSE,TRUE,,TRUE,Normal,,100,1024,1024,1661,1024,2,FALSE,FALSE,FALSE,FALSE,FALSE,0,FALSE,FALSE,FALSE,FALSE,73,7.756,1510,2075,7.759,FALSE,3.884,3.872,0.012,FALSE,FALSE,NA,106.3,106.3,106.3,0,26,0,18,5,3378.2,844.56,,Idle,0,20,FALSE,5,TRUE,7,Go Home,FALSE,FALSE,FALSE,FALSE,FALSE,FALSE,FALSE,FALSE,FALSE,FALSE,FALSE,FALSE,6.972772655,79.91568235,103.1,124,328,TRUE,1,1,FALSE,FALSE,FALSE,FALSE,,TRUE,FALSE,FALSE,Course Lock,49.2,14.3,16.4,Calm,40,,1.12.8,Mavic Mini,1SDCH7G0169R0K,1SFLH6Q0AB03DJ,1SRCH7F014TAHX,1U5X071EXP6C8G,53,0.1,3.2,8.324995,2.908022,0,5846,Mavic Mini,1SDCH7G0169R0K,1SFLH6Q0AB03DJ,1SRCH7F014TAHX,1U5X071EXP6C8G,DJI Fly,,1.12.8,03BFB7E5-9CD8-CB27-EE9E-F3BA8024ECED,1SDCH7G0169R0K,,,,,6.972828889,79.9159239,5,,
3/2/2024,43:08.1,5m 50.5s,350.5,6.972887119,79.91594269,0,0,0.3,57,0.4,0,0,0,0,0,0,-0.447388,0,-0.1,-1,31.6,31.6,,Tripod,Auto Fly,,15,5,TRUE,,Mavic Mini,TRUE,FALSE,,Smart,RC,FALSE,TRUE,FALSE,,,TRUE,,FALSE,FALSE,FALSE,FALSE,FALSE,FALSE,FALSE,FALSE,FALSE,FALSE,0,Follow Yaw,0,0,36.6,36.6,FALSE,FALSE,FALSE,FALSE,FALSE,TRUE,,TRUE,Normal,,100,1024,1024,1661,1024,2,FALSE,FALSE,FALSE,FALSE,FALSE,0,FALSE,FALSE,FALSE,FALSE,73,7.756,1510,2075,7.719,FALSE,3.884,3.872,0.012,FALSE,FALSE,NA,106.3,106.3,106.3,0,0,0,0,5,3571.7,892.92,,Idle,0,20,FALSE,5,TRUE,7,Go Home,FALSE,FALSE,FALSE,FALSE,FALSE,FALSE,FALSE,FALSE,FALSE,FALSE,FALSE,FALSE,6.972887123,79.91594268,0,124,328,TRUE,1,1,FALSE,FALSE,FALSE,FALSE,,TRUE,FALSE,FALSE,Course Lock,49.2,14.3,16.4,Calm,40,,1.12.8,Mavic Mini,1SDCH7G0169R0K,1SFLH6Q0AB03DJ,1SRCH7F014TAHX,1U5X071EXP6C8G,53,0.1,3.2,8.324995,2.908022,0,5846,Mavic Mini,1SDCH7G0169R0K,1SFLH6Q0AB03DJ,1SRCH7F014TAHX,1U5X071EXP6C8G,DJI Fly,,1.12.8,03BFB7E5-9CD8-CB27-EE9E-F3BA8024ECED,1SDCH7G0169R0K,,,,,6.972828889,79.9159239,5,Home Point Updated.; Flight mode changed to Tripod.,
3/2/2024,43:08.2,5m 50.6s,350.6,6.972887116,79.91594271,0,0,0.3,57,0.4,0,0,0,0,0,0,-0.894776,0,0.5,-0.9,31.7,31.7,,Tripod,Auto Fly,,15,5,TRUE,,Mavic Mini,TRUE,FALSE,,Smart,RC,FALSE,TRUE,FALSE,,,TRUE,,FALSE,FALSE,FALSE,FALSE,FALSE,FALSE,FALSE,FALSE,FALSE,FALSE,0,Follow Yaw,0,0,36.6,36.6,FALSE,FALSE,FALSE,FALSE,FALSE,TRUE,,TRUE,Normal,,100,1024,1024,1652,1024,2,FALSE,FALSE,FALSE,FALSE,FALSE,0,FALSE,FALSE,FALSE,FALSE,73,7.756,1510,2075,7.719,FALSE,3.884,3.872,0.012,FALSE,FALSE,NA,106.3,106.3,106.3,0,0,0,0,5,3571.7,892.92,,Idle,0,20,FALSE,5,TRUE,7,Go Home,FALSE,FALSE,FALSE,FALSE,FALSE,FALSE,FALSE,FALSE,FALSE,FALSE,FALSE,FALSE,6.972887123,79.91594268,0,124,328,TRUE,1,1,FALSE,FALSE,FALSE,FALSE,,TRUE,FALSE,FALSE,Course Lock,49.2,14.3,16.4,Calm,40,,1.12.8,Mavic Mini,1SDCH7G0169R0K,1SFLH6Q0AB03DJ,1SRCH7F014TAHX,1U5X071EXP6C8G,53,0.1,3.2,8.324995,2.908022,0,5846,Mavic Mini,1SDCH7G0169R0K,1SFLH6Q0AB03DJ,1SRCH7F014TAHX,1U5X071EXP6C8G,DJI Fly,,1.12.8,03BFB7E5-9CD8-CB27-EE9E-F3BA8024ECED,1SDCH7G0169R0K,,,,,6.972828889,79.9159239,5,Home Point updated. RTH altitude adjusted to 15 m! (Code: 120852).,
3/2/2024,43:08.2,5m 50.7s,350.7,6.972887126,79.91594273,0.3,0.3,0.6,57,0.4,0,0,0,0,0,0,-1.342164,0,0.8,-0.6,31.8,31.8,,Tripod,Auto Fly,,15,5,TRUE,,Mavic Mini,TRUE,FALSE,,Smart,RC,FALSE,TRUE,FALSE,,,TRUE,,FALSE,FALSE,FALSE,FALSE,FALSE,FALSE,FALSE,FALSE,FALSE,FALSE,0,Follow Yaw,0,0,36.6,36.6,FALSE,FALSE,FALSE,FALSE,FALSE,TRUE,,TRUE,Normal,,100,1024,1024,1613,1024,2,FALSE,FALSE,FALSE,FALSE,FALSE,0,FALSE,FALSE,FALSE,FALSE,73,7.756,1510,2075,7.719,FALSE,3.884,3.872,0.012,FALSE,FALSE,NA,106.3,106.3,106.3,0,0,0,0,5,3571.7,892.92,,Idle,0,20,FALSE,5,TRUE,7,Go Home,FALSE,FALSE,FALSE,FALSE,FALSE,FALSE,FALSE,FALSE,FALSE,FALSE,FALSE,FALSE,6.972887123,79.91594268,0,124,328,TRUE,1,1,FALSE,FALSE,FALSE,FALSE,,TRUE,FALSE,FALSE,Course Lock,49.2,14.3,16.4,Calm,40,,1.12.8,Mavic Mini,1SDCH7G0169R0K,1SFLH6Q0AB03DJ,1SRCH7F014TAHX,1U5X071EXP6C8G,53,0.1,3.2,8.324995,2.908022,0,5846,Mavic Mini,1SDCH7G0169R0K,1SFLH6Q0AB03DJ,1SRCH7F014TAHX,1U5X071EXP6C8G,DJI Fly,,1.12.8,03BFB7E5-9CD8-CB27-EE9E-F3BA8024ECED,1SDCH7G0169R0K,,,,,6.972828889,79.9159239,5,,
3/2/2024,43:08.3,5m 50.8s,350.8,6.972887134,79.91594277,0.3,0.3,0.9,57,0.4,0,0,0,0,0,0,-1.789552,0,1.1,-0.7,31.9,31.9,,Tripod,Auto Fly,,15,5,TRUE,,Mavic Mini,TRUE,FALSE,,Smart,RC,FALSE,TRUE,FALSE,,,TRUE,,FALSE,FALSE,FALSE,FALSE,FALSE,FALSE,FALSE,FALSE,FALSE,FALSE,0,Follow Yaw,0,0,36.6,36.6,FALSE,FALSE,FALSE,FALSE,FALSE,TRUE,,TRUE,Normal,,100,1024,1024,1521,1024,2,FALSE,FALSE,FALSE,FALSE,FALSE,0,FALSE,FALSE,FALSE,FALSE,73,7.756,1510,2075,7.719,FALSE,3.884,3.872,0.012,FALSE,FALSE,NA,106.3,106.3,106.3,0,0,0,0,5,3571.7,892.92,,Idle,0,20,FALSE,5,TRUE,7,Go Home,FALSE,FALSE,FALSE,FALSE,FALSE,FALSE,FALSE,FALSE,FALSE,FALSE,FALSE,FALSE,6.972887123,79.91594268,0,124,328,TRUE,1,1,FALSE,FALSE,FALSE,FALSE,,TRUE,FALSE,FALSE,Course Lock,49.2,14.3,16.4,Calm,40,,1.12.8,Mavic Mini,1SDCH7G0169R0K,1SFLH6Q0AB03DJ,1SRCH7F014TAHX,1U5X071EXP6C8G,53,0.1,3.2,8.324995,2.908022,0,5846,Mavic Mini,1SDCH7G0169R0K,1SFLH6Q0AB03DJ,1SRCH7F014TAHX,1U5X071EXP6C8G,DJI Fly,,1.12.8,03BFB7E5-9CD8-CB27-EE9E-F3BA8024ECED,1SDCH7G0169R0K,,,,,6.972828889,79.9159239,5,,
3/2/2024,43:08.5,5m 50.9s,350.9,6.972887143,79.91594288,0.6,0.6,1.3,57,0.4,0,0,0,0,0,0,-2.23694,0,1,-1,32.1,32.1,,Tripod,Auto Fly,,16,5,TRUE,,Mavic Mini,TRUE,FALSE,,Smart,RC,FALSE,TRUE,FALSE,,,TRUE,,FALSE,FALSE,FALSE,FALSE,FALSE,FALSE,FALSE,FALSE,FALSE,FALSE,0,Follow Yaw,0,0,36.6,36.6,FALSE,FALSE,FALSE,FALSE,FALSE,TRUE,,TRUE,Normal,,100,1024,1024,1522,1024,2,FALSE,FALSE,FALSE,FALSE,FALSE,0,FALSE,FALSE,FALSE,FALSE,73,7.756,1510,2075,7.719,FALSE,3.884,3.872,0.012,FALSE,FALSE,NA,106.3,106.3,106.3,0,0,0,0,5,3571.7,892.92,,Idle,0,20,FALSE,5,TRUE,7,Go Home,FALSE,FALSE,FALSE,FALSE,FALSE,FALSE,FALSE,FALSE,FALSE,FALSE,FALSE,FALSE,6.972887123,79.91594268,0,124,328,TRUE,1,1,FALSE,FALSE,FALSE,FALSE,,TRUE,FALSE,FALSE,Course Lock,49.2,14.3,16.4,Calm,40,,1.12.8,Mavic Mini,1SDCH7G0169R0K,1SFLH6Q0AB03DJ,1SRCH7F014TAHX,1U5X071EXP6C8G,53,0.1,3.2,8.324995,2.908022,0,5846,Mavic Mini,1SDCH7G0169R0K,1SFLH6Q0AB03DJ,1SRCH7F014TAHX,1U5X071EXP6C8G,DJI Fly,,1.12.8,03BFB7E5-9CD8-CB27-EE9E-F3BA8024ECED,1SDCH7G0169R0K,,,,,6.972828889,79.9159239,5,,
3/2/2024,43:08.6,5m 51.0s,351,6.972887146,79.91594295,0.9,0.9,1.6,58,0.5,0,0,0,0,0,0,-2.684328,0,0.6,-1.2,32.2,32.2,,Tripod,Auto Fly,,16,5,TRUE,,Mavic Mini,TRUE,FALSE,,Smart,RC,FALSE,TRUE,FALSE,,,TRUE,,FALSE,FALSE,FALSE,FALSE,FALSE,FALSE,FALSE,FALSE,FALSE,FALSE,0,Follow Yaw,0,0,36.6,36.6,FALSE,FALSE,FALSE,FALSE,FALSE,TRUE,,TRUE,Normal,,100,1024,1024,1522,1024,2,FALSE,FALSE,FALSE,FALSE,FALSE,0,FALSE,FALSE,FALSE,FALSE,73,7.551,1508,2075,7.719,FALSE,3.78,3.771,0.012,FALSE,FALSE,NA,106.5,106.3,106.5,0,0,0,0,5,3571.7,892.92,,Idle,0,20,FALSE,5,TRUE,7,Go Home,FALSE,FALSE,FALSE,FALSE,FALSE,FALSE,FALSE,FALSE,FALSE,FALSE,FALSE,FALSE,6.972887123,79.91594268,0,124,328,TRUE,1,1,FALSE,FALSE,FALSE,FALSE,,TRUE,FALSE,FALSE,Course Lock,49.2,14.3,16.4,Calm,40,,1.12.8,Mavic Mini,1SDCH7G0169R0K,1SFLH6Q0AB03DJ,1SRCH7F014TAHX,1U5X071EXP6C8G,53,0.1,3.2,8.324995,2.908022,0,5846,Mavic Mini,1SDCH7G0169R0K,1SFLH6Q0AB03DJ,1SRCH7F014TAHX,1U5X071EXP6C8G,DJI Fly,,1.12.8,03BFB7E5-9CD8-CB27-EE9E-F3BA8024ECED,1SDCH7G0169R0K,,,,,6.972828889,79.9159239,5,,
3/2/2024,43:08.7,5m 51.1s,351.1,6.972887146,79.91594302,1.3,1.3,1.9,58,0.5,0,0,0,0,0,0,-2.684328,0,0.4,-1.3,32.2,32.2,,Tripod,Auto Fly,,16,5,TRUE,,Mavic Mini,TRUE,FALSE,,Smart,RC,FALSE,TRUE,FALSE,,,TRUE,,FALSE,FALSE,FALSE,FALSE,FALSE,FALSE,FALSE,FALSE,FALSE,FALSE,0,Follow Yaw,0,0,36.6,36.6,FALSE,FALSE,FALSE,FALSE,FALSE,TRUE,,TRUE,Normal,,100,1024,1024,1426,1024,2,FALSE,FALSE,FALSE,FALSE,FALSE,0,FALSE,FALSE,FALSE,FALSE,73,7.551,1508,2075,7.719,FALSE,3.78,3.771,0.012,FALSE,FALSE,NA,106.5,106.3,106.5,0,0,0,0,5,3571.7,892.92,,Idle,0,20,FALSE,5,TRUE,7,Go Home,FALSE,FALSE,FALSE,FALSE,FALSE,FALSE,FALSE,FALSE,FALSE,FALSE,FALSE,FALSE,6.972887123,79.91594268,0.1,124,328,TRUE,1,1,FALSE,FALSE,FALSE,FALSE,,TRUE,FALSE,FALSE,Course Lock,49.2,14.3,16.4,Calm,40,,1.12.8,Mavic Mini,1SDCH7G0169R0K,1SFLH6Q0AB03DJ,1SRCH7F014TAHX,1U5X071EXP6C8G,53,0.1,3.2,8.324995,2.908022,0,5846,Mavic Mini,1SDCH7G0169R0K,1SFLH6Q0AB03DJ,1SRCH7F014TAHX,1U5X071EXP6C8G,DJI Fly,,1.12.8,03BFB7E5-9CD8-CB27-EE9E-F3BA8024ECED,1SDCH7G0169R0K,,,,,6.972828889,79.9159239,5,,
3/2/2024,43:08.8,5m 51.2s,351.2,6.972887153,79.91594328,1.9,1.9,2.2,59,0.6,0,0,0,0,0,0,-2.684328,0,0.8,-1.4,32.1,32.1,,Tripod,Auto Fly,,16,5,TRUE,,Mavic Mini,TRUE,FALSE,,Smart,RC,FALSE,TRUE,FALSE,,,TRUE,,FALSE,FALSE,FALSE,FALSE,FALSE,FALSE,FALSE,FALSE,FALSE,FALSE,0,Follow Yaw,0,0,36.6,36.6,FALSE,FALSE,FALSE,FALSE,FALSE,TRUE,,TRUE,Normal,,100,1024,1024,1024,1024,2,FALSE,FALSE,FALSE,FALSE,FALSE,0,FALSE,FALSE,FALSE,FALSE,73,7.551,1508,2075,7.719,FALSE,3.78,3.771,0.012,FALSE,FALSE,NA,106.5,106.3,106.5,0,0,0,0,5,3571.7,892.92,,Idle,0,20,FALSE,5,TRUE,7,Go Home,FALSE,FALSE,FALSE,FALSE,FALSE,FALSE,FALSE,FALSE,FALSE,FALSE,FALSE,FALSE,6.972887123,79.91594268,0.2,124,328,TRUE,1,1,FALSE,FALSE,FALSE,FALSE,,TRUE,FALSE,FALSE,Course Lock,49.2,14.3,16.4,Calm,40,,1.12.8,Mavic Mini,1SDCH7G0169R0K,1SFLH6Q0AB03DJ,1SRCH7F014TAHX,1U5X071EXP6C8G,53,0.1,3.2,8.324995,2.908022,0,5846,Mavic Mini,1SDCH7G0169R0K,1SFLH6Q0AB03DJ,1SRCH7F014TAHX,1U5X071EXP6C8G,DJI Fly,,1.12.8,03BFB7E5-9CD8-CB27-EE9E-F3BA8024ECED,1SDCH7G0169R0K,,,,,6.972828889,79.9159239,5,,
3/2/2024,43:08.9,5m 51.3s,351.3,6.972887148,79.91594342,2.2,2.2,2.6,59,0.6,0,0,0,0,0,0,-2.460634,0,1.1,-1.3,32.2,32.2,,Tripod,Auto Fly,,16,5,TRUE,,Mavic Mini,TRUE,FALSE,,Smart,RC,FALSE,TRUE,FALSE,,,TRUE,,FALSE,FALSE,FALSE,FALSE,FALSE,FALSE,FALSE,FALSE,FALSE,FALSE,0,Follow Yaw,0,0,36.6,36.6,FALSE,FALSE,FALSE,FALSE,FALSE,TRUE,,TRUE,Normal,,100,1024,1024,1024,1024,2,FALSE,FALSE,FALSE,FALSE,FALSE,0,FALSE,FALSE,FALSE,FALSE,73,7.551,1508,2075,7.719,FALSE,3.78,3.771,0.012,FALSE,FALSE,NA,106.5,106.3,106.5,0,0,0,0,5,3571.7,892.92,,Idle,0,20,FALSE,5,TRUE,7,Go Home,FALSE,FALSE,FALSE,FALSE,FALSE,FALSE,FALSE,FALSE,FALSE,FALSE,FALSE,FALSE,6.972887123,79.91594268,0.2,124,328,TRUE,1,1,FALSE,FALSE,FALSE,FALSE,,TRUE,FALSE,FALSE,Course Lock,49.2,14.3,16.4,Calm,40,,1.12.8,Mavic Mini,1SDCH7G0169R0K,1SFLH6Q0AB03DJ,1SRCH7F014TAHX,1U5X071EXP6C8G,53,0.1,3.2,8.324995,2.908022,0,5846,Mavic Mini,1SDCH7G0169R0K,1SFLH6Q0AB03DJ,1SRCH7F014TAHX,1U5X071EXP6C8G,DJI Fly,,1.12.8,03BFB7E5-9CD8-CB27-EE9E-F3BA8024ECED,1SDCH7G0169R0K,,,,,6.972828889,79.9159239,5,,
3/2/2024,43:09.1,5m 51.4s,351.4,6.972887075,79.9159435,2.6,2.6,2.9,59,0.7,0,0,0,0,0,0,-2.23694,0,0.6,-1.1,32.2,32.2,,Tripod,Auto Fly,,16,5,TRUE,,Mavic Mini,TRUE,FALSE,,Smart,RC,FALSE,TRUE,FALSE,,,TRUE,,FALSE,FALSE,FALSE,FALSE,FALSE,FALSE,FALSE,FALSE,FALSE,FALSE,0,Follow Yaw,0,0,36.6,36.6,FALSE,FALSE,FALSE,FALSE,FALSE,TRUE,,TRUE,Normal,,100,1024,1024,1024,1024,2,FALSE,FALSE,FALSE,FALSE,FALSE,0,FALSE,FALSE,FALSE,FALSE,73,7.551,1508,2075,7.719,FALSE,3.78,3.771,0.012,FALSE,FALSE,NA,106.5,106.3,106.5,0,0,0,0,5,3571.7,892.92,,Idle,0,20,FALSE,5,TRUE,7,Go Home,FALSE,FALSE,FALSE,FALSE,FALSE,FALSE,FALSE,FALSE,FALSE,FALSE,FALSE,FALSE,6.972887123,79.91594268,0.2,124,328,TRUE,1,1,FALSE,FALSE,FALSE,FALSE,,TRUE,FALSE,FALSE,Course Lock,49.2,14.3,16.4,Calm,40,,1.12.8,Mavic Mini,1SDCH7G0169R0K,1SFLH6Q0AB03DJ,1SRCH7F014TAHX,1U5X071EXP6C8G,53,0.1,3.2,8.324995,2.908022,0,5846,Mavic Mini,1SDCH7G0169R0K,1SFLH6Q0AB03DJ,1SRCH7F014TAHX,1U5X071EXP6C8G,DJI Fly,,1.12.8,03BFB7E5-9CD8-CB27-EE9E-F3BA8024ECED,1SDCH7G0169R0K,,,,,6.972828889,79.9159239,5,,
3/2/2024,43:09.1,5m 51.5s,351.5,6.972886985,79.91594359,2.9,2.9,3.2,60,0.7,0,0,0,0,0,0,-1.789552,0,0.4,-1.3,32.2,32.2,,Tripod,Auto Fly,,16,5,TRUE,,Mavic Mini,TRUE,FALSE,,Smart,RC,FALSE,TRUE,FALSE,,,TRUE,,FALSE,FALSE,FALSE,FALSE,FALSE,FALSE,FALSE,FALSE,FALSE,FALSE,0,Follow Yaw,0,0,36.6,36.6,FALSE,FALSE,FALSE,FALSE,FALSE,TRUE,,TRUE,Normal,,100,1024,1024,1024,1024,2,FALSE,FALSE,FALSE,FALSE,FALSE,0,FALSE,FALSE,FALSE,FALSE,73,7.551,1508,2075,7.629,FALSE,3.78,3.771,0.012,FALSE,FALSE,NA,106.5,106.3,106.5,0,0,0,0,5,4094.5,1023.64,,Idle,0,20,FALSE,5,TRUE,7,Go Home,FALSE,FALSE,FALSE,FALSE,FALSE,FALSE,FALSE,FALSE,FALSE,FALSE,FALSE,FALSE,6.972887123,79.91594268,0.3,124,328,TRUE,1,1,FALSE,FALSE,FALSE,FALSE,,TRUE,FALSE,FALSE,Course Lock,49.2,14.3,16.4,Calm,40,,1.12.8,Mavic Mini,1SDCH7G0169R0K,1SFLH6Q0AB03DJ,1SRCH7F014TAHX,1U5X071EXP6C8G,53,0.1,3.2,8.324995,2.908022,0,5846,Mavic Mini,1SDCH7G0169R0K,1SFLH6Q0AB03DJ,1SRCH7F014TAHX,1U5X071EXP6C8G,DJI Fly,,1.12.8,03BFB7E5-9CD8-CB27-EE9E-F3BA8024ECED,1SDCH7G0169R0K,,,,,6.972828889,79.9159239,5,,
3/2/2024,43:09.2,5m 51.6s,351.6,6.972886712,79.91594355,2.9,2.9,3.6,60,0.8,0,0,0,0,0,0,-1.342164,0,0.3,-1.2,32.3,32.3,,Tripod,Auto Fly,,16,5,TRUE,,Mavic Mini,TRUE,FALSE,,Smart,RC,FALSE,TRUE,FALSE,,,TRUE,,FALSE,FALSE,FALSE,FALSE,FALSE,FALSE,FALSE,FALSE,FALSE,FALSE,0,Follow Yaw,0,0,36.6,36.6,FALSE,FALSE,FALSE,FALSE,FALSE,TRUE,,TRUE,Normal,,100,1024,1024,1024,1024,2,FALSE,FALSE,FALSE,FALSE,FALSE,0,FALSE,FALSE,FALSE,FALSE,73,7.551,1508,2075,7.629,FALSE,3.78,3.771,0.012,FALSE,FALSE,NA,106.5,106.3,106.5,0,0,0,0,5,4094.5,1023.64,,Idle,0,20,FALSE,5,TRUE,7,Go Home,FALSE,FALSE,FALSE,FALSE,FALSE,FALSE,FALSE,FALSE,FALSE,FALSE,FALSE,FALSE,6.972887123,79.91594268,0.3,124,328,TRUE,1,1,FALSE,FALSE,FALSE,FALSE,,TRUE,FALSE,FALSE,Course Lock,49.2,14.3,16.4,Calm,40,,1.12.8,Mavic Mini,1SDCH7G0169R0K,1SFLH6Q0AB03DJ,1SRCH7F014TAHX,1U5X071EXP6C8G,53,0.1,3.2,8.324995,2.908022,0,5846,Mavic Mini,1SDCH7G0169R0K,1SFLH6Q0AB03DJ,1SRCH7F014TAHX,1U5X071EXP6C8G,DJI Fly,,1.12.8,03BFB7E5-9CD8-CB27-EE9E-F3BA8024ECED,1SDCH7G0169R0K,,,,,6.972828889,79.9159239,5,,
3/2/2024,43:09.3,5m 51.7s,351.7,6.97288661,79.91594361,3.2,3.2,3.9,60,0.9,0,0,0,0,0,0,-0.894776,0,0.1,-1,32.3,32.3,,Tripod,Auto Fly,,16,5,TRUE,,Mavic Mini,TRUE,FALSE,,Smart,RC,FALSE,TRUE,FALSE,,,TRUE,,FALSE,FALSE,FALSE,FALSE,FALSE,FALSE,FALSE,FALSE,FALSE,FALSE,0,Follow Yaw,0,0,36.6,36.6,FALSE,FALSE,FALSE,FALSE,FALSE,TRUE,,TRUE,Normal,,100,1024,1024,1024,1024,2,FALSE,FALSE,FALSE,FALSE,FALSE,0,FALSE,FALSE,FALSE,FALSE,73,7.551,1508,2075,7.629,FALSE,3.78,3.771,0.012,FALSE,FALSE,NA,106.5,106.3,106.5,0,0,0,0,5,4094.5,1023.64,,Idle,0,20,FALSE,5,TRUE,7,Go Home,FALSE,FALSE,FALSE,FALSE,FALSE,FALSE,FALSE,FALSE,FALSE,FALSE,FALSE,FALSE,6.972887123,79.91594268,0.3,124,328,TRUE,1,1,FALSE,FALSE,FALSE,FALSE,,TRUE,FALSE,FALSE,Course Lock,49.2,14.3,16.4,Calm,40,,1.12.8,Mavic Mini,1SDCH7G0169R0K,1SFLH6Q0AB03DJ,1SRCH7F014TAHX,1U5X071EXP6C8G,53,0.1,3.2,8.324995,2.908022,0,5846,Mavic Mini,1SDCH7G0169R0K,1SFLH6Q0AB03DJ,1SRCH7F014TAHX,1U5X071EXP6C8G,DJI Fly,,1.12.8,03BFB7E5-9CD8-CB27-EE9E-F3BA8024ECED,1SDCH7G0169R0K,,,,,6.972828889,79.9159239,5,,
3/2/2024,43:09.4,5m 51.8s,351.8,6.97288661,79.91594362,3.2,3.2,3.9,60,0.9,0,0,0,0,0,0,-0.447388,0,0.2,-1.4,32.3,32.3,,Tripod,Auto Fly,,16,5,TRUE,,Mavic Mini,TRUE,FALSE,,Smart,RC,FALSE,TRUE,FALSE,,,TRUE,,FALSE,FALSE,FALSE,FALSE,FALSE,FALSE,FALSE,FALSE,FALSE,FALSE,0,Follow Yaw,0,0,36.6,36.6,FALSE,FALSE,FALSE,FALSE,FALSE,TRUE,,TRUE,Normal,,100,1024,1024,1024,1024,2,FALSE,FALSE,FALSE,FALSE,FALSE,0,FALSE,FALSE,FALSE,FALSE,73,7.551,1508,2075,7.629,FALSE,3.78,3.771,0.012,FALSE,FALSE,NA,106.5,106.3,106.5,0,0,0,0,5,4094.5,1023.64,,Idle,0,20,FALSE,5,TRUE,7,Go Home,FALSE,FALSE,FALSE,FALSE,FALSE,FALSE,FALSE,FALSE,FALSE,FALSE,FALSE,FALSE,6.972887123,79.91594268,0.3,124,328,TRUE,1,1,FALSE,FALSE,FALSE,FALSE,,TRUE,FALSE,FALSE,Course Lock,49.2,14.3,16.4,Calm,40,,1.12.8,Mavic Mini,1SDCH7G0169R0K,1SFLH6Q0AB03DJ,1SRCH7F014TAHX,1U5X071EXP6C8G,53,0.1,3.2,8.324995,2.908022,0,5846,Mavic Mini,1SDCH7G0169R0K,1SFLH6Q0AB03DJ,1SRCH7F014TAHX,1U5X071EXP6C8G,DJI Fly,,1.12.8,03BFB7E5-9CD8-CB27-EE9E-F3BA8024ECED,1SDCH7G0169R0K,,,,,6.972828889,79.9159239,5,,
3/2/2024,43:09.5,5m 51.9s,351.9,6.972886616,79.91594363,3.2,3.2,3.9,60,0.9,0,0,0,0,0,0,-0.223694,0,0.3,-1.9,32.4,32.4,,Tripod,Auto Fly,,16,5,TRUE,,Mavic Mini,TRUE,FALSE,,Smart,RC,FALSE,TRUE,FALSE,,,TRUE,,FALSE,FALSE,FALSE,FALSE,FALSE,FALSE,FALSE,FALSE,FALSE,FALSE,0,Follow Yaw,0,0,36.6,36.6,FALSE,FALSE,FALSE,FALSE,FALSE,TRUE,,TRUE,Normal,,100,1024,1024,1024,887,2,FALSE,FALSE,FALSE,FALSE,FALSE,0,FALSE,FALSE,FALSE,FALSE,73,7.551,1508,2075,7.629,FALSE,3.78,3.771,0.012,FALSE,FALSE,NA,106.5,106.3,106.5,0,0,0,0,5,4094.5,1023.64,,Idle,0,20,FALSE,5,TRUE,7,Go Home,FALSE,FALSE,FALSE,FALSE,FALSE,FALSE,FALSE,FALSE,FALSE,FALSE,FALSE,FALSE,6.972887123,79.91594268,0.3,124,328,TRUE,1,1,FALSE,FALSE,FALSE,FALSE,,TRUE,FALSE,FALSE,Course Lock,49.2,14.3,16.4,Calm,40,,1.12.8,Mavic Mini,1SDCH7G0169R0K,1SFLH6Q0AB03DJ,1SRCH7F014TAHX,1U5X071EXP6C8G,53,0.1,3.2,8.324995,2.908022,0,5846,Mavic Mini,1SDCH7G0169R0K,1SFLH6Q0AB03DJ,1SRCH7F014TAHX,1U5X071EXP6C8G,DJI Fly,,1.12.8,03BFB7E5-9CD8-CB27-EE9E-F3BA8024ECED,1SDCH7G0169R0K,,,,,6.972828889,79.9159239,5,,
3/2/2024,43:09.7,5m 52.0s,352,6.972886702,79.91594375,3.2,3.2,3.9,60,0.9,0,0,0,0,0,0,0,0,0.3,-2.1,32.5,32.5,,Tripod,Auto Fly,,16,5,TRUE,,Mavic Mini,TRUE,FALSE,,Smart,RC,FALSE,TRUE,FALSE,,,TRUE,,FALSE,FALSE,FALSE,FALSE,FALSE,FALSE,FALSE,FALSE,FALSE,FALSE,0,Follow Yaw,0,0,36.6,36.6,FALSE,FALSE,FALSE,FALSE,FALSE,TRUE,,TRUE,Normal,,100,1024,1024,1024,786,2,FALSE,FALSE,FALSE,FALSE,FALSE,0,FALSE,FALSE,FALSE,FALSE,73,7.551,1508,2075,7.629,FALSE,3.78,3.771,0.012,FALSE,FALSE,NA,106.5,106.3,106.5,0,0,0,0,5,4094.5,1023.64,,Idle,0,20,FALSE,5,TRUE,7,Go Home,FALSE,FALSE,FALSE,FALSE,FALSE,FALSE,FALSE,FALSE,FALSE,FALSE,FALSE,FALSE,6.972887123,79.91594268,0.4,124,328,TRUE,1,1,FALSE,FALSE,FALSE,FALSE,,TRUE,FALSE,FALSE,Course Lock,49.2,14.3,16.4,Calm,40,,1.12.8,Mavic Mini,1SDCH7G0169R0K,1SFLH6Q0AB03DJ,1SRCH7F014TAHX,1U5X071EXP6C8G,53,0.1,3.2,8.324995,2.908022,0,5846,Mavic Mini,1SDCH7G0169R0K,1SFLH6Q0AB03DJ,1SRCH7F014TAHX,1U5X071EXP6C8G,DJI Fly,,1.12.8,03BFB7E5-9CD8-CB27-EE9E-F3BA8024ECED,1SDCH7G0169R0K,,,,,6.972828889,79.9159239,5,,
3/2/2024,43:09.8,5m 52.1s,352.1,6.972886663,79.91594391,3.2,3.2,4.2,60,1,0,0,0,0,0,0,0,0,0.3,-2,32.5,32.5,,Tripod,Auto Fly,,16,5,TRUE,,Mavic Mini,TRUE,FALSE,,Smart,RC,FALSE,TRUE,FALSE,,,TRUE,,FALSE,FALSE,FALSE,FALSE,FALSE,FALSE,FALSE,FALSE,FALSE,FALSE,0,Follow Yaw,0,0,36.6,36.6,FALSE,FALSE,FALSE,FALSE,FALSE,TRUE,,TRUE,Normal,,100,1024,1024,1024,767,2,FALSE,FALSE,FALSE,FALSE,FALSE,0,FALSE,FALSE,FALSE,FALSE,73,7.551,1508,2075,7.629,FALSE,3.78,3.771,0.012,FALSE,FALSE,NA,106.5,106.3,106.5,0,0,0,0,5,4094.5,1023.64,,Idle,0,20,FALSE,5,TRUE,7,Go Home,FALSE,FALSE,FALSE,FALSE,FALSE,FALSE,FALSE,FALSE,FALSE,FALSE,FALSE,FALSE,6.972887123,79.91594268,0.4,124,328,TRUE,1,1,FALSE,FALSE,FALSE,FALSE,,TRUE,FALSE,FALSE,Course Lock,49.2,14.3,16.4,Calm,40,,1.12.8,Mavic Mini,1SDCH7G0169R0K,1SFLH6Q0AB03DJ,1SRCH7F014TAHX,1U5X071EXP6C8G,53,0.1,3.2,8.324995,2.908022,0,5846,Mavic Mini,1SDCH7G0169R0K,1SFLH6Q0AB03DJ,1SRCH7F014TAHX,1U5X071EXP6C8G,DJI Fly,,1.12.8,03BFB7E5-9CD8-CB27-EE9E-F3BA8024ECED,1SDCH7G0169R0K,,,,,6.972828889,79.9159239,5,,
