CUSTOM.date [local],CUSTOM.updateTime [local],OSD.flyTime,OSD.flyTime [s],OSD.latitude,OSD.longitude,OSD.height [ft],OSD.heightMax [ft],OSD.vpsHeight [ft],OSD.altitude [ft],OSD.mileage [ft],OSD.hSpeed [MPH],OSD.hSpeedMax [MPH],OSD.xSpeed [MPH],OSD.xSpeedMax [MPH],OSD.ySpeed [MPH],OSD.ySpeedMax [MPH],OSD.zSpeed [MPH],OSD.zSpeedMax [MPH],OSD.pitch,OSD.roll,OSD.yaw,OSD.yaw [360],OSD.directionOfTravel,OSD.flycState,OSD.flycCommand,OSD.flightAction,OSD.gpsNum,OSD.gpsLevel,OSD.isGPSUsed,OSD.nonGPSCause,OSD.droneType,OSD.isSwaveWork,OSD.waveError,OSD.goHomeStatus,OSD.batteryType,OSD.ctrlDevice,OSD.isOnGround,OSD.isMotorOn,OSD.isMotorBlocked,OSD.motorStartFailedCause,OSD.motorFailReason,OSD.isImuPreheated,OSD.imuInitFailReason,OSD.isAcceletorOverRange,OSD.isBarometerDeadInAir,OSD.isCompassError,OSD.isGoHomeHeightModified,OSD.canIOCWork,OSD.isNotEnoughForce,OSD.isOutOfLimit,OSD.isPropellerCatapult,OSD.isVibrating,OSD.isVisionUsed,OSD.voltageWarning,GIMBAL.mode,GIMBAL.pitch,GIMBAL.roll,GIMBAL.yaw,GIMBAL.yaw [360],GIMBAL.isPitchAtLimit,GIMBAL.isRollAtLimit,GIMBAL.isYawAtLimit,GIMBAL.isStuck,CAMERA.isPhoto,CAMERA.isVideo,CAMERA.filename,CAMERA.sdCardIsInserted,CAMERA.sdCardState,RC.downlinkSignal,RC.uplinkSignal,RC.aileron,RC.elevator,RC.throttle,RC.rudder,RC.mode,RC.goHomeDepressed,RC.recordDepressed,RC.shutterDepressed,RC.playbackDepressed,RC.wheelDepressed,RC.wheelOffset,RC.custom1Depressed,RC.custom2Depressed,RC.custom3Depressed,RC.custom4Depressed,BATTERY.chargeLevel,BATTERY.currentPV [V],BATTERY.currentCapacity [mAh],BATTERY.fullCapacity [mAh],BATTERY.voltage [V],BATTERY.isCellVoltageEstimated,BATTERY.cellVoltage1 [V],BATTERY.cellVoltage2 [V],BATTERY.maxCellVoltageDeviation,BATTERY.isCellVoltageDeviationHigh,BATTERY.isVoltageLow,BATTERY.current [A],BATTERY.temperature [F],BATTERY.minTemperature [F],BATTERY.maxTemperature [F],BATTERY.usefulTime [s],BATTERY.goHomeTime [s],BATTERY.landTime [s],BATTERY.goHomeBattery,BATTERY.landBattery,BATTERY.safeFlyRadius,BATTERY.volumeConsume,BATTERY.status,BATTERY.goHomeStatus,BATTERY.goHomeCountdown,BATTERY.lowWarning,BATTERY.lowWarningGoHome,BATTERY.seriousLowWarning,BATTERY.seriousLowWarningLanding,BATTERY.timesCharged,MC.failSafeAction,MC.isObstacleAvoidanceEnabled,MC.isCollisionAvoidanceEnabled,MC.isRthObstacleAvoidanceEnabled,MC.isBraking,MC.isAvoidingObstacle,MC.isAvoidingActiveObstacle,MC.isAscentLimitedByObstacle,MC.isLandingConfirmationNeeded,MC.atLowAltitudeLimit,MC.atDistanceLimit,MC.atAirportAltitudeLimit,MC.atAirportBoundary,HOME.latitude,HOME.longitude,HOME.distance [ft],HOME.height [ft],HOME.heightLimit [ft],HOME.isHomeRecord,HOME.goHomeMode,HOME.aircraftHeadDirection,HOME.isDynamicHomePointEnabled,HOME.isReachedLimitDistance,HOME.isReachedLimitHeight,HOME.isCompassCalibrating,HOME.compassCalibrationState,HOME.isMultipleFlightModeEnabled,HOME.isBeginnerMode,HOME.isIOCEnabled,HOME.iocMode,HOME.goHomeHeight [ft],HOME.courseLockAngle,HOME.forceLandingHeight [ft],HOME.wind,HOME.dataRecorderFileIndex,RECOVER.appType,RECOVER.appVersion,RECOVER.aircraftName,RECOVER.aircraftSerial,RECOVER.cameraSerial,RECOVER.rcSerial,RECOVER.batterySerial,DETAILS.totalTime [s],DETAILS.totalDistance [ft],DETAILS.maxHeight [ft],DETAILS.maxHorizontalSpeed [MPH],DETAILS.maxVerticalSpeed [MPH],DETAILS.photoNum,DETAILS.videoTime [s],DETAILS.aircraftName,DETAILS.aircraftSerial,DETAILS.cameraSerial,DETAILS.rcSerial,DETAILS.batterySerial,DETAILS.appName,DETAILS.appType,DETAILS.appVersion,DETAILS.guid,SERIAL.flightController,SERIAL.camera,SERIAL.gimbal,SERIAL.rc,SERIAL.battery,APPGPS.latitude,APPGPS.longitude,APPGPS.accuracy,APP.tip,APP.warning
1/23/2024,44:43.2,7m 36.3s,456.3,6.974752794,79.91478148,0,0,0.6,66,0,0,0,0,0,0,0,0,0,5.2,-1,-174.6,185.4,,Starting Motors,Auto Fly,Takeoff (App Auto),14,5,TRUE,,Mavic Mini,FALSE,FALSE,,Smart,RC,TRUE,TRUE,FALSE,,,TRUE,,FALSE,FALSE,FALSE,FALSE,FALSE,FALSE,FALSE,FALSE,FALSE,FALSE,0,Follow Yaw,4.4,0,-173.9,186.1,FALSE,FALSE,FALSE,TRUE,FALSE,FALSE,,TRUE,Normal,,,1024,1024,1024,1024,1,FALSE,FALSE,FALSE,FALSE,FALSE,0,FALSE,FALSE,FALSE,FALSE,60,7.646,1240,2050,7.646,FALSE,3.824,3.822,0.002,FALSE,FALSE,NA,112.5,112.4,112.4,,,,,,,,,Idle,,,TRUE,,FALSE,6,Go Home,FALSE,FALSE,FALSE,FALSE,FALSE,FALSE,FALSE,FALSE,FALSE,FALSE,FALSE,FALSE,,,,,,FALSE,,,FALSE,FALSE,FALSE,FALSE,,FALSE,FALSE,FALSE,,,,,Calm,,,1.12.6,Mavic Mini,1SDCH7G0169R0K,1SFLH6Q0AB03DJ,1SRCH7F014TAHX,1U5X071EXP5ZJG,303.2,0.4,131.2,11.666536,6.71082,0,1643,Mavic Mini,1SDCH7G0169R0K,1SFLH6Q0AB03DJ,1SRCH7F014TAHX,1U5X071EXP5ZJG,DJI Fly,,1.12.6,248DCF36-2D56-9C56-4279-D4B8C3D97F4D,1SDCH7G0169R0K,,,,,,,,Flight mode changed to Starting Motors.,
1/23/2024,44:43.2,7m 36.4s,456.4,6.97475274,79.91478139,0,0,0.6,66,0,0,0,0,0,0,0,0,0,5.1,-1,-174.6,185.4,,Starting Motors,Auto Fly,Takeoff (App Auto),14,5,TRUE,,Mavic Mini,FALSE,FALSE,,Smart,RC,TRUE,TRUE,FALSE,,,TRUE,,FALSE,FALSE,FALSE,FALSE,FALSE,FALSE,FALSE,FALSE,FALSE,FALSE,0,Follow Yaw,4.4,0,-173.9,186.1,FALSE,FALSE,FALSE,TRUE,FALSE,FALSE,,TRUE,Normal,,,1024,1024,1024,1024,1,FALSE,FALSE,FALSE,FALSE,FALSE,0,FALSE,FALSE,FALSE,FALSE,60,7.646,1240,2050,7.646,FALSE,3.824,3.822,0.002,FALSE,FALSE,NA,112.5,112.4,112.4,,,,,,,,,Idle,,,TRUE,,FALSE,6,Go Home,FALSE,FALSE,FALSE,FALSE,FALSE,FALSE,FALSE,FALSE,FALSE,FALSE,FALSE,FALSE,,,,,,FALSE,,,FALSE,FALSE,FALSE,FALSE,,FALSE,FALSE,FALSE,,,,,Calm,,,1.12.6,Mavic Mini,1SDCH7G0169R0K,1SFLH6Q0AB03DJ,1SRCH7F014TAHX,1U5X071EXP5ZJG,303.2,0.4,131.2,11.666536,6.71082,0,1643,Mavic Mini,1SDCH7G0169R0K,1SFLH6Q0AB03DJ,1SRCH7F014TAHX,1U5X071EXP5ZJG,DJI Fly,,1.12.6,248DCF36-2D56-9C56-4279-D4B8C3D97F4D,1SDCH7G0169R0K,,,,,,,,,
1/23/2024,44:43.3,7m 36.5s,456.5,6.974752686,79.91478128,0,0,0.3,66,0,0,0,0,0,0,0,0,0,5.2,-1,-174.6,185.4,,Starting Motors,Auto Fly,Takeoff (App Auto),14,5,TRUE,,Mavic Mini,TRUE,FALSE,,Smart,RC,TRUE,TRUE,FALSE,,,TRUE,,FALSE,FALSE,FALSE,FALSE,FALSE,FALSE,FALSE,FALSE,FALSE,FALSE,0,Follow Yaw,4.4,0,-173.9,186.1,FALSE,FALSE,FALSE,TRUE,FALSE,FALSE,,TRUE,Normal,,,1024,1024,1024,1024,1,FALSE,FALSE,FALSE,FALSE,FALSE,0,FALSE,FALSE,FALSE,FALSE,60,7.646,1240,2050,7.646,FALSE,3.824,3.822,0.002,FALSE,FALSE,NA,112.5,112.4,112.4,,,,,,,,,Idle,,,TRUE,,FALSE,6,Go Home,FALSE,FALSE,FALSE,FALSE,FALSE,FALSE,FALSE,FALSE,FALSE,FALSE,FALSE,FALSE,,,,,,FALSE,,,FALSE,FALSE,FALSE,FALSE,,FALSE,FALSE,FALSE,,,,,Calm,,,1.12.6,Mavic Mini,1SDCH7G0169R0K,1SFLH6Q0AB03DJ,1SRCH7F014TAHX,1U5X071EXP5ZJG,303.2,0.4,131.2,11.666536,6.71082,0,1643,Mavic Mini,1SDCH7G0169R0K,1SFLH6Q0AB03DJ,1SRCH7F014TAHX,1U5X071EXP5ZJG,DJI Fly,,1.12.6,248DCF36-2D56-9C56-4279-D4B8C3D97F4D,1SDCH7G0169R0K,,,,,,,,Gimbal motor overloaded.,Gimbal motor overloaded. Land aircraft and check whether gimbal can rotate freely on all three axes (Code: 40003).
1/23/2024,44:43.4,7m 36.6s,456.6,6.974752636,79.9147812,0,0,0.3,66,0,0,0,0,0,0,0,0,0,5.2,-1,-174.6,185.4,,Starting Motors,Auto Fly,Takeoff (App Auto),14,5,TRUE,,Mavic Mini,TRUE,FALSE,,Smart,RC,TRUE,TRUE,FALSE,,,TRUE,,FALSE,FALSE,FALSE,FALSE,FALSE,FALSE,FALSE,FALSE,FALSE,FALSE,0,Follow Yaw,4.4,0,-173.9,186.1,FALSE,FALSE,FALSE,TRUE,FALSE,FALSE,,TRUE,Normal,,,1024,1024,1024,1024,1,FALSE,FALSE,FALSE,FALSE,FALSE,0,FALSE,FALSE,FALSE,FALSE,60,7.646,1240,2050,7.646,FALSE,3.824,3.822,0.002,FALSE,FALSE,NA,112.5,112.4,112.4,,,,,,,,,Idle,,,TRUE,,FALSE,6,Go Home,FALSE,FALSE,FALSE,FALSE,FALSE,FALSE,FALSE,FALSE,FALSE,FALSE,FALSE,FALSE,,,,,,FALSE,,,FALSE,FALSE,FALSE,FALSE,,FALSE,FALSE,FALSE,,,,,Calm,,,1.12.6,Mavic Mini,1SDCH7G0169R0K,1SFLH6Q0AB03DJ,1SRCH7F014TAHX,1U5X071EXP5ZJG,303.2,0.4,131.2,11.666536,6.71082,0,1643,Mavic Mini,1SDCH7G0169R0K,1SFLH6Q0AB03DJ,1SRCH7F014TAHX,1U5X071EXP5ZJG,DJI Fly,,1.12.6,248DCF36-2D56-9C56-4279-D4B8C3D97F4D,1SDCH7G0169R0K,,,,,,,,,
1/23/2024,44:43.5,7m 36.7s,456.7,6.974752554,79.91478112,0,0,0.3,66,0.1,0,0,0,0,0,0,0,0,5.2,-1,-174.6,185.4,,Starting Motors,Auto Fly,Takeoff (App Auto),14,5,TRUE,,Mavic Mini,TRUE,FALSE,,Smart,RC,TRUE,TRUE,FALSE,,,TRUE,,FALSE,FALSE,FALSE,FALSE,FALSE,FALSE,FALSE,FALSE,FALSE,FALSE,0,Follow Yaw,4.3,0,-173.9,186.1,FALSE,FALSE,FALSE,TRUE,FALSE,FALSE,,TRUE,Normal,,100,1024,1024,1024,1024,1,FALSE,FALSE,FALSE,FALSE,FALSE,0,FALSE,FALSE,FALSE,FALSE,60,7.646,1240,2050,7.646,FALSE,3.824,3.822,0.002,FALSE,FALSE,NA,112.5,112.4,112.4,,,,,,,,,Idle,,,TRUE,,FALSE,6,Go Home,FALSE,FALSE,FALSE,FALSE,FALSE,FALSE,FALSE,FALSE,FALSE,FALSE,FALSE,FALSE,,,,,,FALSE,,,FALSE,FALSE,FALSE,FALSE,,FALSE,FALSE,FALSE,,,,,Calm,,,1.12.6,Mavic Mini,1SDCH7G0169R0K,1SFLH6Q0AB03DJ,1SRCH7F014TAHX,1U5X071EXP5ZJG,303.2,0.4,131.2,11.666536,6.71082,0,1643,Mavic Mini,1SDCH7G0169R0K,1SFLH6Q0AB03DJ,1SRCH7F014TAHX,1U5X071EXP5ZJG,DJI Fly,,1.12.6,248DCF36-2D56-9C56-4279-D4B8C3D97F4D,1SDCH7G0169R0K,,,,,,,,,
1/23/2024,44:43.6,7m 36.8s,456.8,6.974752508,79.91478106,0,0,0.3,66,0.1,0,0,0,0,0,0,0,0,5.2,-1,-174.6,185.4,,Starting Motors,Auto Fly,Takeoff (App Auto),14,5,TRUE,,Mavic Mini,TRUE,FALSE,,Smart,RC,TRUE,TRUE,FALSE,,,TRUE,,FALSE,FALSE,FALSE,FALSE,FALSE,FALSE,FALSE,FALSE,FALSE,FALSE,0,Follow Yaw,4.3,0,-173.9,186.1,FALSE,FALSE,FALSE,TRUE,FALSE,FALSE,,TRUE,Normal,,100,1024,1024,1024,1024,1,FALSE,FALSE,FALSE,FALSE,FALSE,0,FALSE,FALSE,FALSE,FALSE,60,7.646,1240,2050,7.646,FALSE,3.824,3.822,0.002,FALSE,FALSE,NA,112.5,112.4,112.4,,,,,,,,,Idle,,,TRUE,,FALSE,6,Go Home,FALSE,FALSE,FALSE,FALSE,FALSE,FALSE,FALSE,FALSE,FALSE,FALSE,FALSE,FALSE,,,,,,FALSE,,,FALSE,FALSE,FALSE,FALSE,,FALSE,FALSE,FALSE,,,,,Calm,,,1.12.6,Mavic Mini,1SDCH7G0169R0K,1SFLH6Q0AB03DJ,1SRCH7F014TAHX,1U5X071EXP5ZJG,303.2,0.4,131.2,11.666536,6.71082,0,1643,Mavic Mini,1SDCH7G0169R0K,1SFLH6Q0AB03DJ,1SRCH7F014TAHX,1U5X071EXP5ZJG,DJI Fly,,1.12.6,248DCF36-2D56-9C56-4279-D4B8C3D97F4D,1SDCH7G0169R0K,,,,,,,,,
1/23/2024,44:43.7,7m 36.9s,456.9,6.97475246,79.91478098,0,0,0.3,66,0.1,0,0,0,0,0,0,0,0,5.1,-0.9,-174.6,185.4,,Starting Motors,Auto Fly,Takeoff (App Auto),14,5,TRUE,,Mavic Mini,TRUE,FALSE,,Smart,RC,TRUE,TRUE,FALSE,,,TRUE,,FALSE,FALSE,FALSE,FALSE,FALSE,FALSE,FALSE,FALSE,FALSE,FALSE,0,Follow Yaw,4.2,0,-173.9,186.1,FALSE,FALSE,FALSE,TRUE,FALSE,FALSE,,TRUE,Normal,,100,1024,1024,1024,1024,1,FALSE,FALSE,FALSE,FALSE,FALSE,0,FALSE,FALSE,FALSE,FALSE,60,7.646,1240,2050,7.646,FALSE,3.824,3.822,0.002,FALSE,FALSE,NA,112.5,112.4,112.4,,,,,,,,,Idle,,,TRUE,,FALSE,6,Go Home,FALSE,FALSE,FALSE,FALSE,FALSE,FALSE,FALSE,FALSE,FALSE,FALSE,FALSE,FALSE,,,,,,FALSE,,,FALSE,FALSE,FALSE,FALSE,,FALSE,FALSE,FALSE,,,,,Calm,,,1.12.6,Mavic Mini,1SDCH7G0169R0K,1SFLH6Q0AB03DJ,1SRCH7F014TAHX,1U5X071EXP5ZJG,303.2,0.4,131.2,11.666536,6.71082,0,1643,Mavic Mini,1SDCH7G0169R0K,1SFLH6Q0AB03DJ,1SRCH7F014TAHX,1U5X071EXP5ZJG,DJI Fly,,1.12.6,248DCF36-2D56-9C56-4279-D4B8C3D97F4D,1SDCH7G0169R0K,,,,,,,,,
1/23/2024,44:43.8,7m 37.0s,457,6.974752402,79.9147809,0,0,0.3,66,0.2,0,0,0,0,0,0,0,0,5.1,-1,-174.6,185.4,,Starting Motors,Auto Fly,Takeoff (App Auto),14,5,TRUE,,Mavic Mini,TRUE,FALSE,,Smart,RC,TRUE,TRUE,FALSE,,,TRUE,,FALSE,FALSE,FALSE,FALSE,FALSE,FALSE,FALSE,FALSE,FALSE,FALSE,0,Follow Yaw,4.4,0,-173.9,186.1,FALSE,FALSE,FALSE,TRUE,FALSE,FALSE,,TRUE,Normal,,100,1024,1024,1024,1024,1,FALSE,FALSE,FALSE,FALSE,FALSE,0,FALSE,FALSE,FALSE,FALSE,60,7.646,1240,2050,7.646,FALSE,3.824,3.822,0.002,FALSE,FALSE,NA,112.5,112.4,112.4,,,,,,,,,Idle,,,TRUE,,FALSE,6,Go Home,FALSE,FALSE,FALSE,FALSE,FALSE,FALSE,FALSE,FALSE,FALSE,FALSE,FALSE,FALSE,,,,,,FALSE,,,FALSE,FALSE,FALSE,FALSE,,FALSE,FALSE,FALSE,,,,,Calm,,,1.12.6,Mavic Mini,1SDCH7G0169R0K,1SFLH6Q0AB03DJ,1SRCH7F014TAHX,1U5X071EXP5ZJG,303.2,0.4,131.2,11.666536,6.71082,0,1643,Mavic Mini,1SDCH7G0169R0K,1SFLH6Q0AB03DJ,1SRCH7F014TAHX,1U5X071EXP5ZJG,DJI Fly,,1.12.6,248DCF36-2D56-9C56-4279-D4B8C3D97F4D,1SDCH7G0169R0K,,,,,,,,,
1/23/2024,44:43.9,7m 37.1s,457.1,6.974752212,79.91478071,0,0,0.3,66,0.3,0,0,0,0,0,0,0,0,5.2,-1,-174.5,185.5,,Starting Motors,Auto Fly,Takeoff (App Auto),14,5,TRUE,,Mavic Mini,TRUE,FALSE,,Smart,RC,TRUE,TRUE,FALSE,,,TRUE,,FALSE,FALSE,FALSE,FALSE,FALSE,FALSE,FALSE,FALSE,FALSE,FALSE,0,Follow Yaw,4.4,0,-173.9,186.1,FALSE,FALSE,FALSE,TRUE,FALSE,FALSE,,TRUE,Normal,,100,1024,1024,1024,1024,1,FALSE,FALSE,FALSE,FALSE,FALSE,0,FALSE,FALSE,FALSE,FALSE,60,7.646,1240,2050,7.634,FALSE,3.824,3.822,0.002,FALSE,FALSE,NA,112.5,112.4,112.4,0,6,0,0,5,2574.5,643.64,,Idle,0,20,FALSE,5,TRUE,6,Go Home,FALSE,FALSE,FALSE,FALSE,FALSE,FALSE,FALSE,FALSE,FALSE,FALSE,FALSE,FALSE,6.974774675,79.91476628,9.7,111.6,459.3,TRUE,1,1,FALSE,FALSE,FALSE,FALSE,,TRUE,FALSE,FALSE,Course Lock,131.2,,16.4,Calm,80,,1.12.6,Mavic Mini,1SDCH7G0169R0K,1SFLH6Q0AB03DJ,1SRCH7F014TAHX,1U5X071EXP5ZJG,303.2,0.4,131.2,11.666536,6.71082,0,1643,Mavic Mini,1SDCH7G0169R0K,1SFLH6Q0AB03DJ,1SRCH7F014TAHX,1U5X071EXP5ZJG,DJI Fly,,1.12.6,248DCF36-2D56-9C56-4279-D4B8C3D97F4D,1SDCH7G0169R0K,,,,,,,,Data Recorder File Index is 80.; Set Return to Home (RTH) altitude to 40 m (131 ft).; Set maximum flight altitude to 140 m (459 ft).,
1/23/2024,44:44.0,7m 37.2s,457.2,6.974752123,79.91478063,0,0,0.3,66,0.3,0,0,0,0,0,0,0,0,5.2,-1.1,-174.5,185.5,,Starting Motors,Auto Fly,Takeoff (App Auto),14,5,TRUE,,Mavic Mini,TRUE,FALSE,,Smart,RC,TRUE,TRUE,FALSE,,,TRUE,,FALSE,FALSE,FALSE,FALSE,FALSE,FALSE,FALSE,FALSE,FALSE,FALSE,0,Follow Yaw,4.4,0,-173.9,186.1,FALSE,FALSE,FALSE,TRUE,FALSE,FALSE,,TRUE,Normal,,100,1024,1024,1024,1024,1,FALSE,FALSE,FALSE,FALSE,FALSE,0,FALSE,FALSE,FALSE,FALSE,60,7.646,1240,2050,7.634,FALSE,3.824,3.822,0.002,FALSE,FALSE,NA,112.5,112.4,112.4,0,6,0,0,5,2574.5,643.64,,Idle,0,20,FALSE,5,TRUE,6,Go Home,FALSE,FALSE,FALSE,FALSE,FALSE,FALSE,FALSE,FALSE,FALSE,FALSE,FALSE,FALSE,6.974774675,79.91476628,9.7,111.6,459.3,TRUE,1,1,FALSE,FALSE,FALSE,FALSE,,TRUE,FALSE,FALSE,Course Lock,131.2,,16.4,Calm,80,,1.12.6,Mavic Mini,1SDCH7G0169R0K,1SFLH6Q0AB03DJ,1SRCH7F014TAHX,1U5X071EXP5ZJG,303.2,0.4,131.2,11.666536,6.71082,0,1643,Mavic Mini,1SDCH7G0169R0K,1SFLH6Q0AB03DJ,1SRCH7F014TAHX,1U5X071EXP5ZJG,DJI Fly,,1.12.6,248DCF36-2D56-9C56-4279-D4B8C3D97F4D,1SDCH7G0169R0K,,,,,,,,,
1/23/2024,44:44.1,7m 37.3s,457.3,6.974752058,79.91478059,0,0,0.3,66,0.3,0,0,0,0,0,0,0,0,5.2,-1.1,-174.6,185.4,,Starting Motors,Auto Fly,Takeoff (App Auto),14,5,TRUE,,Mavic Mini,TRUE,FALSE,,Smart,RC,TRUE,TRUE,FALSE,,,TRUE,,FALSE,FALSE,FALSE,FALSE,FALSE,FALSE,FALSE,FALSE,FALSE,FALSE,0,Follow Yaw,4.4,0,-173.9,186.1,FALSE,FALSE,FALSE,TRUE,FALSE,FALSE,,TRUE,Normal,,100,1024,1024,1024,1024,1,FALSE,FALSE,FALSE,FALSE,FALSE,0,FALSE,FALSE,FALSE,FALSE,60,7.646,1240,2050,7.634,FALSE,3.824,3.822,0.002,FALSE,FALSE,NA,112.5,112.4,112.4,0,6,0,0,5,2574.5,643.64,,Idle,0,20,FALSE,5,TRUE,6,Go Home,FALSE,FALSE,FALSE,FALSE,FALSE,FALSE,FALSE,FALSE,FALSE,FALSE,FALSE,FALSE,6.974774675,79.91476628,9.7,111.6,459.3,TRUE,1,1,FALSE,FALSE,FALSE,FALSE,,TRUE,FALSE,FALSE,Course Lock,131.2,,16.4,Calm,80,,1.12.6,Mavic Mini,1SDCH7G0169R0K,1SFLH6Q0AB03DJ,1SRCH7F014TAHX,1U5X071EXP5ZJG,303.2,0.4,131.2,11.666536,6.71082,0,1643,Mavic Mini,1SDCH7G0169R0K,1SFLH6Q0AB03DJ,1SRCH7F014TAHX,1U5X071EXP5ZJG,DJI Fly,,1.12.6,248DCF36-2D56-9C56-4279-D4B8C3D97F4D,1SDCH7G0169R0K,,,,,,,,,
1/23/2024,44:44.1,7m 37.4s,457.4,6.974751989,79.91478053,0,0,0.3,66,0.4,0,0,0,0,0,0,0,0,5.2,-1,-174.5,185.5,,Auto Takeoff,Auto Fly,Takeoff (App Auto),14,5,TRUE,,Mavic Mini,TRUE,FALSE,,Smart,RC,TRUE,TRUE,FALSE,,,TRUE,,FALSE,FALSE,FALSE,FALSE,FALSE,FALSE,FALSE,FALSE,FALSE,FALSE,0,Follow Yaw,4.4,0,-173.9,186.1,FALSE,FALSE,FALSE,TRUE,FALSE,FALSE,,TRUE,Normal,,100,1024,1024,1024,1024,1,FALSE,FALSE,FALSE,FALSE,FALSE,0,FALSE,FALSE,FALSE,FALSE,60,7.615,1240,2050,7.634,FALSE,3.808,3.807,0.002,FALSE,FALSE,NA,112.5,112.4,112.4,0,6,0,0,5,2574.5,643.64,,Idle,0,20,FALSE,5,TRUE,6,Go Home,FALSE,FALSE,FALSE,FALSE,FALSE,FALSE,FALSE,FALSE,FALSE,FALSE,FALSE,FALSE,6.974774675,79.91476628,9.7,111.6,459.3,TRUE,1,1,FALSE,FALSE,FALSE,FALSE,,TRUE,FALSE,FALSE,Course Lock,131.2,,16.4,Calm,80,,1.12.6,Mavic Mini,1SDCH7G0169R0K,1SFLH6Q0AB03DJ,1SRCH7F014TAHX,1U5X071EXP5ZJG,303.2,0.4,131.2,11.666536,6.71082,0,1643,Mavic Mini,1SDCH7G0169R0K,1SFLH6Q0AB03DJ,1SRCH7F014TAHX,1U5X071EXP5ZJG,DJI Fly,,1.12.6,248DCF36-2D56-9C56-4279-D4B8C3D97F4D,1SDCH7G0169R0K,,,,,,,,Flight mode changed to Auto Takeoff.,
1/23/2024,44:44.2,7m 37.5s,457.5,6.97475184,79.91478047,0,0,0.3,66,0.4,0,0,0,0,0,0,0,0,5.2,-1.1,-174.5,185.5,,Auto Takeoff,Auto Fly,Takeoff (App Auto),14,5,TRUE,,Mavic Mini,TRUE,FALSE,,Smart,RC,TRUE,TRUE,FALSE,,,TRUE,,FALSE,FALSE,FALSE,FALSE,FALSE,FALSE,FALSE,FALSE,FALSE,FALSE,0,Follow Yaw,4.4,0,-173.9,186.1,FALSE,FALSE,FALSE,TRUE,FALSE,FALSE,,TRUE,Normal,,100,1024,1024,1024,1024,1,FALSE,FALSE,FALSE,FALSE,FALSE,0,FALSE,FALSE,FALSE,FALSE,60,7.615,1240,2050,7.634,FALSE,3.808,3.807,0.002,FALSE,FALSE,NA,112.5,112.4,112.4,0,6,0,0,5,2574.5,643.64,,Idle,0,20,FALSE,5,TRUE,6,Go Home,FALSE,FALSE,FALSE,FALSE,FALSE,FALSE,FALSE,FALSE,FALSE,FALSE,FALSE,FALSE,6.974774675,79.91476628,9.7,111.6,459.3,TRUE,1,1,FALSE,FALSE,FALSE,FALSE,,TRUE,FALSE,FALSE,Course Lock,131.2,,16.4,Calm,80,,1.12.6,Mavic Mini,1SDCH7G0169R0K,1SFLH6Q0AB03DJ,1SRCH7F014TAHX,1U5X071EXP5ZJG,303.2,0.4,131.2,11.666536,6.71082,0,1643,Mavic Mini,1SDCH7G0169R0K,1SFLH6Q0AB03DJ,1SRCH7F014TAHX,1U5X071EXP5ZJG,DJI Fly,,1.12.6,248DCF36-2D56-9C56-4279-D4B8C3D97F4D,1SDCH7G0169R0K,,,,,,,,,
1/23/2024,44:44.3,7m 37.6s,457.6,6.974751759,79.91478039,0,0,0.3,66,0.5,0,0,0,0,0,0,0,0,5.1,-1,-174.6,185.4,,Auto Takeoff,Auto Fly,Takeoff (App Auto),14,5,TRUE,,Mavic Mini,TRUE,FALSE,,Smart,RC,TRUE,TRUE,FALSE,,,TRUE,,FALSE,FALSE,FALSE,FALSE,FALSE,FALSE,FALSE,FALSE,FALSE,FALSE,0,Follow Yaw,4.2,0,-173.9,186.1,FALSE,FALSE,FALSE,TRUE,FALSE,FALSE,,TRUE,Normal,,100,1024,1024,1024,1024,1,FALSE,FALSE,FALSE,FALSE,FALSE,0,FALSE,FALSE,FALSE,FALSE,60,7.615,1240,2050,7.634,FALSE,3.808,3.807,0.002,FALSE,FALSE,NA,112.5,112.4,112.4,0,6,0,0,5,2574.5,643.64,,Idle,0,20,FALSE,5,TRUE,6,Go Home,FALSE,FALSE,FALSE,FALSE,FALSE,FALSE,FALSE,FALSE,FALSE,FALSE,FALSE,FALSE,6.974774675,79.91476628,9.7,111.6,459.3,TRUE,1,1,FALSE,FALSE,FALSE,FALSE,,TRUE,FALSE,FALSE,Course Lock,131.2,,16.4,Calm,80,,1.12.6,Mavic Mini,1SDCH7G0169R0K,1SFLH6Q0AB03DJ,1SRCH7F014TAHX,1U5X071EXP5ZJG,303.2,0.4,131.2,11.666536,6.71082,0,1643,Mavic Mini,1SDCH7G0169R0K,1SFLH6Q0AB03DJ,1SRCH7F014TAHX,1U5X071EXP5ZJG,DJI Fly,,1.12.6,248DCF36-2D56-9C56-4279-D4B8C3D97F4D,1SDCH7G0169R0K,,,,,,,,,
1/23/2024,44:44.4,7m 37.7s,457.7,6.974751705,79.9147803,0,0,0.3,66,0.5,0,0,0,0,0,0,0,0,4.9,-0.9,-174.5,185.5,,Auto Takeoff,Auto Fly,Takeoff (App Auto),14,5,TRUE,,Mavic Mini,TRUE,FALSE,,Smart,RC,TRUE,TRUE,FALSE,,,TRUE,,FALSE,FALSE,FALSE,FALSE,FALSE,FALSE,FALSE,FALSE,FALSE,FALSE,0,Follow Yaw,4,0,-173.9,186.1,FALSE,FALSE,FALSE,TRUE,FALSE,FALSE,,TRUE,Normal,,100,1024,1024,1024,1024,1,FALSE,FALSE,FALSE,FALSE,FALSE,0,FALSE,FALSE,FALSE,FALSE,60,7.615,1240,2050,7.634,FALSE,3.808,3.807,0.002,FALSE,FALSE,NA,112.5,112.4,112.4,0,6,0,0,5,2574.5,643.64,,Idle,0,20,FALSE,5,TRUE,6,Go Home,FALSE,FALSE,FALSE,FALSE,FALSE,FALSE,FALSE,FALSE,FALSE,FALSE,FALSE,FALSE,6.974774675,79.91476628,9.7,111.6,459.3,TRUE,1,1,FALSE,FALSE,FALSE,FALSE,,TRUE,FALSE,FALSE,Course Lock,131.2,,16.4,Calm,80,,1.12.6,Mavic Mini,1SDCH7G0169R0K,1SFLH6Q0AB03DJ,1SRCH7F014TAHX,1U5X071EXP5ZJG,303.2,0.4,131.2,11.666536,6.71082,0,1643,Mavic Mini,1SDCH7G0169R0K,1SFLH6Q0AB03DJ,1SRCH7F014TAHX,1U5X071EXP5ZJG,DJI Fly,,1.12.6,248DCF36-2D56-9C56-4279-D4B8C3D97F4D,1SDCH7G0169R0K,,,,,,,,,
1/23/2024,44:44.5,7m 37.8s,457.8,6.974751645,79.91478021,0,0,0.3,66,0.5,0,0,0,0,0,0,0,0,4.5,-0.9,-174.5,185.5,,Auto Takeoff,Auto Fly,Takeoff (App Auto),14,5,TRUE,,Mavic Mini,TRUE,FALSE,,Smart,RC,TRUE,TRUE,FALSE,,,TRUE,,FALSE,FALSE,FALSE,FALSE,FALSE,FALSE,FALSE,FALSE,FALSE,FALSE,0,Follow Yaw,3.6,0,-173.9,186.1,FALSE,FALSE,FALSE,TRUE,FALSE,FALSE,,TRUE,Normal,,100,1024,1024,1024,1024,1,FALSE,FALSE,FALSE,FALSE,FALSE,0,FALSE,FALSE,FALSE,FALSE,60,7.615,1240,2050,7.634,FALSE,3.808,3.807,0.002,FALSE,FALSE,NA,112.5,112.4,112.4,0,6,0,0,5,2574.5,643.64,,Idle,0,20,FALSE,5,TRUE,6,Go Home,FALSE,FALSE,FALSE,FALSE,FALSE,FALSE,FALSE,FALSE,FALSE,FALSE,FALSE,FALSE,6.974774675,79.91476628,9.7,111.6,459.3,TRUE,1,1,FALSE,FALSE,FALSE,FALSE,,TRUE,FALSE,FALSE,Course Lock,131.2,,16.4,Calm,80,,1.12.6,Mavic Mini,1SDCH7G0169R0K,1SFLH6Q0AB03DJ,1SRCH7F014TAHX,1U5X071EXP5ZJG,303.2,0.4,131.2,11.666536,6.71082,0,1643,Mavic Mini,1SDCH7G0169R0K,1SFLH6Q0AB03DJ,1SRCH7F014TAHX,1U5X071EXP5ZJG,DJI Fly,,1.12.6,248DCF36-2D56-9C56-4279-D4B8C3D97F4D,1SDCH7G0169R0K,,,,,,,,,
1/23/2024,44:44.6,7m 37.9s,457.9,6.974751518,79.91477999,0,0,0.3,66,0.6,0,0,0,0,0,0,0,0,3.8,-0.8,-174.4,185.6,,Auto Takeoff,Auto Fly,Takeoff (App Auto),14,5,TRUE,,Mavic Mini,TRUE,FALSE,,Smart,RC,TRUE,TRUE,FALSE,,,TRUE,,FALSE,FALSE,FALSE,FALSE,FALSE,FALSE,FALSE,FALSE,FALSE,FALSE,0,Follow Yaw,2.4,0,-173.9,186.1,FALSE,FALSE,FALSE,TRUE,FALSE,FALSE,,TRUE,Normal,,100,1024,1024,1024,1024,1,FALSE,FALSE,FALSE,FALSE,FALSE,0,FALSE,FALSE,FALSE,FALSE,60,7.615,1240,2050,7.634,FALSE,3.808,3.807,0.002,FALSE,FALSE,NA,112.5,112.4,112.4,0,6,0,0,5,2574.5,643.64,,Idle,0,20,FALSE,5,TRUE,6,Go Home,FALSE,FALSE,FALSE,FALSE,FALSE,FALSE,FALSE,FALSE,FALSE,FALSE,FALSE,FALSE,6.974774675,79.91476628,9.7,111.6,459.3,TRUE,1,1,FALSE,FALSE,FALSE,FALSE,,TRUE,FALSE,FALSE,Course Lock,131.2,,16.4,Calm,80,,1.12.6,Mavic Mini,1SDCH7G0169R0K,1SFLH6Q0AB03DJ,1SRCH7F014TAHX,1U5X071EXP5ZJG,303.2,0.4,131.2,11.666536,6.71082,0,1643,Mavic Mini,1SDCH7G0169R0K,1SFLH6Q0AB03DJ,1SRCH7F014TAHX,1U5X071EXP5ZJG,DJI Fly,,1.12.6,248DCF36-2D56-9C56-4279-D4B8C3D97F4D,1SDCH7G0169R0K,,,,,,,,,
1/23/2024,44:44.8,7m 38.0s,458,6.97475142,79.91477989,0,0,0.3,66,0.7,0,0,0,0,0,0,0,0,1.9,-0.8,-174.2,185.8,,Auto Takeoff,Auto Fly,Takeoff (App Auto),14,5,TRUE,,Mavic Mini,TRUE,FALSE,,Smart,RC,TRUE,TRUE,FALSE,,,TRUE,,FALSE,FALSE,FALSE,FALSE,FALSE,FALSE,FALSE,FALSE,FALSE,FALSE,0,Follow Yaw,0.2,0,-173.9,186.1,FALSE,FALSE,FALSE,TRUE,FALSE,FALSE,,TRUE,Normal,,100,1024,1024,1024,1024,1,FALSE,FALSE,FALSE,FALSE,FALSE,0,FALSE,FALSE,FALSE,FALSE,60,7.615,1240,2050,7.634,FALSE,3.808,3.807,0.002,FALSE,FALSE,NA,112.5,112.4,112.4,0,6,0,0,5,2574.5,643.64,,Idle,0,20,FALSE,5,TRUE,6,Go Home,FALSE,FALSE,FALSE,FALSE,FALSE,FALSE,FALSE,FALSE,FALSE,FALSE,FALSE,FALSE,6.974774675,79.91476628,9.8,111.6,459.3,TRUE,1,1,FALSE,FALSE,FALSE,FALSE,,TRUE,FALSE,FALSE,Course Lock,131.2,,16.4,Calm,80,,1.12.6,Mavic Mini,1SDCH7G0169R0K,1SFLH6Q0AB03DJ,1SRCH7F014TAHX,1U5X071EXP5ZJG,303.2,0.4,131.2,11.666536,6.71082,0,1643,Mavic Mini,1SDCH7G0169R0K,1SFLH6Q0AB03DJ,1SRCH7F014TAHX,1U5X071EXP5ZJG,DJI Fly,,1.12.6,248DCF36-2D56-9C56-4279-D4B8C3D97F4D,1SDCH7G0169R0K,,,,,,,,,
1/23/2024,44:44.9,7m 38.1s,458.1,6.974751302,79.91477978,0,0,0.3,66,0.7,0,0,0,0,0,0,0,0,0.3,-1.2,-174.1,185.9,,Auto Takeoff,Auto Fly,Takeoff (App Auto),14,5,TRUE,,Mavic Mini,TRUE,FALSE,,Smart,RC,TRUE,TRUE,FALSE,,,TRUE,,FALSE,FALSE,FALSE,FALSE,FALSE,FALSE,FALSE,FALSE,FALSE,FALSE,0,Follow Yaw,-0.3,0,-173.9,186.1,FALSE,FALSE,FALSE,TRUE,FALSE,FALSE,,TRUE,Normal,,100,1024,1024,1024,1024,1,FALSE,FALSE,FALSE,FALSE,FALSE,0,FALSE,FALSE,FALSE,FALSE,60,7.615,1240,2050,7.573,FALSE,3.808,3.807,0.002,FALSE,FALSE,NA,112.5,112.4,112.4,0,6,0,0,5,2605.1,651.27,,Idle,0,20,FALSE,5,TRUE,6,Go Home,FALSE,FALSE,FALSE,FALSE,FALSE,FALSE,FALSE,FALSE,FALSE,FALSE,FALSE,FALSE,6.974774675,79.91476628,9.8,111.6,459.3,TRUE,1,1,FALSE,FALSE,FALSE,FALSE,,TRUE,FALSE,FALSE,Course Lock,131.2,,16.4,Calm,80,,1.12.6,Mavic Mini,1SDCH7G0169R0K,1SFLH6Q0AB03DJ,1SRCH7F014TAHX,1U5X071EXP5ZJG,303.2,0.4,131.2,11.666536,6.71082,0,1643,Mavic Mini,1SDCH7G0169R0K,1SFLH6Q0AB03DJ,1SRCH7F014TAHX,1U5X071EXP5ZJG,DJI Fly,,1.12.6,248DCF36-2D56-9C56-4279-D4B8C3D97F4D,1SDCH7G0169R0K,,,,,,,,,
1/23/2024,44:45.0,7m 38.2s,458.2,6.974751193,79.91477967,0,0,0.3,66,0.8,0,0,0,0,0,0,-0.223694,0,0.1,-1.7,-174.8,185.2,,Auto Takeoff,Auto Fly,Takeoff (App Auto),14,5,TRUE,,Mavic Mini,TRUE,FALSE,,Smart,RC,TRUE,TRUE,FALSE,,,TRUE,,FALSE,FALSE,FALSE,FALSE,FALSE,FALSE,FALSE,FALSE,FALSE,FALSE,0,Follow Yaw,0,0,-173.9,186.1,FALSE,FALSE,FALSE,TRUE,FALSE,FALSE,,TRUE,Normal,,100,1024,1024,1024,1024,1,FALSE,FALSE,FALSE,FALSE,FALSE,0,FALSE,FALSE,FALSE,FALSE,60,7.615,1240,2050,7.573,FALSE,3.808,3.807,0.002,FALSE,FALSE,NA,112.5,112.4,112.4,0,6,0,0,5,2605.1,651.27,,Idle,0,20,FALSE,5,TRUE,6,Go Home,FALSE,FALSE,FALSE,FALSE,FALSE,FALSE,FALSE,FALSE,FALSE,FALSE,FALSE,FALSE,6.974774675,79.91476628,9.8,111.6,459.3,TRUE,1,1,FALSE,FALSE,FALSE,FALSE,,TRUE,FALSE,FALSE,Course Lock,131.2,,16.4,Calm,80,,1.12.6,Mavic Mini,1SDCH7G0169R0K,1SFLH6Q0AB03DJ,1SRCH7F014TAHX,1U5X071EXP5ZJG,303.2,0.4,131.2,11.666536,6.71082,0,1643,Mavic Mini,1SDCH7G0169R0K,1SFLH6Q0AB03DJ,1SRCH7F014TAHX,1U5X071EXP5ZJG,DJI Fly,,1.12.6,248DCF36-2D56-9C56-4279-D4B8C3D97F4D,1SDCH7G0169R0K,,,,,,,,,
1/23/2024,44:45.1,7m 38.3s,458.3,6.974751101,79.91477957,0,0,0.3,66,0.9,0,0,0,0,0,0,-0.447388,0,0.6,-1.2,-175.3,184.7,,Auto Takeoff,Auto Fly,Takeoff (App Auto),14,5,TRUE,,Mavic Mini,TRUE,FALSE,,Smart,RC,FALSE,TRUE,FALSE,,,TRUE,,FALSE,FALSE,FALSE,FALSE,FALSE,FALSE,FALSE,FALSE,FALSE,FALSE,0,Follow Yaw,-0.1,0,-173.9,186.1,FALSE,FALSE,FALSE,TRUE,FALSE,FALSE,,TRUE,Normal,,100,1024,1024,1024,1024,1,FALSE,FALSE,FALSE,FALSE,FALSE,0,FALSE,FALSE,FALSE,FALSE,60,7.615,1240,2050,7.573,FALSE,3.808,3.807,0.002,FALSE,FALSE,NA,112.5,112.4,112.4,0,6,0,0,5,2605.1,651.27,,Idle,0,20,FALSE,5,TRUE,6,Go Home,FALSE,FALSE,FALSE,FALSE,FALSE,FALSE,FALSE,FALSE,FALSE,FALSE,FALSE,FALSE,6.974774675,79.91476628,9.8,111.6,459.3,TRUE,1,1,FALSE,FALSE,FALSE,FALSE,,TRUE,FALSE,FALSE,Course Lock,131.2,,16.4,Calm,80,,1.12.6,Mavic Mini,1SDCH7G0169R0K,1SFLH6Q0AB03DJ,1SRCH7F014TAHX,1U5X071EXP5ZJG,303.2,0.4,131.2,11.666536,6.71082,0,1643,Mavic Mini,1SDCH7G0169R0K,1SFLH6Q0AB03DJ,1SRCH7F014TAHX,1U5X071EXP5ZJG,DJI Fly,,1.12.6,248DCF36-2D56-9C56-4279-D4B8C3D97F4D,1SDCH7G0169R0K,,,,,6.974792182,79.91477449,5,,
1/23/2024,44:45.2,7m 38.4s,458.4,6.974750984,79.91477944,0.3,0.3,0.6,66,0.9,0,0,0,0,0,0,-0.894776,0,0.3,-0.2,-175.4,184.6,,Auto Takeoff,Auto Fly,Takeoff (App Auto),14,5,TRUE,,Mavic Mini,TRUE,FALSE,,Smart,RC,FALSE,TRUE,FALSE,,,TRUE,,FALSE,FALSE,FALSE,FALSE,FALSE,FALSE,FALSE,FALSE,FALSE,FALSE,0,Follow Yaw,0.3,0,-173.9,186.1,FALSE,FALSE,FALSE,TRUE,FALSE,FALSE,,TRUE,Normal,,100,1024,1024,1024,1024,1,FALSE,FALSE,FALSE,FALSE,FALSE,0,FALSE,FALSE,FALSE,FALSE,60,7.615,1240,2050,7.573,FALSE,3.808,3.807,0.002,FALSE,FALSE,NA,112.5,112.4,112.4,0,6,0,0,5,2605.1,651.27,,Idle,0,20,FALSE,5,TRUE,6,Go Home,FALSE,FALSE,FALSE,FALSE,FALSE,FALSE,FALSE,FALSE,FALSE,FALSE,FALSE,FALSE,6.974774675,79.91476628,9.8,111.6,459.3,TRUE,1,1,FALSE,FALSE,FALSE,FALSE,,TRUE,FALSE,FALSE,Course Lock,131.2,,16.4,Calm,80,,1.12.6,Mavic Mini,1SDCH7G0169R0K,1SFLH6Q0AB03DJ,1SRCH7F014TAHX,1U5X071EXP5ZJG,303.2,0.4,131.2,11.666536,6.71082,0,1643,Mavic Mini,1SDCH7G0169R0K,1SFLH6Q0AB03DJ,1SRCH7F014TAHX,1U5X071EXP5ZJG,DJI Fly,,1.12.6,248DCF36-2D56-9C56-4279-D4B8C3D97F4D,1SDCH7G0169R0K,,,,,6.974792182,79.91477449,5,,
1/23/2024,44:45.2,7m 38.5s,458.5,6.974750846,79.91477939,0.3,0.3,0.6,66,1,0,0,0,0,0,0,-1.11847,0,1.1,0.1,-175.3,184.7,,Auto Takeoff,Auto Fly,Takeoff (App Auto),14,5,TRUE,,Mavic Mini,TRUE,FALSE,,Smart,RC,FALSE,TRUE,FALSE,,,TRUE,,FALSE,FALSE,FALSE,FALSE,FALSE,FALSE,FALSE,FALSE,FALSE,FALSE,0,Follow Yaw,0.4,0,-173.9,186.1,FALSE,FALSE,FALSE,TRUE,FALSE,FALSE,,TRUE,Normal,,100,1024,1024,1024,1024,1,FALSE,FALSE,FALSE,FALSE,FALSE,0,FALSE,FALSE,FALSE,FALSE,60,7.468,1240,2050,7.573,FALSE,3.736,3.732,0.004,FALSE,FALSE,NA,112.5,112.4,112.4,0,6,0,0,5,2605.1,651.27,,Idle,0,20,FALSE,5,TRUE,6,Go Home,FALSE,FALSE,FALSE,FALSE,FALSE,FALSE,FALSE,FALSE,FALSE,FALSE,FALSE,FALSE,6.974774675,79.91476628,9.9,111.6,459.3,TRUE,1,1,FALSE,FALSE,FALSE,FALSE,,TRUE,FALSE,FALSE,Course Lock,131.2,,16.4,Calm,80,,1.12.6,Mavic Mini,1SDCH7G0169R0K,1SFLH6Q0AB03DJ,1SRCH7F014TAHX,1U5X071EXP5ZJG,303.2,0.4,131.2,11.666536,6.71082,0,1643,Mavic Mini,1SDCH7G0169R0K,1SFLH6Q0AB03DJ,1SRCH7F014TAHX,1U5X071EXP5ZJG,DJI Fly,,1.12.6,248DCF36-2D56-9C56-4279-D4B8C3D97F4D,1SDCH7G0169R0K,,,,,6.974792182,79.91477449,5,,
1/23/2024,44:45.3,7m 38.6s,458.6,6.974750781,79.91477934,0.6,0.6,0.6,67,1,0,0,0,0,0,0,-1.342164,0,1.4,-0.2,-175.1,184.9,,Auto Takeoff,Auto Fly,Takeoff (App Auto),14,5,TRUE,,Mavic Mini,TRUE,FALSE,,Smart,RC,FALSE,TRUE,FALSE,,,TRUE,,FALSE,FALSE,FALSE,FALSE,FALSE,FALSE,FALSE,FALSE,FALSE,FALSE,0,Follow Yaw,0.4,0,-173.9,186.1,FALSE,FALSE,FALSE,TRUE,FALSE,FALSE,,TRUE,Normal,,100,1024,1024,1024,1024,1,FALSE,FALSE,FALSE,FALSE,FALSE,0,FALSE,FALSE,FALSE,FALSE,60,7.468,1239,2050,7.573,FALSE,3.736,3.732,0.004,FALSE,FALSE,NA,112.5,112.4,112.4,0,6,0,0,5,2605.1,651.27,,Idle,0,20,FALSE,5,TRUE,6,Go Home,FALSE,FALSE,FALSE,FALSE,FALSE,FALSE,FALSE,FALSE,FALSE,FALSE,FALSE,FALSE,6.974774675,79.91476628,9.9,111.6,459.3,TRUE,1,1,FALSE,FALSE,FALSE,FALSE,,TRUE,FALSE,FALSE,Course Lock,131.2,,16.4,Calm,80,,1.12.6,Mavic Mini,1SDCH7G0169R0K,1SFLH6Q0AB03DJ,1SRCH7F014TAHX,1U5X071EXP5ZJG,303.2,0.4,131.2,11.666536,6.71082,0,1643,Mavic Mini,1SDCH7G0169R0K,1SFLH6Q0AB03DJ,1SRCH7F014TAHX,1U5X071EXP5ZJG,DJI Fly,,1.12.6,248DCF36-2D56-9C56-4279-D4B8C3D97F4D,1SDCH7G0169R0K,,,,,6.974792182,79.91477449,5,,
1/23/2024,44:45.4,7m 38.7s,458.7,6.974750912,79.91477927,0.6,0.6,0.9,67,1.1,0,0,0,0,0,0,-1.565858,0,0.9,-0.6,-175,185,,Auto Takeoff,Auto Fly,Takeoff (App Auto),14,5,TRUE,,Mavic Mini,TRUE,FALSE,,Smart,RC,FALSE,TRUE,FALSE,,,TRUE,,FALSE,FALSE,FALSE,FALSE,FALSE,FALSE,FALSE,FALSE,FALSE,FALSE,0,Follow Yaw,0.1,0,-173.9,186.1,FALSE,FALSE,FALSE,TRUE,FALSE,FALSE,,TRUE,Normal,,100,1024,1024,1024,1024,1,FALSE,FALSE,FALSE,FALSE,FALSE,0,FALSE,FALSE,FALSE,FALSE,60,7.468,1239,2050,7.573,FALSE,3.736,3.732,0.004,FALSE,FALSE,NA,112.5,112.4,112.4,0,6,0,0,5,2605.1,651.27,,Idle,0,20,FALSE,5,TRUE,6,Go Home,FALSE,FALSE,FALSE,FALSE,FALSE,FALSE,FALSE,FALSE,FALSE,FALSE,FALSE,FALSE,6.974774675,79.91476628,9.8,111.6,459.3,TRUE,1,1,FALSE,FALSE,FALSE,FALSE,,TRUE,FALSE,FALSE,Course Lock,131.2,,16.4,Calm,80,,1.12.6,Mavic Mini,1SDCH7G0169R0K,1SFLH6Q0AB03DJ,1SRCH7F014TAHX,1U5X071EXP5ZJG,303.2,0.4,131.2,11.666536,6.71082,0,1643,Mavic Mini,1SDCH7G0169R0K,1SFLH6Q0AB03DJ,1SRCH7F014TAHX,1U5X071EXP5ZJG,DJI Fly,,1.12.6,248DCF36-2D56-9C56-4279-D4B8C3D97F4D,1SDCH7G0169R0K,,,,,6.974792182,79.91477449,5,,
1/23/2024,44:45.5,7m 38.8s,458.8,6.97475142,79.91477932,0.9,0.9,1.3,67,1.2,0,0,0,0,0,0,-1.789552,0,0.3,-0.9,-175,185,,Auto Takeoff,Auto Fly,Takeoff (App Auto),14,5,TRUE,,Mavic Mini,TRUE,FALSE,,Smart,RC,FALSE,TRUE,FALSE,,,TRUE,,FALSE,FALSE,FALSE,FALSE,FALSE,FALSE,FALSE,FALSE,FALSE,FALSE,0,Follow Yaw,-0.2,0,-173.9,186.1,FALSE,FALSE,FALSE,TRUE,FALSE,FALSE,,TRUE,Normal,,100,1024,1024,1024,1024,1,FALSE,FALSE,FALSE,FALSE,FALSE,0,FALSE,FALSE,FALSE,FALSE,60,7.468,1239,2050,7.573,FALSE,3.736,3.732,0.004,FALSE,FALSE,NA,112.5,112.4,112.4,0,6,0,0,5,2605.1,651.27,,Idle,0,20,FALSE,5,TRUE,6,Go Home,FALSE,FALSE,FALSE,FALSE,FALSE,FALSE,FALSE,FALSE,FALSE,FALSE,FALSE,FALSE,6.974774675,79.91476628,9.7,111.6,459.3,TRUE,1,1,FALSE,FALSE,FALSE,FALSE,,TRUE,FALSE,FALSE,Course Lock,131.2,,16.4,Calm,80,,1.12.6,Mavic Mini,1SDCH7G0169R0K,1SFLH6Q0AB03DJ,1SRCH7F014TAHX,1U5X071EXP5ZJG,303.2,0.4,131.2,11.666536,6.71082,0,1643,Mavic Mini,1SDCH7G0169R0K,1SFLH6Q0AB03DJ,1SRCH7F014TAHX,1U5X071EXP5ZJG,DJI Fly,,1.12.6,248DCF36-2D56-9C56-4279-D4B8C3D97F4D,1SDCH7G0169R0K,,,,,6.974792182,79.91477449,5,,
1/23/2024,44:45.6,7m 38.9s,458.9,6.974751606,79.91477919,1.3,1.3,1.3,67,1.3,0,0,0,0,0,0,-2.013246,0,0.4,-1.3,-175.1,184.9,,Auto Takeoff,Auto Fly,Takeoff (App Auto),14,5,TRUE,,Mavic Mini,TRUE,FALSE,,Smart,RC,FALSE,TRUE,FALSE,,,TRUE,,FALSE,FALSE,FALSE,FALSE,FALSE,FALSE,FALSE,FALSE,FALSE,FALSE,0,Follow Yaw,-0.3,0,-173.9,186.1,FALSE,FALSE,FALSE,TRUE,FALSE,FALSE,,TRUE,Normal,,100,1024,1024,1024,1024,1,FALSE,FALSE,FALSE,FALSE,FALSE,0,FALSE,FALSE,FALSE,FALSE,60,7.468,1239,2050,7.573,FALSE,3.736,3.732,0.004,FALSE,FALSE,NA,112.5,112.4,112.4,0,6,0,0,5,2605.1,651.27,,Idle,0,20,FALSE,5,TRUE,6,Go Home,FALSE,FALSE,FALSE,FALSE,FALSE,FALSE,FALSE,FALSE,FALSE,FALSE,FALSE,FALSE,6.974774675,79.91476628,9.6,111.6,459.3,TRUE,1,1,FALSE,FALSE,FALSE,FALSE,,TRUE,FALSE,FALSE,Course Lock,131.2,,16.4,Calm,80,,1.12.6,Mavic Mini,1SDCH7G0169R0K,1SFLH6Q0AB03DJ,1SRCH7F014TAHX,1U5X071EXP5ZJG,303.2,0.4,131.2,11.666536,6.71082,0,1643,Mavic Mini,1SDCH7G0169R0K,1SFLH6Q0AB03DJ,1SRCH7F014TAHX,1U5X071EXP5ZJG,DJI Fly,,1.12.6,248DCF36-2D56-9C56-4279-D4B8C3D97F4D,1SDCH7G0169R0K,,,,,6.974792182,79.91477449,5,,
1/23/2024,44:45.7,7m 39.0s,459,6.974751811,79.91477902,1.6,1.6,1.6,68,1.4,0,0,0,0,0,0,-2.013246,0,-0.3,-1.6,-175.1,184.9,,Auto Takeoff,Auto Fly,Takeoff (App Auto),13,5,TRUE,,Mavic Mini,TRUE,FALSE,,Smart,RC,FALSE,TRUE,FALSE,,,TRUE,,FALSE,FALSE,FALSE,FALSE,FALSE,FALSE,FALSE,FALSE,FALSE,FALSE,0,Follow Yaw,-0.3,0,-173.9,186.1,FALSE,FALSE,FALSE,TRUE,FALSE,FALSE,,TRUE,Normal,,100,1024,1024,1024,1024,1,FALSE,FALSE,FALSE,FALSE,FALSE,0,FALSE,FALSE,FALSE,FALSE,60,7.468,1239,2050,7.573,FALSE,3.736,3.732,0.004,FALSE,FALSE,NA,112.5,112.4,112.4,0,6,0,0,5,2605.1,651.27,,Idle,0,20,FALSE,5,TRUE,6,Go Home,FALSE,FALSE,FALSE,FALSE,FALSE,FALSE,FALSE,FALSE,FALSE,FALSE,FALSE,FALSE,6.974774675,79.91476628,9.5,111.6,459.3,TRUE,1,1,FALSE,FALSE,FALSE,FALSE,,TRUE,FALSE,FALSE,Course Lock,131.2,,16.4,Calm,80,,1.12.6,Mavic Mini,1SDCH7G0169R0K,1SFLH6Q0AB03DJ,1SRCH7F014TAHX,1U5X071EXP5ZJG,303.2,0.4,131.2,11.666536,6.71082,0,1643,Mavic Mini,1SDCH7G0169R0K,1SFLH6Q0AB03DJ,1SRCH7F014TAHX,1U5X071EXP5ZJG,DJI Fly,,1.12.6,248DCF36-2D56-9C56-4279-D4B8C3D97F4D,1SDCH7G0169R0K,,,,,6.974792182,79.91477449,5,,
1/23/2024,44:45.8,7m 39.1s,459.1,6.974752081,79.91477871,1.9,1.9,1.9,68,1.6,0,0,0,0,0,0,-2.23694,0,0,-2.2,-175.1,184.9,,Auto Takeoff,Auto Fly,Takeoff (App Auto),13,5,TRUE,,Mavic Mini,TRUE,FALSE,,Smart,RC,FALSE,TRUE,FALSE,,,TRUE,,FALSE,FALSE,FALSE,FALSE,FALSE,FALSE,FALSE,FALSE,FALSE,FALSE,0,Follow Yaw,-0.5,0,-173.9,186.1,FALSE,FALSE,FALSE,TRUE,FALSE,FALSE,,TRUE,Normal,,100,1024,1024,1024,1024,1,FALSE,FALSE,FALSE,FALSE,FALSE,0,FALSE,FALSE,FALSE,FALSE,60,7.468,1239,2050,7.5,FALSE,3.736,3.732,0.004,FALSE,FALSE,NA,112.5,112.4,112.4,0,0,0,0,5,2957.1,739.27,,Idle,0,20,FALSE,5,TRUE,6,Go Home,FALSE,FALSE,FALSE,FALSE,FALSE,FALSE,FALSE,FALSE,FALSE,FALSE,FALSE,FALSE,6.974751162,79.91477963,0.4,111.6,459.3,TRUE,1,1,FALSE,FALSE,FALSE,FALSE,,TRUE,FALSE,FALSE,Course Lock,131.2,,16.4,Calm,80,,1.12.6,Mavic Mini,1SDCH7G0169R0K,1SFLH6Q0AB03DJ,1SRCH7F014TAHX,1U5X071EXP5ZJG,303.2,0.4,131.2,11.666536,6.71082,0,1643,Mavic Mini,1SDCH7G0169R0K,1SFLH6Q0AB03DJ,1SRCH7F014TAHX,1U5X071EXP5ZJG,DJI Fly,,1.12.6,248DCF36-2D56-9C56-4279-D4B8C3D97F4D,1SDCH7G0169R0K,,,,,6.974792182,79.91477449,5,Home Point Updated.,
1/23/2024,44:45.9,7m 39.2s,459.2,6.974752918,79.91477814,2.2,2.2,2.2,68,1.9,0,0,0,0,0,0,-2.23694,0,0.4,-2,-175.2,184.8,,Auto Takeoff,Auto Fly,Takeoff (App Auto),14,5,TRUE,,Mavic Mini,TRUE,FALSE,,Smart,RC,FALSE,TRUE,FALSE,,,TRUE,,FALSE,FALSE,FALSE,FALSE,FALSE,FALSE,FALSE,FALSE,FALSE,FALSE,0,Follow Yaw,0.3,0,-173.9,186.1,FALSE,FALSE,FALSE,TRUE,FALSE,FALSE,,TRUE,Normal,,100,1024,1024,1024,1024,1,FALSE,FALSE,FALSE,FALSE,FALSE,0,FALSE,FALSE,FALSE,FALSE,60,7.468,1239,2050,7.5,FALSE,3.736,3.732,0.004,FALSE,FALSE,NA,112.5,112.4,112.4,0,0,0,0,5,2957.1,739.27,,Idle,0,20,FALSE,5,TRUE,6,Go Home,FALSE,FALSE,FALSE,FALSE,FALSE,FALSE,FALSE,FALSE,FALSE,FALSE,FALSE,FALSE,6.974751162,79.91477963,0.8,111.6,459.3,TRUE,1,1,FALSE,FALSE,FALSE,FALSE,,TRUE,FALSE,FALSE,Course Lock,131.2,,16.4,Calm,80,,1.12.6,Mavic Mini,1SDCH7G0169R0K,1SFLH6Q0AB03DJ,1SRCH7F014TAHX,1U5X071EXP5ZJG,303.2,0.4,131.2,11.666536,6.71082,0,1643,Mavic Mini,1SDCH7G0169R0K,1SFLH6Q0AB03DJ,1SRCH7F014TAHX,1U5X071EXP5ZJG,DJI Fly,,1.12.6,248DCF36-2D56-9C56-4279-D4B8C3D97F4D,1SDCH7G0169R0K,,,,,6.974792182,79.91477449,5,,
1/23/2024,44:46.2,7m 39.3s,459.3,6.9747529,79.91477805,2.6,2.6,2.6,69,2,0,0,0,0,0,0,-2.23694,0,0.7,-2,-175.1,184.9,,Auto Takeoff,Auto Fly,,14,5,TRUE,,Mavic Mini,TRUE,FALSE,,Smart,RC,FALSE,TRUE,FALSE,,,TRUE,,FALSE,FALSE,FALSE,FALSE,FALSE,FALSE,FALSE,FALSE,FALSE,FALSE,0,Follow Yaw,0.1,0,-173.9,186.1,FALSE,FALSE,FALSE,TRUE,FALSE,FALSE,,TRUE,Normal,,100,1024,1024,1024,1024,1,FALSE,FALSE,FALSE,FALSE,FALSE,0,FALSE,FALSE,FALSE,FALSE,60,7.468,1239,2050,7.5,FALSE,3.736,3.732,0.004,FALSE,FALSE,NA,112.5,112.4,112.4,0,0,0,0,5,2957.1,739.27,,Idle,0,20,FALSE,5,TRUE,6,Go Home,FALSE,FALSE,FALSE,FALSE,FALSE,FALSE,FALSE,FALSE,FALSE,FALSE,FALSE,FALSE,6.974751162,79.91477963,0.8,111.6,459.3,TRUE,1,1,FALSE,FALSE,FALSE,FALSE,,TRUE,FALSE,FALSE,Course Lock,131.2,,16.4,Calm,80,,1.12.6,Mavic Mini,1SDCH7G0169R0K,1SFLH6Q0AB03DJ,1SRCH7F014TAHX,1U5X071EXP5ZJG,303.2,0.4,131.2,11.666536,6.71082,0,1643,Mavic Mini,1SDCH7G0169R0K,1SFLH6Q0AB03DJ,1SRCH7F014TAHX,1U5X071EXP5ZJG,DJI Fly,,1.12.6,248DCF36-2D56-9C56-4279-D4B8C3D97F4D,1SDCH7G0169R0K,,,,,6.974792182,79.91477449,5,,
1/23/2024,44:46.2,7m 39.4s,459.4,6.974752871,79.914778,2.6,2.6,2.9,69,2,0,0,0,0,0,0,-2.013246,0,0.7,-1.5,-175.1,184.9,,P-GPS,Auto Fly,,13,5,TRUE,,Mavic Mini,TRUE,FALSE,,Smart,RC,FALSE,TRUE,FALSE,,,TRUE,,FALSE,FALSE,FALSE,FALSE,FALSE,FALSE,FALSE,FALSE,FALSE,FALSE,0,Follow Yaw,0.7,0,-173.9,186.1,FALSE,FALSE,FALSE,TRUE,FALSE,FALSE,,TRUE,Normal,,100,1024,1024,1024,1024,1,FALSE,FALSE,FALSE,FALSE,FALSE,0,FALSE,FALSE,FALSE,FALSE,60,7.468,1239,2050,7.5,FALSE,3.736,3.732,0.004,FALSE,FALSE,NA,112.5,112.4,112.4,0,0,0,0,5,2957.1,739.27,,Idle,0,20,FALSE,5,TRUE,6,Go Home,FALSE,FALSE,FALSE,FALSE,FALSE,FALSE,FALSE,FALSE,FALSE,FALSE,FALSE,FALSE,6.974751162,79.91477963,0.8,111.6,459.3,TRUE,1,1,FALSE,FALSE,FALSE,FALSE,,TRUE,FALSE,FALSE,Course Lock,131.2,,16.4,Calm,80,,1.12.6,Mavic Mini,1SDCH7G0169R0K,1SFLH6Q0AB03DJ,1SRCH7F014TAHX,1U5X071EXP5ZJG,303.2,0.4,131.2,11.666536,6.71082,0,1643,Mavic Mini,1SDCH7G0169R0K,1SFLH6Q0AB03DJ,1SRCH7F014TAHX,1U5X071EXP5ZJG,DJI Fly,,1.12.6,248DCF36-2D56-9C56-4279-D4B8C3D97F4D,1SDCH7G0169R0K,,,,,6.974792182,79.91477449,5,Flight mode changed to P-GPS.,
1/23/2024,44:46.3,7m 39.5s,459.5,6.974752836,79.91477803,2.9,2.9,3.2,69,2,0,0,0,0,0,0,-1.789552,0,1.3,-1.7,-175,185,,P-GPS,Auto Fly,,13,5,TRUE,,Mavic Mini,TRUE,FALSE,,Smart,RC,FALSE,TRUE,FALSE,,,TRUE,,FALSE,FALSE,FALSE,FALSE,FALSE,FALSE,FALSE,FALSE,FALSE,FALSE,0,Follow Yaw,0.5,0,-173.9,186.1,FALSE,FALSE,FALSE,TRUE,FALSE,FALSE,,TRUE,Normal,,100,1024,1024,1024,1024,1,FALSE,FALSE,FALSE,FALSE,FALSE,0,FALSE,FALSE,FALSE,FALSE,60,7.468,1239,2050,7.5,FALSE,3.736,3.732,0.004,FALSE,FALSE,NA,112.5,112.4,112.4,0,0,0,0,5,2957.1,739.27,,Idle,0,20,FALSE,5,TRUE,6,Go Home,FALSE,FALSE,FALSE,FALSE,FALSE,FALSE,FALSE,FALSE,FALSE,FALSE,FALSE,FALSE,6.974751162,79.91477963,0.8,111.6,459.3,TRUE,1,1,FALSE,FALSE,FALSE,FALSE,,TRUE,FALSE,FALSE,Course Lock,131.2,,16.4,Calm,80,,1.12.6,Mavic Mini,1SDCH7G0169R0K,1SFLH6Q0AB03DJ,1SRCH7F014TAHX,1U5X071EXP5ZJG,303.2,0.4,131.2,11.666536,6.71082,0,1643,Mavic Mini,1SDCH7G0169R0K,1SFLH6Q0AB03DJ,1SRCH7F014TAHX,1U5X071EXP5ZJG,DJI Fly,,1.12.6,248DCF36-2D56-9C56-4279-D4B8C3D97F4D,1SDCH7G0169R0K,,,,,6.974792182,79.91477449,5,Home Point updated. RTH altitude adjusted to 40 m! (Code: 120852).,
1/23/2024,44:46.4,7m 39.6s,459.6,6.974751956,79.91477824,3.2,3.2,3.6,69,2.3,0,0,0,0,0,0,-1.342164,0,1.6,-1.6,-175,185,,P-GPS,Auto Fly,,12,5,TRUE,,Mavic Mini,TRUE,FALSE,,Smart,RC,FALSE,TRUE,FALSE,,,TRUE,,FALSE,FALSE,FALSE,FALSE,FALSE,FALSE,FALSE,FALSE,FALSE,FALSE,0,Follow Yaw,2,0,-173.9,186.1,FALSE,FALSE,FALSE,TRUE,FALSE,FALSE,,TRUE,Normal,,100,1024,1024,1024,1024,1,FALSE,FALSE,FALSE,FALSE,FALSE,0,FALSE,FALSE,FALSE,FALSE,60,7.468,1239,2050,7.5,FALSE,3.736,3.732,0.004,FALSE,FALSE,NA,112.5,112.4,112.4,0,0,0,0,5,2957.1,739.27,,Idle,0,20,FALSE,5,TRUE,6,Go Home,FALSE,FALSE,FALSE,FALSE,FALSE,FALSE,FALSE,FALSE,FALSE,FALSE,FALSE,FALSE,6.974751162,79.91477963,0.5,111.6,459.3,TRUE,1,1,FALSE,FALSE,FALSE,FALSE,,TRUE,FALSE,FALSE,Course Lock,131.2,,16.4,Calm,80,,1.12.6,Mavic Mini,1SDCH7G0169R0K,1SFLH6Q0AB03DJ,1SRCH7F014TAHX,1U5X071EXP5ZJG,303.2,0.4,131.2,11.666536,6.71082,0,1643,Mavic Mini,1SDCH7G0169R0K,1SFLH6Q0AB03DJ,1SRCH7F014TAHX,1U5X071EXP5ZJG,DJI Fly,,1.12.6,248DCF36-2D56-9C56-4279-D4B8C3D97F4D,1SDCH7G0169R0K,,,,,6.974792182,79.91477449,5,,
1/23/2024,44:46.5,7m 39.7s,459.7,6.974751652,79.91477814,3.2,3.2,3.9,69,2.5,0,0,0,0,0,0,-0.671082,0,2.5,-2,-175,185,,P-GPS,Auto Fly,,12,5,TRUE,,Mavic Mini,TRUE,FALSE,,Smart,RC,FALSE,TRUE,FALSE,,,TRUE,,FALSE,FALSE,FALSE,FALSE,FALSE,FALSE,FALSE,FALSE,FALSE,FALSE,0,Follow Yaw,1.6,0,-173.9,186.1,FALSE,FALSE,FALSE,TRUE,FALSE,FALSE,,TRUE,Normal,,100,1024,1024,1024,1024,1,FALSE,FALSE,FALSE,FALSE,FALSE,0,FALSE,FALSE,FALSE,FALSE,60,7.499,1239,2050,7.5,FALSE,3.751,3.748,0.004,FALSE,FALSE,NA,112.5,112.4,112.4,0,0,0,0,5,2957.1,739.27,,Idle,0,20,FALSE,5,TRUE,6,Go Home,FALSE,FALSE,FALSE,FALSE,FALSE,FALSE,FALSE,FALSE,FALSE,FALSE,FALSE,FALSE,6.974751162,79.91477963,0.5,111.6,459.3,TRUE,1,1,FALSE,FALSE,FALSE,FALSE,,TRUE,FALSE,FALSE,Course Lock,131.2,,16.4,Calm,80,,1.12.6,Mavic Mini,1SDCH7G0169R0K,1SFLH6Q0AB03DJ,1SRCH7F014TAHX,1U5X071EXP5ZJG,303.2,0.4,131.2,11.666536,6.71082,0,1643,Mavic Mini,1SDCH7G0169R0K,1SFLH6Q0AB03DJ,1SRCH7F014TAHX,1U5X071EXP5ZJG,DJI Fly,,1.12.6,248DCF36-2D56-9C56-4279-D4B8C3D97F4D,1SDCH7G0169R0K,,,,,6.974792182,79.91477449,5,,
1/23/2024,44:46.6,7m 39.8s,459.8,6.974751445,79.91477811,3.2,3.2,3.9,69,2.5,0,0,0,0,0,0,-0.447388,0,1.6,-1.4,-174.9,185.1,,P-GPS,Auto Fly,,13,5,TRUE,,Mavic Mini,TRUE,FALSE,,Smart,RC,FALSE,TRUE,FALSE,,,TRUE,,FALSE,FALSE,FALSE,FALSE,FALSE,FALSE,FALSE,FALSE,FALSE,FALSE,0,Follow Yaw,1.5,0,-173.9,186.1,FALSE,FALSE,FALSE,TRUE,FALSE,FALSE,,TRUE,Normal,,100,1024,1024,1024,1024,1,FALSE,FALSE,FALSE,FALSE,FALSE,0,FALSE,FALSE,FALSE,FALSE,60,7.499,1238,2050,7.5,FALSE,3.751,3.748,0.004,FALSE,FALSE,NA,112.5,112.4,112.4,0,0,0,0,5,2957.1,739.27,,Idle,0,20,FALSE,5,TRUE,6,Go Home,FALSE,FALSE,FALSE,FALSE,FALSE,FALSE,FALSE,FALSE,FALSE,FALSE,FALSE,FALSE,6.974751162,79.91477963,0.5,111.6,459.3,TRUE,1,1,FALSE,FALSE,FALSE,FALSE,,TRUE,FALSE,FALSE,Course Lock,131.2,,16.4,Calm,80,,1.12.6,Mavic Mini,1SDCH7G0169R0K,1SFLH6Q0AB03DJ,1SRCH7F014TAHX,1U5X071EXP5ZJG,303.2,0.4,131.2,11.666536,6.71082,0,1643,Mavic Mini,1SDCH7G0169R0K,1SFLH6Q0AB03DJ,1SRCH7F014TAHX,1U5X071EXP5ZJG,DJI Fly,,1.12.6,248DCF36-2D56-9C56-4279-D4B8C3D97F4D,1SDCH7G0169R0K,,,,,6.974792182,79.91477449,5,,
1/23/2024,44:46.7,7m 39.9s,459.9,6.97475148,79.91477825,3.6,3.6,3.9,70,2.6,0,0,0,0,0,0,0,0,1.9,-1.6,-174.9,185.1,,P-GPS,Auto Fly,,13,5,TRUE,,Mavic Mini,TRUE,FALSE,,Smart,RC,FALSE,TRUE,FALSE,,,TRUE,,FALSE,FALSE,FALSE,FALSE,FALSE,FALSE,FALSE,FALSE,FALSE,FALSE,0,Follow Yaw,1,0,-173.9,186.1,FALSE,FALSE,FALSE,TRUE,FALSE,FALSE,,TRUE,Normal,,100,1024,1024,1024,1024,1,FALSE,FALSE,FALSE,FALSE,FALSE,0,FALSE,FALSE,FALSE,FALSE,60,7.499,1238,2050,7.5,FALSE,3.751,3.748,0.004,FALSE,FALSE,NA,112.5,112.4,112.4,0,0,0,0,5,2957.1,739.27,,Idle,0,20,FALSE,5,TRUE,6,Go Home,FALSE,FALSE,FALSE,FALSE,FALSE,FALSE,FALSE,FALSE,FALSE,FALSE,FALSE,FALSE,6.974751162,79.91477963,0.5,111.6,459.3,TRUE,1,1,FALSE,FALSE,FALSE,FALSE,,TRUE,FALSE,FALSE,Course Lock,131.2,,16.4,Calm,80,,1.12.6,Mavic Mini,1SDCH7G0169R0K,1SFLH6Q0AB03DJ,1SRCH7F014TAHX,1U5X071EXP5ZJG,303.2,0.4,131.2,11.666536,6.71082,0,1643,Mavic Mini,1SDCH7G0169R0K,1SFLH6Q0AB03DJ,1SRCH7F014TAHX,1U5X071EXP5ZJG,DJI Fly,,1.12.6,248DCF36-2D56-9C56-4279-D4B8C3D97F4D,1SDCH7G0169R0K,,,,,6.974792182,79.91477449,5,,
1/23/2024,44:46.7,7m 40.0s,460,6.974751498,79.91477836,3.6,3.6,3.9,70,2.6,0,0,0,0,0,0,0,0,1.8,-1.6,-174.9,185.1,,P-GPS,Auto Fly,,13,5,TRUE,,Mavic Mini,TRUE,FALSE,,Smart,RC,FALSE,TRUE,FALSE,,,TRUE,,FALSE,FALSE,FALSE,FALSE,FALSE,FALSE,FALSE,FALSE,FALSE,FALSE,0,Follow Yaw,1.6,0,-173.9,186.1,FALSE,FALSE,FALSE,TRUE,FALSE,FALSE,,TRUE,Normal,,100,1024,1024,1024,1024,1,FALSE,FALSE,FALSE,FALSE,FALSE,0,FALSE,FALSE,FALSE,FALSE,60,7.499,1238,2050,7.5,FALSE,3.751,3.748,0.004,FALSE,FALSE,NA,112.5,112.4,112.4,0,0,0,0,5,2957.1,739.27,,Idle,0,20,FALSE,5,TRUE,6,Go Home,FALSE,FALSE,FALSE,FALSE,FALSE,FALSE,FALSE,FALSE,FALSE,FALSE,FALSE,FALSE,6.974751162,79.91477963,0.4,111.6,459.3,TRUE,1,1,FALSE,FALSE,FALSE,FALSE,,TRUE,FALSE,FALSE,Course Lock,131.2,,16.4,Calm,80,,1.12.6,Mavic Mini,1SDCH7G0169R0K,1SFLH6Q0AB03DJ,1SRCH7F014TAHX,1U5X071EXP5ZJG,303.2,0.4,131.2,11.666536,6.71082,0,1643,Mavic Mini,1SDCH7G0169R0K,1SFLH6Q0AB03DJ,1SRCH7F014TAHX,1U5X071EXP5ZJG,DJI Fly,,1.12.6,248DCF36-2D56-9C56-4279-D4B8C3D97F4D,1SDCH7G0169R0K,,,,,6.974792182,79.91477449,5,,
1/23/2024,44:46.9,7m 40.1s,460.1,6.974751507,79.91477859,3.6,3.6,3.9,70,2.7,0,0,0,0,0,0,0,0,1.8,-1.9,-174.9,185.1,,P-GPS,Auto Fly,,13,5,TRUE,,Mavic Mini,TRUE,FALSE,,Smart,RC,FALSE,TRUE,FALSE,,,TRUE,,FALSE,FALSE,FALSE,FALSE,FALSE,FALSE,FALSE,FALSE,FALSE,FALSE,0,Follow Yaw,1,0,-173.9,186.1,FALSE,FALSE,FALSE,TRUE,FALSE,FALSE,,TRUE,Normal,,100,1024,1024,1024,1024,1,FALSE,FALSE,FALSE,FALSE,FALSE,0,FALSE,FALSE,FALSE,FALSE,60,7.499,1238,2050,7.451,FALSE,3.751,3.748,0.004,FALSE,FALSE,NA,112.5,112.4,112.4,0,0,0,0,5,4075.9,1018.99,,Idle,0,20,FALSE,5,TRUE,6,Go Home,FALSE,FALSE,FALSE,FALSE,FALSE,FALSE,FALSE,FALSE,FALSE,FALSE,FALSE,FALSE,6.974751162,79.91477963,0.3,111.6,459.3,TRUE,1,1,FALSE,FALSE,FALSE,FALSE,,TRUE,FALSE,FALSE,Course Lock,131.2,,16.4,Calm,80,,1.12.6,Mavic Mini,1SDCH7G0169R0K,1SFLH6Q0AB03DJ,1SRCH7F014TAHX,1U5X071EXP5ZJG,303.2,0.4,131.2,11.666536,6.71082,0,1643,Mavic Mini,1SDCH7G0169R0K,1SFLH6Q0AB03DJ,1SRCH7F014TAHX,1U5X071EXP5ZJG,DJI Fly,,1.12.6,248DCF36-2D56-9C56-4279-D4B8C3D97F4D,1SDCH7G0169R0K,,,,,6.974792182,79.91477449,5,,
1/23/2024,44:46.9,7m 40.2s,460.2,6.974751451,79.9147786,3.6,3.6,3.9,70,2.7,0,0,0,0,0,0,0,0,2,-2.2,-174.9,185.1,,P-GPS,Auto Fly,,13,5,TRUE,,Mavic Mini,TRUE,FALSE,,Smart,RC,FALSE,TRUE,FALSE,,,TRUE,,FALSE,FALSE,FALSE,FALSE,FALSE,FALSE,FALSE,FALSE,FALSE,FALSE,0,Follow Yaw,1.9,0,-173.9,186.1,FALSE,FALSE,FALSE,TRUE,FALSE,FALSE,,TRUE,Normal,,100,1024,1024,1024,1024,1,FALSE,FALSE,FALSE,FALSE,FALSE,0,FALSE,FALSE,FALSE,FALSE,60,7.499,1238,2050,7.451,FALSE,3.751,3.748,0.004,FALSE,FALSE,NA,112.5,112.4,112.4,0,0,0,0,5,4075.9,1018.99,,Idle,0,20,FALSE,5,TRUE,6,Go Home,FALSE,FALSE,FALSE,FALSE,FALSE,FALSE,FALSE,FALSE,FALSE,FALSE,FALSE,FALSE,6.974751162,79.91477963,0.3,111.6,459.3,TRUE,1,1,FALSE,FALSE,FALSE,FALSE,,TRUE,FALSE,FALSE,Course Lock,131.2,,16.4,Calm,80,,1.12.6,Mavic Mini,1SDCH7G0169R0K,1SFLH6Q0AB03DJ,1SRCH7F014TAHX,1U5X071EXP5ZJG,303.2,0.4,131.2,11.666536,6.71082,0,1643,Mavic Mini,1SDCH7G0169R0K,1SFLH6Q0AB03DJ,1SRCH7F014TAHX,1U5X071EXP5ZJG,DJI Fly,,1.12.6,248DCF36-2D56-9C56-4279-D4B8C3D97F4D,1SDCH7G0169R0K,,,,,6.974792182,79.91477449,5,,
1/23/2024,44:47.1,7m 40.3s,460.3,6.974751364,79.91477859,3.6,3.6,3.9,70,2.8,0,0,0,0,0,0,0,0,2.1,-2.6,-174.9,185.1,,P-GPS,Auto Fly,,13,5,TRUE,,Mavic Mini,TRUE,FALSE,,Smart,RC,FALSE,TRUE,FALSE,,,TRUE,,FALSE,FALSE,FALSE,FALSE,FALSE,FALSE,FALSE,FALSE,FALSE,FALSE,0,Follow Yaw,1.4,0,-173.9,186.1,FALSE,FALSE,FALSE,TRUE,FALSE,FALSE,,TRUE,Normal,,100,1024,1024,1024,1024,1,FALSE,FALSE,FALSE,FALSE,FALSE,0,FALSE,FALSE,FALSE,FALSE,60,7.499,1238,2050,7.451,FALSE,3.751,3.748,0.004,FALSE,FALSE,NA,112.5,112.4,112.4,0,0,0,0,5,4075.9,1018.99,,Idle,0,20,FALSE,5,TRUE,6,Go Home,FALSE,FALSE,FALSE,FALSE,FALSE,FALSE,FALSE,FALSE,FALSE,FALSE,FALSE,FALSE,6.974751162,79.91477963,0.3,111.6,459.3,TRUE,1,1,FALSE,FALSE,FALSE,FALSE,,TRUE,FALSE,FALSE,Course Lock,131.2,,16.4,Calm,80,,1.12.6,Mavic Mini,1SDCH7G0169R0K,1SFLH6Q0AB03DJ,1SRCH7F014TAHX,1U5X071EXP5ZJG,303.2,0.4,131.2,11.666536,6.71082,0,1643,Mavic Mini,1SDCH7G0169R0K,1SFLH6Q0AB03DJ,1SRCH7F014TAHX,1U5X071EXP5ZJG,DJI Fly,,1.12.6,248DCF36-2D56-9C56-4279-D4B8C3D97F4D,1SDCH7G0169R0K,,,,,6.974792182,79.91477449,5,,
1/23/2024,44:47.1,7m 40.4s,460.4,6.974751296,79.91477859,3.6,3.6,3.9,70,2.8,0,0,0,0,0,0,0,0,2.3,-2.6,-174.9,185.1,,P-GPS,Auto Fly,,13,5,TRUE,,Mavic Mini,TRUE,FALSE,,Smart,RC,FALSE,TRUE,FALSE,,,TRUE,,FALSE,FALSE,FALSE,FALSE,FALSE,FALSE,FALSE,FALSE,FALSE,FALSE,0,Follow Yaw,2.2,0,-173.9,186.1,FALSE,FALSE,FALSE,TRUE,FALSE,FALSE,,TRUE,Normal,,100,1024,1024,1024,1024,1,FALSE,FALSE,FALSE,FALSE,FALSE,0,FALSE,FALSE,FALSE,FALSE,60,7.499,1238,2050,7.451,FALSE,3.751,3.748,0.004,FALSE,FALSE,NA,112.5,112.4,112.4,0,0,0,0,5,4075.9,1018.99,,Idle,0,20,FALSE,5,TRUE,6,Go Home,FALSE,FALSE,FALSE,FALSE,FALSE,FALSE,FALSE,FALSE,FALSE,FALSE,FALSE,FALSE,6.974751162,79.91477963,0.3,111.6,459.3,TRUE,1,1,FALSE,FALSE,FALSE,FALSE,,TRUE,FALSE,FALSE,Course Lock,131.2,,16.4,Calm,80,,1.12.6,Mavic Mini,1SDCH7G0169R0K,1SFLH6Q0AB03DJ,1SRCH7F014TAHX,1U5X071EXP5ZJG,303.2,0.4,131.2,11.666536,6.71082,0,1643,Mavic Mini,1SDCH7G0169R0K,1SFLH6Q0AB03DJ,1SRCH7F014TAHX,1U5X071EXP5ZJG,DJI Fly,,1.12.6,248DCF36-2D56-9C56-4279-D4B8C3D97F4D,1SDCH7G0169R0K,,,,,6.974792182,79.91477449,5,,
1/23/2024,44:47.2,7m 40.5s,460.5,6.974751021,79.91477831,3.6,3.6,3.9,70,2.9,0,0,0,0,0,0,0,0,3.1,-3.5,-175,185,,P-GPS,Auto Fly,,13,5,TRUE,,Mavic Mini,TRUE,FALSE,,Smart,RC,FALSE,TRUE,FALSE,,,TRUE,,FALSE,FALSE,FALSE,FALSE,FALSE,FALSE,FALSE,FALSE,FALSE,FALSE,0,Follow Yaw,2.4,0,-173.9,186.1,FALSE,FALSE,FALSE,TRUE,FALSE,FALSE,,TRUE,Normal,,100,1024,1024,1024,1024,1,FALSE,FALSE,FALSE,FALSE,FALSE,0,FALSE,FALSE,FALSE,FALSE,60,7.499,1238,2050,7.451,FALSE,3.751,3.748,0.004,FALSE,FALSE,NA,112.5,112.4,112.4,0,0,0,0,5,4075.9,1018.99,,Idle,0,20,FALSE,5,TRUE,6,Go Home,FALSE,FALSE,FALSE,FALSE,FALSE,FALSE,FALSE,FALSE,FALSE,FALSE,FALSE,FALSE,6.974751162,79.91477963,0.4,111.6,459.3,TRUE,1,1,FALSE,FALSE,FALSE,FALSE,,TRUE,FALSE,FALSE,Course Lock,131.2,,16.4,Calm,80,,1.12.6,Mavic Mini,1SDCH7G0169R0K,1SFLH6Q0AB03DJ,1SRCH7F014TAHX,1U5X071EXP5ZJG,303.2,0.4,131.2,11.666536,6.71082,0,1643,Mavic Mini,1SDCH7G0169R0K,1SFLH6Q0AB03DJ,1SRCH7F014TAHX,1U5X071EXP5ZJG,DJI Fly,,1.12.6,248DCF36-2D56-9C56-4279-D4B8C3D97F4D,1SDCH7G0169R0K,,,,,6.974792182,79.91477449,5,,
1/23/2024,44:47.4,7m 40.6s,460.6,6.974751,79.91477829,3.6,3.6,3.9,70,2.9,0,0,0,0,0,0,0,0,3.1,-3.3,-175,185,,P-GPS,Auto Fly,,13,5,TRUE,,Mavic Mini,TRUE,FALSE,,Smart,RC,FALSE,TRUE,FALSE,,,TRUE,,FALSE,FALSE,FALSE,FALSE,FALSE,FALSE,FALSE,FALSE,FALSE,FALSE,0,Follow Yaw,3,0,-173.9,186.1,FALSE,FALSE,FALSE,TRUE,FALSE,FALSE,,TRUE,Normal,,100,1024,1024,1024,1024,1,FALSE,FALSE,FALSE,FALSE,FALSE,0,FALSE,FALSE,FALSE,FALSE,60,7.499,1238,2050,7.451,FALSE,3.751,3.748,0.004,FALSE,FALSE,NA,112.5,112.4,112.4,0,0,0,0,5,4075.9,1018.99,,Idle,0,20,FALSE,5,TRUE,6,Go Home,FALSE,FALSE,FALSE,FALSE,FALSE,FALSE,FALSE,FALSE,FALSE,FALSE,FALSE,FALSE,6.974751162,79.91477963,0.4,111.6,459.3,TRUE,1,1,FALSE,FALSE,FALSE,FALSE,,TRUE,FALSE,FALSE,Course Lock,131.2,,16.4,Calm,80,,1.12.6,Mavic Mini,1SDCH7G0169R0K,1SFLH6Q0AB03DJ,1SRCH7F014TAHX,1U5X071EXP5ZJG,303.2,0.4,131.2,11.666536,6.71082,0,1643,Mavic Mini,1SDCH7G0169R0K,1SFLH6Q0AB03DJ,1SRCH7F014TAHX,1U5X071EXP5ZJG,DJI Fly,,1.12.6,248DCF36-2D56-9C56-4279-D4B8C3D97F4D,1SDCH7G0169R0K,,,,,6.974792182,79.91477449,5,,
1/23/2024,44:47.5,7m 40.7s,460.7,6.974751,79.9147783,3.2,3.6,3.9,69,2.9,0.223694,0.223694,0,0,0.223694,0.223694,0,0,2.9,-3.2,-174.9,185.1,73.9,P-GPS,Auto Fly,,13,5,TRUE,,Mavic Mini,TRUE,FALSE,,Smart,RC,FALSE,TRUE,FALSE,,,TRUE,,FALSE,FALSE,FALSE,FALSE,FALSE,FALSE,FALSE,FALSE,FALSE,FALSE,0,Follow Yaw,2.1,0,-173.9,186.1,FALSE,FALSE,FALSE,TRUE,FALSE,FALSE,,TRUE,Normal,,100,1024,1024,1024,1024,1,FALSE,FALSE,FALSE,FALSE,FALSE,0,FALSE,FALSE,FALSE,FALSE,60,7.499,1238,2050,7.451,FALSE,3.751,3.748,0.004,FALSE,FALSE,NA,112.5,112.4,112.4,0,0,0,0,5,4075.9,1018.99,,Idle,0,20,FALSE,5,TRUE,6,Go Home,FALSE,FALSE,FALSE,FALSE,FALSE,FALSE,FALSE,FALSE,FALSE,FALSE,FALSE,FALSE,6.974751162,79.91477963,0.4,111.6,459.3,TRUE,1,1,FALSE,FALSE,FALSE,FALSE,,TRUE,FALSE,FALSE,Course Lock,131.2,,16.4,Calm,80,,1.12.6,Mavic Mini,1SDCH7G0169R0K,1SFLH6Q0AB03DJ,1SRCH7F014TAHX,1U5X071EXP5ZJG,303.2,0.4,131.2,11.666536,6.71082,0,1643,Mavic Mini,1SDCH7G0169R0K,1SFLH6Q0AB03DJ,1SRCH7F014TAHX,1U5X071EXP5ZJG,DJI Fly,,1.12.6,248DCF36-2D56-9C56-4279-D4B8C3D97F4D,1SDCH7G0169R0K,,,,,6.974792182,79.91477449,5,,
1/23/2024,44:47.6,7m 40.8s,460.8,6.974751043,79.91477835,3.2,3.6,3.9,69,3,0.223694,0.223694,0,0,0.223694,0.223694,0,0,2.6,-2.9,-174.9,185.1,41.5,P-GPS,Auto Fly,,13,5,TRUE,,Mavic Mini,TRUE,FALSE,,Smart,RC,FALSE,TRUE,FALSE,,,TRUE,,FALSE,FALSE,FALSE,FALSE,FALSE,FALSE,FALSE,FALSE,FALSE,FALSE,0,Follow Yaw,2.4,0,-173.9,186.1,FALSE,FALSE,FALSE,TRUE,FALSE,FALSE,,TRUE,Normal,,100,1024,1024,1024,1024,1,FALSE,FALSE,FALSE,FALSE,FALSE,0,FALSE,FALSE,FALSE,FALSE,60,7.499,1238,2050,7.451,FALSE,3.751,3.748,0.004,FALSE,FALSE,NA,112.5,112.4,112.4,0,0,0,0,5,4075.9,1018.99,,Idle,0,20,FALSE,5,TRUE,6,Go Home,FALSE,FALSE,FALSE,FALSE,FALSE,FALSE,FALSE,FALSE,FALSE,FALSE,FALSE,FALSE,6.974751162,79.91477963,0.4,111.6,459.3,TRUE,1,1,FALSE,FALSE,FALSE,FALSE,,TRUE,FALSE,FALSE,Course Lock,131.2,,16.4,Calm,80,,1.12.6,Mavic Mini,1SDCH7G0169R0K,1SFLH6Q0AB03DJ,1SRCH7F014TAHX,1U5X071EXP5ZJG,303.2,0.4,131.2,11.666536,6.71082,0,1643,Mavic Mini,1SDCH7G0169R0K,1SFLH6Q0AB03DJ,1SRCH7F014TAHX,1U5X071EXP5ZJG,DJI Fly,,1.12.6,248DCF36-2D56-9C56-4279-D4B8C3D97F4D,1SDCH7G0169R0K,,,,,6.974792182,79.91477449,5,,
1/23/2024,44:47.7,7m 40.9s,460.9,6.974751165,79.91477834,3.2,3.6,3.9,69,3,0.223694,0.223694,0,0,0.223694,0.223694,0,0,2.8,-3,-174.9,185.1,359.2,P-GPS,Auto Fly,,13,5,TRUE,,Mavic Mini,TRUE,FALSE,,Smart,RC,FALSE,TRUE,FALSE,,,TRUE,,FALSE,FALSE,FALSE,FALSE,FALSE,FALSE,FALSE,FALSE,FALSE,FALSE,0,Follow Yaw,2.5,0,-173.9,186.1,FALSE,FALSE,FALSE,TRUE,FALSE,FALSE,,TRUE,Normal,,100,1024,1024,1024,1024,1,FALSE,FALSE,FALSE,FALSE,FALSE,0,FALSE,FALSE,FALSE,FALSE,60,7.464,1237,2050,7.451,FALSE,3.734,3.73,0.004,FALSE,FALSE,NA,112.5,112.4,112.4,0,0,0,0,5,4075.9,1018.99,,Idle,0,20,FALSE,5,TRUE,6,Go Home,FALSE,FALSE,FALSE,FALSE,FALSE,FALSE,FALSE,FALSE,FALSE,FALSE,FALSE,FALSE,6.974751162,79.91477963,0.4,111.6,459.3,TRUE,1,1,FALSE,FALSE,FALSE,FALSE,,TRUE,FALSE,FALSE,Course Lock,131.2,,16.4,Calm,80,,1.12.6,Mavic Mini,1SDCH7G0169R0K,1SFLH6Q0AB03DJ,1SRCH7F014TAHX,1U5X071EXP5ZJG,303.2,0.4,131.2,11.666536,6.71082,0,1643,Mavic Mini,1SDCH7G0169R0K,1SFLH6Q0AB03DJ,1SRCH7F014TAHX,1U5X071EXP5ZJG,DJI Fly,,1.12.6,248DCF36-2D56-9C56-4279-D4B8C3D97F4D,1SDCH7G0169R0K,,,,,6.974792182,79.91477449,5,,
1/23/2024,44:47.8,7m 41.0s,461,6.974751305,79.9147785,3.2,3.6,3.9,69,3.1,0.316351,0.316351,0.223694,0.223694,0.223694,0.223694,0,0,2.7,-2.9,-174.9,185.1,40.6,P-GPS,Auto Fly,,13,5,TRUE,,Mavic Mini,TRUE,FALSE,,Smart,RC,FALSE,TRUE,FALSE,,,TRUE,,FALSE,FALSE,FALSE,FALSE,FALSE,FALSE,FALSE,FALSE,FALSE,FALSE,0,Follow Yaw,2.5,0,-173.9,186.1,FALSE,FALSE,FALSE,TRUE,FALSE,FALSE,,TRUE,Normal,,100,1024,1024,1024,1024,1,FALSE,FALSE,FALSE,FALSE,FALSE,0,FALSE,FALSE,FALSE,FALSE,60,7.464,1237,2050,7.451,FALSE,3.734,3.73,0.004,FALSE,FALSE,NA,112.5,112.4,112.4,0,0,0,0,5,4075.9,1018.99,,Idle,0,20,FALSE,5,TRUE,6,Go Home,FALSE,FALSE,FALSE,FALSE,FALSE,FALSE,FALSE,FALSE,FALSE,FALSE,FALSE,FALSE,6.974751162,79.91477963,0.4,111.6,459.3,TRUE,1,1,FALSE,FALSE,FALSE,FALSE,,TRUE,FALSE,FALSE,Course Lock,131.2,,16.4,Calm,80,,1.12.6,Mavic Mini,1SDCH7G0169R0K,1SFLH6Q0AB03DJ,1SRCH7F014TAHX,1U5X071EXP5ZJG,303.2,0.4,131.2,11.666536,6.71082,0,1643,Mavic Mini,1SDCH7G0169R0K,1SFLH6Q0AB03DJ,1SRCH7F014TAHX,1U5X071EXP5ZJG,DJI Fly,,1.12.6,248DCF36-2D56-9C56-4279-D4B8C3D97F4D,1SDCH7G0169R0K,,,,,6.974792182,79.91477449,5,,
1/23/2024,44:47.9,7m 41.1s,461.1,6.974751467,79.91477869,3.2,3.6,3.9,69,3.2,0.316351,0.316351,0.223694,0.223694,0.223694,0.223694,0,0,2.6,-2.7,-174.9,185.1,41.1,P-GPS,Auto Fly,,13,5,TRUE,,Mavic Mini,TRUE,FALSE,,Smart,RC,FALSE,TRUE,FALSE,,,TRUE,,FALSE,FALSE,FALSE,FALSE,FALSE,FALSE,FALSE,FALSE,FALSE,FALSE,0,Follow Yaw,1.7,0,-173.9,186.1,FALSE,FALSE,FALSE,TRUE,FALSE,FALSE,,TRUE,Normal,,100,1024,1024,1024,1024,1,FALSE,FALSE,FALSE,FALSE,FALSE,0,FALSE,FALSE,FALSE,FALSE,60,7.464,1237,2050,7.454,FALSE,3.734,3.73,0.004,FALSE,FALSE,NA,112.5,112.4,112.4,0,0,0,0,5,6006.7,1501.67,,Idle,0,20,FALSE,5,TRUE,6,Go Home,FALSE,FALSE,FALSE,FALSE,FALSE,FALSE,FALSE,FALSE,FALSE,FALSE,FALSE,FALSE,6.974751162,79.91477963,0.3,111.6,459.3,TRUE,1,1,FALSE,FALSE,FALSE,FALSE,,TRUE,FALSE,FALSE,Course Lock,131.2,,16.4,Calm,80,,1.12.6,Mavic Mini,1SDCH7G0169R0K,1SFLH6Q0AB03DJ,1SRCH7F014TAHX,1U5X071EXP5ZJG,303.2,0.4,131.2,11.666536,6.71082,0,1643,Mavic Mini,1SDCH7G0169R0K,1SFLH6Q0AB03DJ,1SRCH7F014TAHX,1U5X071EXP5ZJG,DJI Fly,,1.12.6,248DCF36-2D56-9C56-4279-D4B8C3D97F4D,1SDCH7G0169R0K,,,,,6.974792182,79.91477449,5,,
1/23/2024,44:47.9,7m 41.2s,461.2,6.974751639,79.91477888,3.2,3.6,3.9,69,3.3,0.500194,0.500194,0.223694,0.223694,0.447388,0.447388,0,0,2,-2.3,-174.8,185.2,40.8,P-GPS,Auto Fly,,13,5,TRUE,,Mavic Mini,TRUE,FALSE,,Smart,RC,FALSE,TRUE,FALSE,,,TRUE,,FALSE,FALSE,FALSE,FALSE,FALSE,FALSE,FALSE,FALSE,FALSE,FALSE,0,Follow Yaw,1.6,0,-173.9,186.1,FALSE,FALSE,FALSE,TRUE,FALSE,FALSE,,TRUE,Normal,,100,1024,1024,1024,1024,1,FALSE,FALSE,FALSE,FALSE,FALSE,0,FALSE,FALSE,FALSE,FALSE,60,7.464,1237,2050,7.454,FALSE,3.734,3.73,0.004,FALSE,FALSE,NA,112.5,112.4,112.4,0,0,0,0,5,6006.7,1501.67,,Idle,0,20,FALSE,5,TRUE,6,Go Home,FALSE,FALSE,FALSE,FALSE,FALSE,FALSE,FALSE,FALSE,FALSE,FALSE,FALSE,FALSE,6.974751162,79.91477963,0.3,111.6,459.3,TRUE,1,1,FALSE,FALSE,FALSE,FALSE,,TRUE,FALSE,FALSE,Course Lock,131.2,,16.4,Calm,80,,1.12.6,Mavic Mini,1SDCH7G0169R0K,1SFLH6Q0AB03DJ,1SRCH7F014TAHX,1U5X071EXP5ZJG,303.2,0.4,131.2,11.666536,6.71082,0,1643,Mavic Mini,1SDCH7G0169R0K,1SFLH6Q0AB03DJ,1SRCH7F014TAHX,1U5X071EXP5ZJG,DJI Fly,,1.12.6,248DCF36-2D56-9C56-4279-D4B8C3D97F4D,1SDCH7G0169R0K,,,,,6.974792182,79.91477449,5,,
1/23/2024,44:48.1,7m 41.3s,461.3,6.974751847,79.91477905,3.2,3.6,3.9,69,3.4,0.500194,0.500194,0.223694,0.223694,0.447388,0.447388,0,0,1.9,-2.3,-174.8,185.2,32.8,P-GPS,Auto Fly,,13,5,TRUE,,Mavic Mini,TRUE,FALSE,,Smart,RC,FALSE,TRUE,FALSE,,,TRUE,,FALSE,FALSE,FALSE,FALSE,FALSE,FALSE,FALSE,FALSE,FALSE,FALSE,0,Follow Yaw,1.2,0,-173.9,186.1,FALSE,FALSE,FALSE,TRUE,FALSE,FALSE,,TRUE,Normal,,100,1024,1024,1024,1024,1,FALSE,FALSE,FALSE,FALSE,FALSE,0,FALSE,FALSE,FALSE,FALSE,60,7.464,1237,2050,7.454,FALSE,3.734,3.73,0.004,FALSE,FALSE,NA,112.5,112.4,112.4,0,0,0,0,5,6006.7,1501.67,,Idle,0,20,FALSE,5,TRUE,6,Go Home,FALSE,FALSE,FALSE,FALSE,FALSE,FALSE,FALSE,FALSE,FALSE,FALSE,FALSE,FALSE,6.974751162,79.91477963,0.3,111.6,459.3,TRUE,1,1,FALSE,FALSE,FALSE,FALSE,,TRUE,FALSE,FALSE,Course Lock,131.2,,16.4,Calm,80,,1.12.6,Mavic Mini,1SDCH7G0169R0K,1SFLH6Q0AB03DJ,1SRCH7F014TAHX,1U5X071EXP5ZJG,303.2,0.4,131.2,11.666536,6.71082,0,1643,Mavic Mini,1SDCH7G0169R0K,1SFLH6Q0AB03DJ,1SRCH7F014TAHX,1U5X071EXP5ZJG,DJI Fly,,1.12.6,248DCF36-2D56-9C56-4279-D4B8C3D97F4D,1SDCH7G0169R0K,,,,,6.974792182,79.91477449,5,,
1/23/2024,44:48.1,7m 41.4s,461.4,6.974752043,79.91477927,3.2,3.6,3.9,69,3.5,0.500194,0.500194,0.223694,0.223694,0.447388,0.447388,0,0,1.6,-1.4,-174.7,185.3,40.8,P-GPS,Auto Fly,,12,5,TRUE,,Mavic Mini,TRUE,FALSE,,Smart,RC,FALSE,TRUE,FALSE,,,TRUE,,FALSE,FALSE,FALSE,FALSE,FALSE,FALSE,FALSE,FALSE,FALSE,FALSE,0,Follow Yaw,1.1,0,-173.9,186.1,FALSE,FALSE,FALSE,TRUE,FALSE,FALSE,,TRUE,Normal,,100,1024,1024,1024,1024,1,FALSE,FALSE,FALSE,FALSE,FALSE,0,FALSE,FALSE,FALSE,FALSE,60,7.464,1237,2050,7.454,FALSE,3.734,3.73,0.004,FALSE,FALSE,NA,112.5,112.4,112.4,0,0,0,0,5,6006.7,1501.67,,Idle,0,20,FALSE,5,TRUE,6,Go Home,FALSE,FALSE,FALSE,FALSE,FALSE,FALSE,FALSE,FALSE,FALSE,FALSE,FALSE,FALSE,6.974751162,79.91477963,0.3,111.6,459.3,TRUE,1,1,FALSE,FALSE,FALSE,FALSE,,TRUE,FALSE,FALSE,Course Lock,131.2,,16.4,Calm,80,,1.12.6,Mavic Mini,1SDCH7G0169R0K,1SFLH6Q0AB03DJ,1SRCH7F014TAHX,1U5X071EXP5ZJG,303.2,0.4,131.2,11.666536,6.71082,0,1643,Mavic Mini,1SDCH7G0169R0K,1SFLH6Q0AB03DJ,1SRCH7F014TAHX,1U5X071EXP5ZJG,DJI Fly,,1.12.6,248DCF36-2D56-9C56-4279-D4B8C3D97F4D,1SDCH7G0169R0K,,,,,6.974792182,79.91477449,5,,
1/23/2024,44:48.2,7m 41.5s,461.5,6.974752294,79.91477954,3.2,3.6,3.9,69,3.6,0.500194,0.500194,0.223694,0.223694,0.447388,0.447388,0,0,1.5,-1,-174.7,185.3,38.9,P-GPS,Auto Fly,,12,5,TRUE,,Mavic Mini,TRUE,FALSE,,Smart,RC,FALSE,TRUE,FALSE,,,TRUE,,FALSE,FALSE,FALSE,FALSE,FALSE,FALSE,FALSE,FALSE,FALSE,FALSE,0,Follow Yaw,0.5,0,-173.9,186.1,FALSE,FALSE,FALSE,TRUE,FALSE,FALSE,,TRUE,Normal,,100,1024,1024,1024,1024,1,FALSE,FALSE,FALSE,FALSE,FALSE,0,FALSE,FALSE,FALSE,FALSE,60,7.464,1237,2050,7.454,FALSE,3.734,3.73,0.004,FALSE,FALSE,NA,112.5,112.4,112.4,0,0,0,0,5,6006.7,1501.67,,Idle,0,20,FALSE,5,TRUE,6,Go Home,FALSE,FALSE,FALSE,FALSE,FALSE,FALSE,FALSE,FALSE,FALSE,FALSE,FALSE,FALSE,6.974751162,79.91477963,0.4,111.6,459.3,TRUE,1,1,FALSE,FALSE,FALSE,FALSE,,TRUE,FALSE,FALSE,Course Lock,131.2,,16.4,Calm,80,,1.12.6,Mavic Mini,1SDCH7G0169R0K,1SFLH6Q0AB03DJ,1SRCH7F014TAHX,1U5X071EXP5ZJG,303.2,0.4,131.2,11.666536,6.71082,0,1643,Mavic Mini,1SDCH7G0169R0K,1SFLH6Q0AB03DJ,1SRCH7F014TAHX,1U5X071EXP5ZJG,DJI Fly,,1.12.6,248DCF36-2D56-9C56-4279-D4B8C3D97F4D,1SDCH7G0169R0K,,,,,6.974792182,79.91477449,5,,
