CUSTOM.date [local],CUSTOM.updateTime [local],OSD.flyTime,OSD.flyTime [s],OSD.latitude,OSD.longitude,OSD.height [ft],OSD.heightMax [ft],OSD.vpsHeight [ft],OSD.altitude [ft],OSD.mileage [ft],OSD.hSpeed [MPH],OSD.hSpeedMax [MPH],OSD.xSpeed [MPH],OSD.xSpeedMax [MPH],OSD.ySpeed [MPH],OSD.ySpeedMax [MPH],OSD.zSpeed [MPH],OSD.zSpeedMax [MPH],OSD.pitch,OSD.roll,OSD.yaw,OSD.yaw [360],OSD.directionOfTravel,OSD.flycState,OSD.flycCommand,OSD.flightAction,OSD.gpsNum,OSD.gpsLevel,OSD.isGPSUsed,OSD.nonGPSCause,OSD.droneType,OSD.isSwaveWork,OSD.waveError,OSD.goHomeStatus,OSD.batteryType,OSD.ctrlDevice,OSD.isOnGround,OSD.isMotorOn,OSD.isMotorBlocked,OSD.motorStartFailedCause,OSD.motorFailReason,OSD.isImuPreheated,OSD.imuInitFailReason,OSD.isAcceletorOverRange,OSD.isBarometerDeadInAir,OSD.isCompassError,OSD.isGoHomeHeightModified,OSD.canIOCWork,OSD.isNotEnoughForce,OSD.isOutOfLimit,OSD.isPropellerCatapult,OSD.isVibrating,OSD.isVisionUsed,OSD.voltageWarning,GIMBAL.mode,GIMBAL.pitch,GIMBAL.roll,GIMBAL.yaw,GIMBAL.yaw [360],GIMBAL.isPitchAtLimit,GIMBAL.isRollAtLimit,GIMBAL.isYawAtLimit,GIMBAL.isStuck,CAMERA.isPhoto,CAMERA.isVideo,CAMERA.filename,CAMERA.sdCardIsInserted,CAMERA.sdCardState,RC.downlinkSignal,RC.uplinkSignal,RC.aileron,RC.elevator,RC.throttle,RC.rudder,RC.mode,RC.goHomeDepressed,RC.recordDepressed,RC.shutterDepressed,RC.playbackDepressed,RC.wheelDepressed,RC.wheelOffset,RC.custom1Depressed,RC.custom2Depressed,RC.custom3Depressed,RC.custom4Depressed,BATTERY.chargeLevel,BATTERY.currentPV [V],BATTERY.currentCapacity [mAh],BATTERY.fullCapacity [mAh],BATTERY.voltage [V],BATTERY.isCellVoltageEstimated,BATTERY.cellVoltage1 [V],BATTERY.cellVoltage2 [V],BATTERY.maxCellVoltageDeviation,BATTERY.isCellVoltageDeviationHigh,BATTERY.isVoltageLow,BATTERY.current [A],BATTERY.temperature [F],BATTERY.minTemperature [F],BATTERY.maxTemperature [F],BATTERY.usefulTime [s],BATTERY.goHomeTime [s],BATTERY.landTime [s],BATTERY.goHomeBattery,BATTERY.landBattery,BATTERY.safeFlyRadius,BATTERY.volumeConsume,BATTERY.status,BATTERY.goHomeStatus,BATTERY.goHomeCountdown,BATTERY.lowWarning,BATTERY.lowWarningGoHome,BATTERY.seriousLowWarning,BATTERY.seriousLowWarningLanding,BATTERY.timesCharged,MC.failSafeAction,MC.isObstacleAvoidanceEnabled,MC.isCollisionAvoidanceEnabled,MC.isRthObstacleAvoidanceEnabled,MC.isBraking,MC.isAvoidingObstacle,MC.isAvoidingActiveObstacle,MC.isAscentLimitedByObstacle,MC.isLandingConfirmationNeeded,MC.atLowAltitudeLimit,MC.atDistanceLimit,MC.atAirportAltitudeLimit,MC.atAirportBoundary,HOME.latitude,HOME.longitude,HOME.distance [ft],HOME.height [ft],HOME.heightLimit [ft],HOME.isHomeRecord,HOME.goHomeMode,HOME.aircraftHeadDirection,HOME.isDynamicHomePointEnabled,HOME.isReachedLimitDistance,HOME.isReachedLimitHeight,HOME.isCompassCalibrating,HOME.compassCalibrationState,HOME.isMultipleFlightModeEnabled,HOME.isBeginnerMode,HOME.isIOCEnabled,HOME.iocMode,HOME.goHomeHeight [ft],HOME.courseLockAngle,HOME.forceLandingHeight [ft],HOME.wind,HOME.dataRecorderFileIndex,RECOVER.appType,RECOVER.appVersion,RECOVER.aircraftName,RECOVER.aircraftSerial,RECOVER.cameraSerial,RECOVER.rcSerial,RECOVER.batterySerial,DETAILS.totalTime [s],DETAILS.totalDistance [ft],DETAILS.maxHeight [ft],DETAILS.maxHorizontalSpeed [MPH],DETAILS.maxVerticalSpeed [MPH],DETAILS.photoNum,DETAILS.videoTime [s],DETAILS.aircraftName,DETAILS.aircraftSerial,DETAILS.cameraSerial,DETAILS.rcSerial,DETAILS.batterySerial,DETAILS.appName,DETAILS.appType,DETAILS.appVersion,DETAILS.guid,SERIAL.flightController,SERIAL.camera,SERIAL.gimbal,SERIAL.rc,SERIAL.battery,APPGPS.latitude,APPGPS.longitude,APPGPS.accuracy,APP.tip,APP.warning
1/26/2024,13:57.5,2m 6.7s,126.7,6.972913341,79.91590888,0,0,0.3,57,0,0,0,0,0,0,0,0,0,4.6,-3.1,27.9,27.9,,Starting Motors,Auto Fly,Takeoff (App Auto),14,5,TRUE,,Mavic Mini,FALSE,FALSE,,Smart,RC,TRUE,TRUE,FALSE,,,TRUE,,FALSE,FALSE,FALSE,FALSE,FALSE,FALSE,FALSE,FALSE,FALSE,FALSE,0,Follow Yaw,0,0,25.7,25.7,FALSE,FALSE,FALSE,FALSE,FALSE,FALSE,,TRUE,Normal,,,1024,1024,1024,1024,1,FALSE,FALSE,FALSE,FALSE,FALSE,0,FALSE,FALSE,FALSE,FALSE,90,7.976,2008,2230,7.973,TRUE,3.987,3.987,,FALSE,FALSE,NA,91.6,91.5,91.5,0,1,0,0,5,2128.7,532.19,,Idle,0,20,FALSE,5,TRUE,7,Go Home,FALSE,FALSE,FALSE,FALSE,FALSE,FALSE,FALSE,FALSE,FALSE,FALSE,FALSE,FALSE,6.972915133,79.91591311,1.6,,459.3,TRUE,1,1,FALSE,FALSE,FALSE,FALSE,,TRUE,FALSE,FALSE,Course Lock,131.2,52,16.4,Calm,85,,1.12.6,Mavic Mini,1SDCH7G0169R0K,1SFLH6Q0AB03DJ,1SRCH7F014TAHX,1U5X071EXP5ZJG,163.4,0.8,114.8,17.620823,4.47388,0,11892,Mavic Mini,1SDCH7G0169R0K,1SFLH6Q0AB03DJ,1SRCH7F014TAHX,1U5X071EXP5ZJG,DJI Fly,,1.12.6,8B5BB8EB-5BD8-0D67-DA75-1F85061C16D9,1SDCH7G0169R0K,,,,,,,,Data Recorder File Index is 85.; Set Return to Home (RTH) altitude to 40 m (131 ft).; Set maximum flight altitude to 140 m (459 ft).; Flight mode changed to Starting Motors.,
1/26/2024,11:50.9,2m 6.8s,126.8,6.972913285,79.91590894,0,0,0.3,57,0,0,0,0,0,0,0,0,0,4.6,-3.1,27.9,27.9,,Starting Motors,Auto Fly,Takeoff (App Auto),14,5,TRUE,,Mavic Mini,FALSE,FALSE,,Smart,RC,TRUE,TRUE,FALSE,,,TRUE,,FALSE,FALSE,FALSE,FALSE,FALSE,FALSE,FALSE,FALSE,FALSE,FALSE,0,Follow Yaw,0,0,25.7,25.7,FALSE,FALSE,FALSE,FALSE,FALSE,FALSE,,TRUE,Normal,,,1024,1024,1024,1024,1,FALSE,FALSE,FALSE,FALSE,FALSE,0,FALSE,FALSE,FALSE,FALSE,90,7.976,2008,2230,7.973,TRUE,3.987,3.987,,FALSE,FALSE,NA,91.6,91.5,91.5,0,1,0,0,5,2128.7,532.19,,Idle,0,20,FALSE,5,TRUE,7,Go Home,FALSE,FALSE,FALSE,FALSE,FALSE,FALSE,FALSE,FALSE,FALSE,FALSE,FALSE,FALSE,6.972915133,79.91591311,1.6,,459.3,TRUE,1,1,FALSE,FALSE,FALSE,FALSE,,TRUE,FALSE,FALSE,Course Lock,131.2,52,16.4,Calm,85,,1.12.6,Mavic Mini,1SDCH7G0169R0K,1SFLH6Q0AB03DJ,1SRCH7F014TAHX,1U5X071EXP5ZJG,163.4,0.8,114.8,17.620823,4.47388,0,11892,Mavic Mini,1SDCH7G0169R0K,1SFLH6Q0AB03DJ,1SRCH7F014TAHX,1U5X071EXP5ZJG,DJI Fly,,1.12.6,8B5BB8EB-5BD8-0D67-DA75-1F85061C16D9,1SDCH7G0169R0K,,,,,,,,,
1/26/2024,11:50.9,2m 6.9s,126.9,6.972913211,79.91590903,0,0,0.3,57,0,0,0,0,0,0,0,0,0,4.6,-3,27.9,27.9,,Starting Motors,Auto Fly,Takeoff (App Auto),14,5,TRUE,,Mavic Mini,TRUE,FALSE,,Smart,RC,TRUE,TRUE,FALSE,,,TRUE,,FALSE,FALSE,FALSE,FALSE,FALSE,FALSE,FALSE,FALSE,FALSE,FALSE,0,Follow Yaw,0,0,25.7,25.7,FALSE,FALSE,FALSE,FALSE,FALSE,FALSE,,TRUE,Normal,,,1024,1024,1024,1024,1,FALSE,FALSE,FALSE,FALSE,FALSE,0,FALSE,FALSE,FALSE,FALSE,90,7.976,2008,2230,7.973,TRUE,3.987,3.987,,FALSE,FALSE,NA,91.6,91.5,91.5,0,1,0,0,5,2128.7,532.19,,Idle,0,20,FALSE,5,TRUE,7,Go Home,FALSE,FALSE,FALSE,FALSE,FALSE,FALSE,FALSE,FALSE,FALSE,FALSE,FALSE,FALSE,6.972915133,79.91591311,1.6,,459.3,TRUE,1,1,FALSE,FALSE,FALSE,FALSE,,TRUE,FALSE,FALSE,Course Lock,131.2,52,16.4,Calm,85,,1.12.6,Mavic Mini,1SDCH7G0169R0K,1SFLH6Q0AB03DJ,1SRCH7F014TAHX,1U5X071EXP5ZJG,163.4,0.8,114.8,17.620823,4.47388,0,11892,Mavic Mini,1SDCH7G0169R0K,1SFLH6Q0AB03DJ,1SRCH7F014TAHX,1U5X071EXP5ZJG,DJI Fly,,1.12.6,8B5BB8EB-5BD8-0D67-DA75-1F85061C16D9,1SDCH7G0169R0K,,,,,,,,,
1/26/2024,11:51.1,2m 7.0s,127,6.972913239,79.91590904,0,0,0.3,57,0,0,0,0,0,0,0,0,0,4.5,-3.1,27.9,27.9,,Starting Motors,Auto Fly,Takeoff (App Auto),14,5,TRUE,,Mavic Mini,TRUE,FALSE,,Smart,RC,TRUE,TRUE,FALSE,,,TRUE,,FALSE,FALSE,FALSE,FALSE,FALSE,FALSE,FALSE,FALSE,FALSE,FALSE,0,Follow Yaw,0,0,25.7,25.7,FALSE,FALSE,FALSE,FALSE,FALSE,FALSE,,TRUE,Normal,,100,1024,1024,1024,1024,1,FALSE,FALSE,FALSE,FALSE,FALSE,0,FALSE,FALSE,FALSE,FALSE,90,7.976,2008,2230,7.973,TRUE,3.987,3.987,,FALSE,FALSE,NA,91.6,91.5,91.5,0,1,0,0,5,2128.7,532.19,,Idle,0,20,FALSE,5,TRUE,7,Go Home,FALSE,FALSE,FALSE,FALSE,FALSE,FALSE,FALSE,FALSE,FALSE,FALSE,FALSE,FALSE,6.972915133,79.91591311,1.6,,459.3,TRUE,1,1,FALSE,FALSE,FALSE,FALSE,,TRUE,FALSE,FALSE,Course Lock,131.2,52,16.4,Calm,85,,1.12.6,Mavic Mini,1SDCH7G0169R0K,1SFLH6Q0AB03DJ,1SRCH7F014TAHX,1U5X071EXP5ZJG,163.4,0.8,114.8,17.620823,4.47388,0,11892,Mavic Mini,1SDCH7G0169R0K,1SFLH6Q0AB03DJ,1SRCH7F014TAHX,1U5X071EXP5ZJG,DJI Fly,,1.12.6,8B5BB8EB-5BD8-0D67-DA75-1F85061C16D9,1SDCH7G0169R0K,,,,,,,,,
1/26/2024,11:51.2,2m 7.1s,127.1,6.972913254,79.91590907,0,0,0.3,57,0,0,0,0,0,0,0,0,0,4.6,-3.1,27.9,27.9,,Starting Motors,Auto Fly,Takeoff (App Auto),14,5,TRUE,,Mavic Mini,TRUE,FALSE,,Smart,RC,TRUE,TRUE,FALSE,,,TRUE,,FALSE,FALSE,FALSE,FALSE,FALSE,FALSE,FALSE,FALSE,FALSE,FALSE,0,Follow Yaw,0,0,25.7,25.7,FALSE,FALSE,FALSE,FALSE,FALSE,FALSE,,TRUE,Normal,,100,1024,1024,1024,1024,1,FALSE,FALSE,FALSE,FALSE,FALSE,0,FALSE,FALSE,FALSE,FALSE,90,7.976,2008,2230,7.973,TRUE,3.987,3.987,,FALSE,FALSE,NA,91.6,91.5,91.5,0,1,0,0,5,2128.7,532.19,,Idle,0,20,FALSE,5,TRUE,7,Go Home,FALSE,FALSE,FALSE,FALSE,FALSE,FALSE,FALSE,FALSE,FALSE,FALSE,FALSE,FALSE,6.972915133,79.91591311,1.6,,459.3,TRUE,1,1,FALSE,FALSE,FALSE,FALSE,,TRUE,FALSE,FALSE,Course Lock,131.2,52,16.4,Calm,85,,1.12.6,Mavic Mini,1SDCH7G0169R0K,1SFLH6Q0AB03DJ,1SRCH7F014TAHX,1U5X071EXP5ZJG,163.4,0.8,114.8,17.620823,4.47388,0,11892,Mavic Mini,1SDCH7G0169R0K,1SFLH6Q0AB03DJ,1SRCH7F014TAHX,1U5X071EXP5ZJG,DJI Fly,,1.12.6,8B5BB8EB-5BD8-0D67-DA75-1F85061C16D9,1SDCH7G0169R0K,,,,,,,,,
1/26/2024,11:51.3,2m 7.2s,127.2,6.972913265,79.91590911,0,0,0.3,57,0,0,0,0,0,0,0,0,0,4.6,-3,27.8,27.8,,Starting Motors,Auto Fly,Takeoff (App Auto),14,5,TRUE,,Mavic Mini,TRUE,FALSE,,Smart,RC,TRUE,TRUE,FALSE,,,TRUE,,FALSE,FALSE,FALSE,FALSE,FALSE,FALSE,FALSE,FALSE,FALSE,FALSE,0,Follow Yaw,0,0,25.7,25.7,FALSE,FALSE,FALSE,FALSE,FALSE,FALSE,,TRUE,Normal,,100,1024,1024,1024,1024,1,FALSE,FALSE,FALSE,FALSE,FALSE,0,FALSE,FALSE,FALSE,FALSE,90,7.976,2008,2230,7.973,TRUE,3.987,3.987,,FALSE,FALSE,NA,91.6,91.5,91.5,0,1,0,0,5,2128.7,532.19,,Idle,0,20,FALSE,5,TRUE,7,Go Home,FALSE,FALSE,FALSE,FALSE,FALSE,FALSE,FALSE,FALSE,FALSE,FALSE,FALSE,FALSE,6.972915133,79.91591311,1.5,,459.3,TRUE,1,1,FALSE,FALSE,FALSE,FALSE,,TRUE,FALSE,FALSE,Course Lock,131.2,52,16.4,Calm,85,,1.12.6,Mavic Mini,1SDCH7G0169R0K,1SFLH6Q0AB03DJ,1SRCH7F014TAHX,1U5X071EXP5ZJG,163.4,0.8,114.8,17.620823,4.47388,0,11892,Mavic Mini,1SDCH7G0169R0K,1SFLH6Q0AB03DJ,1SRCH7F014TAHX,1U5X071EXP5ZJG,DJI Fly,,1.12.6,8B5BB8EB-5BD8-0D67-DA75-1F85061C16D9,1SDCH7G0169R0K,,,,,,,,,
1/26/2024,11:51.3,2m 7.3s,127.3,6.972913342,79.91590906,0,0,0.3,57,0.1,0,0,0,0,0,0,0,0,4.8,-3.3,27.8,27.8,,Starting Motors,Auto Fly,Takeoff (App Auto),14,5,TRUE,,Mavic Mini,TRUE,FALSE,,Smart,RC,TRUE,TRUE,FALSE,,,TRUE,,FALSE,FALSE,FALSE,FALSE,FALSE,FALSE,FALSE,FALSE,FALSE,FALSE,0,Follow Yaw,0,0,25.7,25.7,FALSE,FALSE,FALSE,FALSE,FALSE,FALSE,,TRUE,Normal,,100,1024,1024,1024,1024,1,FALSE,FALSE,FALSE,FALSE,FALSE,0,FALSE,FALSE,FALSE,FALSE,90,7.976,2008,2230,7.973,TRUE,3.987,3.987,,FALSE,FALSE,NA,91.6,91.5,91.5,0,1,0,0,5,2128.7,532.19,,Idle,0,20,FALSE,5,TRUE,7,Go Home,FALSE,FALSE,FALSE,FALSE,FALSE,FALSE,FALSE,FALSE,FALSE,FALSE,FALSE,FALSE,6.972915133,79.91591311,1.6,,459.3,TRUE,1,1,FALSE,FALSE,FALSE,FALSE,,TRUE,FALSE,FALSE,Course Lock,131.2,52,16.4,Calm,85,,1.12.6,Mavic Mini,1SDCH7G0169R0K,1SFLH6Q0AB03DJ,1SRCH7F014TAHX,1U5X071EXP5ZJG,163.4,0.8,114.8,17.620823,4.47388,0,11892,Mavic Mini,1SDCH7G0169R0K,1SFLH6Q0AB03DJ,1SRCH7F014TAHX,1U5X071EXP5ZJG,DJI Fly,,1.12.6,8B5BB8EB-5BD8-0D67-DA75-1F85061C16D9,1SDCH7G0169R0K,,,,,,,,,
1/26/2024,11:51.5,2m 7.4s,127.4,6.972913343,79.91590907,0,0,0.3,57,0.1,0,0,0,0,0,0,0,0,4.7,-3.5,27.7,27.7,,Starting Motors,Auto Fly,Takeoff (App Auto),14,5,TRUE,,Mavic Mini,TRUE,FALSE,,Smart,RC,TRUE,TRUE,FALSE,,,TRUE,,FALSE,FALSE,FALSE,FALSE,FALSE,FALSE,FALSE,FALSE,FALSE,FALSE,0,Follow Yaw,0,0,25.7,25.7,FALSE,FALSE,FALSE,FALSE,FALSE,FALSE,,TRUE,Normal,,100,1024,1024,1024,1024,1,FALSE,FALSE,FALSE,FALSE,FALSE,0,FALSE,FALSE,FALSE,FALSE,90,7.976,2008,2230,7.973,TRUE,3.987,3.987,,FALSE,FALSE,NA,91.6,91.5,91.5,0,1,0,0,5,2128.7,532.19,,Idle,0,20,FALSE,5,TRUE,7,Go Home,FALSE,FALSE,FALSE,FALSE,FALSE,FALSE,FALSE,FALSE,FALSE,FALSE,FALSE,FALSE,6.972915133,79.91591311,1.6,,459.3,TRUE,1,1,FALSE,FALSE,FALSE,FALSE,,TRUE,FALSE,FALSE,Course Lock,131.2,52,16.4,Calm,85,,1.12.6,Mavic Mini,1SDCH7G0169R0K,1SFLH6Q0AB03DJ,1SRCH7F014TAHX,1U5X071EXP5ZJG,163.4,0.8,114.8,17.620823,4.47388,0,11892,Mavic Mini,1SDCH7G0169R0K,1SFLH6Q0AB03DJ,1SRCH7F014TAHX,1U5X071EXP5ZJG,DJI Fly,,1.12.6,8B5BB8EB-5BD8-0D67-DA75-1F85061C16D9,1SDCH7G0169R0K,,,,,,,,,
1/26/2024,11:51.5,2m 7.5s,127.5,6.972913297,79.9159091,0,0,0.3,57,0.1,0,0,0,0,0,0,0,0,4.7,-3.5,27.7,27.7,,Starting Motors,Auto Fly,Takeoff (App Auto),14,5,TRUE,,Mavic Mini,TRUE,FALSE,,Smart,RC,TRUE,TRUE,FALSE,,,TRUE,,FALSE,FALSE,FALSE,FALSE,FALSE,FALSE,FALSE,FALSE,FALSE,FALSE,0,Follow Yaw,0,0,25.7,25.7,FALSE,FALSE,FALSE,FALSE,FALSE,FALSE,,TRUE,Normal,,100,1024,1024,1024,1024,1,FALSE,FALSE,FALSE,FALSE,FALSE,0,FALSE,FALSE,FALSE,FALSE,90,7.976,2008,2230,7.973,TRUE,3.987,3.987,,FALSE,FALSE,NA,91.6,91.5,91.5,0,1,0,0,5,2128.7,532.19,,Idle,0,20,FALSE,5,TRUE,7,Go Home,FALSE,FALSE,FALSE,FALSE,FALSE,FALSE,FALSE,FALSE,FALSE,FALSE,FALSE,FALSE,6.972915133,79.91591311,1.5,,459.3,TRUE,1,1,FALSE,FALSE,FALSE,FALSE,,TRUE,FALSE,FALSE,Course Lock,131.2,52,16.4,Calm,85,,1.12.6,Mavic Mini,1SDCH7G0169R0K,1SFLH6Q0AB03DJ,1SRCH7F014TAHX,1U5X071EXP5ZJG,163.4,0.8,114.8,17.620823,4.47388,0,11892,Mavic Mini,1SDCH7G0169R0K,1SFLH6Q0AB03DJ,1SRCH7F014TAHX,1U5X071EXP5ZJG,DJI Fly,,1.12.6,8B5BB8EB-5BD8-0D67-DA75-1F85061C16D9,1SDCH7G0169R0K,,,,,,,,,
1/26/2024,11:51.6,2m 7.6s,127.6,6.972913243,79.91590914,0,0,0.3,57,0.1,0,0,0,0,0,0,0,0,4.7,-3.5,27.7,27.7,,Starting Motors,Auto Fly,Takeoff (App Auto),14,5,TRUE,,Mavic Mini,TRUE,FALSE,,Smart,RC,TRUE,TRUE,FALSE,,,TRUE,,FALSE,FALSE,FALSE,FALSE,FALSE,FALSE,FALSE,FALSE,FALSE,FALSE,0,Follow Yaw,0,0,25.7,25.7,FALSE,FALSE,FALSE,FALSE,FALSE,FALSE,,TRUE,Normal,,100,1024,1024,1024,1024,1,FALSE,FALSE,FALSE,FALSE,FALSE,0,FALSE,FALSE,FALSE,FALSE,90,7.976,2008,2230,7.973,TRUE,3.987,3.987,,FALSE,FALSE,NA,91.6,91.5,91.5,0,1,0,0,5,2128.7,532.19,,Idle,0,20,FALSE,5,TRUE,7,Go Home,FALSE,FALSE,FALSE,FALSE,FALSE,FALSE,FALSE,FALSE,FALSE,FALSE,FALSE,FALSE,6.972915133,79.91591311,1.5,,459.3,TRUE,1,1,FALSE,FALSE,FALSE,FALSE,,TRUE,FALSE,FALSE,Course Lock,131.2,52,16.4,Calm,85,,1.12.6,Mavic Mini,1SDCH7G0169R0K,1SFLH6Q0AB03DJ,1SRCH7F014TAHX,1U5X071EXP5ZJG,163.4,0.8,114.8,17.620823,4.47388,0,11892,Mavic Mini,1SDCH7G0169R0K,1SFLH6Q0AB03DJ,1SRCH7F014TAHX,1U5X071EXP5ZJG,DJI Fly,,1.12.6,8B5BB8EB-5BD8-0D67-DA75-1F85061C16D9,1SDCH7G0169R0K,,,,,,,,,
1/26/2024,11:51.7,2m 7.7s,127.7,6.972913123,79.91590913,0,0,0.3,57,0.2,0,0,0,0,0,0,0,0,4.6,-3.5,27.7,27.7,,Starting Motors,Auto Fly,Takeoff (App Auto),14,5,TRUE,,Mavic Mini,TRUE,FALSE,,Smart,RC,TRUE,TRUE,FALSE,,,TRUE,,FALSE,FALSE,FALSE,FALSE,FALSE,FALSE,FALSE,FALSE,FALSE,FALSE,0,Follow Yaw,0,0,25.7,25.7,FALSE,FALSE,FALSE,FALSE,FALSE,FALSE,,TRUE,Normal,,100,1024,1024,1024,1024,1,FALSE,FALSE,FALSE,FALSE,FALSE,0,FALSE,FALSE,FALSE,FALSE,90,7.949,2008,2230,7.976,FALSE,3.978,3.971,0.007,FALSE,FALSE,NA,91.6,91.5,91.5,0,1,0,0,5,2128.7,532.19,,Idle,0,20,FALSE,5,TRUE,7,Go Home,FALSE,FALSE,FALSE,FALSE,FALSE,FALSE,FALSE,FALSE,FALSE,FALSE,FALSE,FALSE,6.972915133,79.91591311,1.6,,459.3,TRUE,1,1,FALSE,FALSE,FALSE,FALSE,,TRUE,FALSE,FALSE,Course Lock,131.2,52,16.4,Calm,85,,1.12.6,Mavic Mini,1SDCH7G0169R0K,1SFLH6Q0AB03DJ,1SRCH7F014TAHX,1U5X071EXP5ZJG,163.4,0.8,114.8,17.620823,4.47388,0,11892,Mavic Mini,1SDCH7G0169R0K,1SFLH6Q0AB03DJ,1SRCH7F014TAHX,1U5X071EXP5ZJG,DJI Fly,,1.12.6,8B5BB8EB-5BD8-0D67-DA75-1F85061C16D9,1SDCH7G0169R0K,,,,,,,,,
1/26/2024,11:51.9,2m 7.8s,127.8,6.9729131,79.91590913,0,0,0.3,57,0.2,0,0,0,0,0,0,0,0,4.7,-3.5,27.7,27.7,,Auto Takeoff,Auto Fly,Takeoff (App Auto),14,5,TRUE,,Mavic Mini,TRUE,FALSE,,Smart,RC,TRUE,TRUE,FALSE,,,TRUE,,FALSE,FALSE,FALSE,FALSE,FALSE,FALSE,FALSE,FALSE,FALSE,FALSE,0,Follow Yaw,0,0,25.7,25.7,FALSE,FALSE,FALSE,FALSE,FALSE,FALSE,,TRUE,Normal,,100,1024,1024,1024,1024,1,FALSE,FALSE,FALSE,FALSE,FALSE,0,FALSE,FALSE,FALSE,FALSE,90,7.949,2008,2230,7.976,FALSE,3.978,3.971,0.007,FALSE,FALSE,NA,91.6,91.5,91.5,0,1,0,0,5,2128.7,532.19,,Idle,0,20,FALSE,5,TRUE,7,Go Home,FALSE,FALSE,FALSE,FALSE,FALSE,FALSE,FALSE,FALSE,FALSE,FALSE,FALSE,FALSE,6.972915133,79.91591311,1.6,,459.3,TRUE,1,1,FALSE,FALSE,FALSE,FALSE,,TRUE,FALSE,FALSE,Course Lock,131.2,52,16.4,Calm,85,,1.12.6,Mavic Mini,1SDCH7G0169R0K,1SFLH6Q0AB03DJ,1SRCH7F014TAHX,1U5X071EXP5ZJG,163.4,0.8,114.8,17.620823,4.47388,0,11892,Mavic Mini,1SDCH7G0169R0K,1SFLH6Q0AB03DJ,1SRCH7F014TAHX,1U5X071EXP5ZJG,DJI Fly,,1.12.6,8B5BB8EB-5BD8-0D67-DA75-1F85061C16D9,1SDCH7G0169R0K,,,,,,,,Flight mode changed to Auto Takeoff.,
1/26/2024,11:52.0,2m 7.9s,127.9,6.972913135,79.91590916,0,0,0.3,57,0.2,0,0,0,0,0,0,0,0,4.7,-3.5,27.7,27.7,,Auto Takeoff,Auto Fly,Takeoff (App Auto),14,5,TRUE,,Mavic Mini,TRUE,FALSE,,Smart,RC,TRUE,TRUE,FALSE,,,TRUE,,FALSE,FALSE,FALSE,FALSE,FALSE,FALSE,FALSE,FALSE,FALSE,FALSE,0,Follow Yaw,0,0,25.7,25.7,FALSE,FALSE,FALSE,FALSE,FALSE,FALSE,,TRUE,Normal,,100,1024,1024,1024,1024,1,FALSE,FALSE,FALSE,FALSE,FALSE,0,FALSE,FALSE,FALSE,FALSE,90,7.949,2008,2230,7.976,FALSE,3.978,3.971,0.007,FALSE,FALSE,NA,91.6,91.5,91.5,0,1,0,0,5,2128.7,532.19,,Idle,0,20,FALSE,5,TRUE,7,Go Home,FALSE,FALSE,FALSE,FALSE,FALSE,FALSE,FALSE,FALSE,FALSE,FALSE,FALSE,FALSE,6.972915133,79.91591311,1.6,,459.3,TRUE,1,1,FALSE,FALSE,FALSE,FALSE,,TRUE,FALSE,FALSE,Course Lock,131.2,52,16.4,Calm,85,,1.12.6,Mavic Mini,1SDCH7G0169R0K,1SFLH6Q0AB03DJ,1SRCH7F014TAHX,1U5X071EXP5ZJG,163.4,0.8,114.8,17.620823,4.47388,0,11892,Mavic Mini,1SDCH7G0169R0K,1SFLH6Q0AB03DJ,1SRCH7F014TAHX,1U5X071EXP5ZJG,DJI Fly,,1.12.6,8B5BB8EB-5BD8-0D67-DA75-1F85061C16D9,1SDCH7G0169R0K,,,,,,,,,
1/26/2024,11:52.1,2m 8.0s,128,6.97291318,79.91590921,0,0,0.3,57,0.2,0,0,0,0,0,0,0,0,4.7,-3,27.7,27.7,,Auto Takeoff,Auto Fly,Takeoff (App Auto),14,5,TRUE,,Mavic Mini,TRUE,FALSE,,Smart,RC,TRUE,TRUE,FALSE,,,TRUE,,FALSE,FALSE,FALSE,FALSE,FALSE,FALSE,FALSE,FALSE,FALSE,FALSE,0,Follow Yaw,0,0,25.7,25.7,FALSE,FALSE,FALSE,FALSE,FALSE,FALSE,,TRUE,Normal,,100,1024,1024,1024,1024,1,FALSE,FALSE,FALSE,FALSE,FALSE,0,FALSE,FALSE,FALSE,FALSE,90,7.949,2008,2230,7.976,FALSE,3.978,3.971,0.007,FALSE,FALSE,NA,91.6,91.5,91.5,0,1,0,0,5,2128.7,532.19,,Idle,0,20,FALSE,5,TRUE,7,Go Home,FALSE,FALSE,FALSE,FALSE,FALSE,FALSE,FALSE,FALSE,FALSE,FALSE,FALSE,FALSE,6.972915133,79.91591311,1.5,,459.3,TRUE,1,1,FALSE,FALSE,FALSE,FALSE,,TRUE,FALSE,FALSE,Course Lock,131.2,52,16.4,Calm,85,,1.12.6,Mavic Mini,1SDCH7G0169R0K,1SFLH6Q0AB03DJ,1SRCH7F014TAHX,1U5X071EXP5ZJG,163.4,0.8,114.8,17.620823,4.47388,0,11892,Mavic Mini,1SDCH7G0169R0K,1SFLH6Q0AB03DJ,1SRCH7F014TAHX,1U5X071EXP5ZJG,DJI Fly,,1.12.6,8B5BB8EB-5BD8-0D67-DA75-1F85061C16D9,1SDCH7G0169R0K,,,,,,,,,
1/26/2024,11:52.2,2m 8.1s,128.1,6.97291333,79.91590924,0,0,0.3,57,0.3,0,0,0,0,0,0,0,0,4.3,-2.6,27.8,27.8,,Auto Takeoff,Auto Fly,Takeoff (App Auto),14,5,TRUE,,Mavic Mini,TRUE,FALSE,,Smart,RC,TRUE,TRUE,FALSE,,,TRUE,,FALSE,FALSE,FALSE,FALSE,FALSE,FALSE,FALSE,FALSE,FALSE,FALSE,0,Follow Yaw,0,0,25.7,25.7,FALSE,FALSE,FALSE,FALSE,FALSE,FALSE,,TRUE,Normal,,100,1024,1024,1024,1024,1,FALSE,FALSE,FALSE,FALSE,FALSE,0,FALSE,FALSE,FALSE,FALSE,90,7.949,2008,2230,7.976,FALSE,3.978,3.971,0.007,FALSE,FALSE,NA,91.6,91.5,91.5,0,1,0,0,5,2128.7,532.19,,Idle,0,20,FALSE,5,TRUE,7,Go Home,FALSE,FALSE,FALSE,FALSE,FALSE,FALSE,FALSE,FALSE,FALSE,FALSE,FALSE,FALSE,6.972915133,79.91591311,1.5,,459.3,TRUE,1,1,FALSE,FALSE,FALSE,FALSE,,TRUE,FALSE,FALSE,Course Lock,131.2,52,16.4,Calm,85,,1.12.6,Mavic Mini,1SDCH7G0169R0K,1SFLH6Q0AB03DJ,1SRCH7F014TAHX,1U5X071EXP5ZJG,163.4,0.8,114.8,17.620823,4.47388,0,11892,Mavic Mini,1SDCH7G0169R0K,1SFLH6Q0AB03DJ,1SRCH7F014TAHX,1U5X071EXP5ZJG,DJI Fly,,1.12.6,8B5BB8EB-5BD8-0D67-DA75-1F85061C16D9,1SDCH7G0169R0K,,,,,,,,,
1/26/2024,11:52.3,2m 8.2s,128.2,6.972913349,79.91590926,0,0,0.3,57,0.3,0,0,0,0,0,0,0,0,3,-2.4,28.1,28.1,,Auto Takeoff,Auto Fly,Takeoff (App Auto),14,5,TRUE,,Mavic Mini,TRUE,FALSE,,Smart,RC,TRUE,TRUE,FALSE,,,TRUE,,FALSE,FALSE,FALSE,FALSE,FALSE,FALSE,FALSE,FALSE,FALSE,FALSE,0,Follow Yaw,0,0,25.7,25.7,FALSE,FALSE,FALSE,FALSE,FALSE,FALSE,,TRUE,Normal,,100,1024,1024,1024,1024,1,FALSE,FALSE,FALSE,FALSE,FALSE,0,FALSE,FALSE,FALSE,FALSE,90,7.949,2008,2230,7.976,FALSE,3.978,3.971,0.007,FALSE,FALSE,NA,91.6,91.5,91.5,0,1,0,0,5,2128.7,532.19,,Idle,0,20,FALSE,5,TRUE,7,Go Home,FALSE,FALSE,FALSE,FALSE,FALSE,FALSE,FALSE,FALSE,FALSE,FALSE,FALSE,FALSE,6.972915133,79.91591311,1.5,,459.3,TRUE,1,1,FALSE,FALSE,FALSE,FALSE,,TRUE,FALSE,FALSE,Course Lock,131.2,52,16.4,Calm,85,,1.12.6,Mavic Mini,1SDCH7G0169R0K,1SFLH6Q0AB03DJ,1SRCH7F014TAHX,1U5X071EXP5ZJG,163.4,0.8,114.8,17.620823,4.47388,0,11892,Mavic Mini,1SDCH7G0169R0K,1SFLH6Q0AB03DJ,1SRCH7F014TAHX,1U5X071EXP5ZJG,DJI Fly,,1.12.6,8B5BB8EB-5BD8-0D67-DA75-1F85061C16D9,1SDCH7G0169R0K,,,,,,,,,
1/26/2024,11:52.4,2m 8.3s,128.3,6.972913324,79.9159093,0,0,0.3,57,0.3,0,0,0,0,0,0,0,0,1.5,-2.7,28,28,,Auto Takeoff,Auto Fly,Takeoff (App Auto),14,5,TRUE,,Mavic Mini,TRUE,FALSE,,Smart,RC,TRUE,TRUE,FALSE,,,TRUE,,FALSE,FALSE,FALSE,FALSE,FALSE,FALSE,FALSE,FALSE,FALSE,FALSE,0,Follow Yaw,0,0,25.7,25.7,FALSE,FALSE,FALSE,FALSE,FALSE,FALSE,,TRUE,Normal,,100,1024,1024,1024,1024,1,FALSE,FALSE,FALSE,FALSE,FALSE,0,FALSE,FALSE,FALSE,FALSE,90,7.949,2008,2230,7.976,FALSE,3.978,3.971,0.007,FALSE,FALSE,NA,91.6,91.5,91.5,0,1,0,0,5,2128.7,532.19,,Idle,0,20,FALSE,5,TRUE,7,Go Home,FALSE,FALSE,FALSE,FALSE,FALSE,FALSE,FALSE,FALSE,FALSE,FALSE,FALSE,FALSE,6.972915133,79.91591311,1.5,,459.3,TRUE,1,1,FALSE,FALSE,FALSE,FALSE,,TRUE,FALSE,FALSE,Course Lock,131.2,52,16.4,Calm,85,,1.12.6,Mavic Mini,1SDCH7G0169R0K,1SFLH6Q0AB03DJ,1SRCH7F014TAHX,1U5X071EXP5ZJG,163.4,0.8,114.8,17.620823,4.47388,0,11892,Mavic Mini,1SDCH7G0169R0K,1SFLH6Q0AB03DJ,1SRCH7F014TAHX,1U5X071EXP5ZJG,DJI Fly,,1.12.6,8B5BB8EB-5BD8-0D67-DA75-1F85061C16D9,1SDCH7G0169R0K,,,,,,,,,
1/26/2024,11:52.5,2m 8.4s,128.4,6.972913301,79.91590934,0,0,0.3,57,0.3,0,0,0,0,0,0,0,0,-0.3,-1.9,27.7,27.7,,Auto Takeoff,Auto Fly,Takeoff (App Auto),14,5,TRUE,,Mavic Mini,TRUE,FALSE,,Smart,RC,TRUE,TRUE,FALSE,,,TRUE,,FALSE,FALSE,FALSE,FALSE,FALSE,FALSE,FALSE,FALSE,FALSE,FALSE,0,Follow Yaw,0,0,25.7,25.7,FALSE,FALSE,FALSE,FALSE,FALSE,FALSE,,TRUE,Normal,,100,1024,1024,1024,1024,1,FALSE,FALSE,FALSE,FALSE,FALSE,0,FALSE,FALSE,FALSE,FALSE,90,7.949,2008,2230,7.976,FALSE,3.978,3.971,0.007,FALSE,FALSE,NA,91.6,91.5,91.5,0,1,0,0,5,2128.7,532.19,,Idle,0,20,FALSE,5,TRUE,7,Go Home,FALSE,FALSE,FALSE,FALSE,FALSE,FALSE,FALSE,FALSE,FALSE,FALSE,FALSE,FALSE,6.972915133,79.91591311,1.5,,459.3,TRUE,1,1,FALSE,FALSE,FALSE,FALSE,,TRUE,FALSE,FALSE,Course Lock,131.2,52,16.4,Calm,85,,1.12.6,Mavic Mini,1SDCH7G0169R0K,1SFLH6Q0AB03DJ,1SRCH7F014TAHX,1U5X071EXP5ZJG,163.4,0.8,114.8,17.620823,4.47388,0,11892,Mavic Mini,1SDCH7G0169R0K,1SFLH6Q0AB03DJ,1SRCH7F014TAHX,1U5X071EXP5ZJG,DJI Fly,,1.12.6,8B5BB8EB-5BD8-0D67-DA75-1F85061C16D9,1SDCH7G0169R0K,,,,,,,,,
1/26/2024,11:52.6,2m 8.5s,128.5,6.972913371,79.91590933,0,0,0.3,57,0.3,0,0,0,0,0,0,-0.223694,0,-0.3,-1.7,27,27,,Auto Takeoff,Auto Fly,Takeoff (App Auto),14,5,TRUE,,Mavic Mini,TRUE,FALSE,,Smart,RC,FALSE,TRUE,FALSE,,,TRUE,,FALSE,FALSE,FALSE,FALSE,FALSE,FALSE,FALSE,FALSE,FALSE,FALSE,0,Follow Yaw,0,0,25.7,25.7,FALSE,FALSE,FALSE,FALSE,FALSE,FALSE,,TRUE,Normal,,100,1024,1024,1024,1024,1,FALSE,FALSE,FALSE,FALSE,FALSE,0,FALSE,FALSE,FALSE,FALSE,90,7.949,2008,2230,7.976,FALSE,3.978,3.971,0.007,FALSE,FALSE,NA,91.6,91.5,91.5,0,1,0,0,5,2128.7,532.19,,Idle,0,20,FALSE,5,TRUE,7,Go Home,FALSE,FALSE,FALSE,FALSE,FALSE,FALSE,FALSE,FALSE,FALSE,FALSE,FALSE,FALSE,6.972915133,79.91591311,1.5,,459.3,TRUE,1,1,FALSE,FALSE,FALSE,FALSE,,TRUE,FALSE,FALSE,Course Lock,131.2,52,16.4,Calm,85,,1.12.6,Mavic Mini,1SDCH7G0169R0K,1SFLH6Q0AB03DJ,1SRCH7F014TAHX,1U5X071EXP5ZJG,163.4,0.8,114.8,17.620823,4.47388,0,11892,Mavic Mini,1SDCH7G0169R0K,1SFLH6Q0AB03DJ,1SRCH7F014TAHX,1U5X071EXP5ZJG,DJI Fly,,1.12.6,8B5BB8EB-5BD8-0D67-DA75-1F85061C16D9,1SDCH7G0169R0K,,,,,,,,,
1/26/2024,11:52.6,2m 8.6s,128.6,6.972913493,79.91590933,0,0,0.3,57,0.4,0.223694,0.223694,0.223694,0.223694,0,0,-0.671082,0,0.6,-0.9,26.8,26.8,358.1,Auto Takeoff,Auto Fly,Takeoff (App Auto),14,5,TRUE,,Mavic Mini,TRUE,FALSE,,Smart,RC,FALSE,TRUE,FALSE,,,TRUE,,FALSE,FALSE,FALSE,FALSE,FALSE,FALSE,FALSE,FALSE,FALSE,FALSE,0,Follow Yaw,0,0,25.7,25.7,FALSE,FALSE,FALSE,FALSE,FALSE,FALSE,,TRUE,Normal,,100,1024,1024,1024,1024,1,FALSE,FALSE,FALSE,FALSE,FALSE,0,FALSE,FALSE,FALSE,FALSE,90,7.949,2008,2230,7.976,FALSE,3.978,3.971,0.007,FALSE,FALSE,NA,91.6,91.5,91.5,0,1,0,0,5,2128.7,532.19,,Idle,0,20,FALSE,5,TRUE,7,Go Home,FALSE,FALSE,FALSE,FALSE,FALSE,FALSE,FALSE,FALSE,FALSE,FALSE,FALSE,FALSE,6.972915133,79.91591311,1.4,,459.3,TRUE,1,1,FALSE,FALSE,FALSE,FALSE,,TRUE,FALSE,FALSE,Course Lock,131.2,52,16.4,Calm,85,,1.12.6,Mavic Mini,1SDCH7G0169R0K,1SFLH6Q0AB03DJ,1SRCH7F014TAHX,1U5X071EXP5ZJG,163.4,0.8,114.8,17.620823,4.47388,0,11892,Mavic Mini,1SDCH7G0169R0K,1SFLH6Q0AB03DJ,1SRCH7F014TAHX,1U5X071EXP5ZJG,DJI Fly,,1.12.6,8B5BB8EB-5BD8-0D67-DA75-1F85061C16D9,1SDCH7G0169R0K,,,,,,,,,
1/26/2024,11:52.7,2m 8.7s,128.7,6.972913604,79.91590934,0,0,0.6,57,0.4,0.223694,0.223694,0.223694,0.223694,0,0,-0.894776,0,1.4,0,26.8,26.8,5.5,Auto Takeoff,Auto Fly,Takeoff (App Auto),14,5,TRUE,,Mavic Mini,TRUE,FALSE,,Smart,RC,FALSE,TRUE,FALSE,,,TRUE,,FALSE,FALSE,FALSE,FALSE,FALSE,FALSE,FALSE,FALSE,FALSE,FALSE,0,Follow Yaw,0,0,25.6,25.6,FALSE,FALSE,FALSE,FALSE,FALSE,FALSE,,TRUE,Normal,,100,1024,1024,1024,1024,1,FALSE,FALSE,FALSE,FALSE,FALSE,0,FALSE,FALSE,FALSE,FALSE,90,7.949,2008,2230,7.916,FALSE,3.978,3.971,0.007,FALSE,FALSE,NA,91.6,91.5,91.5,0,0,0,0,5,2260.9,565.24,,Idle,0,20,FALSE,5,TRUE,7,Go Home,FALSE,FALSE,FALSE,FALSE,FALSE,FALSE,FALSE,FALSE,FALSE,FALSE,FALSE,FALSE,6.97291335,79.91590934,0,,459.3,TRUE,1,1,FALSE,FALSE,FALSE,FALSE,,TRUE,FALSE,FALSE,Course Lock,131.2,52,16.4,Calm,85,,1.12.6,Mavic Mini,1SDCH7G0169R0K,1SFLH6Q0AB03DJ,1SRCH7F014TAHX,1U5X071EXP5ZJG,163.4,0.8,114.8,17.620823,4.47388,0,11892,Mavic Mini,1SDCH7G0169R0K,1SFLH6Q0AB03DJ,1SRCH7F014TAHX,1U5X071EXP5ZJG,DJI Fly,,1.12.6,8B5BB8EB-5BD8-0D67-DA75-1F85061C16D9,1SDCH7G0169R0K,,,,,6.972899255,79.91592893,5,Home Point Updated.,
1/26/2024,11:52.8,2m 8.8s,128.8,6.972913722,79.91590937,0.3,0.3,0.6,58,0.5,0.223694,0.223694,0.223694,0.223694,0,0,-1.11847,0,1.4,0.4,26.8,26.8,10.4,Auto Takeoff,Auto Fly,Takeoff (App Auto),14,5,TRUE,,Mavic Mini,TRUE,FALSE,,Smart,RC,FALSE,TRUE,FALSE,,,TRUE,,FALSE,FALSE,FALSE,FALSE,FALSE,FALSE,FALSE,FALSE,FALSE,FALSE,0,Follow Yaw,0,0,25.6,25.6,FALSE,FALSE,FALSE,FALSE,FALSE,FALSE,,TRUE,Normal,,100,1024,1024,1024,1024,1,FALSE,FALSE,FALSE,FALSE,FALSE,0,FALSE,FALSE,FALSE,FALSE,90,7.949,2008,2230,7.916,FALSE,3.978,3.971,0.007,FALSE,FALSE,NA,91.6,91.5,91.5,0,0,0,0,5,2260.9,565.24,,Idle,0,20,FALSE,5,TRUE,7,Go Home,FALSE,FALSE,FALSE,FALSE,FALSE,FALSE,FALSE,FALSE,FALSE,FALSE,FALSE,FALSE,6.97291335,79.91590934,0.1,,459.3,TRUE,1,1,FALSE,FALSE,FALSE,FALSE,,TRUE,FALSE,FALSE,Course Lock,131.2,52,16.4,Calm,85,,1.12.6,Mavic Mini,1SDCH7G0169R0K,1SFLH6Q0AB03DJ,1SRCH7F014TAHX,1U5X071EXP5ZJG,163.4,0.8,114.8,17.620823,4.47388,0,11892,Mavic Mini,1SDCH7G0169R0K,1SFLH6Q0AB03DJ,1SRCH7F014TAHX,1U5X071EXP5ZJG,DJI Fly,,1.12.6,8B5BB8EB-5BD8-0D67-DA75-1F85061C16D9,1SDCH7G0169R0K,,,,,6.972899255,79.91592893,5,,
1/26/2024,11:52.9,2m 8.9s,128.9,6.972913793,79.91590935,0.3,0.3,0.6,58,0.5,0.223694,0.223694,0.223694,0.223694,0,0,-1.342164,0,1.8,0.3,26.9,26.9,345.2,Auto Takeoff,Auto Fly,Takeoff (App Auto),14,5,TRUE,,Mavic Mini,TRUE,FALSE,,Smart,RC,FALSE,TRUE,FALSE,,,TRUE,,FALSE,FALSE,FALSE,FALSE,FALSE,FALSE,FALSE,FALSE,FALSE,FALSE,0,Follow Yaw,0,0,25.6,25.6,FALSE,FALSE,FALSE,FALSE,FALSE,FALSE,,TRUE,Normal,,100,1024,1024,1024,1024,1,FALSE,FALSE,FALSE,FALSE,FALSE,0,FALSE,FALSE,FALSE,FALSE,90,7.79,2007,2230,7.916,FALSE,3.894,3.896,0.007,FALSE,FALSE,NA,91.8,91.5,91.7,0,0,0,0,5,2260.9,565.24,,Idle,0,20,FALSE,5,TRUE,7,Go Home,FALSE,FALSE,FALSE,FALSE,FALSE,FALSE,FALSE,FALSE,FALSE,FALSE,FALSE,FALSE,6.97291335,79.91590934,0.1,,459.3,TRUE,1,1,FALSE,FALSE,FALSE,FALSE,,TRUE,FALSE,FALSE,Course Lock,131.2,52,16.4,Calm,85,,1.12.6,Mavic Mini,1SDCH7G0169R0K,1SFLH6Q0AB03DJ,1SRCH7F014TAHX,1U5X071EXP5ZJG,163.4,0.8,114.8,17.620823,4.47388,0,11892,Mavic Mini,1SDCH7G0169R0K,1SFLH6Q0AB03DJ,1SRCH7F014TAHX,1U5X071EXP5ZJG,DJI Fly,,1.12.6,8B5BB8EB-5BD8-0D67-DA75-1F85061C16D9,1SDCH7G0169R0K,,,,,6.972899255,79.91592893,5,Home Point updated. RTH altitude adjusted to 40 m!H (Code: 120852).,
1/26/2024,11:53.0,2m 9.0s,129,6.972913818,79.91590924,0.6,0.6,0.9,58,0.5,0,0.223694,0,0.223694,0,0,-1.565858,0,1.9,-0.2,26.9,26.9,,Auto Takeoff,Auto Fly,Takeoff (App Auto),14,5,TRUE,,Mavic Mini,TRUE,FALSE,,Smart,RC,FALSE,TRUE,FALSE,,,TRUE,,FALSE,FALSE,FALSE,FALSE,FALSE,FALSE,FALSE,FALSE,FALSE,FALSE,0,Follow Yaw,0,0,25.6,25.6,FALSE,FALSE,FALSE,FALSE,FALSE,FALSE,,TRUE,Normal,,100,1024,1024,1024,1024,1,FALSE,FALSE,FALSE,FALSE,FALSE,0,FALSE,FALSE,FALSE,FALSE,90,7.79,2007,2230,7.916,FALSE,3.894,3.896,0.007,FALSE,FALSE,NA,91.8,91.5,91.7,0,0,0,0,5,2260.9,565.24,,Idle,0,20,FALSE,5,TRUE,7,Go Home,FALSE,FALSE,FALSE,FALSE,FALSE,FALSE,FALSE,FALSE,FALSE,FALSE,FALSE,FALSE,6.97291335,79.91590934,0.1,,459.3,TRUE,1,1,FALSE,FALSE,FALSE,FALSE,,TRUE,FALSE,FALSE,Course Lock,131.2,52,16.4,Calm,85,,1.12.6,Mavic Mini,1SDCH7G0169R0K,1SFLH6Q0AB03DJ,1SRCH7F014TAHX,1U5X071EXP5ZJG,163.4,0.8,114.8,17.620823,4.47388,0,11892,Mavic Mini,1SDCH7G0169R0K,1SFLH6Q0AB03DJ,1SRCH7F014TAHX,1U5X071EXP5ZJG,DJI Fly,,1.12.6,8B5BB8EB-5BD8-0D67-DA75-1F85061C16D9,1SDCH7G0169R0K,,,,,6.972899255,79.91592893,5,,
1/26/2024,11:53.1,2m 9.1s,129.1,6.972913896,79.91590923,0.6,0.6,1.3,58,0.6,0,0.223694,0,0.223694,0,0,-1.789552,0,1.9,-0.4,26.9,26.9,,Auto Takeoff,Auto Fly,Takeoff (App Auto),14,5,TRUE,,Mavic Mini,TRUE,FALSE,,Smart,RC,FALSE,TRUE,FALSE,,,TRUE,,FALSE,FALSE,FALSE,FALSE,FALSE,FALSE,FALSE,FALSE,FALSE,FALSE,0,Follow Yaw,0,0,25.5,25.5,FALSE,FALSE,FALSE,FALSE,FALSE,FALSE,,TRUE,Normal,,100,1024,1024,1024,1024,1,FALSE,FALSE,FALSE,FALSE,FALSE,0,FALSE,FALSE,FALSE,FALSE,90,7.79,2007,2230,7.916,FALSE,3.894,3.896,0.007,FALSE,FALSE,NA,91.8,91.5,91.7,0,0,0,0,5,2260.9,565.24,,Idle,0,20,FALSE,5,TRUE,7,Go Home,FALSE,FALSE,FALSE,FALSE,FALSE,FALSE,FALSE,FALSE,FALSE,FALSE,FALSE,FALSE,6.97291335,79.91590934,0.2,,459.3,TRUE,1,1,FALSE,FALSE,FALSE,FALSE,,TRUE,FALSE,FALSE,Course Lock,131.2,52,16.4,Calm,85,,1.12.6,Mavic Mini,1SDCH7G0169R0K,1SFLH6Q0AB03DJ,1SRCH7F014TAHX,1U5X071EXP5ZJG,163.4,0.8,114.8,17.620823,4.47388,0,11892,Mavic Mini,1SDCH7G0169R0K,1SFLH6Q0AB03DJ,1SRCH7F014TAHX,1U5X071EXP5ZJG,DJI Fly,,1.12.6,8B5BB8EB-5BD8-0D67-DA75-1F85061C16D9,1SDCH7G0169R0K,,,,,6.972899255,79.91592893,5,,
1/26/2024,11:53.2,2m 9.2s,129.2,6.972913973,79.91590923,0.9,0.9,1.3,58,0.6,0,0.223694,0,0.223694,0,0,-2.013246,0,1.9,-0.7,26.8,26.8,,Auto Takeoff,Auto Fly,Takeoff (App Auto),14,5,TRUE,,Mavic Mini,TRUE,FALSE,,Smart,RC,FALSE,TRUE,FALSE,,,TRUE,,FALSE,FALSE,FALSE,FALSE,FALSE,FALSE,FALSE,FALSE,FALSE,FALSE,0,Follow Yaw,0,0,25.5,25.5,FALSE,FALSE,FALSE,FALSE,FALSE,FALSE,,TRUE,Normal,,100,1024,1024,1024,1024,1,FALSE,FALSE,FALSE,FALSE,FALSE,0,FALSE,FALSE,FALSE,FALSE,90,7.79,2007,2230,7.916,FALSE,3.894,3.896,0.007,FALSE,FALSE,NA,91.8,91.5,91.7,0,0,0,0,5,2260.9,565.24,,Idle,0,20,FALSE,5,TRUE,7,Go Home,FALSE,FALSE,FALSE,FALSE,FALSE,FALSE,FALSE,FALSE,FALSE,FALSE,FALSE,FALSE,6.97291335,79.91590934,0.2,,459.3,TRUE,1,1,FALSE,FALSE,FALSE,FALSE,,TRUE,FALSE,FALSE,Course Lock,131.2,52,16.4,Calm,85,,1.12.6,Mavic Mini,1SDCH7G0169R0K,1SFLH6Q0AB03DJ,1SRCH7F014TAHX,1U5X071EXP5ZJG,163.4,0.8,114.8,17.620823,4.47388,0,11892,Mavic Mini,1SDCH7G0169R0K,1SFLH6Q0AB03DJ,1SRCH7F014TAHX,1U5X071EXP5ZJG,DJI Fly,,1.12.6,8B5BB8EB-5BD8-0D67-DA75-1F85061C16D9,1SDCH7G0169R0K,,,,,6.972899255,79.91592893,5,,
1/26/2024,11:53.3,2m 9.3s,129.3,6.972914032,79.91590922,1.3,1.3,1.6,59,0.6,0,0.223694,0,0.223694,0,0,-2.013246,0,2.2,-0.9,26.8,26.8,,Auto Takeoff,Auto Fly,Takeoff (App Auto),14,5,TRUE,,Mavic Mini,TRUE,FALSE,,Smart,RC,FALSE,TRUE,FALSE,,,TRUE,,FALSE,FALSE,FALSE,FALSE,FALSE,FALSE,FALSE,FALSE,FALSE,FALSE,0,Follow Yaw,0,0,25.5,25.5,FALSE,FALSE,FALSE,FALSE,FALSE,FALSE,,TRUE,Normal,,100,1024,1024,1024,1024,1,FALSE,FALSE,FALSE,FALSE,FALSE,0,FALSE,FALSE,FALSE,FALSE,90,7.79,2007,2230,7.916,FALSE,3.894,3.896,0.007,FALSE,FALSE,NA,91.8,91.5,91.7,0,0,0,0,5,2260.9,565.24,,Idle,0,20,FALSE,5,TRUE,7,Go Home,FALSE,FALSE,FALSE,FALSE,FALSE,FALSE,FALSE,FALSE,FALSE,FALSE,FALSE,FALSE,6.97291335,79.91590934,0.2,,459.3,TRUE,1,1,FALSE,FALSE,FALSE,FALSE,,TRUE,FALSE,FALSE,Course Lock,131.2,52,16.4,Calm,85,,1.12.6,Mavic Mini,1SDCH7G0169R0K,1SFLH6Q0AB03DJ,1SRCH7F014TAHX,1U5X071EXP5ZJG,163.4,0.8,114.8,17.620823,4.47388,0,11892,Mavic Mini,1SDCH7G0169R0K,1SFLH6Q0AB03DJ,1SRCH7F014TAHX,1U5X071EXP5ZJG,DJI Fly,,1.12.6,8B5BB8EB-5BD8-0D67-DA75-1F85061C16D9,1SDCH7G0169R0K,,,,,6.972899255,79.91592893,5,,
1/26/2024,11:53.5,2m 9.4s,129.4,6.97291414,79.91590908,1.6,1.6,1.9,59,0.7,0,0.223694,0,0.223694,0,0,-2.23694,0,2.3,-0.7,26.8,26.8,,Auto Takeoff,Auto Fly,Takeoff (App Auto),14,5,TRUE,,Mavic Mini,TRUE,FALSE,,Smart,RC,FALSE,TRUE,FALSE,,,TRUE,,FALSE,FALSE,FALSE,FALSE,FALSE,FALSE,FALSE,FALSE,FALSE,FALSE,0,Follow Yaw,0,0,25.5,25.5,FALSE,FALSE,FALSE,FALSE,FALSE,FALSE,,TRUE,Normal,,100,1024,1024,1024,1024,1,FALSE,FALSE,FALSE,FALSE,FALSE,0,FALSE,FALSE,FALSE,FALSE,90,7.79,2007,2230,7.916,FALSE,3.894,3.896,0.007,FALSE,FALSE,NA,91.8,91.5,91.7,0,0,0,0,5,2260.9,565.24,,Idle,0,20,FALSE,5,TRUE,7,Go Home,FALSE,FALSE,FALSE,FALSE,FALSE,FALSE,FALSE,FALSE,FALSE,FALSE,FALSE,FALSE,6.97291335,79.91590934,0.3,,459.3,TRUE,1,1,FALSE,FALSE,FALSE,FALSE,,TRUE,FALSE,FALSE,Course Lock,131.2,52,16.4,Calm,85,,1.12.6,Mavic Mini,1SDCH7G0169R0K,1SFLH6Q0AB03DJ,1SRCH7F014TAHX,1U5X071EXP5ZJG,163.4,0.8,114.8,17.620823,4.47388,0,11892,Mavic Mini,1SDCH7G0169R0K,1SFLH6Q0AB03DJ,1SRCH7F014TAHX,1U5X071EXP5ZJG,DJI Fly,,1.12.6,8B5BB8EB-5BD8-0D67-DA75-1F85061C16D9,1SDCH7G0169R0K,,,,,6.972899255,79.91592893,5,,
1/26/2024,11:53.6,2m 9.5s,129.5,6.972914177,79.91590913,1.9,1.9,2.2,59,0.7,0,0.223694,0,0.223694,0,0,-2.23694,0,1.7,-0.8,26.8,26.8,,Auto Takeoff,Auto Fly,Takeoff (App Auto),14,5,TRUE,,Mavic Mini,TRUE,FALSE,,Smart,RC,FALSE,TRUE,FALSE,,,TRUE,,FALSE,FALSE,FALSE,FALSE,FALSE,FALSE,FALSE,FALSE,FALSE,FALSE,0,Follow Yaw,0,0,25.4,25.4,FALSE,FALSE,FALSE,FALSE,FALSE,FALSE,,TRUE,Normal,,100,1024,1024,1024,1024,1,FALSE,FALSE,FALSE,FALSE,FALSE,0,FALSE,FALSE,FALSE,FALSE,90,7.79,2007,2230,7.916,FALSE,3.894,3.896,0.007,FALSE,FALSE,NA,91.8,91.5,91.7,0,0,0,0,5,2260.9,565.24,,Idle,0,20,FALSE,5,TRUE,7,Go Home,FALSE,FALSE,FALSE,FALSE,FALSE,FALSE,FALSE,FALSE,FALSE,FALSE,FALSE,FALSE,6.97291335,79.91590934,0.3,,459.3,TRUE,1,1,FALSE,FALSE,FALSE,FALSE,,TRUE,FALSE,FALSE,Course Lock,131.2,52,16.4,Calm,85,,1.12.6,Mavic Mini,1SDCH7G0169R0K,1SFLH6Q0AB03DJ,1SRCH7F014TAHX,1U5X071EXP5ZJG,163.4,0.8,114.8,17.620823,4.47388,0,11892,Mavic Mini,1SDCH7G0169R0K,1SFLH6Q0AB03DJ,1SRCH7F014TAHX,1U5X071EXP5ZJG,DJI Fly,,1.12.6,8B5BB8EB-5BD8-0D67-DA75-1F85061C16D9,1SDCH7G0169R0K,,,,,6.972899255,79.91592893,5,,
1/26/2024,11:53.7,2m 9.6s,129.6,6.972914203,79.9159092,2.2,2.2,2.6,60,0.7,0,0.223694,0,0.223694,0,0,-2.23694,0,1.2,-0.8,26.8,26.8,,Auto Takeoff,Auto Fly,,14,5,TRUE,,Mavic Mini,TRUE,FALSE,,Smart,RC,FALSE,TRUE,FALSE,,,TRUE,,FALSE,FALSE,FALSE,FALSE,FALSE,FALSE,FALSE,FALSE,FALSE,FALSE,0,Follow Yaw,0,0,25.4,25.4,FALSE,FALSE,FALSE,FALSE,FALSE,FALSE,,TRUE,Normal,,100,1024,1024,1024,1024,1,FALSE,FALSE,FALSE,FALSE,FALSE,0,FALSE,FALSE,FALSE,FALSE,90,7.79,2007,2230,7.916,FALSE,3.894,3.896,0.007,FALSE,FALSE,NA,91.8,91.5,91.7,0,0,0,0,5,2260.9,565.24,,Idle,0,20,FALSE,5,TRUE,7,Go Home,FALSE,FALSE,FALSE,FALSE,FALSE,FALSE,FALSE,FALSE,FALSE,FALSE,FALSE,FALSE,6.97291335,79.91590934,0.3,,459.3,TRUE,1,1,FALSE,FALSE,FALSE,FALSE,,TRUE,FALSE,FALSE,Course Lock,131.2,52,16.4,Calm,85,,1.12.6,Mavic Mini,1SDCH7G0169R0K,1SFLH6Q0AB03DJ,1SRCH7F014TAHX,1U5X071EXP5ZJG,163.4,0.8,114.8,17.620823,4.47388,0,11892,Mavic Mini,1SDCH7G0169R0K,1SFLH6Q0AB03DJ,1SRCH7F014TAHX,1U5X071EXP5ZJG,DJI Fly,,1.12.6,8B5BB8EB-5BD8-0D67-DA75-1F85061C16D9,1SDCH7G0169R0K,,,,,6.972899255,79.91592893,5,,
1/26/2024,11:53.8,2m 9.7s,129.7,6.972914202,79.91590923,2.6,2.6,2.9,60,0.7,0,0.223694,0,0.223694,0,0,-2.013246,0,1.3,-1.2,27,27,,P-GPS,Auto Fly,,14,5,TRUE,,Mavic Mini,TRUE,FALSE,,Smart,RC,FALSE,TRUE,FALSE,,,TRUE,,FALSE,FALSE,FALSE,FALSE,FALSE,FALSE,FALSE,FALSE,FALSE,FALSE,0,Follow Yaw,0,0,25.4,25.4,FALSE,FALSE,FALSE,FALSE,FALSE,FALSE,,TRUE,Normal,,100,1024,1024,1024,1024,1,FALSE,FALSE,FALSE,FALSE,FALSE,0,FALSE,FALSE,FALSE,FALSE,90,7.79,2007,2230,7.808,FALSE,3.894,3.896,0.007,FALSE,FALSE,NA,91.8,91.5,91.7,0,0,0,0,5,2687.3,671.82,,Idle,0,20,FALSE,5,TRUE,7,Go Home,FALSE,FALSE,FALSE,FALSE,FALSE,FALSE,FALSE,FALSE,FALSE,FALSE,FALSE,FALSE,6.97291335,79.91590934,0.3,,459.3,TRUE,1,1,FALSE,FALSE,FALSE,FALSE,,TRUE,FALSE,FALSE,Course Lock,131.2,52,16.4,Calm,85,,1.12.6,Mavic Mini,1SDCH7G0169R0K,1SFLH6Q0AB03DJ,1SRCH7F014TAHX,1U5X071EXP5ZJG,163.4,0.8,114.8,17.620823,4.47388,0,11892,Mavic Mini,1SDCH7G0169R0K,1SFLH6Q0AB03DJ,1SRCH7F014TAHX,1U5X071EXP5ZJG,DJI Fly,,1.12.6,8B5BB8EB-5BD8-0D67-DA75-1F85061C16D9,1SDCH7G0169R0K,,,,,6.972899255,79.91592893,5,Flight mode changed to P-GPS.,
1/26/2024,11:53.9,2m 9.8s,129.8,6.972914172,79.91590929,2.6,2.6,3.2,60,0.8,0,0.223694,0,0.223694,0,0,-1.789552,0,1.1,-1.2,27.3,27.3,,P-GPS,Auto Fly,,14,5,TRUE,,Mavic Mini,TRUE,FALSE,,Smart,RC,FALSE,TRUE,FALSE,,,TRUE,,FALSE,FALSE,FALSE,FALSE,FALSE,FALSE,FALSE,FALSE,FALSE,FALSE,0,Follow Yaw,0,0,25.4,25.4,FALSE,FALSE,FALSE,FALSE,FALSE,FALSE,,TRUE,Normal,,100,1024,1024,1024,1024,1,FALSE,FALSE,FALSE,FALSE,FALSE,0,FALSE,FALSE,FALSE,FALSE,90,7.79,2007,2230,7.808,FALSE,3.894,3.896,0.007,FALSE,FALSE,NA,91.8,91.5,91.7,0,0,0,0,5,2687.3,671.82,,Idle,0,20,FALSE,5,TRUE,7,Go Home,FALSE,FALSE,FALSE,FALSE,FALSE,FALSE,FALSE,FALSE,FALSE,FALSE,FALSE,FALSE,6.97291335,79.91590934,0.3,,459.3,TRUE,1,1,FALSE,FALSE,FALSE,FALSE,,TRUE,FALSE,FALSE,Course Lock,131.2,52,16.4,Calm,85,,1.12.6,Mavic Mini,1SDCH7G0169R0K,1SFLH6Q0AB03DJ,1SRCH7F014TAHX,1U5X071EXP5ZJG,163.4,0.8,114.8,17.620823,4.47388,0,11892,Mavic Mini,1SDCH7G0169R0K,1SFLH6Q0AB03DJ,1SRCH7F014TAHX,1U5X071EXP5ZJG,DJI Fly,,1.12.6,8B5BB8EB-5BD8-0D67-DA75-1F85061C16D9,1SDCH7G0169R0K,,,,,6.972899255,79.91592893,5,,
1/26/2024,11:54.0,2m 9.9s,129.9,6.972914179,79.91590929,2.9,2.9,3.6,60,0.8,0,0.223694,0,0.223694,0,0,-1.11847,0,0.9,-1.2,27.5,27.5,,P-GPS,Auto Fly,,14,5,TRUE,,Mavic Mini,TRUE,FALSE,,Smart,RC,FALSE,TRUE,FALSE,,,TRUE,,FALSE,FALSE,FALSE,FALSE,FALSE,FALSE,FALSE,FALSE,FALSE,FALSE,0,Follow Yaw,0,0,25.4,25.4,FALSE,FALSE,FALSE,FALSE,FALSE,FALSE,,TRUE,Normal,,100,1024,1024,1024,1024,1,FALSE,FALSE,FALSE,FALSE,FALSE,0,FALSE,FALSE,FALSE,FALSE,90,7.79,2007,2230,7.808,FALSE,3.894,3.896,0.007,FALSE,FALSE,NA,91.8,91.5,91.7,0,0,0,0,5,2687.3,671.82,,Idle,0,20,FALSE,5,TRUE,7,Go Home,FALSE,FALSE,FALSE,FALSE,FALSE,FALSE,FALSE,FALSE,FALSE,FALSE,FALSE,FALSE,6.97291335,79.91590934,0.3,,459.3,TRUE,1,1,FALSE,FALSE,FALSE,FALSE,,TRUE,FALSE,FALSE,Course Lock,131.2,52,16.4,Calm,85,,1.12.6,Mavic Mini,1SDCH7G0169R0K,1SFLH6Q0AB03DJ,1SRCH7F014TAHX,1U5X071EXP5ZJG,163.4,0.8,114.8,17.620823,4.47388,0,11892,Mavic Mini,1SDCH7G0169R0K,1SFLH6Q0AB03DJ,1SRCH7F014TAHX,1U5X071EXP5ZJG,DJI Fly,,1.12.6,8B5BB8EB-5BD8-0D67-DA75-1F85061C16D9,1SDCH7G0169R0K,,,,,6.972899255,79.91592893,5,,
1/26/2024,11:54.1,2m 10.0s,130,6.972914192,79.9159093,2.9,2.9,3.6,60,0.8,0,0.223694,0,0.223694,0,0,-0.671082,0,0.9,-1.4,27.6,27.6,,P-GPS,Auto Fly,,14,5,TRUE,,Mavic Mini,TRUE,FALSE,,Smart,RC,FALSE,TRUE,FALSE,,,TRUE,,FALSE,FALSE,FALSE,FALSE,FALSE,FALSE,FALSE,FALSE,FALSE,FALSE,0,Follow Yaw,0,0,25.4,25.4,FALSE,FALSE,FALSE,FALSE,FALSE,FALSE,,TRUE,Normal,,100,1024,1024,1024,1024,1,FALSE,FALSE,FALSE,FALSE,FALSE,0,FALSE,FALSE,FALSE,FALSE,90,7.813,2005,2230,7.808,FALSE,3.906,3.907,0.007,FALSE,FALSE,NA,91.8,91.5,91.7,0,0,0,0,5,2687.3,671.82,,Idle,0,20,FALSE,5,TRUE,7,Go Home,FALSE,FALSE,FALSE,FALSE,FALSE,FALSE,FALSE,FALSE,FALSE,FALSE,FALSE,FALSE,6.97291335,79.91590934,0.3,,459.3,TRUE,1,1,FALSE,FALSE,FALSE,FALSE,,TRUE,FALSE,FALSE,Course Lock,131.2,52,16.4,Calm,85,,1.12.6,Mavic Mini,1SDCH7G0169R0K,1SFLH6Q0AB03DJ,1SRCH7F014TAHX,1U5X071EXP5ZJG,163.4,0.8,114.8,17.620823,4.47388,0,11892,Mavic Mini,1SDCH7G0169R0K,1SFLH6Q0AB03DJ,1SRCH7F014TAHX,1U5X071EXP5ZJG,DJI Fly,,1.12.6,8B5BB8EB-5BD8-0D67-DA75-1F85061C16D9,1SDCH7G0169R0K,,,,,6.972899255,79.91592893,5,,
1/26/2024,11:54.2,2m 10.1s,130.1,6.972914152,79.9159093,2.9,2.9,3.9,60,0.8,0,0.223694,0,0.223694,0,0,-0.223694,0,1.1,-1.4,27.6,27.6,,P-GPS,Auto Fly,,14,5,TRUE,,Mavic Mini,TRUE,FALSE,,Smart,RC,FALSE,TRUE,FALSE,,,TRUE,,FALSE,FALSE,FALSE,FALSE,FALSE,FALSE,FALSE,FALSE,FALSE,FALSE,0,Follow Yaw,0,0,25.4,25.4,FALSE,FALSE,FALSE,FALSE,FALSE,FALSE,,TRUE,Normal,,100,1024,1024,1024,1024,1,FALSE,FALSE,FALSE,FALSE,FALSE,0,FALSE,FALSE,FALSE,FALSE,90,7.813,2005,2230,7.808,FALSE,3.906,3.907,0.007,FALSE,FALSE,NA,91.8,91.5,91.7,0,0,0,0,5,2687.3,671.82,,Idle,0,20,FALSE,5,TRUE,7,Go Home,FALSE,FALSE,FALSE,FALSE,FALSE,FALSE,FALSE,FALSE,FALSE,FALSE,FALSE,FALSE,6.97291335,79.91590934,0.2,,459.3,TRUE,1,1,FALSE,FALSE,FALSE,FALSE,,TRUE,FALSE,FALSE,Course Lock,131.2,52,16.4,Calm,85,,1.12.6,Mavic Mini,1SDCH7G0169R0K,1SFLH6Q0AB03DJ,1SRCH7F014TAHX,1U5X071EXP5ZJG,163.4,0.8,114.8,17.620823,4.47388,0,11892,Mavic Mini,1SDCH7G0169R0K,1SFLH6Q0AB03DJ,1SRCH7F014TAHX,1U5X071EXP5ZJG,DJI Fly,,1.12.6,8B5BB8EB-5BD8-0D67-DA75-1F85061C16D9,1SDCH7G0169R0K,,,,,6.972899255,79.91592893,5,,
1/26/2024,11:54.3,2m 10.2s,130.2,6.972914104,79.91590931,2.9,2.9,3.9,60,0.8,0,0.223694,0,0.223694,0,0,0,0,1.2,-1.6,27.6,27.6,,P-GPS,Auto Fly,,14,5,TRUE,,Mavic Mini,TRUE,FALSE,,Smart,RC,FALSE,TRUE,FALSE,,,TRUE,,FALSE,FALSE,FALSE,FALSE,FALSE,FALSE,FALSE,FALSE,FALSE,FALSE,0,Follow Yaw,0,0,25.4,25.4,FALSE,FALSE,FALSE,FALSE,FALSE,FALSE,,TRUE,Normal,,100,1024,1024,1024,1024,1,FALSE,FALSE,FALSE,FALSE,FALSE,0,FALSE,FALSE,FALSE,FALSE,90,7.813,2005,2230,7.808,FALSE,3.906,3.907,0.007,FALSE,FALSE,NA,91.8,91.5,91.7,0,0,0,0,5,2687.3,671.82,,Idle,0,20,FALSE,5,TRUE,7,Go Home,FALSE,FALSE,FALSE,FALSE,FALSE,FALSE,FALSE,FALSE,FALSE,FALSE,FALSE,FALSE,6.97291335,79.91590934,0.2,,459.3,TRUE,1,1,FALSE,FALSE,FALSE,FALSE,,TRUE,FALSE,FALSE,Course Lock,131.2,52,16.4,Calm,85,,1.12.6,Mavic Mini,1SDCH7G0169R0K,1SFLH6Q0AB03DJ,1SRCH7F014TAHX,1U5X071EXP5ZJG,163.4,0.8,114.8,17.620823,4.47388,0,11892,Mavic Mini,1SDCH7G0169R0K,1SFLH6Q0AB03DJ,1SRCH7F014TAHX,1U5X071EXP5ZJG,DJI Fly,,1.12.6,8B5BB8EB-5BD8-0D67-DA75-1F85061C16D9,1SDCH7G0169R0K,,,,,6.972899255,79.91592893,5,,
1/26/2024,11:54.4,2m 10.3s,130.3,6.97291394,79.9159094,2.9,2.9,3.9,60,0.9,0,0.223694,0,0.223694,0,0,0,0,1.2,-1.8,27.6,27.6,,P-GPS,Auto Fly,,14,5,TRUE,,Mavic Mini,TRUE,FALSE,,Smart,RC,FALSE,TRUE,FALSE,,,TRUE,,FALSE,FALSE,FALSE,FALSE,FALSE,FALSE,FALSE,FALSE,FALSE,FALSE,0,Follow Yaw,0,0,25.4,25.4,FALSE,FALSE,FALSE,FALSE,FALSE,FALSE,,TRUE,Normal,,100,1024,1024,1024,1024,1,FALSE,FALSE,FALSE,FALSE,FALSE,0,FALSE,FALSE,FALSE,FALSE,90,7.813,2005,2230,7.808,FALSE,3.906,3.907,0.007,FALSE,FALSE,NA,91.8,91.5,91.7,0,0,0,0,5,2687.3,671.82,,Idle,0,20,FALSE,5,TRUE,7,Go Home,FALSE,FALSE,FALSE,FALSE,FALSE,FALSE,FALSE,FALSE,FALSE,FALSE,FALSE,FALSE,6.97291335,79.91590934,0.2,,459.3,TRUE,1,1,FALSE,FALSE,FALSE,FALSE,,TRUE,FALSE,FALSE,Course Lock,131.2,52,16.4,Calm,85,,1.12.6,Mavic Mini,1SDCH7G0169R0K,1SFLH6Q0AB03DJ,1SRCH7F014TAHX,1U5X071EXP5ZJG,163.4,0.8,114.8,17.620823,4.47388,0,11892,Mavic Mini,1SDCH7G0169R0K,1SFLH6Q0AB03DJ,1SRCH7F014TAHX,1U5X071EXP5ZJG,DJI Fly,,1.12.6,8B5BB8EB-5BD8-0D67-DA75-1F85061C16D9,1SDCH7G0169R0K,,,,,6.972899255,79.91592893,5,,
1/26/2024,11:54.4,2m 10.4s,130.4,6.972913885,79.91590961,2.9,2.9,3.9,60,0.9,0,0.223694,0,0.223694,0,0,0,0,1.2,-1.9,27.6,27.6,,P-GPS,Auto Fly,,14,5,TRUE,,Mavic Mini,TRUE,FALSE,,Smart,RC,FALSE,TRUE,FALSE,,,TRUE,,FALSE,FALSE,FALSE,FALSE,FALSE,FALSE,FALSE,FALSE,FALSE,FALSE,0,Follow Yaw,0,0,25.4,25.4,FALSE,FALSE,FALSE,FALSE,FALSE,FALSE,,TRUE,Normal,,100,1024,1024,1024,1024,1,FALSE,FALSE,FALSE,FALSE,FALSE,0,FALSE,FALSE,FALSE,FALSE,90,7.813,2005,2230,7.808,FALSE,3.906,3.907,0.007,FALSE,FALSE,NA,91.8,91.5,91.7,0,0,0,0,5,2687.3,671.82,,Idle,0,20,FALSE,5,TRUE,7,Go Home,FALSE,FALSE,FALSE,FALSE,FALSE,FALSE,FALSE,FALSE,FALSE,FALSE,FALSE,FALSE,6.97291335,79.91590934,0.2,,459.3,TRUE,1,1,FALSE,FALSE,FALSE,FALSE,,TRUE,FALSE,FALSE,Course Lock,131.2,52,16.4,Calm,85,,1.12.6,Mavic Mini,1SDCH7G0169R0K,1SFLH6Q0AB03DJ,1SRCH7F014TAHX,1U5X071EXP5ZJG,163.4,0.8,114.8,17.620823,4.47388,0,11892,Mavic Mini,1SDCH7G0169R0K,1SFLH6Q0AB03DJ,1SRCH7F014TAHX,1U5X071EXP5ZJG,DJI Fly,,1.12.6,8B5BB8EB-5BD8-0D67-DA75-1F85061C16D9,1SDCH7G0169R0K,,,,,6.972899255,79.91592893,5,,
1/26/2024,11:54.5,2m 10.5s,130.5,6.972913917,79.91590969,2.9,2.9,3.9,60,1,0,0.223694,0,0.223694,0,0,0,0,1.3,-1.9,27.5,27.5,,P-GPS,Auto Fly,,14,5,TRUE,,Mavic Mini,TRUE,FALSE,,Smart,RC,FALSE,TRUE,FALSE,,,TRUE,,FALSE,FALSE,FALSE,FALSE,FALSE,FALSE,FALSE,FALSE,FALSE,FALSE,0,Follow Yaw,0,0,25.4,25.4,FALSE,FALSE,FALSE,FALSE,FALSE,FALSE,,TRUE,Normal,,100,1024,1024,1024,1024,1,FALSE,FALSE,FALSE,FALSE,FALSE,0,FALSE,FALSE,FALSE,FALSE,90,7.813,2005,2230,7.808,FALSE,3.906,3.907,0.007,FALSE,FALSE,NA,91.8,91.5,91.7,0,0,0,0,5,2687.3,671.82,,Idle,0,20,FALSE,5,TRUE,7,Go Home,FALSE,FALSE,FALSE,FALSE,FALSE,FALSE,FALSE,FALSE,FALSE,FALSE,FALSE,FALSE,6.97291335,79.91590934,0.2,,459.3,TRUE,1,1,FALSE,FALSE,FALSE,FALSE,,TRUE,FALSE,FALSE,Course Lock,131.2,52,16.4,Calm,85,,1.12.6,Mavic Mini,1SDCH7G0169R0K,1SFLH6Q0AB03DJ,1SRCH7F014TAHX,1U5X071EXP5ZJG,163.4,0.8,114.8,17.620823,4.47388,0,11892,Mavic Mini,1SDCH7G0169R0K,1SFLH6Q0AB03DJ,1SRCH7F014TAHX,1U5X071EXP5ZJG,DJI Fly,,1.12.6,8B5BB8EB-5BD8-0D67-DA75-1F85061C16D9,1SDCH7G0169R0K,,,,,6.972899255,79.91592893,5,,
1/26/2024,11:54.7,2m 10.6s,130.6,6.972913972,79.91590974,2.9,2.9,3.9,60,1,0,0.223694,0,0.223694,0,0,0,0,1.3,-1.8,27.5,27.5,,P-GPS,Auto Fly,,14,5,TRUE,,Mavic Mini,TRUE,FALSE,,Smart,RC,FALSE,TRUE,FALSE,,,TRUE,,FALSE,FALSE,FALSE,FALSE,FALSE,FALSE,FALSE,FALSE,FALSE,FALSE,0,Follow Yaw,0,0,25.4,25.4,FALSE,FALSE,FALSE,FALSE,FALSE,FALSE,,TRUE,Normal,,100,1024,1024,1024,1024,1,FALSE,FALSE,FALSE,FALSE,FALSE,0,FALSE,FALSE,FALSE,FALSE,90,7.813,2005,2230,7.808,FALSE,3.906,3.907,0.007,FALSE,FALSE,NA,91.8,91.5,91.7,0,0,0,0,5,2687.3,671.82,,Idle,0,20,FALSE,5,TRUE,7,Go Home,FALSE,FALSE,FALSE,FALSE,FALSE,FALSE,FALSE,FALSE,FALSE,FALSE,FALSE,FALSE,6.97291335,79.91590934,0.2,,459.3,TRUE,1,1,FALSE,FALSE,FALSE,FALSE,,TRUE,FALSE,FALSE,Course Lock,131.2,52,16.4,Calm,85,,1.12.6,Mavic Mini,1SDCH7G0169R0K,1SFLH6Q0AB03DJ,1SRCH7F014TAHX,1U5X071EXP5ZJG,163.4,0.8,114.8,17.620823,4.47388,0,11892,Mavic Mini,1SDCH7G0169R0K,1SFLH6Q0AB03DJ,1SRCH7F014TAHX,1U5X071EXP5ZJG,DJI Fly,,1.12.6,8B5BB8EB-5BD8-0D67-DA75-1F85061C16D9,1SDCH7G0169R0K,,,,,6.972899255,79.91592893,5,,
1/26/2024,11:54.8,2m 10.7s,130.7,6.972914071,79.91591006,2.9,2.9,3.9,60,1.1,0,0.223694,0,0.223694,0,0,0,0,1.4,-1.6,27.5,27.5,,P-GPS,Auto Fly,,14,5,TRUE,,Mavic Mini,TRUE,FALSE,,Smart,RC,FALSE,TRUE,FALSE,,,TRUE,,FALSE,FALSE,FALSE,FALSE,FALSE,FALSE,FALSE,FALSE,FALSE,FALSE,0,Follow Yaw,0,0,25.4,25.4,FALSE,FALSE,FALSE,FALSE,FALSE,FALSE,,TRUE,Normal,,100,1024,1024,1024,1024,1,FALSE,FALSE,FALSE,FALSE,FALSE,0,FALSE,FALSE,FALSE,FALSE,90,7.813,2005,2230,7.758,FALSE,3.906,3.907,0.007,FALSE,FALSE,NA,91.8,91.5,91.7,0,0,0,0,5,3825.2,956.3,,Idle,0,20,FALSE,5,TRUE,7,Go Home,FALSE,FALSE,FALSE,FALSE,FALSE,FALSE,FALSE,FALSE,FALSE,FALSE,FALSE,FALSE,6.97291335,79.91590934,0.3,,459.3,TRUE,1,1,FALSE,FALSE,FALSE,FALSE,,TRUE,FALSE,FALSE,Course Lock,131.2,52,16.4,Calm,85,,1.12.6,Mavic Mini,1SDCH7G0169R0K,1SFLH6Q0AB03DJ,1SRCH7F014TAHX,1U5X071EXP5ZJG,163.4,0.8,114.8,17.620823,4.47388,0,11892,Mavic Mini,1SDCH7G0169R0K,1SFLH6Q0AB03DJ,1SRCH7F014TAHX,1U5X071EXP5ZJG,DJI Fly,,1.12.6,8B5BB8EB-5BD8-0D67-DA75-1F85061C16D9,1SDCH7G0169R0K,,,,,6.972899255,79.91592893,5,,
1/26/2024,11:54.8,2m 10.8s,130.8,6.972914111,79.91591012,2.9,2.9,3.9,60,1.1,0,0.223694,0,0.223694,0,0,0,0,1.4,-1.5,27.5,27.5,,P-GPS,Auto Fly,,15,5,TRUE,,Mavic Mini,TRUE,FALSE,,Smart,RC,FALSE,TRUE,FALSE,,,TRUE,,FALSE,FALSE,FALSE,FALSE,FALSE,FALSE,FALSE,FALSE,FALSE,FALSE,0,Follow Yaw,0,0,25.4,25.4,FALSE,FALSE,FALSE,FALSE,FALSE,FALSE,,TRUE,Normal,,100,1024,1024,1024,1024,1,FALSE,FALSE,FALSE,FALSE,FALSE,0,FALSE,FALSE,FALSE,FALSE,90,7.813,2005,2230,7.758,FALSE,3.906,3.907,0.007,FALSE,FALSE,NA,91.8,91.5,91.7,0,0,0,0,5,3825.2,956.3,,Idle,0,20,FALSE,5,TRUE,7,Go Home,FALSE,FALSE,FALSE,FALSE,FALSE,FALSE,FALSE,FALSE,FALSE,FALSE,FALSE,FALSE,6.97291335,79.91590934,0.3,,459.3,TRUE,1,1,FALSE,FALSE,FALSE,FALSE,,TRUE,FALSE,FALSE,Course Lock,131.2,52,16.4,Calm,85,,1.12.6,Mavic Mini,1SDCH7G0169R0K,1SFLH6Q0AB03DJ,1SRCH7F014TAHX,1U5X071EXP5ZJG,163.4,0.8,114.8,17.620823,4.47388,0,11892,Mavic Mini,1SDCH7G0169R0K,1SFLH6Q0AB03DJ,1SRCH7F014TAHX,1U5X071EXP5ZJG,DJI Fly,,1.12.6,8B5BB8EB-5BD8-0D67-DA75-1F85061C16D9,1SDCH7G0169R0K,,,,,6.972899255,79.91592893,5,,
1/26/2024,11:54.9,2m 10.9s,130.9,6.972914178,79.91591014,2.9,2.9,3.9,60,1.2,0,0.223694,0,0.223694,0,0,0,0,1.4,-1.3,27.6,27.6,,P-GPS,Auto Fly,,15,5,TRUE,,Mavic Mini,TRUE,FALSE,,Smart,RC,FALSE,TRUE,FALSE,,,TRUE,,FALSE,FALSE,FALSE,FALSE,FALSE,FALSE,FALSE,FALSE,FALSE,FALSE,0,Follow Yaw,0,0,25.4,25.4,FALSE,FALSE,FALSE,FALSE,FALSE,FALSE,,TRUE,Normal,,100,1024,1024,1024,1024,1,FALSE,FALSE,FALSE,FALSE,FALSE,0,FALSE,FALSE,FALSE,FALSE,90,7.813,2005,2230,7.758,FALSE,3.906,3.907,0.007,FALSE,FALSE,NA,91.8,91.5,91.7,0,0,0,0,5,3825.2,956.3,,Idle,0,20,FALSE,5,TRUE,7,Go Home,FALSE,FALSE,FALSE,FALSE,FALSE,FALSE,FALSE,FALSE,FALSE,FALSE,FALSE,FALSE,6.97291335,79.91590934,0.4,,459.3,TRUE,1,1,FALSE,FALSE,FALSE,FALSE,,TRUE,FALSE,FALSE,Course Lock,131.2,52,16.4,Calm,85,,1.12.6,Mavic Mini,1SDCH7G0169R0K,1SFLH6Q0AB03DJ,1SRCH7F014TAHX,1U5X071EXP5ZJG,163.4,0.8,114.8,17.620823,4.47388,0,11892,Mavic Mini,1SDCH7G0169R0K,1SFLH6Q0AB03DJ,1SRCH7F014TAHX,1U5X071EXP5ZJG,DJI Fly,,1.12.6,8B5BB8EB-5BD8-0D67-DA75-1F85061C16D9,1SDCH7G0169R0K,,,,,6.972899255,79.91592893,5,,
1/26/2024,11:55.1,2m 11.0s,131,6.972914248,79.91591016,2.9,2.9,3.9,60,1.2,0,0.223694,0,0.223694,0,0,0,0,1.4,-1.3,27.6,27.6,,P-GPS,Auto Fly,,15,5,TRUE,,Mavic Mini,TRUE,FALSE,,Smart,RC,FALSE,TRUE,FALSE,,,TRUE,,FALSE,FALSE,FALSE,FALSE,FALSE,FALSE,FALSE,FALSE,FALSE,FALSE,0,Follow Yaw,0,0,25.4,25.4,FALSE,FALSE,FALSE,FALSE,FALSE,FALSE,,TRUE,Normal,,100,1024,1024,1024,1024,1,FALSE,FALSE,FALSE,FALSE,FALSE,0,FALSE,FALSE,FALSE,FALSE,90,7.813,2005,2230,7.758,FALSE,3.906,3.907,0.007,FALSE,FALSE,NA,91.8,91.5,91.7,0,0,0,0,5,3825.2,956.3,,Idle,0,20,FALSE,5,TRUE,7,Go Home,FALSE,FALSE,FALSE,FALSE,FALSE,FALSE,FALSE,FALSE,FALSE,FALSE,FALSE,FALSE,6.97291335,79.91590934,0.4,,459.3,TRUE,1,1,FALSE,FALSE,FALSE,FALSE,,TRUE,FALSE,FALSE,Course Lock,131.2,52,16.4,Calm,85,,1.12.6,Mavic Mini,1SDCH7G0169R0K,1SFLH6Q0AB03DJ,1SRCH7F014TAHX,1U5X071EXP5ZJG,163.4,0.8,114.8,17.620823,4.47388,0,11892,Mavic Mini,1SDCH7G0169R0K,1SFLH6Q0AB03DJ,1SRCH7F014TAHX,1U5X071EXP5ZJG,DJI Fly,,1.12.6,8B5BB8EB-5BD8-0D67-DA75-1F85061C16D9,1SDCH7G0169R0K,,,,,6.972899255,79.91592893,5,,
1/26/2024,11:55.1,2m 11.1s,131.1,6.972914434,79.91591009,3.2,3.2,3.9,61,1.3,0,0.223694,0,0.223694,0,0,0,0,1.6,-1.2,27.6,27.6,,P-GPS,Auto Fly,,15,5,TRUE,,Mavic Mini,TRUE,FALSE,,Smart,RC,FALSE,TRUE,FALSE,,,TRUE,,FALSE,FALSE,FALSE,FALSE,FALSE,FALSE,FALSE,FALSE,FALSE,FALSE,0,Follow Yaw,0,0,25.4,25.4,FALSE,FALSE,FALSE,FALSE,FALSE,FALSE,,TRUE,Normal,,100,1024,1024,1024,1024,1,FALSE,FALSE,FALSE,FALSE,FALSE,0,FALSE,FALSE,FALSE,FALSE,90,7.813,2005,2230,7.758,FALSE,3.906,3.907,0.007,FALSE,FALSE,NA,91.8,91.5,91.7,0,0,0,0,5,3825.2,956.3,,Idle,0,20,FALSE,5,TRUE,7,Go Home,FALSE,FALSE,FALSE,FALSE,FALSE,FALSE,FALSE,FALSE,FALSE,FALSE,FALSE,FALSE,6.97291335,79.91590934,0.4,,459.3,TRUE,1,1,FALSE,FALSE,FALSE,FALSE,,TRUE,FALSE,FALSE,Course Lock,131.2,52,16.4,Calm,85,,1.12.6,Mavic Mini,1SDCH7G0169R0K,1SFLH6Q0AB03DJ,1SRCH7F014TAHX,1U5X071EXP5ZJG,163.4,0.8,114.8,17.620823,4.47388,0,11892,Mavic Mini,1SDCH7G0169R0K,1SFLH6Q0AB03DJ,1SRCH7F014TAHX,1U5X071EXP5ZJG,DJI Fly,,1.12.6,8B5BB8EB-5BD8-0D67-DA75-1F85061C16D9,1SDCH7G0169R0K,,,,,6.972899255,79.91592893,5,,
1/26/2024,11:55.2,2m 11.2s,131.2,6.972914504,79.91591011,3.2,3.2,3.9,61,1.3,0,0.223694,0,0.223694,0,0,0,0,1.8,-1.2,27.6,27.6,,P-GPS,Auto Fly,,15,5,TRUE,,Mavic Mini,TRUE,FALSE,,Smart,RC,FALSE,TRUE,FALSE,,,TRUE,,FALSE,FALSE,FALSE,FALSE,FALSE,FALSE,FALSE,FALSE,FALSE,FALSE,0,Follow Yaw,0,0,25.4,25.4,FALSE,FALSE,FALSE,FALSE,FALSE,FALSE,,TRUE,Normal,,100,1024,1024,1024,1024,1,FALSE,FALSE,FALSE,FALSE,FALSE,0,FALSE,FALSE,FALSE,FALSE,90,7.768,2004,2230,7.758,FALSE,3.883,3.885,0.007,FALSE,FALSE,NA,91.8,91.5,91.7,0,0,0,0,5,3825.2,956.3,,Idle,0,20,FALSE,5,TRUE,7,Go Home,FALSE,FALSE,FALSE,FALSE,FALSE,FALSE,FALSE,FALSE,FALSE,FALSE,FALSE,FALSE,6.97291335,79.91590934,0.5,,459.3,TRUE,1,1,FALSE,FALSE,FALSE,FALSE,,TRUE,FALSE,FALSE,Course Lock,131.2,52,16.4,Calm,85,,1.12.6,Mavic Mini,1SDCH7G0169R0K,1SFLH6Q0AB03DJ,1SRCH7F014TAHX,1U5X071EXP5ZJG,163.4,0.8,114.8,17.620823,4.47388,0,11892,Mavic Mini,1SDCH7G0169R0K,1SFLH6Q0AB03DJ,1SRCH7F014TAHX,1U5X071EXP5ZJG,DJI Fly,,1.12.6,8B5BB8EB-5BD8-0D67-DA75-1F85061C16D9,1SDCH7G0169R0K,,,,,6.972899255,79.91592893,5,,
1/26/2024,11:55.4,2m 11.3s,131.3,6.972914558,79.91591013,3.2,3.2,3.9,61,1.3,0,0.223694,0,0.223694,0,0,0,0,1.9,-1.3,27.6,27.6,,P-GPS,Auto Fly,,15,5,TRUE,,Mavic Mini,TRUE,FALSE,,Smart,RC,FALSE,TRUE,FALSE,,,TRUE,,FALSE,FALSE,FALSE,FALSE,FALSE,FALSE,FALSE,FALSE,FALSE,FALSE,0,Follow Yaw,0,0,25.4,25.4,FALSE,FALSE,FALSE,FALSE,FALSE,FALSE,,TRUE,Normal,,100,1024,1024,1024,1024,1,FALSE,FALSE,FALSE,FALSE,FALSE,0,FALSE,FALSE,FALSE,FALSE,90,7.768,2004,2230,7.758,FALSE,3.883,3.885,0.007,FALSE,FALSE,NA,91.8,91.5,91.7,0,0,0,0,5,3825.2,956.3,,Idle,0,20,FALSE,5,TRUE,7,Go Home,FALSE,FALSE,FALSE,FALSE,FALSE,FALSE,FALSE,FALSE,FALSE,FALSE,FALSE,FALSE,6.97291335,79.91590934,0.5,,459.3,TRUE,1,1,FALSE,FALSE,FALSE,FALSE,,TRUE,FALSE,FALSE,Course Lock,131.2,52,16.4,Calm,85,,1.12.6,Mavic Mini,1SDCH7G0169R0K,1SFLH6Q0AB03DJ,1SRCH7F014TAHX,1U5X071EXP5ZJG,163.4,0.8,114.8,17.620823,4.47388,0,11892,Mavic Mini,1SDCH7G0169R0K,1SFLH6Q0AB03DJ,1SRCH7F014TAHX,1U5X071EXP5ZJG,DJI Fly,,1.12.6,8B5BB8EB-5BD8-0D67-DA75-1F85061C16D9,1SDCH7G0169R0K,,,,,6.972899255,79.91592893,5,,
1/26/2024,11:55.5,2m 11.4s,131.4,6.972914608,79.91591016,3.2,3.2,4.2,61,1.3,0,0.223694,0,0.223694,0,0,0,0,1.9,-1.3,27.6,27.6,,P-GPS,Auto Fly,,15,5,TRUE,,Mavic Mini,TRUE,FALSE,,Smart,RC,FALSE,TRUE,FALSE,,,TRUE,,FALSE,FALSE,FALSE,FALSE,FALSE,FALSE,FALSE,FALSE,FALSE,FALSE,0,Follow Yaw,0,0,25.4,25.4,FALSE,FALSE,FALSE,FALSE,FALSE,FALSE,,TRUE,Normal,,100,1024,1024,1024,1024,1,FALSE,FALSE,FALSE,FALSE,FALSE,0,FALSE,FALSE,FALSE,FALSE,90,7.768,2004,2230,7.758,FALSE,3.883,3.885,0.007,FALSE,FALSE,NA,91.8,91.5,91.7,0,0,0,0,5,3825.2,956.3,,Idle,0,20,FALSE,5,TRUE,7,Go Home,FALSE,FALSE,FALSE,FALSE,FALSE,FALSE,FALSE,FALSE,FALSE,FALSE,FALSE,FALSE,6.97291335,79.91590934,0.5,,459.3,TRUE,1,1,FALSE,FALSE,FALSE,FALSE,,TRUE,FALSE,FALSE,Course Lock,131.2,52,16.4,Calm,85,,1.12.6,Mavic Mini,1SDCH7G0169R0K,1SFLH6Q0AB03DJ,1SRCH7F014TAHX,1U5X071EXP5ZJG,163.4,0.8,114.8,17.620823,4.47388,0,11892,Mavic Mini,1SDCH7G0169R0K,1SFLH6Q0AB03DJ,1SRCH7F014TAHX,1U5X071EXP5ZJG,DJI Fly,,1.12.6,8B5BB8EB-5BD8-0D67-DA75-1F85061C16D9,1SDCH7G0169R0K,,,,,6.972899255,79.91592893,5,,
1/26/2024,11:55.7,2m 11.5s,131.5,6.972914534,79.91591012,3.2,3.2,4.2,61,1.4,0,0.223694,0,0.223694,0,0,0,0,2,-1.3,27.6,27.6,,P-GPS,Auto Fly,,15,5,TRUE,,Mavic Mini,TRUE,FALSE,,Smart,RC,FALSE,TRUE,FALSE,,,TRUE,,FALSE,FALSE,FALSE,FALSE,FALSE,FALSE,FALSE,FALSE,FALSE,FALSE,0,Follow Yaw,0,0,25.4,25.4,FALSE,FALSE,FALSE,FALSE,FALSE,FALSE,,TRUE,Normal,,100,1024,1024,1024,1024,1,FALSE,FALSE,FALSE,FALSE,FALSE,0,FALSE,FALSE,FALSE,FALSE,90,7.768,2004,2230,7.758,FALSE,3.883,3.885,0.007,FALSE,FALSE,NA,91.8,91.5,91.7,0,0,0,0,5,3825.2,956.3,,Idle,0,20,FALSE,5,TRUE,7,Go Home,FALSE,FALSE,FALSE,FALSE,FALSE,FALSE,FALSE,FALSE,FALSE,FALSE,FALSE,FALSE,6.97291335,79.91590934,0.5,,459.3,TRUE,1,1,FALSE,FALSE,FALSE,FALSE,,TRUE,FALSE,FALSE,Course Lock,131.2,52,16.4,Calm,85,,1.12.6,Mavic Mini,1SDCH7G0169R0K,1SFLH6Q0AB03DJ,1SRCH7F014TAHX,1U5X071EXP5ZJG,163.4,0.8,114.8,17.620823,4.47388,0,11892,Mavic Mini,1SDCH7G0169R0K,1SFLH6Q0AB03DJ,1SRCH7F014TAHX,1U5X071EXP5ZJG,DJI Fly,,1.12.6,8B5BB8EB-5BD8-0D67-DA75-1F85061C16D9,1SDCH7G0169R0K,,,,,6.972899255,79.91592893,5,,
1/26/2024,11:55.7,2m 11.6s,131.6,6.972914511,79.91591011,3.2,3.2,4.2,61,1.4,0,0.223694,0,0.223694,0,0,0,0,1.8,-1.3,27.5,27.5,,P-GPS,Auto Fly,,15,5,TRUE,,Mavic Mini,TRUE,FALSE,,Smart,RC,FALSE,TRUE,FALSE,,,TRUE,,FALSE,FALSE,FALSE,FALSE,FALSE,FALSE,FALSE,FALSE,FALSE,FALSE,0,Follow Yaw,0,0,25.4,25.4,FALSE,FALSE,FALSE,FALSE,FALSE,FALSE,,TRUE,Normal,,100,1024,1024,1024,942,1,FALSE,FALSE,FALSE,FALSE,FALSE,0,FALSE,FALSE,FALSE,FALSE,90,7.768,2004,2230,7.758,FALSE,3.883,3.885,0.007,FALSE,FALSE,NA,91.8,91.5,91.7,0,0,0,0,5,3825.2,956.3,,Idle,0,20,FALSE,5,TRUE,7,Go Home,FALSE,FALSE,FALSE,FALSE,FALSE,FALSE,FALSE,FALSE,FALSE,FALSE,FALSE,FALSE,6.97291335,79.91590934,0.5,,459.3,TRUE,1,1,FALSE,FALSE,FALSE,FALSE,,TRUE,FALSE,FALSE,Course Lock,131.2,52,16.4,Calm,85,,1.12.6,Mavic Mini,1SDCH7G0169R0K,1SFLH6Q0AB03DJ,1SRCH7F014TAHX,1U5X071EXP5ZJG,163.4,0.8,114.8,17.620823,4.47388,0,11892,Mavic Mini,1SDCH7G0169R0K,1SFLH6Q0AB03DJ,1SRCH7F014TAHX,1U5X071EXP5ZJG,DJI Fly,,1.12.6,8B5BB8EB-5BD8-0D67-DA75-1F85061C16D9,1SDCH7G0169R0K,,,,,6.972899255,79.91592893,5,,
1/26/2024,11:55.8,2m 11.7s,131.7,6.972914472,79.91591012,3.2,3.2,4.2,61,1.4,0,0.223694,0,0.223694,0,0,0,0,1.8,-1.4,27.5,27.5,,P-GPS,Auto Fly,,15,5,TRUE,,Mavic Mini,TRUE,FALSE,,Smart,RC,FALSE,TRUE,FALSE,,,TRUE,,FALSE,FALSE,FALSE,FALSE,FALSE,FALSE,FALSE,FALSE,FALSE,FALSE,0,Follow Yaw,0,0,25.4,25.4,FALSE,FALSE,FALSE,FALSE,FALSE,FALSE,,TRUE,Normal,,100,1024,1024,1024,811,1,FALSE,FALSE,FALSE,FALSE,FALSE,0,FALSE,FALSE,FALSE,FALSE,90,7.768,2004,2230,7.763,FALSE,3.883,3.885,0.007,FALSE,FALSE,NA,91.8,91.5,91.7,0,0,0,0,5,5715.9,1428.98,,Idle,0,20,FALSE,5,TRUE,7,Go Home,FALSE,FALSE,FALSE,FALSE,FALSE,FALSE,FALSE,FALSE,FALSE,FALSE,FALSE,FALSE,6.97291335,79.91590934,0.4,,459.3,TRUE,1,1,FALSE,FALSE,FALSE,FALSE,,TRUE,FALSE,FALSE,Course Lock,131.2,52,16.4,Calm,85,,1.12.6,Mavic Mini,1SDCH7G0169R0K,1SFLH6Q0AB03DJ,1SRCH7F014TAHX,1U5X071EXP5ZJG,163.4,0.8,114.8,17.620823,4.47388,0,11892,Mavic Mini,1SDCH7G0169R0K,1SFLH6Q0AB03DJ,1SRCH7F014TAHX,1U5X071EXP5ZJG,DJI Fly,,1.12.6,8B5BB8EB-5BD8-0D67-DA75-1F85061C16D9,1SDCH7G0169R0K,,,,,6.972899255,79.91592893,5,,
1/26/2024,11:56.0,2m 11.8s,131.8,6.972914426,79.91591013,3.2,3.2,4.2,61,1.4,0,0.223694,0,0.223694,0,0,0,0,1.7,-1.2,27.6,27.6,,P-GPS,Auto Fly,,14,5,TRUE,,Mavic Mini,TRUE,FALSE,,Smart,RC,FALSE,TRUE,FALSE,,,TRUE,,FALSE,FALSE,FALSE,FALSE,FALSE,FALSE,FALSE,FALSE,FALSE,FALSE,0,Follow Yaw,0,0,25.3,25.3,FALSE,FALSE,FALSE,FALSE,FALSE,FALSE,,TRUE,Normal,,100,1024,1024,1024,757,1,FALSE,FALSE,FALSE,FALSE,FALSE,0,FALSE,FALSE,FALSE,FALSE,90,7.768,2004,2230,7.763,FALSE,3.883,3.885,0.007,FALSE,FALSE,NA,91.8,91.5,91.7,0,0,0,0,5,5715.9,1428.98,,Idle,0,20,FALSE,5,TRUE,7,Go Home,FALSE,FALSE,FALSE,FALSE,FALSE,FALSE,FALSE,FALSE,FALSE,FALSE,FALSE,FALSE,6.97291335,79.91590934,0.4,,459.3,TRUE,1,1,FALSE,FALSE,FALSE,FALSE,,TRUE,FALSE,FALSE,Course Lock,131.2,52,16.4,Calm,85,,1.12.6,Mavic Mini,1SDCH7G0169R0K,1SFLH6Q0AB03DJ,1SRCH7F014TAHX,1U5X071EXP5ZJG,163.4,0.8,114.8,17.620823,4.47388,0,11892,Mavic Mini,1SDCH7G0169R0K,1SFLH6Q0AB03DJ,1SRCH7F014TAHX,1U5X071EXP5ZJG,DJI Fly,,1.12.6,8B5BB8EB-5BD8-0D67-DA75-1F85061C16D9,1SDCH7G0169R0K,,,,,6.972899255,79.91592893,5,,
1/26/2024,11:56.0,2m 11.9s,131.9,6.972914391,79.91591011,3.2,3.2,4.2,61,1.4,0,0.223694,0,0.223694,0,0,0,0,1.7,-1,27.6,27.6,,P-GPS,Auto Fly,,14,5,TRUE,,Mavic Mini,TRUE,FALSE,,Smart,RC,FALSE,TRUE,FALSE,,,TRUE,,FALSE,FALSE,FALSE,FALSE,FALSE,FALSE,FALSE,FALSE,FALSE,FALSE,0,Follow Yaw,0,0,24.9,24.9,FALSE,FALSE,FALSE,FALSE,FALSE,FALSE,,TRUE,Normal,,100,1024,1024,1024,692,1,FALSE,FALSE,FALSE,FALSE,FALSE,0,FALSE,FALSE,FALSE,FALSE,90,7.768,2004,2230,7.763,FALSE,3.883,3.885,0.007,FALSE,FALSE,NA,91.8,91.5,91.7,0,0,0,0,5,5715.9,1428.98,,Idle,0,20,FALSE,5,TRUE,7,Go Home,FALSE,FALSE,FALSE,FALSE,FALSE,FALSE,FALSE,FALSE,FALSE,FALSE,FALSE,FALSE,6.97291335,79.91590934,0.4,,459.3,TRUE,1,1,FALSE,FALSE,FALSE,FALSE,,TRUE,FALSE,FALSE,Course Lock,131.2,52,16.4,Calm,85,,1.12.6,Mavic Mini,1SDCH7G0169R0K,1SFLH6Q0AB03DJ,1SRCH7F014TAHX,1U5X071EXP5ZJG,163.4,0.8,114.8,17.620823,4.47388,0,11892,Mavic Mini,1SDCH7G0169R0K,1SFLH6Q0AB03DJ,1SRCH7F014TAHX,1U5X071EXP5ZJG,DJI Fly,,1.12.6,8B5BB8EB-5BD8-0D67-DA75-1F85061C16D9,1SDCH7G0169R0K,,,,,6.972899255,79.91592893,5,,
