CUSTOM.date [local],CUSTOM.updateTime [local],OSD.flyTime,OSD.flyTime [s],OSD.latitude,OSD.longitude,OSD.height [ft],OSD.heightMax [ft],OSD.vpsHeight [ft],OSD.altitude [ft],OSD.mileage [ft],OSD.hSpeed [MPH],OSD.hSpeedMax [MPH],OSD.xSpeed [MPH],OSD.xSpeedMax [MPH],OSD.ySpeed [MPH],OSD.ySpeedMax [MPH],OSD.zSpeed [MPH],OSD.zSpeedMax [MPH],OSD.pitch,OSD.roll,OSD.yaw,OSD.yaw [360],OSD.directionOfTravel,OSD.flycState,OSD.flycCommand,OSD.flightAction,OSD.gpsNum,OSD.gpsLevel,OSD.isGPSUsed,OSD.nonGPSCause,OSD.droneType,OSD.isSwaveWork,OSD.waveError,OSD.goHomeStatus,OSD.batteryType,OSD.ctrlDevice,OSD.isOnGround,OSD.isMotorOn,OSD.isMotorBlocked,OSD.motorStartFailedCause,OSD.motorFailReason,OSD.isImuPreheated,OSD.imuInitFailReason,OSD.isAcceletorOverRange,OSD.isBarometerDeadInAir,OSD.isCompassError,OSD.isGoHomeHeightModified,OSD.canIOCWork,OSD.isNotEnoughForce,OSD.isOutOfLimit,OSD.isPropellerCatapult,OSD.isVibrating,OSD.isVisionUsed,OSD.voltageWarning,GIMBAL.mode,GIMBAL.pitch,GIMBAL.roll,GIMBAL.yaw,GIMBAL.yaw [360],GIMBAL.isPitchAtLimit,GIMBAL.isRollAtLimit,GIMBAL.isYawAtLimit,GIMBAL.isStuck,CAMERA.isPhoto,CAMERA.isVideo,CAMERA.filename,CAMERA.sdCardIsInserted,CAMERA.sdCardState,RC.downlinkSignal,RC.uplinkSignal,RC.aileron,RC.elevator,RC.throttle,RC.rudder,RC.mode,RC.goHomeDepressed,RC.recordDepressed,RC.shutterDepressed,RC.playbackDepressed,RC.wheelDepressed,RC.wheelOffset,RC.custom1Depressed,RC.custom2Depressed,RC.custom3Depressed,RC.custom4Depressed,BATTERY.chargeLevel,BATTERY.currentPV [V],BATTERY.currentCapacity [mAh],BATTERY.fullCapacity [mAh],BATTERY.voltage [V],BATTERY.isCellVoltageEstimated,BATTERY.cellVoltage1 [V],BATTERY.cellVoltage2 [V],BATTERY.cellVoltage3 [V],BATTERY.cellVoltage4 [V],BATTERY.maxCellVoltageDeviation,BATTERY.isCellVoltageDeviationHigh,BATTERY.isVoltageLow,BATTERY.current [A],BATTERY.temperature [F],BATTERY.minTemperature [F],BATTERY.maxTemperature [F],BATTERY.usefulTime [s],BATTERY.goHomeTime [s],BATTERY.landTime [s],BATTERY.goHomeBattery,BATTERY.landBattery,BATTERY.safeFlyRadius,BATTERY.volumeConsume,BATTERY.status,BATTERY.goHomeStatus,BATTERY.goHomeCountdown,BATTERY.lowWarning,BATTERY.lowWarningGoHome,BATTERY.seriousLowWarning,BATTERY.seriousLowWarningLanding,BATTERY.timesCharged,MC.failSafeAction,MC.isObstacleAvoidanceEnabled,MC.isCollisionAvoidanceEnabled,MC.isRthObstacleAvoidanceEnabled,MC.isBraking,MC.isAvoidingObstacle,MC.isAvoidingActiveObstacle,MC.isAscentLimitedByObstacle,MC.isLandingConfirmationNeeded,MC.atLowAltitudeLimit,MC.atDistanceLimit,MC.atAirportAltitudeLimit,MC.atAirportBoundary,HOME.latitude,HOME.longitude,HOME.distance [ft],HOME.height [ft],HOME.heightLimit [ft],HOME.isHomeRecord,HOME.goHomeMode,HOME.aircraftHeadDirection,HOME.isDynamicHomePointEnabled,HOME.isReachedLimitDistance,HOME.isReachedLimitHeight,HOME.isCompassCalibrating,HOME.compassCalibrationState,HOME.isMultipleFlightModeEnabled,HOME.isBeginnerMode,HOME.isIOCEnabled,HOME.iocMode,HOME.goHomeHeight [ft],HOME.courseLockAngle,HOME.forceLandingHeight [ft],HOME.wind,HOME.dataRecorderFileIndex,RECOVER.appType,RECOVER.appVersion,RECOVER.aircraftName,RECOVER.aircraftSerial,RECOVER.cameraSerial,RECOVER.rcSerial,RECOVER.batterySerial,DETAILS.totalTime [s],DETAILS.totalDistance [ft],DETAILS.maxHeight [ft],DETAILS.maxHorizontalSpeed [MPH],DETAILS.maxVerticalSpeed [MPH],DETAILS.photoNum,DETAILS.videoTime [s],DETAILS.aircraftName,DETAILS.aircraftSerial,DETAILS.cameraSerial,DETAILS.rcSerial,DETAILS.batterySerial,DETAILS.appName,DETAILS.appType,DETAILS.appVersion,DETAILS.guid,SERIAL.flightController,SERIAL.camera,SERIAL.gimbal,SERIAL.rc,SERIAL.battery,APPGPS.latitude,APPGPS.longitude,APPGPS.accuracy,APP.message,APP.tip,APP.warning
6/19/2023,03:11.7,0m 4.3s,4.3,7.346828262,80.94429183,0,0,0.3,458,0,0,0,0,0,0,0,0,0,-0.5,1,170.9,170.9,,Starting Motors,Other,,22,5,TRUE,,Avata,FALSE,FALSE,,Smart,RC,TRUE,TRUE,FALSE,,,TRUE,,FALSE,FALSE,FALSE,FALSE,FALSE,FALSE,FALSE,FALSE,FALSE,FALSE,0,Free,0,0,0,0,FALSE,FALSE,FALSE,FALSE,FALSE,FALSE,,FALSE,Normal,,,1024,1024,1024,1024,,FALSE,FALSE,FALSE,FALSE,FALSE,0,FALSE,FALSE,FALSE,FALSE,99,16.717,2509,2527,16.717,TRUE,4.179,4.179,4.179,4.179,,FALSE,FALSE,NA,86.9,86.9,86.9,,,,,,,,,Idle,,,TRUE,,FALSE,3,Hover,FALSE,FALSE,FALSE,FALSE,FALSE,FALSE,FALSE,FALSE,FALSE,FALSE,FALSE,FALSE,,,,,,FALSE,,,FALSE,FALSE,FALSE,FALSE,,FALSE,FALSE,FALSE,,,,,Calm,,,,,,,,,700.8,6.9,393.7,33.084118,13.42164,10,60290,DJI Avata,1581F4QWB22C6003,4TTTKBT1A100XF,,4YPXKBWFG101BB,DJI Fly,Linux,0.0.1,506836E9-49FE-5B48-4C34-69BAADE40894,1581F4QWB22C600307BM,,4TTTKBT1A100XF,,,,,,,,
6/19/2023,03:07.5,0m 4.3s,4.3,7.346828259,80.94429184,0,0,0.3,458,0,0,0,0,0,0,0,0,0,-0.5,1,170.9,170.9,,Starting Motors,Other,,22,5,TRUE,,Avata,FALSE,FALSE,,Smart,RC,TRUE,TRUE,FALSE,,,TRUE,,FALSE,FALSE,FALSE,FALSE,FALSE,FALSE,FALSE,FALSE,FALSE,FALSE,0,Free,0,0.7,171.2,171.2,FALSE,FALSE,FALSE,FALSE,FALSE,FALSE,,FALSE,Normal,100,,0,0,0,0,2,FALSE,FALSE,FALSE,FALSE,FALSE,0,FALSE,FALSE,FALSE,FALSE,99,16.717,2509,2527,16.717,TRUE,4.179,4.179,4.179,4.179,,FALSE,FALSE,NA,86.9,86.9,86.9,,,,,,,,,Idle,,,TRUE,,FALSE,3,Hover,FALSE,FALSE,FALSE,FALSE,FALSE,FALSE,FALSE,FALSE,FALSE,FALSE,FALSE,FALSE,,,,,,FALSE,,,FALSE,FALSE,FALSE,FALSE,,FALSE,FALSE,FALSE,,,,,Calm,,Linux,0.0.1,DJI Avata,1581F4QWB22C6003,4TTTKBT1A100XF,,4YPXKBWFG101BB,700.8,6.9,393.7,33.084118,13.42164,10,60290,DJI Avata,1581F4QWB22C6003,4TTTKBT1A100XF,,4YPXKBWFG101BB,DJI Fly,Linux,0.0.1,506836E9-49FE-5B48-4C34-69BAADE40894,1581F4QWB22C600307BM,,4TTTKBT1A100XF,,,,,,,,Aircraft in low-power state.
6/19/2023,03:07.5,0m 4.5s,4.5,7.346828294,80.94429182,0,0,0.3,458,0,0,0,0,0,0,0,0,0,-0.5,1,170.9,170.9,,Starting Motors,Other,,22,5,TRUE,,Avata,FALSE,FALSE,,Smart,RC,TRUE,TRUE,FALSE,,,TRUE,,FALSE,FALSE,FALSE,FALSE,FALSE,FALSE,FALSE,FALSE,FALSE,FALSE,0,Free,0,0.7,171.2,171.2,FALSE,FALSE,FALSE,FALSE,FALSE,FALSE,,FALSE,Normal,100,,0,0,0,0,2,FALSE,FALSE,FALSE,FALSE,FALSE,0,FALSE,FALSE,FALSE,FALSE,99,16.717,2509,2527,16.717,TRUE,4.179,4.179,4.179,4.179,,FALSE,FALSE,NA,86.9,86.9,86.9,,,,,,,,,Idle,,,TRUE,,FALSE,3,Hover,FALSE,FALSE,FALSE,FALSE,FALSE,FALSE,FALSE,FALSE,FALSE,FALSE,FALSE,FALSE,,,,,,FALSE,,,FALSE,FALSE,FALSE,FALSE,,FALSE,FALSE,FALSE,,,,,Calm,,Linux,0.0.1,DJI Avata,1581F4QWB22C6003,4TTTKBT1A100XF,,4YPXKBWFG101BB,700.8,6.9,393.7,33.084118,13.42164,10,60290,DJI Avata,1581F4QWB22C6003,4TTTKBT1A100XF,,4YPXKBWFG101BB,DJI Fly,Linux,0.0.1,506836E9-49FE-5B48-4C34-69BAADE40894,1581F4QWB22C600307BM,,4TTTKBT1A100XF,,,,,,,,
6/19/2023,03:07.7,0m 4.7s,4.7,7.34682833,80.94429181,0,0,0.3,458,0,0,0,0,0,0,0,0,0,-0.5,1,170.9,170.9,,Starting Motors,Other,,22,5,TRUE,,Avata,FALSE,FALSE,,Smart,RC,TRUE,TRUE,FALSE,,,TRUE,,FALSE,FALSE,FALSE,FALSE,FALSE,FALSE,FALSE,FALSE,FALSE,FALSE,0,Free,0,0.7,171.2,171.2,FALSE,FALSE,FALSE,FALSE,FALSE,FALSE,,FALSE,Normal,100,100,0,0,0,0,2,FALSE,FALSE,FALSE,FALSE,FALSE,0,FALSE,FALSE,FALSE,FALSE,99,16.717,2509,2527,16.717,TRUE,4.179,4.179,4.179,4.179,,FALSE,FALSE,NA,86.9,86.9,86.9,,,,,,,,,Idle,,,TRUE,,FALSE,3,Hover,FALSE,FALSE,FALSE,FALSE,FALSE,FALSE,FALSE,FALSE,FALSE,FALSE,FALSE,FALSE,,,,,,FALSE,,,FALSE,FALSE,FALSE,FALSE,,FALSE,FALSE,FALSE,,,,,Calm,,Linux,0.0.1,DJI Avata,1581F4QWB22C6003,4TTTKBT1A100XF,,4YPXKBWFG101BB,700.8,6.9,393.7,33.084118,13.42164,10,60290,DJI Avata,1581F4QWB22C6003,4TTTKBT1A100XF,,4YPXKBWFG101BB,DJI Fly,Linux,0.0.1,506836E9-49FE-5B48-4C34-69BAADE40894,1581F4QWB22C600307BM,,4TTTKBT1A100XF,,,,,,,,
6/19/2023,03:07.9,0m 4.9s,4.9,7.346828365,80.9442918,0,0,0.3,458,0,0,0,0,0,0,0,0,0,-0.5,1,170.9,170.9,,Starting Motors,Other,,22,5,TRUE,,Avata,FALSE,FALSE,,Smart,RC,TRUE,TRUE,FALSE,,,TRUE,,FALSE,FALSE,FALSE,FALSE,FALSE,FALSE,FALSE,FALSE,FALSE,FALSE,0,Free,0,0.7,171.2,171.2,FALSE,FALSE,FALSE,FALSE,FALSE,FALSE,,FALSE,Normal,100,100,0,0,0,0,2,FALSE,FALSE,FALSE,FALSE,FALSE,0,FALSE,FALSE,FALSE,FALSE,99,16.717,2509,2527,16.626,TRUE,4.157,4.157,4.157,4.157,,FALSE,FALSE,NA,86.9,86.9,86.9,0,0,0,23,0,0,0,,Idle,0,0,FALSE,0,FALSE,3,Hover,FALSE,FALSE,FALSE,FALSE,FALSE,FALSE,FALSE,FALSE,FALSE,FALSE,FALSE,FALSE,,,,,,FALSE,,,FALSE,FALSE,FALSE,FALSE,,FALSE,FALSE,FALSE,,,,,Calm,,Linux,0.0.1,DJI Avata,1581F4QWB22C6003,4TTTKBT1A100XF,,4YPXKBWFG101BB,700.8,6.9,393.7,33.084118,13.42164,10,60290,DJI Avata,1581F4QWB22C6003,4TTTKBT1A100XF,,4YPXKBWFG101BB,DJI Fly,Linux,0.0.1,506836E9-49FE-5B48-4C34-69BAADE40894,1581F4QWB22C600307BM,,4TTTKBT1A100XF,,,,,,,,
6/19/2023,03:08.1,0m 5.1s,5.1,7.346828398,80.9442918,0,0,0.3,458,0,0,0,0,0,0,0,0,0,-0.5,1,170.9,170.9,,Starting Motors,Other,,22,5,TRUE,,Avata,FALSE,FALSE,,Smart,RC,TRUE,TRUE,FALSE,,,TRUE,,FALSE,FALSE,FALSE,FALSE,FALSE,FALSE,FALSE,FALSE,FALSE,FALSE,0,Free,0,0.7,171.3,171.3,FALSE,FALSE,FALSE,FALSE,FALSE,FALSE,,FALSE,Normal,100,100,0,0,0,0,2,FALSE,FALSE,FALSE,FALSE,FALSE,0,FALSE,FALSE,FALSE,FALSE,99,16.717,2509,2527,16.626,TRUE,4.157,4.157,4.157,4.157,,FALSE,FALSE,NA,86.9,86.9,86.9,0,0,0,23,0,0,0,,Idle,0,0,FALSE,0,FALSE,3,Hover,FALSE,FALSE,FALSE,FALSE,FALSE,FALSE,FALSE,FALSE,FALSE,FALSE,FALSE,FALSE,7.346874586,80.944335,22.9,618.1,,TRUE,1,1,FALSE,FALSE,FALSE,FALSE,,TRUE,FALSE,FALSE,,295.2,,6.5,Calm,18,Linux,0.0.1,DJI Avata,1581F4QWB22C6003,4TTTKBT1A100XF,,4YPXKBWFG101BB,700.8,6.9,393.7,33.084118,13.42164,10,60290,DJI Avata,1581F4QWB22C6003,4TTTKBT1A100XF,,4YPXKBWFG101BB,DJI Fly,Linux,0.0.1,506836E9-49FE-5B48-4C34-69BAADE40894,1581F4QWB22C600307BM,,4TTTKBT1A100XF,,,,,,Data Recorder File Index is 18.,,
6/19/2023,03:08.3,0m 5.3s,5.3,7.346828429,80.9442918,0,0,0,458,0,0,0,0,0,0,0,0,0,-0.5,1,170.9,170.9,,Starting Motors,Other,,22,5,TRUE,,Avata,TRUE,FALSE,,Smart,RC,TRUE,TRUE,FALSE,,,TRUE,,FALSE,FALSE,FALSE,FALSE,FALSE,FALSE,FALSE,FALSE,FALSE,FALSE,0,Free,0,0.7,171.3,171.3,FALSE,FALSE,FALSE,FALSE,FALSE,FALSE,,FALSE,Normal,100,100,0,0,0,0,2,FALSE,FALSE,FALSE,FALSE,FALSE,0,FALSE,FALSE,FALSE,FALSE,99,16.717,2509,2527,16.626,TRUE,4.157,4.157,4.157,4.157,,FALSE,FALSE,NA,86.9,86.9,86.9,0,0,0,23,0,0,0,,Idle,0,0,FALSE,0,FALSE,3,Hover,FALSE,FALSE,FALSE,FALSE,FALSE,FALSE,FALSE,FALSE,FALSE,FALSE,FALSE,FALSE,7.346874586,80.944335,22.9,618.1,,TRUE,1,1,FALSE,FALSE,FALSE,FALSE,,TRUE,FALSE,FALSE,,295.2,,6.5,Calm,18,Linux,0.0.1,DJI Avata,1581F4QWB22C6003,4TTTKBT1A100XF,,4YPXKBWFG101BB,700.8,6.9,393.7,33.084118,13.42164,10,60290,DJI Avata,1581F4QWB22C6003,4TTTKBT1A100XF,,4YPXKBWFG101BB,DJI Fly,Linux,0.0.1,506836E9-49FE-5B48-4C34-69BAADE40894,1581F4QWB22C600307BM,,4TTTKBT1A100XF,,,,,,,,
6/19/2023,03:08.5,0m 5.5s,5.5,7.346828459,80.94429181,0,0,0,458,0,0,0,0,0,0,0,0,0,-0.5,1,170.9,170.9,,Starting Motors,Other,,22,5,TRUE,,Avata,TRUE,FALSE,,Smart,RC,TRUE,TRUE,FALSE,,,TRUE,,FALSE,FALSE,FALSE,FALSE,FALSE,FALSE,FALSE,FALSE,FALSE,FALSE,0,Free,0,0.7,171.2,171.2,FALSE,FALSE,FALSE,FALSE,FALSE,FALSE,,FALSE,Normal,100,100,0,0,0,0,2,FALSE,FALSE,FALSE,FALSE,FALSE,0,FALSE,FALSE,FALSE,FALSE,99,16.717,2509,2527,16.626,TRUE,4.157,4.157,4.157,4.157,,FALSE,FALSE,NA,86.9,86.9,86.9,0,0,0,23,0,0,0,,Idle,0,0,FALSE,0,FALSE,3,Hover,FALSE,FALSE,FALSE,FALSE,FALSE,FALSE,FALSE,FALSE,FALSE,FALSE,FALSE,FALSE,7.346874586,80.944335,22.9,618.1,,TRUE,1,1,FALSE,FALSE,FALSE,FALSE,,TRUE,FALSE,FALSE,,295.2,,6.5,Calm,18,Linux,0.0.1,DJI Avata,1581F4QWB22C6003,4TTTKBT1A100XF,,4YPXKBWFG101BB,700.8,6.9,393.7,33.084118,13.42164,10,60290,DJI Avata,1581F4QWB22C6003,4TTTKBT1A100XF,,4YPXKBWFG101BB,DJI Fly,Linux,0.0.1,506836E9-49FE-5B48-4C34-69BAADE40894,1581F4QWB22C600307BM,,4TTTKBT1A100XF,,,,,,,,
6/19/2023,03:08.7,0m 5.7s,5.7,7.346828483,80.94429182,0,0,0,458,0,0,0,0,0,0,0,0,0,-0.5,1,170.9,170.9,,Starting Motors,Other,,22,5,TRUE,,Avata,TRUE,FALSE,,Smart,RC,TRUE,TRUE,FALSE,,,TRUE,,FALSE,FALSE,FALSE,FALSE,FALSE,FALSE,FALSE,FALSE,FALSE,FALSE,0,Free,0,0.7,171.3,171.3,FALSE,FALSE,FALSE,FALSE,FALSE,FALSE,,FALSE,Normal,100,100,0,0,0,0,2,FALSE,FALSE,FALSE,FALSE,FALSE,0,FALSE,FALSE,FALSE,FALSE,99,16.717,2509,2527,16.626,TRUE,4.157,4.157,4.157,4.157,,FALSE,FALSE,NA,86.9,86.9,86.9,0,0,0,23,0,0,0,,Idle,0,0,FALSE,0,FALSE,3,Hover,FALSE,FALSE,FALSE,FALSE,FALSE,FALSE,FALSE,FALSE,FALSE,FALSE,FALSE,FALSE,7.346874586,80.944335,22.9,618.1,,TRUE,1,1,FALSE,FALSE,FALSE,FALSE,,TRUE,FALSE,FALSE,,295.2,,6.5,Calm,18,Linux,0.0.1,DJI Avata,1581F4QWB22C6003,4TTTKBT1A100XF,,4YPXKBWFG101BB,700.8,6.9,393.7,33.084118,13.42164,10,60290,DJI Avata,1581F4QWB22C6003,4TTTKBT1A100XF,,4YPXKBWFG101BB,DJI Fly,Linux,0.0.1,506836E9-49FE-5B48-4C34-69BAADE40894,1581F4QWB22C600307BM,,4TTTKBT1A100XF,,,,,,,,
6/19/2023,03:08.9,0m 5.9s,5.9,7.346828477,80.94429183,0,0,0,458,0,0,0,0,0,0,0,0,0,-0.5,0.9,170.9,170.9,,Manual Takeoff,Other,,21,5,TRUE,,Avata,TRUE,FALSE,,Smart,RC,TRUE,TRUE,FALSE,,,TRUE,,FALSE,FALSE,FALSE,FALSE,FALSE,FALSE,FALSE,FALSE,FALSE,FALSE,0,Free,0,0.7,171.2,171.2,FALSE,FALSE,FALSE,FALSE,FALSE,FALSE,,FALSE,Normal,100,100,0,0,0,0,2,FALSE,FALSE,FALSE,FALSE,FALSE,0,FALSE,FALSE,FALSE,FALSE,99,16.717,2509,2527,16.418,TRUE,4.105,4.105,4.105,4.105,,FALSE,FALSE,NA,86.9,86.9,86.9,0,0,0,23,0,0,0,,Idle,0,0,FALSE,0,FALSE,3,Hover,FALSE,FALSE,FALSE,FALSE,FALSE,FALSE,FALSE,FALSE,FALSE,FALSE,FALSE,FALSE,7.346874586,80.944335,22.9,618.1,,TRUE,1,1,FALSE,FALSE,FALSE,FALSE,,TRUE,FALSE,FALSE,,295.2,,6.5,Calm,18,Linux,0.0.1,DJI Avata,1581F4QWB22C6003,4TTTKBT1A100XF,,4YPXKBWFG101BB,700.8,6.9,393.7,33.084118,13.42164,10,60290,DJI Avata,1581F4QWB22C6003,4TTTKBT1A100XF,,4YPXKBWFG101BB,DJI Fly,Linux,0.0.1,506836E9-49FE-5B48-4C34-69BAADE40894,1581F4QWB22C600307BM,,4TTTKBT1A100XF,,,,,,,,
6/19/2023,03:09.1,0m 6.1s,6.1,7.346828469,80.94429187,0,0,0,458,0.1,0,0,0,0,0,0,0,0,-0.5,1,170.9,170.9,,Manual Takeoff,Other,,21,5,TRUE,,Avata,TRUE,FALSE,,Smart,RC,TRUE,TRUE,FALSE,,,TRUE,,FALSE,FALSE,FALSE,FALSE,FALSE,FALSE,FALSE,FALSE,FALSE,FALSE,0,Free,0,0.7,171.3,171.3,FALSE,FALSE,FALSE,FALSE,FALSE,FALSE,,FALSE,Normal,100,100,0,0,0,0,2,FALSE,FALSE,FALSE,FALSE,FALSE,0,FALSE,FALSE,FALSE,FALSE,99,16.717,2509,2527,16.418,TRUE,4.105,4.105,4.105,4.105,,FALSE,FALSE,NA,86.9,86.9,86.9,0,0,0,23,0,0,0,,Idle,0,0,FALSE,0,FALSE,3,Hover,FALSE,FALSE,FALSE,FALSE,FALSE,FALSE,FALSE,FALSE,FALSE,FALSE,FALSE,FALSE,7.346874586,80.944335,22.9,618.1,,TRUE,1,1,FALSE,FALSE,FALSE,FALSE,,TRUE,FALSE,FALSE,,295.2,,6.5,Calm,18,Linux,0.0.1,DJI Avata,1581F4QWB22C6003,4TTTKBT1A100XF,,4YPXKBWFG101BB,700.8,6.9,393.7,33.084118,13.42164,10,60290,DJI Avata,1581F4QWB22C6003,4TTTKBT1A100XF,,4YPXKBWFG101BB,DJI Fly,Linux,0.0.1,506836E9-49FE-5B48-4C34-69BAADE40894,1581F4QWB22C600307BM,,4TTTKBT1A100XF,,,,,,,,
6/19/2023,03:09.3,0m 6.3s,6.3,7.346828436,80.94429191,0,0,0,458,0.1,0,0,0,0,0,0,0,0,-0.5,0.9,170.9,170.9,,Manual Takeoff,Other,,22,5,TRUE,,Avata,TRUE,FALSE,,Smart,RC,TRUE,TRUE,FALSE,,,TRUE,,FALSE,FALSE,FALSE,FALSE,FALSE,FALSE,FALSE,FALSE,FALSE,FALSE,0,Free,0,0.7,171.3,171.3,FALSE,FALSE,FALSE,FALSE,FALSE,FALSE,,FALSE,Normal,100,100,0,0,0,0,2,FALSE,FALSE,FALSE,FALSE,FALSE,0,FALSE,FALSE,FALSE,FALSE,99,16.717,2509,2527,16.418,TRUE,4.105,4.105,4.105,4.105,,FALSE,FALSE,NA,86.9,86.9,86.9,0,0,0,23,0,0,0,,Idle,0,0,FALSE,0,FALSE,3,Hover,FALSE,FALSE,FALSE,FALSE,FALSE,FALSE,FALSE,FALSE,FALSE,FALSE,FALSE,FALSE,7.346874586,80.944335,22.9,618.1,,TRUE,1,1,FALSE,FALSE,FALSE,FALSE,,TRUE,FALSE,FALSE,,295.2,,6.5,Calm,18,Linux,0.0.1,DJI Avata,1581F4QWB22C6003,4TTTKBT1A100XF,,4YPXKBWFG101BB,700.8,6.9,393.7,33.084118,13.42164,10,60290,DJI Avata,1581F4QWB22C6003,4TTTKBT1A100XF,,4YPXKBWFG101BB,DJI Fly,Linux,0.0.1,506836E9-49FE-5B48-4C34-69BAADE40894,1581F4QWB22C600307BM,,4TTTKBT1A100XF,,,,,,,,
6/19/2023,03:09.5,0m 6.5s,6.5,7.346828406,80.94429197,0,0,0,458,0.1,0,0,0,0,0,0,0,0,-0.5,0.9,170.9,170.9,,Manual Takeoff,Other,,22,5,TRUE,,Avata,TRUE,FALSE,,Smart,RC,TRUE,TRUE,FALSE,,,TRUE,,FALSE,FALSE,FALSE,FALSE,FALSE,FALSE,FALSE,FALSE,FALSE,FALSE,0,Free,0,0.7,171.3,171.3,FALSE,FALSE,FALSE,FALSE,FALSE,FALSE,,FALSE,Normal,100,100,0,0,0,0,2,FALSE,FALSE,FALSE,FALSE,FALSE,0,FALSE,FALSE,FALSE,FALSE,99,16.717,2509,2527,16.418,TRUE,4.105,4.105,4.105,4.105,,FALSE,FALSE,NA,86.9,86.9,86.9,0,0,0,23,0,0,0,,Idle,0,0,FALSE,0,FALSE,3,Hover,FALSE,FALSE,FALSE,FALSE,FALSE,FALSE,FALSE,FALSE,FALSE,FALSE,FALSE,FALSE,7.346874586,80.944335,22.9,618.1,,TRUE,1,1,FALSE,FALSE,FALSE,FALSE,,TRUE,FALSE,FALSE,,295.2,,6.5,Calm,18,Linux,0.0.1,DJI Avata,1581F4QWB22C6003,4TTTKBT1A100XF,,4YPXKBWFG101BB,700.8,6.9,393.7,33.084118,13.42164,10,60290,DJI Avata,1581F4QWB22C6003,4TTTKBT1A100XF,,4YPXKBWFG101BB,DJI Fly,Linux,0.0.1,506836E9-49FE-5B48-4C34-69BAADE40894,1581F4QWB22C600307BM,,4TTTKBT1A100XF,,,,,,,,
6/19/2023,03:09.7,0m 6.7s,6.7,7.346828353,80.94429202,0,0,0,458,0.1,0,0,0,0,0,0,0,0,-0.5,0.9,170.9,170.9,,Manual Takeoff,Other,,22,5,TRUE,,Avata,TRUE,FALSE,,Smart,RC,TRUE,TRUE,FALSE,,,TRUE,,FALSE,FALSE,FALSE,FALSE,FALSE,FALSE,FALSE,FALSE,FALSE,FALSE,0,Free,0,0.7,171.3,171.3,FALSE,FALSE,FALSE,FALSE,FALSE,FALSE,,FALSE,Normal,100,100,0,0,0,0,2,FALSE,FALSE,FALSE,FALSE,FALSE,0,FALSE,FALSE,FALSE,FALSE,99,16.717,2509,2527,16.418,TRUE,4.105,4.105,4.105,4.105,,FALSE,FALSE,NA,86.9,86.9,86.9,0,0,0,23,0,0,0,,Idle,0,0,FALSE,0,FALSE,3,Hover,FALSE,FALSE,FALSE,FALSE,FALSE,FALSE,FALSE,FALSE,FALSE,FALSE,FALSE,FALSE,7.346874586,80.944335,22.9,618.1,,TRUE,1,1,FALSE,FALSE,FALSE,FALSE,,TRUE,FALSE,FALSE,,295.2,,6.5,Calm,18,Linux,0.0.1,DJI Avata,1581F4QWB22C6003,4TTTKBT1A100XF,,4YPXKBWFG101BB,700.8,6.9,393.7,33.084118,13.42164,10,60290,DJI Avata,1581F4QWB22C6003,4TTTKBT1A100XF,,4YPXKBWFG101BB,DJI Fly,Linux,0.0.1,506836E9-49FE-5B48-4C34-69BAADE40894,1581F4QWB22C600307BM,,4TTTKBT1A100XF,,,,,,,,
6/19/2023,03:09.9,0m 6.9s,6.9,7.346828309,80.9442921,0,0,0,458,0.2,0,0,0,0,0,0,0,0,-0.5,0.9,170.9,170.9,,Manual Takeoff,Other,,20,5,TRUE,,Avata,TRUE,FALSE,,Smart,RC,TRUE,TRUE,FALSE,,,TRUE,,FALSE,FALSE,FALSE,FALSE,FALSE,FALSE,FALSE,FALSE,FALSE,FALSE,0,Free,0,0.7,171.3,171.3,FALSE,FALSE,FALSE,FALSE,FALSE,FALSE,,FALSE,Normal,100,100,0,0,0,0,2,FALSE,FALSE,FALSE,FALSE,FALSE,0,FALSE,FALSE,FALSE,FALSE,99,16.717,2509,2527,16.617,TRUE,4.154,4.154,4.154,4.154,,FALSE,FALSE,NA,86.9,86.9,86.9,0,0,0,23,0,0,0,,Idle,0,0,FALSE,0,FALSE,3,Hover,FALSE,FALSE,FALSE,FALSE,FALSE,FALSE,FALSE,FALSE,FALSE,FALSE,FALSE,FALSE,7.346874586,80.944335,22.9,618.1,,TRUE,1,1,FALSE,FALSE,FALSE,FALSE,,TRUE,FALSE,FALSE,,295.2,,6.5,Calm,18,Linux,0.0.1,DJI Avata,1581F4QWB22C6003,4TTTKBT1A100XF,,4YPXKBWFG101BB,700.8,6.9,393.7,33.084118,13.42164,10,60290,DJI Avata,1581F4QWB22C6003,4TTTKBT1A100XF,,4YPXKBWFG101BB,DJI Fly,Linux,0.0.1,506836E9-49FE-5B48-4C34-69BAADE40894,1581F4QWB22C600307BM,,4TTTKBT1A100XF,,,,,,,,
6/19/2023,03:10.1,0m 7.1s,7.1,7.346828274,80.94429216,0,0,0,458,0.2,0,0,0,0,0,0,0,0,-0.5,1,170.9,170.9,,Manual Takeoff,Other,,21,5,TRUE,,Avata,TRUE,FALSE,,Smart,RC,TRUE,TRUE,FALSE,,,TRUE,,FALSE,FALSE,FALSE,FALSE,FALSE,FALSE,FALSE,FALSE,FALSE,FALSE,0,Free,0,0.7,171.3,171.3,FALSE,FALSE,FALSE,FALSE,FALSE,FALSE,,FALSE,Normal,100,100,0,0,0,0,2,FALSE,FALSE,FALSE,FALSE,FALSE,0,FALSE,FALSE,FALSE,FALSE,99,16.717,2509,2527,16.617,TRUE,4.154,4.154,4.154,4.154,,FALSE,FALSE,NA,86.9,86.9,86.9,0,0,0,23,0,0,0,,Idle,0,0,FALSE,0,FALSE,3,Hover,FALSE,FALSE,FALSE,FALSE,FALSE,FALSE,FALSE,FALSE,FALSE,FALSE,FALSE,FALSE,7.346874586,80.944335,22.9,618.1,,TRUE,1,1,FALSE,FALSE,FALSE,FALSE,,TRUE,FALSE,FALSE,,295.2,,6.5,Calm,18,Linux,0.0.1,DJI Avata,1581F4QWB22C6003,4TTTKBT1A100XF,,4YPXKBWFG101BB,700.8,6.9,393.7,33.084118,13.42164,10,60290,DJI Avata,1581F4QWB22C6003,4TTTKBT1A100XF,,4YPXKBWFG101BB,DJI Fly,Linux,0.0.1,506836E9-49FE-5B48-4C34-69BAADE40894,1581F4QWB22C600307BM,,4TTTKBT1A100XF,,,,,,,,
6/19/2023,03:10.3,0m 7.3s,7.3,7.346828247,80.94429221,0,0,0,458,0.2,0,0,0,0,0,0,0,0,-0.5,0.9,171,171,,Manual Takeoff,Other,,21,5,TRUE,,Avata,TRUE,FALSE,,Smart,RC,TRUE,TRUE,FALSE,,,TRUE,,FALSE,FALSE,FALSE,FALSE,FALSE,FALSE,FALSE,FALSE,FALSE,FALSE,0,Free,0,0.7,171.3,171.3,FALSE,FALSE,FALSE,FALSE,FALSE,FALSE,,FALSE,Normal,100,100,0,0,0,0,2,FALSE,FALSE,FALSE,FALSE,FALSE,0,FALSE,FALSE,FALSE,FALSE,99,16.717,2509,2527,16.617,TRUE,4.154,4.154,4.154,4.154,,FALSE,FALSE,NA,86.9,86.9,86.9,0,0,0,23,0,0,0,,Idle,0,0,FALSE,0,FALSE,3,Hover,FALSE,FALSE,FALSE,FALSE,FALSE,FALSE,FALSE,FALSE,FALSE,FALSE,FALSE,FALSE,7.346874586,80.944335,22.9,618.1,,TRUE,1,1,FALSE,FALSE,FALSE,FALSE,,TRUE,FALSE,FALSE,,295.2,,6.5,Calm,18,Linux,0.0.1,DJI Avata,1581F4QWB22C6003,4TTTKBT1A100XF,,4YPXKBWFG101BB,700.8,6.9,393.7,33.084118,13.42164,10,60290,DJI Avata,1581F4QWB22C6003,4TTTKBT1A100XF,,4YPXKBWFG101BB,DJI Fly,Linux,0.0.1,506836E9-49FE-5B48-4C34-69BAADE40894,1581F4QWB22C600307BM,,4TTTKBT1A100XF,,,,,,,,
6/19/2023,03:10.5,0m 7.3s,7.3,7.346828244,80.94429221,0,0,0,458,0.2,0,0,0,0,0,0,0,0,-0.5,0.9,171,171,,Manual Takeoff,Other,,21,5,TRUE,,Avata,TRUE,FALSE,,Smart,RC,TRUE,TRUE,FALSE,,,TRUE,,FALSE,FALSE,FALSE,FALSE,FALSE,FALSE,FALSE,FALSE,FALSE,FALSE,0,Free,0,0.7,171.3,171.3,FALSE,FALSE,FALSE,FALSE,FALSE,FALSE,,FALSE,Normal,100,100,0,0,0,0,2,FALSE,FALSE,FALSE,FALSE,FALSE,0,FALSE,FALSE,FALSE,FALSE,99,16.621,2504,2527,16.617,FALSE,4.148,4.158,4.154,4.161,0.013,FALSE,FALSE,NA,87.1,86.9,87,0,0,0,23,0,0,0,,Idle,0,0,FALSE,0,FALSE,3,Go Home,FALSE,FALSE,FALSE,FALSE,FALSE,FALSE,FALSE,FALSE,FALSE,FALSE,FALSE,FALSE,7.346874586,80.944335,22.9,618.1,,TRUE,1,1,FALSE,FALSE,FALSE,FALSE,,TRUE,FALSE,FALSE,,295.2,,6.5,Calm,18,Linux,0.0.1,DJI Avata,1581F4QWB22C6003,4TTTKBT1A100XF,,4YPXKBWFG101BB,700.8,6.9,393.7,33.084118,13.42164,10,60290,DJI Avata,1581F4QWB22C6003,4TTTKBT1A100XF,,4YPXKBWFG101BB,DJI Fly,Linux,0.0.1,506836E9-49FE-5B48-4C34-69BAADE40894,1581F4QWB22C600307BM,,4TTTKBT1A100XF,,,,,,,,Motors starting. Press and hold the Lock button to take off.
6/19/2023,03:10.5,0m 7.5s,7.5,7.346828226,80.94429225,0,0,0,458,0.2,0,0,0,0,0,0,0,0,-0.5,0.9,171,171,,Manual Takeoff,Other,,20,5,TRUE,,Avata,TRUE,FALSE,,Smart,RC,TRUE,TRUE,FALSE,,,TRUE,,FALSE,FALSE,FALSE,FALSE,FALSE,FALSE,FALSE,FALSE,FALSE,FALSE,0,Free,0,0.7,171.3,171.3,FALSE,FALSE,FALSE,FALSE,FALSE,FALSE,,FALSE,Normal,100,100,0,0,0,0,2,FALSE,FALSE,FALSE,FALSE,FALSE,0,FALSE,FALSE,FALSE,FALSE,99,16.621,2504,2527,16.617,FALSE,4.148,4.158,4.154,4.161,0.013,FALSE,FALSE,NA,87.1,86.9,87,0,0,0,23,0,0,0,,Idle,0,0,FALSE,0,FALSE,3,Go Home,FALSE,FALSE,FALSE,FALSE,FALSE,FALSE,FALSE,FALSE,FALSE,FALSE,FALSE,FALSE,7.346874586,80.944335,22.9,618.1,,TRUE,1,1,FALSE,FALSE,FALSE,FALSE,,TRUE,FALSE,FALSE,,295.2,,6.5,Calm,18,Linux,0.0.1,DJI Avata,1581F4QWB22C6003,4TTTKBT1A100XF,,4YPXKBWFG101BB,700.8,6.9,393.7,33.084118,13.42164,10,60290,DJI Avata,1581F4QWB22C6003,4TTTKBT1A100XF,,4YPXKBWFG101BB,DJI Fly,Linux,0.0.1,506836E9-49FE-5B48-4C34-69BAADE40894,1581F4QWB22C600307BM,,4TTTKBT1A100XF,,,,,,,,
6/19/2023,03:10.7,0m 7.7s,7.7,7.34682821,80.94429231,0,0,0,458,0.2,0,0,0,0,0,0,0,0,-0.5,0.9,171,171,,Manual Takeoff,Other,,20,5,TRUE,,Avata,TRUE,FALSE,,Smart,RC,TRUE,TRUE,FALSE,,,TRUE,,FALSE,FALSE,FALSE,FALSE,FALSE,FALSE,FALSE,FALSE,FALSE,FALSE,0,Free,0,0.7,171.3,171.3,FALSE,FALSE,FALSE,FALSE,FALSE,FALSE,,FALSE,Normal,100,100,0,0,0,0,2,FALSE,FALSE,FALSE,FALSE,FALSE,0,FALSE,FALSE,FALSE,FALSE,99,16.621,2504,2527,16.617,FALSE,4.148,4.158,4.154,4.161,0.013,FALSE,FALSE,NA,87.1,86.9,87,0,0,0,23,0,0,0,,Idle,0,0,FALSE,0,FALSE,3,Go Home,FALSE,FALSE,FALSE,FALSE,FALSE,FALSE,FALSE,FALSE,FALSE,FALSE,FALSE,FALSE,7.346874586,80.944335,22.9,618.1,,TRUE,1,1,FALSE,FALSE,FALSE,FALSE,,TRUE,FALSE,FALSE,,295.2,,6.5,Calm,18,Linux,0.0.1,DJI Avata,1581F4QWB22C6003,4TTTKBT1A100XF,,4YPXKBWFG101BB,700.8,6.9,393.7,33.084118,13.42164,10,60290,DJI Avata,1581F4QWB22C6003,4TTTKBT1A100XF,,4YPXKBWFG101BB,DJI Fly,Linux,0.0.1,506836E9-49FE-5B48-4C34-69BAADE40894,1581F4QWB22C600307BM,,4TTTKBT1A100XF,,,,,,,,
6/19/2023,03:10.9,0m 7.9s,7.9,7.346828198,80.94429236,0,0,0,458,0.3,0,0,0,0,0,0,0,0,-0.5,0.9,171,171,,Manual Takeoff,Other,,21,5,TRUE,,Avata,TRUE,FALSE,,Smart,RC,TRUE,TRUE,FALSE,,,TRUE,,FALSE,FALSE,FALSE,FALSE,FALSE,FALSE,FALSE,FALSE,FALSE,FALSE,0,Free,0,0.7,171.3,171.3,FALSE,FALSE,FALSE,FALSE,FALSE,FALSE,,FALSE,Normal,100,100,0,0,0,0,2,FALSE,FALSE,FALSE,FALSE,FALSE,0,FALSE,FALSE,FALSE,FALSE,99,16.621,2504,2527,16.62,FALSE,4.148,4.158,4.154,4.161,0.013,FALSE,FALSE,NA,87.1,86.9,87,0,0,0,23,0,0,0,,Idle,0,0,FALSE,0,FALSE,3,Go Home,FALSE,FALSE,FALSE,FALSE,FALSE,FALSE,FALSE,FALSE,FALSE,FALSE,FALSE,FALSE,7.346874586,80.944335,22.8,618.1,,TRUE,1,1,FALSE,FALSE,FALSE,FALSE,,TRUE,FALSE,FALSE,,295.2,,6.5,Calm,18,Linux,0.0.1,DJI Avata,1581F4QWB22C6003,4TTTKBT1A100XF,,4YPXKBWFG101BB,700.8,6.9,393.7,33.084118,13.42164,10,60290,DJI Avata,1581F4QWB22C6003,4TTTKBT1A100XF,,4YPXKBWFG101BB,DJI Fly,Linux,0.0.1,506836E9-49FE-5B48-4C34-69BAADE40894,1581F4QWB22C600307BM,,4TTTKBT1A100XF,,,,,,,,
6/19/2023,03:11.1,0m 8.1s,8.1,7.346828163,80.94429241,0,0,0,458,0.3,0,0,0,0,0,0,0,0,-0.5,0.9,171,171,,Manual Takeoff,Other,,21,5,TRUE,,Avata,TRUE,FALSE,,Smart,RC,TRUE,TRUE,FALSE,,,TRUE,,FALSE,FALSE,FALSE,FALSE,FALSE,FALSE,FALSE,FALSE,FALSE,FALSE,0,Free,0,0.7,171.3,171.3,FALSE,FALSE,FALSE,FALSE,FALSE,FALSE,,FALSE,Normal,100,100,0,0,0,0,2,FALSE,FALSE,FALSE,FALSE,FALSE,0,FALSE,FALSE,FALSE,FALSE,99,16.621,2504,2527,16.62,FALSE,4.148,4.158,4.154,4.161,0.013,FALSE,FALSE,NA,87.1,86.9,87,0,0,0,23,0,0,0,,Idle,0,0,FALSE,0,FALSE,3,Go Home,FALSE,FALSE,FALSE,FALSE,FALSE,FALSE,FALSE,FALSE,FALSE,FALSE,FALSE,FALSE,7.346874586,80.944335,22.8,618.1,,TRUE,1,1,FALSE,FALSE,FALSE,FALSE,,TRUE,FALSE,FALSE,,295.2,,6.5,Calm,18,Linux,0.0.1,DJI Avata,1581F4QWB22C6003,4TTTKBT1A100XF,,4YPXKBWFG101BB,700.8,6.9,393.7,33.084118,13.42164,10,60290,DJI Avata,1581F4QWB22C6003,4TTTKBT1A100XF,,4YPXKBWFG101BB,DJI Fly,Linux,0.0.1,506836E9-49FE-5B48-4C34-69BAADE40894,1581F4QWB22C600307BM,,4TTTKBT1A100XF,,,,,,,,
6/19/2023,03:11.3,0m 8.3s,8.3,7.346828136,80.94429247,0,0,0,458,0.3,0,0,0,0,0,0,0,0,-0.5,0.9,171,171,,Manual Takeoff,Other,,21,5,TRUE,,Avata,TRUE,FALSE,,Smart,RC,TRUE,TRUE,FALSE,,,TRUE,,FALSE,FALSE,FALSE,FALSE,FALSE,FALSE,FALSE,FALSE,FALSE,FALSE,0,Free,0,0.7,171.3,171.3,FALSE,FALSE,FALSE,FALSE,FALSE,FALSE,,FALSE,Normal,100,100,0,0,0,0,2,FALSE,FALSE,FALSE,FALSE,FALSE,0,FALSE,FALSE,FALSE,FALSE,99,16.621,2504,2527,16.62,FALSE,4.148,4.158,4.154,4.161,0.013,FALSE,FALSE,NA,87.1,86.9,87,0,0,0,23,0,0,0,,Idle,0,0,FALSE,0,FALSE,3,Go Home,FALSE,FALSE,FALSE,FALSE,FALSE,FALSE,FALSE,FALSE,FALSE,FALSE,FALSE,FALSE,7.346874586,80.944335,22.8,618.1,,TRUE,1,1,FALSE,FALSE,FALSE,FALSE,,TRUE,FALSE,FALSE,,295.2,,6.5,Calm,18,Linux,0.0.1,DJI Avata,1581F4QWB22C6003,4TTTKBT1A100XF,,4YPXKBWFG101BB,700.8,6.9,393.7,33.084118,13.42164,10,60290,DJI Avata,1581F4QWB22C6003,4TTTKBT1A100XF,,4YPXKBWFG101BB,DJI Fly,Linux,0.0.1,506836E9-49FE-5B48-4C34-69BAADE40894,1581F4QWB22C600307BM,,4TTTKBT1A100XF,,,,,,,,
6/19/2023,03:11.5,0m 8.5s,8.5,7.346828113,80.94429252,0,0,0,458,0.3,0,0,0,0,0,0,0,0,-0.5,0.9,171,171,,Manual Takeoff,Other,,22,5,TRUE,,Avata,TRUE,FALSE,,Smart,RC,TRUE,TRUE,FALSE,,,TRUE,,FALSE,FALSE,FALSE,FALSE,FALSE,FALSE,FALSE,FALSE,FALSE,FALSE,0,Free,0,0.7,171.3,171.3,FALSE,FALSE,FALSE,FALSE,FALSE,FALSE,,FALSE,Normal,100,100,0,0,0,0,2,FALSE,FALSE,FALSE,FALSE,FALSE,0,FALSE,FALSE,FALSE,FALSE,99,16.615,2504,2527,16.62,FALSE,4.146,4.158,4.153,4.158,0.013,FALSE,FALSE,NA,87.1,86.9,87,0,0,0,23,0,0,0,,Idle,0,0,FALSE,0,FALSE,3,Go Home,FALSE,FALSE,FALSE,FALSE,FALSE,FALSE,FALSE,FALSE,FALSE,FALSE,FALSE,FALSE,7.346874586,80.944335,22.8,618.1,,TRUE,1,1,FALSE,FALSE,FALSE,FALSE,,TRUE,FALSE,FALSE,,295.2,,6.5,Calm,18,Linux,0.0.1,DJI Avata,1581F4QWB22C6003,4TTTKBT1A100XF,,4YPXKBWFG101BB,700.8,6.9,393.7,33.084118,13.42164,10,60290,DJI Avata,1581F4QWB22C6003,4TTTKBT1A100XF,,4YPXKBWFG101BB,DJI Fly,Linux,0.0.1,506836E9-49FE-5B48-4C34-69BAADE40894,1581F4QWB22C600307BM,,4TTTKBT1A100XF,,,,,,,,
6/19/2023,03:11.7,0m 8.7s,8.7,7.34682807,80.94429259,0,0,0,458,0.4,0,0,0,0,0,0,0,0,-0.5,0.9,171,171,,Starting Motors,Other,,22,5,TRUE,,Avata,TRUE,FALSE,,Smart,RC,TRUE,TRUE,FALSE,,,TRUE,,FALSE,FALSE,FALSE,FALSE,FALSE,FALSE,FALSE,FALSE,FALSE,FALSE,0,Free,0,0.7,171.3,171.3,FALSE,FALSE,FALSE,FALSE,FALSE,FALSE,,FALSE,Normal,100,100,0,0,0,0,2,FALSE,FALSE,FALSE,FALSE,FALSE,0,FALSE,FALSE,FALSE,FALSE,99,16.615,2504,2527,16.62,FALSE,4.146,4.158,4.153,4.158,0.013,FALSE,FALSE,NA,87.1,86.9,87,0,0,0,23,0,0,0,,Idle,0,0,FALSE,0,FALSE,3,Go Home,FALSE,FALSE,FALSE,FALSE,FALSE,FALSE,FALSE,FALSE,FALSE,FALSE,FALSE,FALSE,7.346874586,80.944335,22.8,618.1,,TRUE,1,1,FALSE,FALSE,FALSE,FALSE,,TRUE,FALSE,FALSE,,295.2,,6.5,Calm,18,Linux,0.0.1,DJI Avata,1581F4QWB22C6003,4TTTKBT1A100XF,,4YPXKBWFG101BB,700.8,6.9,393.7,33.084118,13.42164,10,60290,DJI Avata,1581F4QWB22C6003,4TTTKBT1A100XF,,4YPXKBWFG101BB,DJI Fly,Linux,0.0.1,506836E9-49FE-5B48-4C34-69BAADE40894,1581F4QWB22C600307BM,,4TTTKBT1A100XF,,,,,,,,
6/19/2023,03:11.9,0m 8.9s,8.9,7.346828034,80.94429267,0,0,0,458,0.4,0,0,0,0,0,0,0,0,-0.5,0.9,171,171,,Starting Motors,Other,,21,5,TRUE,,Avata,TRUE,FALSE,,Smart,RC,TRUE,TRUE,FALSE,,,TRUE,,FALSE,FALSE,FALSE,FALSE,FALSE,FALSE,FALSE,FALSE,FALSE,FALSE,0,Free,0,0.7,171.3,171.3,FALSE,FALSE,FALSE,FALSE,FALSE,FALSE,,FALSE,Normal,100,100,0,0,0,0,2,FALSE,FALSE,FALSE,FALSE,FALSE,0,FALSE,FALSE,FALSE,FALSE,99,16.615,2504,2527,16.619,FALSE,4.146,4.158,4.153,4.158,0.013,FALSE,FALSE,NA,87.1,86.9,87,0,0,0,23,0,0,0,,Idle,0,0,FALSE,0,FALSE,3,Go Home,FALSE,FALSE,FALSE,FALSE,FALSE,FALSE,FALSE,FALSE,FALSE,FALSE,FALSE,FALSE,7.346874586,80.944335,22.8,618.1,,TRUE,1,1,FALSE,FALSE,FALSE,FALSE,,TRUE,FALSE,FALSE,,295.2,,6.5,Calm,18,Linux,0.0.1,DJI Avata,1581F4QWB22C6003,4TTTKBT1A100XF,,4YPXKBWFG101BB,700.8,6.9,393.7,33.084118,13.42164,10,60290,DJI Avata,1581F4QWB22C6003,4TTTKBT1A100XF,,4YPXKBWFG101BB,DJI Fly,Linux,0.0.1,506836E9-49FE-5B48-4C34-69BAADE40894,1581F4QWB22C600307BM,,4TTTKBT1A100XF,,,,,,,,
6/19/2023,03:12.1,0m 9.1s,9.1,7.346827978,80.94429276,0,0,0,458,0.4,0,0,0,0,0,0,0,0,-0.5,0.9,171,171,,Starting Motors,Other,,21,5,TRUE,,Avata,TRUE,FALSE,,Smart,RC,TRUE,TRUE,FALSE,,,TRUE,,FALSE,FALSE,FALSE,FALSE,FALSE,FALSE,FALSE,FALSE,FALSE,FALSE,0,Free,0,0.7,171.3,171.3,FALSE,FALSE,FALSE,FALSE,FALSE,FALSE,,FALSE,Normal,100,100,0,0,0,0,2,FALSE,FALSE,FALSE,FALSE,FALSE,0,FALSE,FALSE,FALSE,FALSE,99,16.615,2504,2527,16.619,FALSE,4.146,4.158,4.153,4.158,0.013,FALSE,FALSE,NA,87.1,86.9,87,0,0,0,23,0,0,0,,Idle,0,0,FALSE,0,FALSE,3,Go Home,FALSE,FALSE,FALSE,FALSE,FALSE,FALSE,FALSE,FALSE,FALSE,FALSE,FALSE,FALSE,7.346874586,80.944335,22.8,618.1,,TRUE,1,1,FALSE,FALSE,FALSE,FALSE,,TRUE,FALSE,FALSE,,295.2,,6.5,Calm,18,Linux,0.0.1,DJI Avata,1581F4QWB22C6003,4TTTKBT1A100XF,,4YPXKBWFG101BB,700.8,6.9,393.7,33.084118,13.42164,10,60290,DJI Avata,1581F4QWB22C6003,4TTTKBT1A100XF,,4YPXKBWFG101BB,DJI Fly,Linux,0.0.1,506836E9-49FE-5B48-4C34-69BAADE40894,1581F4QWB22C600307BM,,4TTTKBT1A100XF,,,,,,,,
6/19/2023,03:12.3,0m 9.3s,9.3,7.346827933,80.94429284,0,0,0,458,0.5,0,0,0,0,0,0,0,0,-0.5,0.9,171,171,,Starting Motors,Other,,22,5,TRUE,,Avata,TRUE,FALSE,,Smart,RC,TRUE,TRUE,FALSE,,,TRUE,,FALSE,FALSE,FALSE,FALSE,FALSE,FALSE,FALSE,FALSE,FALSE,FALSE,0,Free,0,0.7,171.3,171.3,FALSE,FALSE,FALSE,FALSE,FALSE,FALSE,,FALSE,Normal,100,100,0,0,0,0,2,FALSE,FALSE,FALSE,FALSE,FALSE,0,FALSE,FALSE,FALSE,FALSE,99,16.615,2504,2527,16.619,FALSE,4.146,4.158,4.153,4.158,0.013,FALSE,FALSE,NA,87.1,86.9,87,0,0,0,23,0,0,0,,Idle,0,0,FALSE,0,FALSE,3,Go Home,FALSE,FALSE,FALSE,FALSE,FALSE,FALSE,FALSE,FALSE,FALSE,FALSE,FALSE,FALSE,7.346874586,80.944335,22.8,618.1,,TRUE,1,1,FALSE,FALSE,FALSE,FALSE,,TRUE,FALSE,FALSE,,295.2,,6.5,Calm,18,Linux,0.0.1,DJI Avata,1581F4QWB22C6003,4TTTKBT1A100XF,,4YPXKBWFG101BB,700.8,6.9,393.7,33.084118,13.42164,10,60290,DJI Avata,1581F4QWB22C6003,4TTTKBT1A100XF,,4YPXKBWFG101BB,DJI Fly,Linux,0.0.1,506836E9-49FE-5B48-4C34-69BAADE40894,1581F4QWB22C600307BM,,4TTTKBT1A100XF,,,,,,,,
6/19/2023,03:12.5,0m 9.5s,9.5,7.34682787,80.94429293,0,0,0,458,0.5,0,0,0,0,0,0,0,0,-0.5,0.9,171,171,,Starting Motors,Other,,22,5,TRUE,,Avata,TRUE,FALSE,,Smart,RC,TRUE,TRUE,FALSE,,,TRUE,,FALSE,FALSE,FALSE,FALSE,FALSE,FALSE,FALSE,FALSE,FALSE,FALSE,0,Free,0,0.7,171.3,171.3,FALSE,FALSE,FALSE,FALSE,FALSE,FALSE,,FALSE,Normal,100,100,0,0,0,0,2,FALSE,FALSE,FALSE,FALSE,FALSE,0,FALSE,FALSE,FALSE,FALSE,99,16.617,2504,2527,16.619,FALSE,4.146,4.158,4.155,4.158,0.013,FALSE,FALSE,NA,87.1,86.9,87,0,0,0,23,0,0,0,,Idle,0,0,FALSE,0,FALSE,3,Go Home,FALSE,FALSE,FALSE,FALSE,FALSE,FALSE,FALSE,FALSE,FALSE,FALSE,FALSE,FALSE,7.346874586,80.944335,22.8,618.1,,TRUE,1,1,FALSE,FALSE,FALSE,FALSE,,TRUE,FALSE,FALSE,,295.2,,6.5,Calm,18,Linux,0.0.1,DJI Avata,1581F4QWB22C6003,4TTTKBT1A100XF,,4YPXKBWFG101BB,700.8,6.9,393.7,33.084118,13.42164,10,60290,DJI Avata,1581F4QWB22C6003,4TTTKBT1A100XF,,4YPXKBWFG101BB,DJI Fly,Linux,0.0.1,506836E9-49FE-5B48-4C34-69BAADE40894,1581F4QWB22C600307BM,,4TTTKBT1A100XF,,,,,,,,
6/19/2023,03:12.7,0m 9.7s,9.7,7.34682782,80.944293,0,0,0,458,0.5,0,0,0,0,0,0,0,0,-0.5,0.9,171,171,,Starting Motors,Other,,22,5,TRUE,,Avata,TRUE,FALSE,,Smart,RC,TRUE,TRUE,FALSE,,,TRUE,,FALSE,FALSE,FALSE,FALSE,FALSE,FALSE,FALSE,FALSE,FALSE,FALSE,0,Free,0,0.7,171.3,171.3,FALSE,FALSE,FALSE,FALSE,FALSE,FALSE,,FALSE,Normal,100,100,0,0,0,0,2,FALSE,FALSE,FALSE,FALSE,FALSE,0,FALSE,FALSE,FALSE,FALSE,99,16.617,2504,2527,16.619,FALSE,4.146,4.158,4.155,4.158,0.013,FALSE,FALSE,NA,87.1,86.9,87,0,0,0,23,0,0,0,,Idle,0,0,FALSE,0,FALSE,3,Go Home,FALSE,FALSE,FALSE,FALSE,FALSE,FALSE,FALSE,FALSE,FALSE,FALSE,FALSE,FALSE,7.346874586,80.944335,22.8,618.1,,TRUE,1,1,FALSE,FALSE,FALSE,FALSE,,TRUE,FALSE,FALSE,,295.2,,6.5,Calm,18,Linux,0.0.1,DJI Avata,1581F4QWB22C6003,4TTTKBT1A100XF,,4YPXKBWFG101BB,700.8,6.9,393.7,33.084118,13.42164,10,60290,DJI Avata,1581F4QWB22C6003,4TTTKBT1A100XF,,4YPXKBWFG101BB,DJI Fly,Linux,0.0.1,506836E9-49FE-5B48-4C34-69BAADE40894,1581F4QWB22C600307BM,,4TTTKBT1A100XF,,,,,,,,
6/19/2023,03:12.9,0m 9.9s,9.9,7.346827755,80.94429308,0,0,0,458,0.6,0,0,0,0,0,0,0,0,-0.5,0.9,171,171,,Starting Motors,Other,,22,5,TRUE,,Avata,TRUE,FALSE,,Smart,RC,TRUE,TRUE,FALSE,,,TRUE,,FALSE,FALSE,FALSE,FALSE,FALSE,FALSE,FALSE,FALSE,FALSE,FALSE,0,Free,0,0.7,171.3,171.3,FALSE,FALSE,FALSE,FALSE,FALSE,FALSE,,FALSE,Normal,100,100,0,0,0,0,2,FALSE,FALSE,FALSE,FALSE,FALSE,0,FALSE,FALSE,FALSE,FALSE,99,16.617,2504,2527,16.618,FALSE,4.146,4.158,4.155,4.158,0.013,FALSE,FALSE,NA,87.1,86.9,87,0,0,0,23,0,0,0,,Idle,0,0,FALSE,0,FALSE,3,Go Home,FALSE,FALSE,FALSE,FALSE,FALSE,FALSE,FALSE,FALSE,FALSE,FALSE,FALSE,FALSE,7.346874586,80.944335,22.8,618.1,,TRUE,1,1,FALSE,FALSE,FALSE,FALSE,,TRUE,FALSE,FALSE,,295.2,,6.5,Calm,18,Linux,0.0.1,DJI Avata,1581F4QWB22C6003,4TTTKBT1A100XF,,4YPXKBWFG101BB,700.8,6.9,393.7,33.084118,13.42164,10,60290,DJI Avata,1581F4QWB22C6003,4TTTKBT1A100XF,,4YPXKBWFG101BB,DJI Fly,Linux,0.0.1,506836E9-49FE-5B48-4C34-69BAADE40894,1581F4QWB22C600307BM,,4TTTKBT1A100XF,,,,,,,,
6/19/2023,03:13.1,0m 10.1s,10.1,7.346827702,80.94429314,0,0,0,458,0.6,0,0,0,0,0,0,0,0,-0.5,0.9,171,171,,Starting Motors,Other,,22,5,TRUE,,Avata,TRUE,FALSE,,Smart,RC,TRUE,TRUE,FALSE,,,TRUE,,FALSE,FALSE,FALSE,FALSE,FALSE,FALSE,FALSE,FALSE,FALSE,FALSE,0,Free,0,0.7,171.3,171.3,FALSE,FALSE,FALSE,FALSE,FALSE,FALSE,,FALSE,Normal,100,100,0,0,0,0,2,FALSE,FALSE,FALSE,FALSE,FALSE,0,FALSE,FALSE,FALSE,FALSE,99,16.617,2504,2527,16.618,FALSE,4.146,4.158,4.155,4.158,0.013,FALSE,FALSE,NA,87.1,86.9,87,0,0,0,23,0,0,0,,Idle,0,0,FALSE,0,FALSE,3,Go Home,FALSE,FALSE,FALSE,FALSE,FALSE,FALSE,FALSE,FALSE,FALSE,FALSE,FALSE,FALSE,7.346874586,80.944335,22.8,618.1,,TRUE,1,1,FALSE,FALSE,FALSE,FALSE,,TRUE,FALSE,FALSE,,295.2,,6.5,Calm,18,Linux,0.0.1,DJI Avata,1581F4QWB22C6003,4TTTKBT1A100XF,,4YPXKBWFG101BB,700.8,6.9,393.7,33.084118,13.42164,10,60290,DJI Avata,1581F4QWB22C6003,4TTTKBT1A100XF,,4YPXKBWFG101BB,DJI Fly,Linux,0.0.1,506836E9-49FE-5B48-4C34-69BAADE40894,1581F4QWB22C600307BM,,4TTTKBT1A100XF,,,,,,,,
6/19/2023,03:13.3,0m 10.3s,10.3,7.346827635,80.94429322,0.3,0.3,0,458,0.6,0,0,0,0,0,0,0,0,-0.5,0.9,171,171,,Auto Takeoff,Other,,22,5,TRUE,,Avata,TRUE,FALSE,,Smart,RC,TRUE,TRUE,FALSE,,,TRUE,,FALSE,FALSE,FALSE,FALSE,FALSE,FALSE,FALSE,FALSE,FALSE,FALSE,0,Free,0,0.7,171.3,171.3,FALSE,FALSE,FALSE,FALSE,FALSE,FALSE,,FALSE,Normal,100,100,0,0,0,0,2,FALSE,FALSE,FALSE,FALSE,FALSE,0,FALSE,FALSE,FALSE,FALSE,99,16.617,2504,2527,16.618,FALSE,4.146,4.158,4.155,4.158,0.013,FALSE,FALSE,NA,87.1,86.9,87,0,0,0,23,0,0,0,,Idle,0,0,FALSE,0,FALSE,3,Go Home,FALSE,FALSE,FALSE,FALSE,FALSE,FALSE,FALSE,FALSE,FALSE,FALSE,FALSE,FALSE,7.346874586,80.944335,22.8,618.1,,TRUE,1,1,FALSE,FALSE,FALSE,FALSE,,TRUE,FALSE,FALSE,,295.2,,6.5,Calm,18,Linux,0.0.1,DJI Avata,1581F4QWB22C6003,4TTTKBT1A100XF,,4YPXKBWFG101BB,700.8,6.9,393.7,33.084118,13.42164,10,60290,DJI Avata,1581F4QWB22C6003,4TTTKBT1A100XF,,4YPXKBWFG101BB,DJI Fly,Linux,0.0.1,506836E9-49FE-5B48-4C34-69BAADE40894,1581F4QWB22C600307BM,,4TTTKBT1A100XF,,,,,,,,
6/19/2023,03:13.5,0m 10.5s,10.5,7.346827581,80.94429333,0.3,0.3,0,458,0.7,0,0,0,0,0,0,0,0,-0.9,0.5,171,171,,Auto Takeoff,Other,,22,5,TRUE,,Avata,TRUE,FALSE,,Smart,RC,TRUE,TRUE,FALSE,,,TRUE,,FALSE,FALSE,FALSE,FALSE,FALSE,FALSE,FALSE,FALSE,FALSE,FALSE,0,Free,0,0.4,171.3,171.3,FALSE,FALSE,FALSE,FALSE,FALSE,FALSE,,FALSE,Normal,100,100,0,0,0,0,2,FALSE,FALSE,FALSE,FALSE,FALSE,0,FALSE,FALSE,FALSE,FALSE,99,16.61,2504,2527,16.618,FALSE,4.143,4.158,4.151,4.158,0.015,FALSE,FALSE,NA,87.1,86.9,87,0,0,0,23,0,0,0,,Idle,0,0,FALSE,0,FALSE,3,Go Home,FALSE,FALSE,FALSE,FALSE,FALSE,FALSE,FALSE,FALSE,FALSE,FALSE,FALSE,FALSE,7.346874586,80.944335,22.8,618.1,,TRUE,1,1,FALSE,FALSE,FALSE,FALSE,,TRUE,FALSE,FALSE,,295.2,,6.5,Calm,18,Linux,0.0.1,DJI Avata,1581F4QWB22C6003,4TTTKBT1A100XF,,4YPXKBWFG101BB,700.8,6.9,393.7,33.084118,13.42164,10,60290,DJI Avata,1581F4QWB22C6003,4TTTKBT1A100XF,,4YPXKBWFG101BB,DJI Fly,Linux,0.0.1,506836E9-49FE-5B48-4C34-69BAADE40894,1581F4QWB22C600307BM,,4TTTKBT1A100XF,,,,,,,,
6/19/2023,03:13.7,0m 10.7s,10.7,7.346827469,80.94429346,0.6,0.6,0.3,458,0.7,0,0,0,0,0,0,-0.894776,0,0.1,0.2,171.1,171.1,,Auto Takeoff,Other,,22,5,TRUE,,Avata,TRUE,FALSE,,Smart,RC,FALSE,TRUE,FALSE,,,TRUE,,FALSE,FALSE,FALSE,FALSE,FALSE,FALSE,FALSE,FALSE,FALSE,FALSE,0,Free,0,0,171.4,171.4,FALSE,FALSE,FALSE,FALSE,FALSE,FALSE,,FALSE,Normal,100,100,0,0,0,0,2,FALSE,FALSE,FALSE,FALSE,FALSE,0,FALSE,FALSE,FALSE,FALSE,99,16.61,2504,2527,16.618,FALSE,4.143,4.158,4.151,4.158,0.015,FALSE,FALSE,NA,87.1,86.9,87,0,0,0,23,0,0,0,,Idle,0,0,FALSE,0,FALSE,3,Go Home,FALSE,FALSE,FALSE,FALSE,FALSE,FALSE,FALSE,FALSE,FALSE,FALSE,FALSE,FALSE,7.346874586,80.944335,22.8,618.1,,TRUE,1,1,FALSE,FALSE,FALSE,FALSE,,TRUE,FALSE,FALSE,,295.2,,6.5,Calm,18,Linux,0.0.1,DJI Avata,1581F4QWB22C6003,4TTTKBT1A100XF,,4YPXKBWFG101BB,700.8,6.9,393.7,33.084118,13.42164,10,60290,DJI Avata,1581F4QWB22C6003,4TTTKBT1A100XF,,4YPXKBWFG101BB,DJI Fly,Linux,0.0.1,506836E9-49FE-5B48-4C34-69BAADE40894,1581F4QWB22C600307BM,,4TTTKBT1A100XF,,,,,,,,
6/19/2023,03:13.9,0m 10.9s,10.9,7.346827336,80.94429364,1.3,1.3,0.3,459,0.8,0,0,0,0,0,0,-0.671082,0,0.4,0.8,171.2,171.2,,Auto Takeoff,Other,,22,5,TRUE,,Avata,TRUE,FALSE,,Smart,RC,FALSE,TRUE,FALSE,,,TRUE,,FALSE,FALSE,FALSE,FALSE,FALSE,FALSE,FALSE,FALSE,FALSE,FALSE,0,Free,0,0.5,171.5,171.5,FALSE,FALSE,FALSE,FALSE,FALSE,FALSE,,FALSE,Normal,100,100,0,0,0,0,2,FALSE,FALSE,FALSE,FALSE,FALSE,0,FALSE,FALSE,FALSE,FALSE,99,16.61,2504,2527,16.443,FALSE,4.143,4.158,4.151,4.158,0.015,FALSE,FALSE,NA,87.1,86.9,87,0,0,0,23,0,0,0,,Idle,0,0,FALSE,0,FALSE,3,Go Home,FALSE,FALSE,FALSE,FALSE,FALSE,FALSE,FALSE,FALSE,FALSE,FALSE,FALSE,FALSE,7.346874586,80.944335,22.8,618.1,,TRUE,1,1,FALSE,FALSE,FALSE,FALSE,,TRUE,FALSE,FALSE,,295.2,,6.5,Calm,18,Linux,0.0.1,DJI Avata,1581F4QWB22C6003,4TTTKBT1A100XF,,4YPXKBWFG101BB,700.8,6.9,393.7,33.084118,13.42164,10,60290,DJI Avata,1581F4QWB22C6003,4TTTKBT1A100XF,,4YPXKBWFG101BB,DJI Fly,Linux,0.0.1,506836E9-49FE-5B48-4C34-69BAADE40894,1581F4QWB22C600307BM,,4TTTKBT1A100XF,,,,,,,,
6/19/2023,03:14.1,0m 11.1s,11.1,7.346827279,80.94429384,1.6,1.6,0.6,459,0.9,0,0,0,0,0,0,-0.447388,0,0.1,1.1,171.2,171.2,,Auto Takeoff,Other,,23,5,TRUE,,Avata,TRUE,FALSE,,Smart,RC,FALSE,TRUE,FALSE,,,TRUE,,FALSE,FALSE,FALSE,FALSE,FALSE,FALSE,FALSE,FALSE,FALSE,FALSE,0,Free,0,0.9,171.5,171.5,FALSE,FALSE,FALSE,FALSE,FALSE,FALSE,,FALSE,Normal,100,100,0,0,0,0,2,FALSE,FALSE,FALSE,FALSE,FALSE,0,FALSE,FALSE,FALSE,FALSE,99,16.61,2504,2527,16.443,FALSE,4.143,4.158,4.151,4.158,0.015,FALSE,FALSE,NA,87.1,86.9,87,0,0,30,23,10,0,0,,Idle,0,0,FALSE,0,FALSE,3,Go Home,FALSE,FALSE,FALSE,FALSE,FALSE,FALSE,FALSE,FALSE,FALSE,FALSE,FALSE,FALSE,7.346827565,80.94429335,0.2,618.1,,TRUE,1,1,FALSE,FALSE,FALSE,FALSE,,TRUE,FALSE,FALSE,,295.2,,6.5,Calm,18,Linux,0.0.1,DJI Avata,1581F4QWB22C6003,4TTTKBT1A100XF,,4YPXKBWFG101BB,700.8,6.9,393.7,33.084118,13.42164,10,60290,DJI Avata,1581F4QWB22C6003,4TTTKBT1A100XF,,4YPXKBWFG101BB,DJI Fly,Linux,0.0.1,506836E9-49FE-5B48-4C34-69BAADE40894,1581F4QWB22C600307BM,,4TTTKBT1A100XF,,,,,,,,
6/19/2023,03:14.3,0m 11.3s,11.3,7.346827286,80.944294,1.9,1.9,0.9,460,1,0,0,0,0,0,0,-0.447388,0,-0.1,0.9,171.2,171.2,,Auto Takeoff,Other,,23,5,TRUE,,Avata,TRUE,FALSE,,Smart,RC,FALSE,TRUE,FALSE,,,TRUE,,FALSE,FALSE,FALSE,FALSE,FALSE,FALSE,FALSE,FALSE,FALSE,FALSE,0,Free,0,0.7,171.5,171.5,FALSE,FALSE,FALSE,FALSE,FALSE,FALSE,,FALSE,Normal,100,100,0,0,0,0,2,FALSE,FALSE,FALSE,FALSE,FALSE,0,FALSE,FALSE,FALSE,FALSE,99,16.61,2504,2527,16.443,FALSE,4.143,4.158,4.151,4.158,0.015,FALSE,FALSE,NA,87.1,86.9,87,0,0,30,23,10,0,0,,Idle,0,0,FALSE,0,FALSE,3,Go Home,FALSE,FALSE,FALSE,FALSE,FALSE,FALSE,FALSE,FALSE,FALSE,FALSE,FALSE,FALSE,7.346827565,80.94429335,0.2,618.1,,TRUE,1,1,FALSE,FALSE,FALSE,FALSE,,TRUE,FALSE,FALSE,,295.2,,6.5,Calm,18,Linux,0.0.1,DJI Avata,1581F4QWB22C6003,4TTTKBT1A100XF,,4YPXKBWFG101BB,700.8,6.9,393.7,33.084118,13.42164,10,60290,DJI Avata,1581F4QWB22C6003,4TTTKBT1A100XF,,4YPXKBWFG101BB,DJI Fly,Linux,0.0.1,506836E9-49FE-5B48-4C34-69BAADE40894,1581F4QWB22C600307BM,,4TTTKBT1A100XF,,,,,,,,
6/19/2023,03:14.4,0m 11.5s,11.5,7.346827442,80.94429414,2.2,2.2,0.9,460,1,0,0,0,0,0,0,-0.447388,0,-0.9,1.2,171.2,171.2,,Auto Takeoff,Other,,24,5,TRUE,,Avata,TRUE,FALSE,,Smart,RC,FALSE,TRUE,FALSE,,,TRUE,,FALSE,FALSE,FALSE,FALSE,FALSE,FALSE,FALSE,FALSE,FALSE,FALSE,0,Free,0,0.7,171.5,171.5,FALSE,FALSE,FALSE,FALSE,FALSE,FALSE,,FALSE,Normal,100,100,0,0,0,0,2,FALSE,FALSE,FALSE,FALSE,FALSE,0,FALSE,FALSE,FALSE,FALSE,99,16.032,2503,2526,16.443,FALSE,4,4.008,4.011,4.014,0.015,FALSE,FALSE,NA,87.1,86.9,87,0,0,30,23,10,0,0,,Idle,0,0,FALSE,0,FALSE,3,Go Home,FALSE,FALSE,FALSE,FALSE,FALSE,FALSE,FALSE,FALSE,FALSE,FALSE,FALSE,FALSE,7.346827565,80.94429335,0.2,618.1,,TRUE,1,1,FALSE,FALSE,FALSE,FALSE,,TRUE,FALSE,FALSE,,295.2,,6.5,Calm,18,Linux,0.0.1,DJI Avata,1581F4QWB22C6003,4TTTKBT1A100XF,,4YPXKBWFG101BB,700.8,6.9,393.7,33.084118,13.42164,10,60290,DJI Avata,1581F4QWB22C6003,4TTTKBT1A100XF,,4YPXKBWFG101BB,DJI Fly,Linux,0.0.1,506836E9-49FE-5B48-4C34-69BAADE40894,1581F4QWB22C600307BM,,4TTTKBT1A100XF,,,,,,,,
6/19/2023,03:14.7,0m 11.7s,11.7,7.346827655,80.94429429,2.6,2.6,1.3,460,1.1,0,0,0,0,0,0,-0.447388,0,-1.4,1.9,171.2,171.2,,Auto Takeoff,Other,,21,5,TRUE,,Avata,TRUE,FALSE,,Smart,RC,FALSE,TRUE,FALSE,,,TRUE,,FALSE,FALSE,FALSE,FALSE,FALSE,FALSE,FALSE,FALSE,FALSE,FALSE,0,Free,0,1.4,171.6,171.6,FALSE,FALSE,FALSE,FALSE,FALSE,FALSE,,FALSE,Normal,100,100,0,0,0,0,2,FALSE,FALSE,FALSE,FALSE,FALSE,0,FALSE,FALSE,FALSE,FALSE,99,16.032,2503,2526,16.443,FALSE,4,4.008,4.011,4.014,0.015,FALSE,FALSE,NA,87.1,86.9,87,0,0,30,23,10,0,0,,Idle,0,0,FALSE,0,FALSE,3,Go Home,FALSE,FALSE,FALSE,FALSE,FALSE,FALSE,FALSE,FALSE,FALSE,FALSE,FALSE,FALSE,7.346827565,80.94429335,0.3,618.1,,TRUE,1,1,FALSE,FALSE,FALSE,FALSE,,TRUE,FALSE,FALSE,,295.2,,6.5,Calm,18,Linux,0.0.1,DJI Avata,1581F4QWB22C6003,4TTTKBT1A100XF,,4YPXKBWFG101BB,700.8,6.9,393.7,33.084118,13.42164,10,60290,DJI Avata,1581F4QWB22C6003,4TTTKBT1A100XF,,4YPXKBWFG101BB,DJI Fly,Linux,0.0.1,506836E9-49FE-5B48-4C34-69BAADE40894,1581F4QWB22C600307BM,,4TTTKBT1A100XF,,,,,,,,
6/19/2023,03:14.8,0m 11.9s,11.9,7.346827927,80.94429435,2.6,2.6,1.3,460,1.2,0,0,0,0,0,0,-0.447388,0,-1.3,1.9,171.1,171.1,,Auto Takeoff,Other,,21,5,TRUE,,Avata,TRUE,FALSE,,Smart,RC,FALSE,TRUE,FALSE,,,TRUE,,FALSE,FALSE,FALSE,FALSE,FALSE,FALSE,FALSE,FALSE,FALSE,FALSE,0,Free,0,1.4,171.5,171.5,FALSE,FALSE,FALSE,FALSE,FALSE,FALSE,,FALSE,Normal,100,100,0,0,0,0,2,FALSE,FALSE,FALSE,FALSE,FALSE,0,FALSE,FALSE,FALSE,FALSE,99,16.032,2503,2526,16.073,FALSE,4,4.008,4.011,4.014,0.015,FALSE,FALSE,NA,87.1,86.9,87,0,0,30,23,10,0,0,,Idle,0,0,FALSE,0,FALSE,3,Go Home,FALSE,FALSE,FALSE,FALSE,FALSE,FALSE,FALSE,FALSE,FALSE,FALSE,FALSE,FALSE,7.346827565,80.94429335,0.3,618.1,,TRUE,1,1,FALSE,FALSE,FALSE,FALSE,,TRUE,FALSE,FALSE,,295.2,,6.5,Calm,18,Linux,0.0.1,DJI Avata,1581F4QWB22C6003,4TTTKBT1A100XF,,4YPXKBWFG101BB,700.8,6.9,393.7,33.084118,13.42164,10,60290,DJI Avata,1581F4QWB22C6003,4TTTKBT1A100XF,,4YPXKBWFG101BB,DJI Fly,Linux,0.0.1,506836E9-49FE-5B48-4C34-69BAADE40894,1581F4QWB22C600307BM,,4TTTKBT1A100XF,,,,,,,,
6/19/2023,03:15.1,0m 12.1s,12.1,7.34682821,80.94429437,2.9,2.9,1.6,461,1.3,0,0,0,0,0,0,-0.671082,0,-1.1,2.1,171.2,171.2,,Auto Takeoff,Other,,22,5,TRUE,,Avata,TRUE,FALSE,,Smart,RC,FALSE,TRUE,FALSE,,,TRUE,,FALSE,FALSE,FALSE,FALSE,FALSE,FALSE,FALSE,FALSE,FALSE,FALSE,0,Free,0,1.6,171.5,171.5,FALSE,FALSE,FALSE,FALSE,FALSE,FALSE,,FALSE,Normal,100,100,0,0,0,0,2,FALSE,FALSE,FALSE,FALSE,FALSE,0,FALSE,FALSE,FALSE,FALSE,99,16.032,2503,2526,16.073,FALSE,4,4.008,4.011,4.014,0.015,FALSE,FALSE,NA,87.1,86.9,87,0,0,30,23,10,0,0,,Idle,0,0,FALSE,0,FALSE,3,Go Home,FALSE,FALSE,FALSE,FALSE,FALSE,FALSE,FALSE,FALSE,FALSE,FALSE,FALSE,FALSE,7.346827565,80.94429335,0.4,618.1,,TRUE,1,1,FALSE,FALSE,FALSE,FALSE,,TRUE,FALSE,FALSE,,295.2,,6.5,Calm,18,Linux,0.0.1,DJI Avata,1581F4QWB22C6003,4TTTKBT1A100XF,,4YPXKBWFG101BB,700.8,6.9,393.7,33.084118,13.42164,10,60290,DJI Avata,1581F4QWB22C6003,4TTTKBT1A100XF,,4YPXKBWFG101BB,DJI Fly,Linux,0.0.1,506836E9-49FE-5B48-4C34-69BAADE40894,1581F4QWB22C600307BM,,4TTTKBT1A100XF,,,,,,,,
6/19/2023,03:15.3,0m 12.3s,12.3,7.346828556,80.9442944,3.2,3.2,1.6,461,1.5,0,0,0,0,0,0,-0.671082,0,-0.6,1.9,171.2,171.2,,Auto Takeoff,Other,,22,5,TRUE,,Avata,TRUE,FALSE,,Smart,RC,FALSE,TRUE,FALSE,,,TRUE,,FALSE,FALSE,FALSE,FALSE,FALSE,FALSE,FALSE,FALSE,FALSE,FALSE,0,Free,0,1.5,171.5,171.5,FALSE,FALSE,FALSE,FALSE,FALSE,FALSE,,FALSE,Normal,100,100,0,0,0,0,2,FALSE,FALSE,FALSE,FALSE,FALSE,0,FALSE,FALSE,FALSE,FALSE,99,16.032,2503,2526,16.073,FALSE,4,4.008,4.011,4.014,0.015,FALSE,FALSE,NA,87.1,86.9,87,0,0,30,23,10,0,0,,Idle,0,0,FALSE,0,FALSE,3,Go Home,FALSE,FALSE,FALSE,FALSE,FALSE,FALSE,FALSE,FALSE,FALSE,FALSE,FALSE,FALSE,7.346827565,80.94429335,0.5,618.1,,TRUE,1,1,FALSE,FALSE,FALSE,FALSE,,TRUE,FALSE,FALSE,,295.2,,6.5,Calm,18,Linux,0.0.1,DJI Avata,1581F4QWB22C6003,4TTTKBT1A100XF,,4YPXKBWFG101BB,700.8,6.9,393.7,33.084118,13.42164,10,60290,DJI Avata,1581F4QWB22C6003,4TTTKBT1A100XF,,4YPXKBWFG101BB,DJI Fly,Linux,0.0.1,506836E9-49FE-5B48-4C34-69BAADE40894,1581F4QWB22C600307BM,,4TTTKBT1A100XF,,,,,,,,
6/19/2023,03:15.5,0m 12.5s,12.5,7.34682885,80.94429444,3.2,3.2,1.9,461,1.6,0,0,0,0,0,0,-0.671082,0,-0.4,2,171.2,171.2,,Auto Takeoff,Other,,24,5,TRUE,,Avata,TRUE,FALSE,,Smart,RC,FALSE,TRUE,FALSE,,,TRUE,,FALSE,FALSE,FALSE,FALSE,FALSE,FALSE,FALSE,FALSE,FALSE,FALSE,0,Free,0,1.6,171.5,171.5,FALSE,FALSE,FALSE,FALSE,FALSE,FALSE,,FALSE,Normal,100,100,0,0,0,0,2,FALSE,FALSE,FALSE,FALSE,FALSE,0,FALSE,FALSE,FALSE,FALSE,99,15.977,2496,2524,16.073,FALSE,3.989,3.994,3.996,3.998,0.015,FALSE,FALSE,NA,87.1,86.9,87,0,0,30,23,10,0,0,,Idle,0,0,FALSE,0,FALSE,3,Go Home,FALSE,FALSE,FALSE,FALSE,FALSE,FALSE,FALSE,FALSE,FALSE,FALSE,FALSE,FALSE,7.346827565,80.94429335,0.6,618.1,,TRUE,1,1,FALSE,FALSE,FALSE,FALSE,,TRUE,FALSE,FALSE,,295.2,,6.5,Calm,18,Linux,0.0.1,DJI Avata,1581F4QWB22C6003,4TTTKBT1A100XF,,4YPXKBWFG101BB,700.8,6.9,393.7,33.084118,13.42164,10,60290,DJI Avata,1581F4QWB22C6003,4TTTKBT1A100XF,,4YPXKBWFG101BB,DJI Fly,Linux,0.0.1,506836E9-49FE-5B48-4C34-69BAADE40894,1581F4QWB22C600307BM,,4TTTKBT1A100XF,,,,,,,,
6/19/2023,03:15.7,0m 12.7s,12.7,7.346829113,80.94429445,3.6,3.6,1.9,461,1.7,0,0,0,0,0,0,-0.671082,0,-0.4,1.8,171.2,171.2,,Auto Takeoff,Other,,22,5,TRUE,,Avata,TRUE,FALSE,,Smart,RC,FALSE,TRUE,FALSE,,,TRUE,,FALSE,FALSE,FALSE,FALSE,FALSE,FALSE,FALSE,FALSE,FALSE,FALSE,0,Free,0,1.4,171.5,171.5,FALSE,FALSE,FALSE,FALSE,FALSE,FALSE,,FALSE,Normal,100,100,0,0,0,0,2,FALSE,FALSE,FALSE,FALSE,FALSE,0,FALSE,FALSE,FALSE,FALSE,99,15.977,2496,2524,16.073,FALSE,3.989,3.994,3.996,3.998,0.015,FALSE,FALSE,NA,87.1,86.9,87,0,0,30,23,10,0,0,,Idle,0,0,FALSE,0,FALSE,3,Go Home,FALSE,FALSE,FALSE,FALSE,FALSE,FALSE,FALSE,FALSE,FALSE,FALSE,FALSE,FALSE,7.346827565,80.94429335,0.6,618.1,,TRUE,1,1,FALSE,FALSE,FALSE,FALSE,,TRUE,FALSE,FALSE,,295.2,,6.5,Calm,18,Linux,0.0.1,DJI Avata,1581F4QWB22C6003,4TTTKBT1A100XF,,4YPXKBWFG101BB,700.8,6.9,393.7,33.084118,13.42164,10,60290,DJI Avata,1581F4QWB22C6003,4TTTKBT1A100XF,,4YPXKBWFG101BB,DJI Fly,Linux,0.0.1,506836E9-49FE-5B48-4C34-69BAADE40894,1581F4QWB22C600307BM,,4TTTKBT1A100XF,,,,,,,,
6/19/2023,03:15.9,0m 12.9s,12.9,7.346829272,80.94429445,3.9,3.9,2.2,462,1.7,0,0,0,0,0,0,-0.671082,0,-0.3,1.9,171.2,171.2,,Auto Takeoff,Other,,24,5,TRUE,,Avata,TRUE,FALSE,,Smart,RC,FALSE,TRUE,FALSE,,,TRUE,,FALSE,FALSE,FALSE,FALSE,FALSE,FALSE,FALSE,FALSE,FALSE,FALSE,0,Free,0,1.5,171.6,171.6,FALSE,FALSE,FALSE,FALSE,FALSE,FALSE,,FALSE,Normal,100,100,0,0,0,0,2,FALSE,FALSE,FALSE,FALSE,FALSE,0,FALSE,FALSE,FALSE,FALSE,99,15.977,2496,2524,15.987,FALSE,3.989,3.994,3.996,3.998,0.015,FALSE,FALSE,NA,87.1,86.9,87,0,0,30,23,10,0,0,,Idle,0,0,FALSE,0,FALSE,3,Go Home,FALSE,FALSE,FALSE,FALSE,FALSE,FALSE,FALSE,FALSE,FALSE,FALSE,FALSE,FALSE,7.346827565,80.94429335,0.7,618.1,,TRUE,1,1,FALSE,FALSE,FALSE,FALSE,,TRUE,FALSE,FALSE,,295.2,,6.5,Calm,18,Linux,0.0.1,DJI Avata,1581F4QWB22C6003,4TTTKBT1A100XF,,4YPXKBWFG101BB,700.8,6.9,393.7,33.084118,13.42164,10,60290,DJI Avata,1581F4QWB22C6003,4TTTKBT1A100XF,,4YPXKBWFG101BB,DJI Fly,Linux,0.0.1,506836E9-49FE-5B48-4C34-69BAADE40894,1581F4QWB22C600307BM,,4TTTKBT1A100XF,,,,,,,,
6/19/2023,03:16.1,0m 13.1s,13.1,7.346829349,80.94429451,3.9,3.9,2.6,462,1.8,0,0,0,0,0,0,-0.671082,0,-0.5,1.9,171.2,171.2,,Auto Takeoff,Other,,22,5,TRUE,,Avata,TRUE,FALSE,,Smart,RC,FALSE,TRUE,FALSE,,,TRUE,,FALSE,FALSE,FALSE,FALSE,FALSE,FALSE,FALSE,FALSE,FALSE,FALSE,0,Free,0,1.6,171.6,171.6,FALSE,FALSE,FALSE,FALSE,FALSE,FALSE,,FALSE,Normal,100,100,0,0,0,0,2,FALSE,FALSE,FALSE,FALSE,FALSE,0,FALSE,FALSE,FALSE,FALSE,99,15.977,2496,2524,15.987,FALSE,3.989,3.994,3.996,3.998,0.015,FALSE,FALSE,NA,87.1,86.9,87,0,0,30,23,10,0,0,,Idle,0,0,FALSE,0,FALSE,3,Go Home,FALSE,FALSE,FALSE,FALSE,FALSE,FALSE,FALSE,FALSE,FALSE,FALSE,FALSE,FALSE,7.346827565,80.94429335,0.7,618.1,,TRUE,1,1,FALSE,FALSE,FALSE,FALSE,,TRUE,FALSE,FALSE,,295.2,,6.5,Calm,18,Linux,0.0.1,DJI Avata,1581F4QWB22C6003,4TTTKBT1A100XF,,4YPXKBWFG101BB,700.8,6.9,393.7,33.084118,13.42164,10,60290,DJI Avata,1581F4QWB22C6003,4TTTKBT1A100XF,,4YPXKBWFG101BB,DJI Fly,Linux,0.0.1,506836E9-49FE-5B48-4C34-69BAADE40894,1581F4QWB22C600307BM,,4TTTKBT1A100XF,,,,,,,,
6/19/2023,03:16.3,0m 13.3s,13.3,7.346829372,80.94429459,4.2,4.2,2.6,462,1.8,0,0,0,0,0,0,-0.447388,0,-0.5,2.1,171.2,171.2,,Auto Takeoff,Other,,22,5,TRUE,,Avata,TRUE,FALSE,,Smart,RC,FALSE,TRUE,FALSE,,,TRUE,,FALSE,FALSE,FALSE,FALSE,FALSE,FALSE,FALSE,FALSE,FALSE,FALSE,0,Free,0,1.8,171.6,171.6,FALSE,FALSE,FALSE,FALSE,FALSE,FALSE,,FALSE,Normal,100,100,0,0,0,0,2,FALSE,FALSE,FALSE,FALSE,FALSE,0,FALSE,FALSE,FALSE,FALSE,99,15.977,2496,2524,15.987,FALSE,3.989,3.994,3.996,3.998,0.015,FALSE,FALSE,NA,87.1,86.9,87,0,0,30,23,10,0,0,,Idle,0,0,FALSE,0,FALSE,3,Go Home,FALSE,FALSE,FALSE,FALSE,FALSE,FALSE,FALSE,FALSE,FALSE,FALSE,FALSE,FALSE,7.346827565,80.94429335,0.7,618.1,,TRUE,1,1,FALSE,FALSE,FALSE,FALSE,,TRUE,FALSE,FALSE,,295.2,,6.5,Calm,18,Linux,0.0.1,DJI Avata,1581F4QWB22C6003,4TTTKBT1A100XF,,4YPXKBWFG101BB,700.8,6.9,393.7,33.084118,13.42164,10,60290,DJI Avata,1581F4QWB22C6003,4TTTKBT1A100XF,,4YPXKBWFG101BB,DJI Fly,Linux,0.0.1,506836E9-49FE-5B48-4C34-69BAADE40894,1581F4QWB22C600307BM,,4TTTKBT1A100XF,,,,,,,,
6/19/2023,03:16.5,0m 13.5s,13.5,7.346829344,80.94429466,4.2,4.2,2.9,462,1.8,0,0,0,0,0,0,-0.447388,0,-0.6,2.3,171.3,171.3,,Auto Takeoff,Other,,22,5,TRUE,,Avata,TRUE,FALSE,,Smart,RC,FALSE,TRUE,FALSE,,,TRUE,,FALSE,FALSE,FALSE,FALSE,FALSE,FALSE,FALSE,FALSE,FALSE,FALSE,0,Free,0,2,171.6,171.6,FALSE,FALSE,FALSE,FALSE,FALSE,FALSE,,FALSE,Normal,100,100,0,0,0,0,2,FALSE,FALSE,FALSE,FALSE,FALSE,0,FALSE,FALSE,FALSE,FALSE,99,15.95,2489,2517,15.987,FALSE,3.98,3.988,3.989,3.993,0.015,FALSE,FALSE,NA,87.1,86.9,87,0,0,30,23,10,0,0,,Idle,0,0,FALSE,0,FALSE,3,Go Home,FALSE,FALSE,FALSE,FALSE,FALSE,FALSE,FALSE,FALSE,FALSE,FALSE,FALSE,FALSE,7.346827565,80.94429335,0.8,618.1,,TRUE,1,1,FALSE,FALSE,FALSE,FALSE,,TRUE,FALSE,FALSE,,295.2,,6.5,Calm,18,Linux,0.0.1,DJI Avata,1581F4QWB22C6003,4TTTKBT1A100XF,,4YPXKBWFG101BB,700.8,6.9,393.7,33.084118,13.42164,10,60290,DJI Avata,1581F4QWB22C6003,4TTTKBT1A100XF,,4YPXKBWFG101BB,DJI Fly,Linux,0.0.1,506836E9-49FE-5B48-4C34-69BAADE40894,1581F4QWB22C600307BM,,4TTTKBT1A100XF,,,,,,,,
6/19/2023,03:16.7,0m 13.7s,13.7,7.346829289,80.94429472,4.5,4.5,2.9,462,1.8,0,0,0,0,0,0,-0.447388,0,-0.6,2.1,171.3,171.3,,Auto Takeoff,Other,,22,5,TRUE,,Avata,TRUE,FALSE,,Smart,RC,FALSE,TRUE,FALSE,,,TRUE,,FALSE,FALSE,FALSE,FALSE,FALSE,FALSE,FALSE,FALSE,FALSE,FALSE,0,Free,0,1.8,171.7,171.7,FALSE,FALSE,FALSE,FALSE,FALSE,FALSE,,FALSE,Normal,100,100,0,0,0,0,2,FALSE,FALSE,FALSE,FALSE,FALSE,0,FALSE,FALSE,FALSE,FALSE,99,15.95,2489,2517,15.987,FALSE,3.98,3.988,3.989,3.993,0.015,FALSE,FALSE,NA,87.1,86.9,87,0,0,30,23,10,0,0,,Idle,0,0,FALSE,0,FALSE,3,Go Home,FALSE,FALSE,FALSE,FALSE,FALSE,FALSE,FALSE,FALSE,FALSE,FALSE,FALSE,FALSE,7.346827565,80.94429335,0.8,618.1,,TRUE,1,1,FALSE,FALSE,FALSE,FALSE,,TRUE,FALSE,FALSE,,295.2,,6.5,Calm,18,Linux,0.0.1,DJI Avata,1581F4QWB22C6003,4TTTKBT1A100XF,,4YPXKBWFG101BB,700.8,6.9,393.7,33.084118,13.42164,10,60290,DJI Avata,1581F4QWB22C6003,4TTTKBT1A100XF,,4YPXKBWFG101BB,DJI Fly,Linux,0.0.1,506836E9-49FE-5B48-4C34-69BAADE40894,1581F4QWB22C600307BM,,4TTTKBT1A100XF,,,,,,,,
6/19/2023,03:16.9,0m 13.9s,13.9,7.346829189,80.94429476,4.9,4.9,3.2,463,1.9,0,0,0,0,0,0,-0.447388,0,-0.3,2,171.3,171.3,,Auto Takeoff,Other,,23,5,TRUE,,Avata,TRUE,FALSE,,Smart,RC,FALSE,TRUE,FALSE,,,TRUE,,FALSE,FALSE,FALSE,FALSE,FALSE,FALSE,FALSE,FALSE,FALSE,FALSE,0,Free,0,1.7,171.7,171.7,FALSE,FALSE,FALSE,FALSE,FALSE,FALSE,,FALSE,Normal,100,100,0,0,0,0,2,FALSE,FALSE,FALSE,FALSE,FALSE,0,FALSE,FALSE,FALSE,FALSE,98,15.95,2489,2517,15.954,FALSE,3.98,3.988,3.989,3.993,0.015,FALSE,FALSE,NA,87.1,86.9,87,0,0,30,23,10,0,0,,Idle,0,0,FALSE,0,FALSE,3,Go Home,FALSE,FALSE,FALSE,FALSE,FALSE,FALSE,FALSE,FALSE,FALSE,FALSE,FALSE,FALSE,7.346827565,80.94429335,0.7,618.1,,TRUE,1,1,FALSE,FALSE,FALSE,FALSE,,TRUE,FALSE,FALSE,,295.2,,6.5,Calm,18,Linux,0.0.1,DJI Avata,1581F4QWB22C6003,4TTTKBT1A100XF,,4YPXKBWFG101BB,700.8,6.9,393.7,33.084118,13.42164,10,60290,DJI Avata,1581F4QWB22C6003,4TTTKBT1A100XF,,4YPXKBWFG101BB,DJI Fly,Linux,0.0.1,506836E9-49FE-5B48-4C34-69BAADE40894,1581F4QWB22C600307BM,,4TTTKBT1A100XF,,,,,,,,
6/19/2023,03:17.1,0m 14.1s,14.1,7.346829075,80.94429478,4.9,4.9,3.2,463,1.9,0,0,0,0,0,0,-0.447388,0,-0.2,2,171.2,171.2,,Auto Takeoff,Other,,22,5,TRUE,,Avata,TRUE,FALSE,,Smart,RC,FALSE,TRUE,FALSE,,,TRUE,,FALSE,FALSE,FALSE,FALSE,FALSE,FALSE,FALSE,FALSE,FALSE,FALSE,0,Free,0,1.7,171.6,171.6,FALSE,FALSE,FALSE,FALSE,FALSE,FALSE,,FALSE,Normal,100,100,0,0,0,0,2,FALSE,FALSE,FALSE,FALSE,FALSE,0,FALSE,FALSE,FALSE,FALSE,98,15.95,2489,2517,15.954,FALSE,3.98,3.988,3.989,3.993,0.015,FALSE,FALSE,NA,87.1,86.9,87,0,0,30,23,10,0,0,,Idle,0,0,FALSE,0,FALSE,3,Go Home,FALSE,FALSE,FALSE,FALSE,FALSE,FALSE,FALSE,FALSE,FALSE,FALSE,FALSE,FALSE,7.346827565,80.94429335,0.7,618.1,,TRUE,1,1,FALSE,FALSE,FALSE,FALSE,,TRUE,FALSE,FALSE,,295.2,,6.5,Calm,18,Linux,0.0.1,DJI Avata,1581F4QWB22C6003,4TTTKBT1A100XF,,4YPXKBWFG101BB,700.8,6.9,393.7,33.084118,13.42164,10,60290,DJI Avata,1581F4QWB22C6003,4TTTKBT1A100XF,,4YPXKBWFG101BB,DJI Fly,Linux,0.0.1,506836E9-49FE-5B48-4C34-69BAADE40894,1581F4QWB22C600307BM,,4TTTKBT1A100XF,,,,,,,,
6/19/2023,03:17.3,0m 14.3s,14.3,7.34682902,80.94429478,5.2,5.2,3.6,463,1.9,0,0,0,0,0,0,-0.447388,0,-0.3,2.3,175.1,175.1,,Normal,Other,,23,5,TRUE,,Avata,TRUE,FALSE,,Smart,RC,FALSE,TRUE,FALSE,,,TRUE,,FALSE,FALSE,FALSE,FALSE,FALSE,FALSE,FALSE,FALSE,FALSE,FALSE,0,Free,-0.1,2,174.2,174.2,FALSE,FALSE,FALSE,FALSE,FALSE,FALSE,,FALSE,Normal,100,100,0,0,0,0,2,FALSE,FALSE,FALSE,FALSE,FALSE,0,FALSE,FALSE,FALSE,FALSE,98,15.95,2489,2517,15.954,FALSE,3.98,3.988,3.989,3.993,0.015,FALSE,FALSE,NA,87.1,86.9,87,0,0,30,23,10,0,0,,Idle,0,0,FALSE,0,FALSE,3,Go Home,FALSE,FALSE,FALSE,FALSE,FALSE,FALSE,FALSE,FALSE,FALSE,FALSE,FALSE,FALSE,7.346827565,80.94429335,0.7,618.1,,TRUE,1,1,FALSE,FALSE,FALSE,FALSE,,TRUE,FALSE,FALSE,,295.2,,6.5,Calm,18,Linux,0.0.1,DJI Avata,1581F4QWB22C6003,4TTTKBT1A100XF,,4YPXKBWFG101BB,700.8,6.9,393.7,33.084118,13.42164,10,60290,DJI Avata,1581F4QWB22C6003,4TTTKBT1A100XF,,4YPXKBWFG101BB,DJI Fly,Linux,0.0.1,506836E9-49FE-5B48-4C34-69BAADE40894,1581F4QWB22C600307BM,,4TTTKBT1A100XF,,,,,,,,Press and hold Lock button to land.
6/19/2023,03:17.5,0m 14.5s,14.5,7.34682903,80.94429469,5.2,5.2,3.6,463,2,0,0,0,0,0,0,0,0,-0.5,1.9,-176.2,183.8,,Normal,Other,,23,5,TRUE,,Avata,TRUE,FALSE,,Smart,RC,FALSE,TRUE,FALSE,,,TRUE,,FALSE,FALSE,FALSE,FALSE,FALSE,FALSE,FALSE,FALSE,FALSE,FALSE,0,Free,-0.1,1.8,-176.6,183.4,FALSE,FALSE,FALSE,FALSE,FALSE,FALSE,,FALSE,Normal,100,100,0,0,0,0,2,FALSE,FALSE,FALSE,FALSE,FALSE,0,FALSE,FALSE,FALSE,FALSE,98,15.923,2482,2510,15.954,FALSE,3.972,3.983,3.983,3.985,0.015,FALSE,FALSE,NA,87.1,86.9,87,0,0,30,23,10,0,0,,Idle,0,0,FALSE,0,FALSE,3,Go Home,FALSE,FALSE,FALSE,FALSE,FALSE,FALSE,FALSE,FALSE,FALSE,FALSE,FALSE,FALSE,7.346827565,80.94429335,0.7,618.1,,TRUE,1,1,FALSE,FALSE,FALSE,FALSE,,TRUE,FALSE,FALSE,,295.2,,6.5,Calm,18,Linux,0.0.1,DJI Avata,1581F4QWB22C6003,4TTTKBT1A100XF,,4YPXKBWFG101BB,700.8,6.9,393.7,33.084118,13.42164,10,60290,DJI Avata,1581F4QWB22C6003,4TTTKBT1A100XF,,4YPXKBWFG101BB,DJI Fly,Linux,0.0.1,506836E9-49FE-5B48-4C34-69BAADE40894,1581F4QWB22C600307BM,,4TTTKBT1A100XF,,,,,,,,
6/19/2023,03:17.7,0m 14.7s,14.7,7.346829062,80.94429449,5.2,5.2,3.6,463,2.1,0,0,0,0,0,0,0,0,-0.3,1.4,-172.5,187.5,,Normal,Other,,23,5,TRUE,,Avata,TRUE,FALSE,,Smart,RC,FALSE,TRUE,FALSE,,,TRUE,,FALSE,FALSE,FALSE,FALSE,FALSE,FALSE,FALSE,FALSE,FALSE,FALSE,0,Free,0,1.3,-172.2,187.8,FALSE,FALSE,FALSE,FALSE,FALSE,FALSE,,FALSE,Normal,100,100,0,0,0,0,2,FALSE,FALSE,FALSE,FALSE,FALSE,0,FALSE,FALSE,FALSE,FALSE,98,15.923,2482,2510,15.954,FALSE,3.972,3.983,3.983,3.985,0.015,FALSE,FALSE,NA,87.1,86.9,87,0,0,30,23,10,0,0,,Idle,0,0,FALSE,0,FALSE,3,Go Home,FALSE,FALSE,FALSE,FALSE,FALSE,FALSE,FALSE,FALSE,FALSE,FALSE,FALSE,FALSE,7.346827565,80.94429335,0.6,618.1,,TRUE,1,1,FALSE,FALSE,FALSE,FALSE,,TRUE,FALSE,FALSE,,295.2,,6.5,Calm,18,Linux,0.0.1,DJI Avata,1581F4QWB22C6003,4TTTKBT1A100XF,,4YPXKBWFG101BB,700.8,6.9,393.7,33.084118,13.42164,10,60290,DJI Avata,1581F4QWB22C6003,4TTTKBT1A100XF,,4YPXKBWFG101BB,DJI Fly,Linux,0.0.1,506836E9-49FE-5B48-4C34-69BAADE40894,1581F4QWB22C600307BM,,4TTTKBT1A100XF,,,,,,,,
6/19/2023,03:17.9,0m 14.9s,14.9,7.346829115,80.94429424,5.2,5.2,3.6,463,2.1,0,0,0,0,0,0,0,0,-0.2,1.5,-173.6,186.4,,Normal,Other,,22,5,TRUE,,Avata,TRUE,FALSE,,Smart,RC,FALSE,TRUE,FALSE,,,TRUE,,FALSE,FALSE,FALSE,FALSE,FALSE,FALSE,FALSE,FALSE,FALSE,FALSE,0,Free,-0.6,1.4,-172.9,187.1,FALSE,FALSE,FALSE,FALSE,FALSE,FALSE,,FALSE,Normal,100,100,0,0,0,0,2,FALSE,FALSE,FALSE,FALSE,FALSE,0,FALSE,FALSE,FALSE,FALSE,98,15.923,2482,2510,15.928,FALSE,3.972,3.983,3.983,3.985,0.015,FALSE,FALSE,NA,87.1,86.9,87,0,0,30,23,10,0,0,,Idle,0,0,FALSE,0,FALSE,3,Go Home,FALSE,FALSE,FALSE,FALSE,FALSE,FALSE,FALSE,FALSE,FALSE,FALSE,FALSE,FALSE,7.346827565,80.94429335,0.6,618.1,,TRUE,1,1,FALSE,FALSE,FALSE,FALSE,,TRUE,FALSE,FALSE,,295.2,,6.5,Calm,18,Linux,0.0.1,DJI Avata,1581F4QWB22C6003,4TTTKBT1A100XF,,4YPXKBWFG101BB,700.8,6.9,393.7,33.084118,13.42164,10,60290,DJI Avata,1581F4QWB22C6003,4TTTKBT1A100XF,,4YPXKBWFG101BB,DJI Fly,Linux,0.0.1,506836E9-49FE-5B48-4C34-69BAADE40894,1581F4QWB22C600307BM,,4TTTKBT1A100XF,,,,,,,,
