CUSTOM.date [local],CUSTOM.updateTime [local],OSD.flyTime,OSD.flyTime [s],OSD.latitude,OSD.longitude,OSD.height [ft],OSD.heightMax [ft],OSD.vpsHeight [ft],OSD.altitude [ft],OSD.mileage [ft],OSD.hSpeed [MPH],OSD.hSpeedMax [MPH],OSD.xSpeed [MPH],OSD.xSpeedMax [MPH],OSD.ySpeed [MPH],OSD.ySpeedMax [MPH],OSD.zSpeed [MPH],OSD.zSpeedMax [MPH],OSD.pitch,OSD.roll,OSD.yaw,OSD.yaw [360],OSD.directionOfTravel,OSD.flycState,OSD.flycCommand,OSD.flightAction,OSD.gpsNum,OSD.gpsLevel,OSD.isGPSUsed,OSD.nonGPSCause,OSD.droneType,OSD.isSwaveWork,OSD.waveError,OSD.goHomeStatus,OSD.batteryType,OSD.ctrlDevice,OSD.isOnGround,OSD.isMotorOn,OSD.isMotorBlocked,OSD.motorStartFailedCause,OSD.motorFailReason,OSD.isImuPreheated,OSD.imuInitFailReason,OSD.isAcceletorOverRange,OSD.isBarometerDeadInAir,OSD.isCompassError,OSD.isGoHomeHeightModified,OSD.canIOCWork,OSD.isNotEnoughForce,OSD.isOutOfLimit,OSD.isPropellerCatapult,OSD.isVibrating,OSD.isVisionUsed,OSD.voltageWarning,GIMBAL.mode,GIMBAL.pitch,GIMBAL.roll,GIMBAL.yaw,GIMBAL.yaw [360],GIMBAL.isPitchAtLimit,GIMBAL.isRollAtLimit,GIMBAL.isYawAtLimit,GIMBAL.isStuck,CAMERA.isPhoto,CAMERA.isVideo,CAMERA.filename,CAMERA.sdCardIsInserted,CAMERA.sdCardState,RC.downlinkSignal,RC.uplinkSignal,RC.aileron,RC.elevator,RC.throttle,RC.rudder,RC.mode,RC.goHomeDepressed,RC.recordDepressed,RC.shutterDepressed,RC.playbackDepressed,RC.wheelDepressed,RC.wheelOffset,RC.custom1Depressed,RC.custom2Depressed,RC.custom3Depressed,RC.custom4Depressed,BATTERY.chargeLevel,BATTERY.currentPV [V],BATTERY.currentCapacity [mAh],BATTERY.fullCapacity [mAh],BATTERY.voltage [V],BATTERY.isCellVoltageEstimated,BATTERY.cellVoltage1 [V],BATTERY.cellVoltage2 [V],BATTERY.maxCellVoltageDeviation,BATTERY.isCellVoltageDeviationHigh,BATTERY.isVoltageLow,BATTERY.current [A],BATTERY.temperature [F],BATTERY.minTemperature [F],BATTERY.maxTemperature [F],BATTERY.usefulTime [s],BATTERY.goHomeTime [s],BATTERY.landTime [s],BATTERY.goHomeBattery,BATTERY.landBattery,BATTERY.safeFlyRadius,BATTERY.volumeConsume,BATTERY.status,BATTERY.goHomeStatus,BATTERY.goHomeCountdown,BATTERY.lowWarning,BATTERY.lowWarningGoHome,BATTERY.seriousLowWarning,BATTERY.seriousLowWarningLanding,BATTERY.timesCharged,MC.failSafeAction,MC.isObstacleAvoidanceEnabled,MC.isCollisionAvoidanceEnabled,MC.isRthObstacleAvoidanceEnabled,MC.isBraking,MC.isAvoidingObstacle,MC.isAvoidingActiveObstacle,MC.isAscentLimitedByObstacle,MC.isLandingConfirmationNeeded,MC.atLowAltitudeLimit,MC.atDistanceLimit,MC.atAirportAltitudeLimit,MC.atAirportBoundary,HOME.latitude,HOME.longitude,HOME.distance [ft],HOME.height [ft],HOME.heightLimit [ft],HOME.isHomeRecord,HOME.goHomeMode,HOME.aircraftHeadDirection,HOME.isDynamicHomePointEnabled,HOME.isReachedLimitDistance,HOME.isReachedLimitHeight,HOME.isCompassCalibrating,HOME.compassCalibrationState,HOME.isMultipleFlightModeEnabled,HOME.isBeginnerMode,HOME.isIOCEnabled,HOME.iocMode,HOME.goHomeHeight [ft],HOME.courseLockAngle,HOME.forceLandingHeight [ft],HOME.wind,HOME.dataRecorderFileIndex,RECOVER.appType,RECOVER.appVersion,RECOVER.aircraftName,RECOVER.aircraftSerial,RECOVER.cameraSerial,RECOVER.rcSerial,RECOVER.batterySerial,DETAILS.totalTime [s],DETAILS.totalDistance [ft],DETAILS.maxHeight [ft],DETAILS.maxHorizontalSpeed [MPH],DETAILS.maxVerticalSpeed [MPH],DETAILS.photoNum,DETAILS.videoTime [s],DETAILS.aircraftName,DETAILS.aircraftSerial,DETAILS.cameraSerial,DETAILS.rcSerial,DETAILS.batterySerial,DETAILS.appName,DETAILS.appType,DETAILS.appVersion,DETAILS.guid,SERIAL.flightController,SERIAL.camera,SERIAL.gimbal,SERIAL.rc,SERIAL.battery,APPGPS.latitude,APPGPS.longitude,APPGPS.accuracy,APP.tip,APP.warning
1/26/2024,09:23.0,0m 0.0s,0,6.972915105,79.91591284,0,0,0.3,57,0,0,0,0,0,0,0,0,0,1.2,-1.8,29.8,29.8,,Starting Motors,Auto Fly,Takeoff (App Auto),12,4,TRUE,,Mavic Mini,FALSE,FALSE,,Smart,RC,TRUE,TRUE,FALSE,,,TRUE,,FALSE,FALSE,FALSE,FALSE,FALSE,FALSE,FALSE,FALSE,FALSE,FALSE,0,Follow Yaw,0,0,31.9,31.9,FALSE,FALSE,FALSE,FALSE,FALSE,FALSE,,TRUE,Normal,,100,1024,1024,1024,1024,1,FALSE,FALSE,FALSE,FALSE,FALSE,0,FALSE,FALSE,FALSE,FALSE,97,8.201,2174,2230,8.201,TRUE,4.101,4.101,,FALSE,FALSE,NA,84.2,84.2,84.2,,,,,,,,,Idle,,,TRUE,,FALSE,7,Go Home,FALSE,FALSE,FALSE,FALSE,FALSE,FALSE,FALSE,FALSE,FALSE,FALSE,FALSE,FALSE,,,,,,FALSE,,,FALSE,FALSE,FALSE,FALSE,,FALSE,FALSE,FALSE,,,,,Calm,,,1.12.6,Mavic Mini,1SDCH7G0169R0K,1SFLH6Q0AB03DJ,1SRCH7F014TAHX,1U5X071EXP5ZJG,126.6,0.1,3.2,3.722939,2.23694,0,0,Mavic Mini,1SDCH7G0169R0K,1SFLH6Q0AB03DJ,1SRCH7F014TAHX,1U5X071EXP5ZJG,DJI Fly,,1.12.6,AAD56108-21F6-CE5E-2D97-59ADB0DE8303,1SDCH7G0169R0K,,,,,,,,Flight mode changed to Starting Motors.,
1/26/2024,09:23.2,0m 0.1s,0.1,6.972915123,79.91591285,0,0,0.3,57,0,0,0,0,0,0,0,0,0,1.2,-1.8,29.8,29.8,,Starting Motors,Auto Fly,Takeoff (App Auto),12,4,TRUE,,Mavic Mini,FALSE,FALSE,,Smart,RC,TRUE,TRUE,FALSE,,,TRUE,,FALSE,FALSE,FALSE,FALSE,FALSE,FALSE,FALSE,FALSE,FALSE,FALSE,0,Follow Yaw,0,0,31.9,31.9,FALSE,FALSE,FALSE,FALSE,FALSE,FALSE,,TRUE,Normal,,100,1024,1024,1024,1024,1,FALSE,FALSE,FALSE,FALSE,FALSE,0,FALSE,FALSE,FALSE,FALSE,97,8.201,2174,2230,8.201,TRUE,4.101,4.101,,FALSE,FALSE,NA,84.2,84.2,84.2,,,,,,,,,Idle,,,TRUE,,FALSE,7,Go Home,FALSE,FALSE,FALSE,FALSE,FALSE,FALSE,FALSE,FALSE,FALSE,FALSE,FALSE,FALSE,,,,,,FALSE,,,FALSE,FALSE,FALSE,FALSE,,FALSE,FALSE,FALSE,,,,,Calm,,,1.12.6,Mavic Mini,1SDCH7G0169R0K,1SFLH6Q0AB03DJ,1SRCH7F014TAHX,1U5X071EXP5ZJG,126.6,0.1,3.2,3.722939,2.23694,0,0,Mavic Mini,1SDCH7G0169R0K,1SFLH6Q0AB03DJ,1SRCH7F014TAHX,1U5X071EXP5ZJG,DJI Fly,,1.12.6,AAD56108-21F6-CE5E-2D97-59ADB0DE8303,1SDCH7G0169R0K,,,,,,,,,
1/26/2024,09:23.3,0m 0.2s,0.2,6.97291514,79.91591286,0,0,0.3,57,0,0,0,0,0,0,0,0,0,1.2,-1.8,29.8,29.8,,Starting Motors,Auto Fly,Takeoff (App Auto),12,4,TRUE,,Mavic Mini,TRUE,FALSE,,Smart,RC,TRUE,TRUE,FALSE,,,TRUE,,FALSE,FALSE,FALSE,FALSE,FALSE,FALSE,FALSE,FALSE,FALSE,FALSE,0,Follow Yaw,0,0,31.9,31.9,FALSE,FALSE,FALSE,FALSE,FALSE,FALSE,,TRUE,Normal,,100,1024,1024,1024,1024,1,FALSE,FALSE,FALSE,FALSE,FALSE,0,FALSE,FALSE,FALSE,FALSE,97,8.201,2174,2230,8.201,TRUE,4.101,4.101,,FALSE,FALSE,NA,84.2,84.2,84.2,,,,,,,,,Idle,,,TRUE,,FALSE,7,Go Home,FALSE,FALSE,FALSE,FALSE,FALSE,FALSE,FALSE,FALSE,FALSE,FALSE,FALSE,FALSE,,,,,,FALSE,,,FALSE,FALSE,FALSE,FALSE,,FALSE,FALSE,FALSE,,,,,Calm,,,1.12.6,Mavic Mini,1SDCH7G0169R0K,1SFLH6Q0AB03DJ,1SRCH7F014TAHX,1U5X071EXP5ZJG,126.6,0.1,3.2,3.722939,2.23694,0,0,Mavic Mini,1SDCH7G0169R0K,1SFLH6Q0AB03DJ,1SRCH7F014TAHX,1U5X071EXP5ZJG,DJI Fly,,1.12.6,AAD56108-21F6-CE5E-2D97-59ADB0DE8303,1SDCH7G0169R0K,,,,,,,,,
1/26/2024,09:23.4,0m 0.3s,0.3,6.972914984,79.91591285,0,0,0.3,57,0,0,0,0,0,0,0,0,0,1.1,-1.8,29.8,29.8,,Starting Motors,Auto Fly,Takeoff (App Auto),12,4,TRUE,,Mavic Mini,TRUE,FALSE,,Smart,RC,TRUE,TRUE,FALSE,,,TRUE,,FALSE,FALSE,FALSE,FALSE,FALSE,FALSE,FALSE,FALSE,FALSE,FALSE,0,Follow Yaw,0,0,31.9,31.9,FALSE,FALSE,FALSE,FALSE,FALSE,FALSE,,TRUE,Normal,,100,1024,1024,1024,1024,1,FALSE,FALSE,FALSE,FALSE,FALSE,0,FALSE,FALSE,FALSE,FALSE,97,8.197,2174,2230,8.197,FALSE,4.1,4.097,0.003,FALSE,FALSE,NA,84,84,84.2,,,,,,,,,Idle,,,TRUE,,FALSE,7,Go Home,FALSE,FALSE,FALSE,FALSE,FALSE,FALSE,FALSE,FALSE,FALSE,FALSE,FALSE,FALSE,,,,,,FALSE,,,FALSE,FALSE,FALSE,FALSE,,FALSE,FALSE,FALSE,,,,,Calm,,,1.12.6,Mavic Mini,1SDCH7G0169R0K,1SFLH6Q0AB03DJ,1SRCH7F014TAHX,1U5X071EXP5ZJG,126.6,0.1,3.2,3.722939,2.23694,0,0,Mavic Mini,1SDCH7G0169R0K,1SFLH6Q0AB03DJ,1SRCH7F014TAHX,1U5X071EXP5ZJG,DJI Fly,,1.12.6,AAD56108-21F6-CE5E-2D97-59ADB0DE8303,1SDCH7G0169R0K,,,,,,,,,
1/26/2024,09:23.5,0m 0.4s,0.4,6.972914934,79.91591284,0,0,0.3,57,0,0,0,0,0,0,0,0,0,1.1,-1.7,29.7,29.7,,Starting Motors,Auto Fly,Takeoff (App Auto),12,5,TRUE,,Mavic Mini,TRUE,FALSE,,Smart,RC,TRUE,TRUE,FALSE,,,TRUE,,FALSE,FALSE,FALSE,FALSE,FALSE,FALSE,FALSE,FALSE,FALSE,FALSE,0,Follow Yaw,0,0,31.9,31.9,FALSE,FALSE,FALSE,FALSE,FALSE,FALSE,,TRUE,Normal,,100,1024,1024,1024,1024,1,FALSE,FALSE,FALSE,FALSE,FALSE,0,FALSE,FALSE,FALSE,FALSE,97,8.197,2174,2230,8.197,FALSE,4.1,4.097,0.003,FALSE,FALSE,NA,84,84,84.2,,,,,,,,,Idle,,,TRUE,,FALSE,7,Go Home,FALSE,FALSE,FALSE,FALSE,FALSE,FALSE,FALSE,FALSE,FALSE,FALSE,FALSE,FALSE,,,,,,FALSE,,,FALSE,FALSE,FALSE,FALSE,,FALSE,FALSE,FALSE,,,,,Calm,,,1.12.6,Mavic Mini,1SDCH7G0169R0K,1SFLH6Q0AB03DJ,1SRCH7F014TAHX,1U5X071EXP5ZJG,126.6,0.1,3.2,3.722939,2.23694,0,0,Mavic Mini,1SDCH7G0169R0K,1SFLH6Q0AB03DJ,1SRCH7F014TAHX,1U5X071EXP5ZJG,DJI Fly,,1.12.6,AAD56108-21F6-CE5E-2D97-59ADB0DE8303,1SDCH7G0169R0K,,,,,,,,,
1/26/2024,09:23.5,0m 0.5s,0.5,6.972914963,79.91591283,0,0,0.3,57,0,0,0,0,0,0,0,0,0,1.1,-1.9,29.9,29.9,,Starting Motors,Auto Fly,Takeoff (App Auto),12,5,TRUE,,Mavic Mini,TRUE,FALSE,,Smart,RC,TRUE,TRUE,FALSE,,,TRUE,,FALSE,FALSE,FALSE,FALSE,FALSE,FALSE,FALSE,FALSE,FALSE,FALSE,0,Follow Yaw,0,0,31.9,31.9,FALSE,FALSE,FALSE,FALSE,FALSE,FALSE,,TRUE,Normal,,100,1024,1024,1024,1024,1,FALSE,FALSE,FALSE,FALSE,FALSE,0,FALSE,FALSE,FALSE,FALSE,97,8.197,2174,2230,8.197,FALSE,4.1,4.097,0.003,FALSE,FALSE,NA,84,84,84.2,,,,,,,,,Idle,,,TRUE,,FALSE,7,Go Home,FALSE,FALSE,FALSE,FALSE,FALSE,FALSE,FALSE,FALSE,FALSE,FALSE,FALSE,FALSE,,,,,,FALSE,,,FALSE,FALSE,FALSE,FALSE,,FALSE,FALSE,FALSE,,,,,Calm,,,1.12.6,Mavic Mini,1SDCH7G0169R0K,1SFLH6Q0AB03DJ,1SRCH7F014TAHX,1U5X071EXP5ZJG,126.6,0.1,3.2,3.722939,2.23694,0,0,Mavic Mini,1SDCH7G0169R0K,1SFLH6Q0AB03DJ,1SRCH7F014TAHX,1U5X071EXP5ZJG,DJI Fly,,1.12.6,AAD56108-21F6-CE5E-2D97-59ADB0DE8303,1SDCH7G0169R0K,,,,,,,,,
1/26/2024,09:23.7,0m 0.6s,0.6,6.972914991,79.91591282,0,0,0.3,57,0.1,0,0,0,0,0,0,0,0,1.2,-1.8,29.7,29.7,,Starting Motors,Auto Fly,Takeoff (App Auto),12,5,TRUE,,Mavic Mini,TRUE,FALSE,,Smart,RC,TRUE,TRUE,FALSE,,,TRUE,,FALSE,FALSE,FALSE,FALSE,FALSE,FALSE,FALSE,FALSE,FALSE,FALSE,0,Follow Yaw,0,0,31.9,31.9,FALSE,FALSE,FALSE,FALSE,FALSE,FALSE,,TRUE,Normal,,100,1024,1024,1024,1024,1,FALSE,FALSE,FALSE,FALSE,FALSE,0,FALSE,FALSE,FALSE,FALSE,97,8.197,2174,2230,8.179,FALSE,4.1,4.097,0.003,FALSE,FALSE,NA,84,84,84.2,0,1,0,0,5,2385.1,596.29,,Idle,0,20,FALSE,5,TRUE,7,Go Home,FALSE,FALSE,FALSE,FALSE,FALSE,FALSE,FALSE,FALSE,FALSE,FALSE,FALSE,FALSE,6.972910556,79.915918,2.4,,459.3,TRUE,1,1,FALSE,FALSE,FALSE,FALSE,,TRUE,FALSE,FALSE,Course Lock,131.2,52,16.4,Calm,85,,1.12.6,Mavic Mini,1SDCH7G0169R0K,1SFLH6Q0AB03DJ,1SRCH7F014TAHX,1U5X071EXP5ZJG,126.6,0.1,3.2,3.722939,2.23694,0,0,Mavic Mini,1SDCH7G0169R0K,1SFLH6Q0AB03DJ,1SRCH7F014TAHX,1U5X071EXP5ZJG,DJI Fly,,1.12.6,AAD56108-21F6-CE5E-2D97-59ADB0DE8303,1SDCH7G0169R0K,,,,,,,,Data Recorder File Index is 85.; Set Return to Home (RTH) altitude to 40 m (131 ft).; Set maximum flight altitude to 140 m (459 ft).,
1/26/2024,09:23.8,0m 0.7s,0.7,6.972915056,79.91591291,0,0,0.3,57,0.1,0,0,0,0,0,0,0,0,1.2,-1.8,29.7,29.7,,Starting Motors,Auto Fly,Takeoff (App Auto),12,5,TRUE,,Mavic Mini,TRUE,FALSE,,Smart,RC,TRUE,TRUE,FALSE,,,TRUE,,FALSE,FALSE,FALSE,FALSE,FALSE,FALSE,FALSE,FALSE,FALSE,FALSE,0,Follow Yaw,0,0,31.9,31.9,FALSE,FALSE,FALSE,FALSE,FALSE,FALSE,,TRUE,Normal,,100,1024,1024,1024,1024,1,FALSE,FALSE,FALSE,FALSE,FALSE,0,FALSE,FALSE,FALSE,FALSE,97,8.197,2174,2230,8.179,FALSE,4.1,4.097,0.003,FALSE,FALSE,NA,84,84,84.2,0,1,0,0,5,2385.1,596.29,,Idle,0,20,FALSE,5,TRUE,7,Go Home,FALSE,FALSE,FALSE,FALSE,FALSE,FALSE,FALSE,FALSE,FALSE,FALSE,FALSE,FALSE,6.972910556,79.915918,2.4,,459.3,TRUE,1,1,FALSE,FALSE,FALSE,FALSE,,TRUE,FALSE,FALSE,Course Lock,131.2,52,16.4,Calm,85,,1.12.6,Mavic Mini,1SDCH7G0169R0K,1SFLH6Q0AB03DJ,1SRCH7F014TAHX,1U5X071EXP5ZJG,126.6,0.1,3.2,3.722939,2.23694,0,0,Mavic Mini,1SDCH7G0169R0K,1SFLH6Q0AB03DJ,1SRCH7F014TAHX,1U5X071EXP5ZJG,DJI Fly,,1.12.6,AAD56108-21F6-CE5E-2D97-59ADB0DE8303,1SDCH7G0169R0K,,,,,,,,,
1/26/2024,09:23.8,0m 0.8s,0.8,6.972915065,79.91591295,0,0,0.3,57,0.1,0,0,0,0,0,0,0,0,1.2,-1.8,29.7,29.7,,Starting Motors,Auto Fly,Takeoff (App Auto),12,5,TRUE,,Mavic Mini,TRUE,FALSE,,Smart,RC,TRUE,TRUE,FALSE,,,TRUE,,FALSE,FALSE,FALSE,FALSE,FALSE,FALSE,FALSE,FALSE,FALSE,FALSE,0,Follow Yaw,0,0,31.9,31.9,FALSE,FALSE,FALSE,FALSE,FALSE,FALSE,,TRUE,Normal,,100,1024,1024,1024,1024,1,FALSE,FALSE,FALSE,FALSE,FALSE,0,FALSE,FALSE,FALSE,FALSE,97,8.197,2174,2230,8.179,FALSE,4.1,4.097,0.003,FALSE,FALSE,NA,84,84,84.2,0,1,0,0,5,2385.1,596.29,,Idle,0,20,FALSE,5,TRUE,7,Go Home,FALSE,FALSE,FALSE,FALSE,FALSE,FALSE,FALSE,FALSE,FALSE,FALSE,FALSE,FALSE,6.972910556,79.915918,2.4,,459.3,TRUE,1,1,FALSE,FALSE,FALSE,FALSE,,TRUE,FALSE,FALSE,Course Lock,131.2,52,16.4,Calm,85,,1.12.6,Mavic Mini,1SDCH7G0169R0K,1SFLH6Q0AB03DJ,1SRCH7F014TAHX,1U5X071EXP5ZJG,126.6,0.1,3.2,3.722939,2.23694,0,0,Mavic Mini,1SDCH7G0169R0K,1SFLH6Q0AB03DJ,1SRCH7F014TAHX,1U5X071EXP5ZJG,DJI Fly,,1.12.6,AAD56108-21F6-CE5E-2D97-59ADB0DE8303,1SDCH7G0169R0K,,,,,,,,,
1/26/2024,09:23.9,0m 0.9s,0.9,6.972915013,79.91591291,0,0,0.3,57,0.1,0,0,0,0,0,0,0,0,1.1,-1.8,29.7,29.7,,Starting Motors,Auto Fly,Takeoff (App Auto),12,5,TRUE,,Mavic Mini,TRUE,FALSE,,Smart,RC,TRUE,TRUE,FALSE,,,TRUE,,FALSE,FALSE,FALSE,FALSE,FALSE,FALSE,FALSE,FALSE,FALSE,FALSE,0,Follow Yaw,0,0,31.9,31.9,FALSE,FALSE,FALSE,FALSE,FALSE,FALSE,,TRUE,Normal,,100,1024,1024,1024,1024,1,FALSE,FALSE,FALSE,FALSE,FALSE,0,FALSE,FALSE,FALSE,FALSE,97,8.197,2174,2230,8.179,FALSE,4.1,4.097,0.003,FALSE,FALSE,NA,84,84,84.2,0,1,0,0,5,2385.1,596.29,,Idle,0,20,FALSE,5,TRUE,7,Go Home,FALSE,FALSE,FALSE,FALSE,FALSE,FALSE,FALSE,FALSE,FALSE,FALSE,FALSE,FALSE,6.972910556,79.915918,2.4,,459.3,TRUE,1,1,FALSE,FALSE,FALSE,FALSE,,TRUE,FALSE,FALSE,Course Lock,131.2,52,16.4,Calm,85,,1.12.6,Mavic Mini,1SDCH7G0169R0K,1SFLH6Q0AB03DJ,1SRCH7F014TAHX,1U5X071EXP5ZJG,126.6,0.1,3.2,3.722939,2.23694,0,0,Mavic Mini,1SDCH7G0169R0K,1SFLH6Q0AB03DJ,1SRCH7F014TAHX,1U5X071EXP5ZJG,DJI Fly,,1.12.6,AAD56108-21F6-CE5E-2D97-59ADB0DE8303,1SDCH7G0169R0K,,,,,,,,,
1/26/2024,09:24.0,0m 1.0s,1,6.972914962,79.91591286,0,0,0.3,57,0.2,0,0,0,0,0,0,0,0,1.1,-1.8,29.7,29.7,,Starting Motors,Auto Fly,Takeoff (App Auto),12,5,TRUE,,Mavic Mini,TRUE,FALSE,,Smart,RC,TRUE,TRUE,FALSE,,,TRUE,,FALSE,FALSE,FALSE,FALSE,FALSE,FALSE,FALSE,FALSE,FALSE,FALSE,0,Follow Yaw,0,0,31.9,31.9,FALSE,FALSE,FALSE,FALSE,FALSE,FALSE,,TRUE,Normal,,100,1024,1024,1024,1024,1,FALSE,FALSE,FALSE,FALSE,FALSE,0,FALSE,FALSE,FALSE,FALSE,97,8.197,2174,2230,8.179,FALSE,4.1,4.097,0.003,FALSE,FALSE,NA,84,84,84.2,0,1,0,0,5,2385.1,596.29,,Idle,0,20,FALSE,5,TRUE,7,Go Home,FALSE,FALSE,FALSE,FALSE,FALSE,FALSE,FALSE,FALSE,FALSE,FALSE,FALSE,FALSE,6.972910556,79.915918,2.4,,459.3,TRUE,1,1,FALSE,FALSE,FALSE,FALSE,,TRUE,FALSE,FALSE,Course Lock,131.2,52,16.4,Calm,85,,1.12.6,Mavic Mini,1SDCH7G0169R0K,1SFLH6Q0AB03DJ,1SRCH7F014TAHX,1U5X071EXP5ZJG,126.6,0.1,3.2,3.722939,2.23694,0,0,Mavic Mini,1SDCH7G0169R0K,1SFLH6Q0AB03DJ,1SRCH7F014TAHX,1U5X071EXP5ZJG,DJI Fly,,1.12.6,AAD56108-21F6-CE5E-2D97-59ADB0DE8303,1SDCH7G0169R0K,,,,,,,,,
1/26/2024,09:24.1,0m 1.1s,1.1,6.972914981,79.91591288,0,0,0.3,57,0.2,0,0,0,0,0,0,0,0,1.2,-1.8,29.8,29.8,,Auto Takeoff,Auto Fly,Takeoff (App Auto),12,5,TRUE,,Mavic Mini,TRUE,FALSE,,Smart,RC,TRUE,TRUE,FALSE,,,TRUE,,FALSE,FALSE,FALSE,FALSE,FALSE,FALSE,FALSE,FALSE,FALSE,FALSE,0,Follow Yaw,0,0,31.9,31.9,FALSE,FALSE,FALSE,FALSE,FALSE,FALSE,,TRUE,Normal,,100,1024,1024,1024,1024,1,FALSE,FALSE,FALSE,FALSE,FALSE,0,FALSE,FALSE,FALSE,FALSE,97,8.197,2174,2230,8.179,FALSE,4.1,4.097,0.003,FALSE,FALSE,NA,84,84,84.2,0,1,0,0,5,2385.1,596.29,,Idle,0,20,FALSE,5,TRUE,7,Go Home,FALSE,FALSE,FALSE,FALSE,FALSE,FALSE,FALSE,FALSE,FALSE,FALSE,FALSE,FALSE,6.972910556,79.915918,2.4,,459.3,TRUE,1,1,FALSE,FALSE,FALSE,FALSE,,TRUE,FALSE,FALSE,Course Lock,131.2,52,16.4,Calm,85,,1.12.6,Mavic Mini,1SDCH7G0169R0K,1SFLH6Q0AB03DJ,1SRCH7F014TAHX,1U5X071EXP5ZJG,126.6,0.1,3.2,3.722939,2.23694,0,0,Mavic Mini,1SDCH7G0169R0K,1SFLH6Q0AB03DJ,1SRCH7F014TAHX,1U5X071EXP5ZJG,DJI Fly,,1.12.6,AAD56108-21F6-CE5E-2D97-59ADB0DE8303,1SDCH7G0169R0K,,,,,,,,Flight mode changed to Auto Takeoff.,
1/26/2024,09:24.2,0m 1.2s,1.2,6.972915014,79.91591291,0,0,0.3,57,0.2,0,0,0,0,0,0,0,0,1.1,-1.8,29.7,29.7,,Auto Takeoff,Auto Fly,Takeoff (App Auto),12,5,TRUE,,Mavic Mini,TRUE,FALSE,,Smart,RC,TRUE,TRUE,FALSE,,,TRUE,,FALSE,FALSE,FALSE,FALSE,FALSE,FALSE,FALSE,FALSE,FALSE,FALSE,0,Follow Yaw,0,0,31.9,31.9,FALSE,FALSE,FALSE,FALSE,FALSE,FALSE,,TRUE,Normal,,100,1024,1024,1024,1024,1,FALSE,FALSE,FALSE,FALSE,FALSE,0,FALSE,FALSE,FALSE,FALSE,97,8.197,2174,2230,8.179,FALSE,4.1,4.097,0.003,FALSE,FALSE,NA,84,84,84.2,0,1,0,0,5,2385.1,596.29,,Idle,0,20,FALSE,5,TRUE,7,Go Home,FALSE,FALSE,FALSE,FALSE,FALSE,FALSE,FALSE,FALSE,FALSE,FALSE,FALSE,FALSE,6.972910556,79.915918,2.4,,459.3,TRUE,1,1,FALSE,FALSE,FALSE,FALSE,,TRUE,FALSE,FALSE,Course Lock,131.2,52,16.4,Calm,85,,1.12.6,Mavic Mini,1SDCH7G0169R0K,1SFLH6Q0AB03DJ,1SRCH7F014TAHX,1U5X071EXP5ZJG,126.6,0.1,3.2,3.722939,2.23694,0,0,Mavic Mini,1SDCH7G0169R0K,1SFLH6Q0AB03DJ,1SRCH7F014TAHX,1U5X071EXP5ZJG,DJI Fly,,1.12.6,AAD56108-21F6-CE5E-2D97-59ADB0DE8303,1SDCH7G0169R0K,,,,,,,,,
1/26/2024,09:24.3,0m 1.3s,1.3,6.97291503,79.91591292,0,0,0.3,57,0.2,0,0,0,0,0,0,0,0,1.1,-1.8,29.7,29.7,,Auto Takeoff,Auto Fly,Takeoff (App Auto),12,5,TRUE,,Mavic Mini,TRUE,FALSE,,Smart,RC,TRUE,TRUE,FALSE,,,TRUE,,FALSE,FALSE,FALSE,FALSE,FALSE,FALSE,FALSE,FALSE,FALSE,FALSE,0,Follow Yaw,0,0,31.9,31.9,FALSE,FALSE,FALSE,FALSE,FALSE,FALSE,,TRUE,Normal,,100,1024,1024,1024,1024,1,FALSE,FALSE,FALSE,FALSE,FALSE,0,FALSE,FALSE,FALSE,FALSE,97,8.197,2174,2230,8.179,FALSE,4.1,4.097,0.003,FALSE,FALSE,NA,84,84,84.2,0,1,0,0,5,2385.1,596.29,,Idle,0,20,FALSE,5,TRUE,7,Go Home,FALSE,FALSE,FALSE,FALSE,FALSE,FALSE,FALSE,FALSE,FALSE,FALSE,FALSE,FALSE,6.972910556,79.915918,2.4,,459.3,TRUE,1,1,FALSE,FALSE,FALSE,FALSE,,TRUE,FALSE,FALSE,Course Lock,131.2,52,16.4,Calm,85,,1.12.6,Mavic Mini,1SDCH7G0169R0K,1SFLH6Q0AB03DJ,1SRCH7F014TAHX,1U5X071EXP5ZJG,126.6,0.1,3.2,3.722939,2.23694,0,0,Mavic Mini,1SDCH7G0169R0K,1SFLH6Q0AB03DJ,1SRCH7F014TAHX,1U5X071EXP5ZJG,DJI Fly,,1.12.6,AAD56108-21F6-CE5E-2D97-59ADB0DE8303,1SDCH7G0169R0K,,,,,,,,,
1/26/2024,09:24.4,0m 1.4s,1.4,6.972915046,79.91591292,0,0,0.3,57,0.2,0,0,0,0,0,0,0,0,1.1,-1.8,29.7,29.7,,Auto Takeoff,Auto Fly,Takeoff (App Auto),12,5,TRUE,,Mavic Mini,TRUE,FALSE,,Smart,RC,TRUE,TRUE,FALSE,,,TRUE,,FALSE,FALSE,FALSE,FALSE,FALSE,FALSE,FALSE,FALSE,FALSE,FALSE,0,Follow Yaw,0,0,31.9,31.9,FALSE,FALSE,FALSE,FALSE,FALSE,FALSE,,TRUE,Normal,,100,1024,1024,1024,1024,1,FALSE,FALSE,FALSE,FALSE,FALSE,0,FALSE,FALSE,FALSE,FALSE,97,8.172,2173,2230,8.179,FALSE,4.093,4.079,0.014,FALSE,FALSE,NA,84,84,84.2,0,1,0,0,5,2385.1,596.29,,Idle,0,20,FALSE,5,TRUE,7,Go Home,FALSE,FALSE,FALSE,FALSE,FALSE,FALSE,FALSE,FALSE,FALSE,FALSE,FALSE,FALSE,6.972910556,79.915918,2.4,,459.3,TRUE,1,1,FALSE,FALSE,FALSE,FALSE,,TRUE,FALSE,FALSE,Course Lock,131.2,52,16.4,Calm,85,,1.12.6,Mavic Mini,1SDCH7G0169R0K,1SFLH6Q0AB03DJ,1SRCH7F014TAHX,1U5X071EXP5ZJG,126.6,0.1,3.2,3.722939,2.23694,0,0,Mavic Mini,1SDCH7G0169R0K,1SFLH6Q0AB03DJ,1SRCH7F014TAHX,1U5X071EXP5ZJG,DJI Fly,,1.12.6,AAD56108-21F6-CE5E-2D97-59ADB0DE8303,1SDCH7G0169R0K,,,,,,,,,
1/26/2024,09:24.6,0m 1.5s,1.5,6.972915052,79.91591297,0,0,0.3,57,0.2,0,0,0,0,0,0,0,0,1.1,-1.8,29.7,29.7,,Auto Takeoff,Auto Fly,Takeoff (App Auto),12,5,TRUE,,Mavic Mini,TRUE,FALSE,,Smart,RC,TRUE,TRUE,FALSE,,,TRUE,,FALSE,FALSE,FALSE,FALSE,FALSE,FALSE,FALSE,FALSE,FALSE,FALSE,0,Follow Yaw,0,0,31.9,31.9,FALSE,FALSE,FALSE,FALSE,FALSE,FALSE,,TRUE,Normal,,100,1024,1024,1024,1024,1,FALSE,FALSE,FALSE,FALSE,FALSE,0,FALSE,FALSE,FALSE,FALSE,97,8.172,2173,2230,8.179,FALSE,4.093,4.079,0.014,FALSE,FALSE,NA,84,84,84.2,0,1,0,0,5,2385.1,596.29,,Idle,0,20,FALSE,5,TRUE,7,Go Home,FALSE,FALSE,FALSE,FALSE,FALSE,FALSE,FALSE,FALSE,FALSE,FALSE,FALSE,FALSE,6.972910556,79.915918,2.4,,459.3,TRUE,1,1,FALSE,FALSE,FALSE,FALSE,,TRUE,FALSE,FALSE,Course Lock,131.2,52,16.4,Calm,85,,1.12.6,Mavic Mini,1SDCH7G0169R0K,1SFLH6Q0AB03DJ,1SRCH7F014TAHX,1U5X071EXP5ZJG,126.6,0.1,3.2,3.722939,2.23694,0,0,Mavic Mini,1SDCH7G0169R0K,1SFLH6Q0AB03DJ,1SRCH7F014TAHX,1U5X071EXP5ZJG,DJI Fly,,1.12.6,AAD56108-21F6-CE5E-2D97-59ADB0DE8303,1SDCH7G0169R0K,,,,,,,,,
1/26/2024,09:24.7,0m 1.6s,1.6,6.972915089,79.9159131,0,0,0.3,57,0.3,0,0,0,0,0,0,0,0,-0.1,-1.5,29.5,29.5,,Auto Takeoff,Auto Fly,Takeoff (App Auto),12,5,TRUE,,Mavic Mini,TRUE,FALSE,,Smart,RC,TRUE,TRUE,FALSE,,,TRUE,,FALSE,FALSE,FALSE,FALSE,FALSE,FALSE,FALSE,FALSE,FALSE,FALSE,0,Follow Yaw,0,0,31.9,31.9,FALSE,FALSE,FALSE,FALSE,FALSE,FALSE,,TRUE,Normal,,100,1024,1024,1024,1024,1,FALSE,FALSE,FALSE,FALSE,FALSE,0,FALSE,FALSE,FALSE,FALSE,97,8.172,2173,2230,8.157,FALSE,4.093,4.079,0.014,FALSE,FALSE,NA,84,84,84.2,0,1,0,0,5,2464.5,616.14,,Idle,0,20,FALSE,5,TRUE,7,Go Home,FALSE,FALSE,FALSE,FALSE,FALSE,FALSE,FALSE,FALSE,FALSE,FALSE,FALSE,FALSE,6.972910556,79.915918,2.4,,459.3,TRUE,1,1,FALSE,FALSE,FALSE,FALSE,,TRUE,FALSE,FALSE,Course Lock,131.2,52,16.4,Calm,85,,1.12.6,Mavic Mini,1SDCH7G0169R0K,1SFLH6Q0AB03DJ,1SRCH7F014TAHX,1U5X071EXP5ZJG,126.6,0.1,3.2,3.722939,2.23694,0,0,Mavic Mini,1SDCH7G0169R0K,1SFLH6Q0AB03DJ,1SRCH7F014TAHX,1U5X071EXP5ZJG,DJI Fly,,1.12.6,AAD56108-21F6-CE5E-2D97-59ADB0DE8303,1SDCH7G0169R0K,,,,,,,,,
1/26/2024,09:24.8,0m 1.7s,1.7,6.972915123,79.91591311,0,0,0.3,57,0.3,0,0,0,0,0,0,-0.223694,0,-0.2,-1.4,28.7,28.7,,Auto Takeoff,Auto Fly,Takeoff (App Auto),12,5,TRUE,,Mavic Mini,TRUE,FALSE,,Smart,RC,FALSE,TRUE,FALSE,,,TRUE,,FALSE,FALSE,FALSE,FALSE,FALSE,FALSE,FALSE,FALSE,FALSE,FALSE,0,Follow Yaw,0,0,31.9,31.9,FALSE,FALSE,FALSE,FALSE,FALSE,FALSE,,TRUE,Normal,,100,1024,1024,1024,1024,1,FALSE,FALSE,FALSE,FALSE,FALSE,0,FALSE,FALSE,FALSE,FALSE,97,8.172,2173,2230,8.157,FALSE,4.093,4.079,0.014,FALSE,FALSE,NA,84,84,84.2,0,1,0,0,5,2464.5,616.14,,Idle,0,20,FALSE,5,TRUE,7,Go Home,FALSE,FALSE,FALSE,FALSE,FALSE,FALSE,FALSE,FALSE,FALSE,FALSE,FALSE,FALSE,6.972910556,79.915918,2.4,,459.3,TRUE,1,1,FALSE,FALSE,FALSE,FALSE,,TRUE,FALSE,FALSE,Course Lock,131.2,52,16.4,Calm,85,,1.12.6,Mavic Mini,1SDCH7G0169R0K,1SFLH6Q0AB03DJ,1SRCH7F014TAHX,1U5X071EXP5ZJG,126.6,0.1,3.2,3.722939,2.23694,0,0,Mavic Mini,1SDCH7G0169R0K,1SFLH6Q0AB03DJ,1SRCH7F014TAHX,1U5X071EXP5ZJG,DJI Fly,,1.12.6,AAD56108-21F6-CE5E-2D97-59ADB0DE8303,1SDCH7G0169R0K,,,,,,,,,
1/26/2024,09:24.9,0m 1.8s,1.8,6.972915182,79.91591312,0,0,0.3,57,0.3,0.223694,0.223694,0.223694,0.223694,0,0,-0.447388,0,0.6,-1.2,28.4,28.4,8,Auto Takeoff,Auto Fly,Takeoff (App Auto),12,5,TRUE,,Mavic Mini,TRUE,FALSE,,Smart,RC,FALSE,TRUE,FALSE,,,TRUE,,FALSE,FALSE,FALSE,FALSE,FALSE,FALSE,FALSE,FALSE,FALSE,FALSE,0,Follow Yaw,0,0,31.9,31.9,FALSE,FALSE,FALSE,FALSE,FALSE,FALSE,,TRUE,Normal,,100,1024,1024,1024,1024,1,FALSE,FALSE,FALSE,FALSE,FALSE,0,FALSE,FALSE,FALSE,FALSE,97,8.172,2173,2230,8.157,FALSE,4.093,4.079,0.014,FALSE,FALSE,NA,84,84,84.2,0,1,0,0,5,2464.5,616.14,,Idle,0,20,FALSE,5,TRUE,7,Go Home,FALSE,FALSE,FALSE,FALSE,FALSE,FALSE,FALSE,FALSE,TRUE,FALSE,FALSE,FALSE,6.972910556,79.915918,2.4,,459.3,TRUE,1,1,FALSE,FALSE,FALSE,FALSE,,TRUE,FALSE,FALSE,Course Lock,131.2,52,16.4,Calm,85,,1.12.6,Mavic Mini,1SDCH7G0169R0K,1SFLH6Q0AB03DJ,1SRCH7F014TAHX,1U5X071EXP5ZJG,126.6,0.1,3.2,3.722939,2.23694,0,0,Mavic Mini,1SDCH7G0169R0K,1SFLH6Q0AB03DJ,1SRCH7F014TAHX,1U5X071EXP5ZJG,DJI Fly,,1.12.6,AAD56108-21F6-CE5E-2D97-59ADB0DE8303,1SDCH7G0169R0K,,,,,,,,,
1/26/2024,09:25.0,0m 1.9s,1.9,6.972915263,79.91591311,0,0,0.3,57,0.3,0.223694,0.223694,0.223694,0.223694,0,0,-0.894776,0,1.3,0,28.3,28.3,355.6,Auto Takeoff,Auto Fly,Takeoff (App Auto),12,5,TRUE,,Mavic Mini,TRUE,FALSE,,Smart,RC,FALSE,TRUE,FALSE,,,TRUE,,FALSE,FALSE,FALSE,FALSE,FALSE,FALSE,FALSE,FALSE,FALSE,FALSE,0,Follow Yaw,0,0,31.8,31.8,FALSE,FALSE,FALSE,FALSE,FALSE,FALSE,,TRUE,Normal,,100,1024,1024,1024,1024,1,FALSE,FALSE,FALSE,FALSE,FALSE,0,FALSE,FALSE,FALSE,FALSE,97,8.172,2173,2230,8.157,FALSE,4.093,4.079,0.014,FALSE,FALSE,NA,84,84,84.2,0,1,0,0,5,2464.5,616.14,,Idle,0,20,FALSE,5,TRUE,7,Go Home,FALSE,FALSE,FALSE,FALSE,FALSE,FALSE,FALSE,FALSE,TRUE,FALSE,FALSE,FALSE,6.972910556,79.915918,2.4,,459.3,TRUE,1,1,FALSE,FALSE,FALSE,FALSE,,TRUE,FALSE,FALSE,Course Lock,131.2,52,16.4,Calm,85,,1.12.6,Mavic Mini,1SDCH7G0169R0K,1SFLH6Q0AB03DJ,1SRCH7F014TAHX,1U5X071EXP5ZJG,126.6,0.1,3.2,3.722939,2.23694,0,0,Mavic Mini,1SDCH7G0169R0K,1SFLH6Q0AB03DJ,1SRCH7F014TAHX,1U5X071EXP5ZJG,DJI Fly,,1.12.6,AAD56108-21F6-CE5E-2D97-59ADB0DE8303,1SDCH7G0169R0K,,,,,,,,,
1/26/2024,09:25.1,0m 2.0s,2,6.972915308,79.91591308,0,0,0.6,57,0.3,0.223694,0.223694,0.223694,0.223694,0,0,-1.11847,0,1.4,0.1,28.4,28.4,334.8,Auto Takeoff,Auto Fly,Takeoff (App Auto),12,5,TRUE,,Mavic Mini,TRUE,FALSE,,Smart,RC,FALSE,TRUE,FALSE,,,TRUE,,FALSE,FALSE,FALSE,FALSE,FALSE,FALSE,FALSE,FALSE,FALSE,FALSE,0,Follow Yaw,0,0,31.8,31.8,FALSE,FALSE,FALSE,FALSE,FALSE,FALSE,,TRUE,Normal,,100,1024,1024,1024,1024,1,FALSE,FALSE,FALSE,FALSE,FALSE,0,FALSE,FALSE,FALSE,FALSE,97,8.172,2173,2230,8.157,FALSE,4.093,4.079,0.014,FALSE,FALSE,NA,84,84,84.2,0,1,0,0,5,2464.5,616.14,,Idle,0,20,FALSE,5,TRUE,7,Go Home,FALSE,FALSE,FALSE,FALSE,FALSE,FALSE,FALSE,FALSE,TRUE,FALSE,FALSE,FALSE,6.972910556,79.915918,2.4,,459.3,TRUE,1,1,FALSE,FALSE,FALSE,FALSE,,TRUE,FALSE,FALSE,Course Lock,131.2,52,16.4,Calm,85,,1.12.6,Mavic Mini,1SDCH7G0169R0K,1SFLH6Q0AB03DJ,1SRCH7F014TAHX,1U5X071EXP5ZJG,126.6,0.1,3.2,3.722939,2.23694,0,0,Mavic Mini,1SDCH7G0169R0K,1SFLH6Q0AB03DJ,1SRCH7F014TAHX,1U5X071EXP5ZJG,DJI Fly,,1.12.6,AAD56108-21F6-CE5E-2D97-59ADB0DE8303,1SDCH7G0169R0K,,,,,6.972918743,79.91589272,5,,
1/26/2024,09:25.2,0m 2.1s,2.1,6.972915323,79.9159131,0.3,0.3,0.6,58,0.4,0,0.223694,0,0.223694,0,0,-1.342164,0,1.5,0,28.5,28.5,,Auto Takeoff,Auto Fly,Takeoff (App Auto),12,5,TRUE,,Mavic Mini,TRUE,FALSE,,Smart,RC,FALSE,TRUE,FALSE,,,TRUE,,FALSE,FALSE,FALSE,FALSE,FALSE,FALSE,FALSE,FALSE,FALSE,FALSE,0,Follow Yaw,0,0,31.8,31.8,FALSE,FALSE,FALSE,FALSE,FALSE,FALSE,,TRUE,Normal,,100,1024,1024,1024,1024,1,FALSE,FALSE,FALSE,FALSE,FALSE,0,FALSE,FALSE,FALSE,FALSE,97,8.172,2173,2230,8.157,FALSE,4.093,4.079,0.014,FALSE,FALSE,NA,84,84,84.2,0,1,0,0,5,2464.5,616.14,,Idle,0,20,FALSE,5,TRUE,7,Go Home,FALSE,FALSE,FALSE,FALSE,FALSE,FALSE,FALSE,FALSE,TRUE,FALSE,FALSE,FALSE,6.972910556,79.915918,2.4,,459.3,TRUE,1,1,FALSE,FALSE,FALSE,FALSE,,TRUE,FALSE,FALSE,Course Lock,131.2,52,16.4,Calm,85,,1.12.6,Mavic Mini,1SDCH7G0169R0K,1SFLH6Q0AB03DJ,1SRCH7F014TAHX,1U5X071EXP5ZJG,126.6,0.1,3.2,3.722939,2.23694,0,0,Mavic Mini,1SDCH7G0169R0K,1SFLH6Q0AB03DJ,1SRCH7F014TAHX,1U5X071EXP5ZJG,DJI Fly,,1.12.6,AAD56108-21F6-CE5E-2D97-59ADB0DE8303,1SDCH7G0169R0K,,,,,6.972918743,79.91589272,5,,
1/26/2024,09:25.3,0m 2.2s,2.2,6.972915324,79.91591314,0.6,0.6,0.9,58,0.4,0,0.223694,0,0.223694,0,0,-1.565858,0,1.7,-0.3,28.6,28.6,,Auto Takeoff,Auto Fly,Takeoff (App Auto),12,5,TRUE,,Mavic Mini,TRUE,FALSE,,Smart,RC,FALSE,TRUE,FALSE,,,TRUE,,FALSE,FALSE,FALSE,FALSE,FALSE,FALSE,FALSE,FALSE,FALSE,FALSE,0,Follow Yaw,0,0,31.7,31.7,FALSE,FALSE,FALSE,FALSE,FALSE,FALSE,,TRUE,Normal,,100,1024,1024,1024,1024,1,FALSE,FALSE,FALSE,FALSE,FALSE,0,FALSE,FALSE,FALSE,FALSE,97,8.172,2173,2230,8.157,FALSE,4.093,4.079,0.014,FALSE,FALSE,NA,84,84,84.2,0,1,0,0,5,2464.5,616.14,,Idle,0,20,FALSE,5,TRUE,7,Go Home,FALSE,FALSE,FALSE,FALSE,FALSE,FALSE,FALSE,FALSE,TRUE,FALSE,FALSE,FALSE,6.972910556,79.915918,2.4,,459.3,TRUE,1,1,FALSE,FALSE,FALSE,FALSE,,TRUE,FALSE,FALSE,Course Lock,131.2,52,16.4,Calm,85,,1.12.6,Mavic Mini,1SDCH7G0169R0K,1SFLH6Q0AB03DJ,1SRCH7F014TAHX,1U5X071EXP5ZJG,126.6,0.1,3.2,3.722939,2.23694,0,0,Mavic Mini,1SDCH7G0169R0K,1SFLH6Q0AB03DJ,1SRCH7F014TAHX,1U5X071EXP5ZJG,DJI Fly,,1.12.6,AAD56108-21F6-CE5E-2D97-59ADB0DE8303,1SDCH7G0169R0K,,,,,6.972918743,79.91589272,5,,
1/26/2024,09:25.4,0m 2.3s,2.3,6.972915365,79.91591318,0.6,0.6,0.9,58,0.4,0,0.223694,0,0.223694,0,0,-1.789552,0,1.8,-0.4,28.6,28.6,,Auto Takeoff,Auto Fly,Takeoff (App Auto),12,5,TRUE,,Mavic Mini,TRUE,FALSE,,Smart,RC,FALSE,TRUE,FALSE,,,TRUE,,FALSE,FALSE,FALSE,FALSE,FALSE,FALSE,FALSE,FALSE,FALSE,FALSE,0,Follow Yaw,0,0,31.7,31.7,FALSE,FALSE,FALSE,FALSE,FALSE,FALSE,,TRUE,Normal,,100,1024,1024,1024,1024,1,FALSE,FALSE,FALSE,FALSE,FALSE,0,FALSE,FALSE,FALSE,FALSE,97,8.172,2173,2230,8.157,FALSE,4.093,4.079,0.014,FALSE,FALSE,NA,84,84,84.2,0,1,0,0,5,2464.5,616.14,,Idle,0,20,FALSE,5,TRUE,7,Go Home,FALSE,FALSE,FALSE,FALSE,FALSE,FALSE,FALSE,FALSE,TRUE,FALSE,FALSE,FALSE,6.972910556,79.915918,2.4,,459.3,TRUE,1,1,FALSE,FALSE,FALSE,FALSE,,TRUE,FALSE,FALSE,Course Lock,131.2,52,16.4,Calm,85,,1.12.6,Mavic Mini,1SDCH7G0169R0K,1SFLH6Q0AB03DJ,1SRCH7F014TAHX,1U5X071EXP5ZJG,126.6,0.1,3.2,3.722939,2.23694,0,0,Mavic Mini,1SDCH7G0169R0K,1SFLH6Q0AB03DJ,1SRCH7F014TAHX,1U5X071EXP5ZJG,DJI Fly,,1.12.6,AAD56108-21F6-CE5E-2D97-59ADB0DE8303,1SDCH7G0169R0K,,,,,6.972918743,79.91589272,5,,
1/26/2024,09:25.4,0m 2.4s,2.4,6.97291532,79.91591319,0.9,0.9,1.3,58,0.4,0,0.223694,0,0.223694,0,0,-1.789552,0,1.8,-0.6,28.5,28.5,,Auto Takeoff,Auto Fly,Takeoff (App Auto),12,5,TRUE,,Mavic Mini,TRUE,FALSE,,Smart,RC,FALSE,TRUE,FALSE,,,TRUE,,FALSE,FALSE,FALSE,FALSE,FALSE,FALSE,FALSE,FALSE,FALSE,FALSE,0,Follow Yaw,0,0,31.7,31.7,FALSE,FALSE,FALSE,FALSE,FALSE,FALSE,,TRUE,Normal,,100,1024,1024,1024,1024,1,FALSE,FALSE,FALSE,FALSE,FALSE,0,FALSE,FALSE,FALSE,FALSE,97,8.172,2173,2230,8.157,FALSE,4.093,4.079,0.014,FALSE,FALSE,NA,84,84,84.2,0,1,0,0,5,2464.5,616.14,,Idle,0,20,FALSE,5,TRUE,7,Go Home,FALSE,FALSE,FALSE,FALSE,FALSE,FALSE,FALSE,FALSE,TRUE,FALSE,FALSE,FALSE,6.972910556,79.915918,2.4,,459.3,TRUE,1,1,FALSE,FALSE,FALSE,FALSE,,TRUE,FALSE,FALSE,Course Lock,131.2,52,16.4,Calm,85,,1.12.6,Mavic Mini,1SDCH7G0169R0K,1SFLH6Q0AB03DJ,1SRCH7F014TAHX,1U5X071EXP5ZJG,126.6,0.1,3.2,3.722939,2.23694,0,0,Mavic Mini,1SDCH7G0169R0K,1SFLH6Q0AB03DJ,1SRCH7F014TAHX,1U5X071EXP5ZJG,DJI Fly,,1.12.6,AAD56108-21F6-CE5E-2D97-59ADB0DE8303,1SDCH7G0169R0K,,,,,6.972918743,79.91589272,5,,
1/26/2024,09:25.5,0m 2.5s,2.5,6.97291533,79.91591329,1.3,1.3,1.6,58,0.4,0,0.223694,0,0.223694,0,0,-2.013246,0,1.6,-0.8,28.5,28.5,,Auto Takeoff,Auto Fly,Takeoff (App Auto),12,5,TRUE,,Mavic Mini,TRUE,FALSE,,Smart,RC,FALSE,TRUE,FALSE,,,TRUE,,FALSE,FALSE,FALSE,FALSE,FALSE,FALSE,FALSE,FALSE,FALSE,FALSE,0,Follow Yaw,0,0,31.6,31.6,FALSE,FALSE,FALSE,FALSE,FALSE,FALSE,,TRUE,Normal,,100,1024,1024,1024,1024,1,FALSE,FALSE,FALSE,FALSE,FALSE,0,FALSE,FALSE,FALSE,FALSE,97,8.172,2173,2230,8.157,FALSE,4.093,4.079,0.014,FALSE,FALSE,NA,84,84,84.2,0,1,0,0,5,2464.5,616.14,,Idle,0,20,FALSE,5,TRUE,7,Go Home,FALSE,FALSE,FALSE,FALSE,FALSE,FALSE,FALSE,FALSE,TRUE,FALSE,FALSE,FALSE,6.972910556,79.915918,2.4,,459.3,TRUE,1,1,FALSE,FALSE,FALSE,FALSE,,TRUE,FALSE,FALSE,Course Lock,131.2,52,16.4,Calm,85,,1.12.6,Mavic Mini,1SDCH7G0169R0K,1SFLH6Q0AB03DJ,1SRCH7F014TAHX,1U5X071EXP5ZJG,126.6,0.1,3.2,3.722939,2.23694,0,0,Mavic Mini,1SDCH7G0169R0K,1SFLH6Q0AB03DJ,1SRCH7F014TAHX,1U5X071EXP5ZJG,DJI Fly,,1.12.6,AAD56108-21F6-CE5E-2D97-59ADB0DE8303,1SDCH7G0169R0K,,,,,6.972918743,79.91589272,5,,
1/26/2024,09:25.6,0m 2.6s,2.6,6.972915336,79.91591339,1.6,1.6,1.9,59,0.5,0,0.223694,0,0.223694,0,0,-2.23694,0,1.9,-0.8,28.5,28.5,,Auto Takeoff,Auto Fly,Takeoff (App Auto),12,5,TRUE,,Mavic Mini,TRUE,FALSE,,Smart,RC,FALSE,TRUE,FALSE,,,TRUE,,FALSE,FALSE,FALSE,FALSE,FALSE,FALSE,FALSE,FALSE,FALSE,FALSE,0,Follow Yaw,0,0,31.6,31.6,FALSE,FALSE,FALSE,FALSE,FALSE,FALSE,,TRUE,Normal,,100,1024,1024,1024,1024,1,FALSE,FALSE,FALSE,FALSE,FALSE,0,FALSE,FALSE,FALSE,FALSE,97,7.942,2172,2230,8.164,FALSE,3.972,3.97,0.014,FALSE,FALSE,NA,84,84,84.2,0,0,0,0,5,2464.5,616.14,,Idle,0,20,FALSE,5,TRUE,7,Go Home,FALSE,FALSE,FALSE,FALSE,FALSE,FALSE,FALSE,FALSE,TRUE,FALSE,FALSE,FALSE,6.972915133,79.91591311,0.1,,459.3,TRUE,1,1,FALSE,FALSE,FALSE,FALSE,,TRUE,FALSE,FALSE,Course Lock,131.2,52,16.4,Calm,85,,1.12.6,Mavic Mini,1SDCH7G0169R0K,1SFLH6Q0AB03DJ,1SRCH7F014TAHX,1U5X071EXP5ZJG,126.6,0.1,3.2,3.722939,2.23694,0,0,Mavic Mini,1SDCH7G0169R0K,1SFLH6Q0AB03DJ,1SRCH7F014TAHX,1U5X071EXP5ZJG,DJI Fly,,1.12.6,AAD56108-21F6-CE5E-2D97-59ADB0DE8303,1SDCH7G0169R0K,,,,,6.972918743,79.91589272,5,Home Point Updated.,
1/26/2024,09:25.7,0m 2.7s,2.7,6.972915339,79.91591343,1.9,1.9,2.2,59,0.5,0,0.223694,0,0.223694,0,0,-2.23694,0,1.6,-0.9,28.5,28.5,,Auto Takeoff,Auto Fly,Takeoff (App Auto),12,5,TRUE,,Mavic Mini,TRUE,FALSE,,Smart,RC,FALSE,TRUE,FALSE,,,TRUE,,FALSE,FALSE,FALSE,FALSE,FALSE,FALSE,FALSE,FALSE,FALSE,FALSE,0,Follow Yaw,0,0,31.6,31.6,FALSE,FALSE,FALSE,FALSE,FALSE,FALSE,,TRUE,Normal,,100,1024,1024,1024,1024,1,FALSE,FALSE,FALSE,FALSE,FALSE,0,FALSE,FALSE,FALSE,FALSE,97,7.942,2172,2230,8.164,FALSE,3.972,3.97,0.014,FALSE,FALSE,NA,84,84,84.2,0,0,0,0,5,2464.5,616.14,,Idle,0,20,FALSE,5,TRUE,7,Go Home,FALSE,FALSE,FALSE,FALSE,FALSE,FALSE,FALSE,FALSE,TRUE,FALSE,FALSE,FALSE,6.972915133,79.91591311,0.1,,459.3,TRUE,1,1,FALSE,FALSE,FALSE,FALSE,,TRUE,FALSE,FALSE,Course Lock,131.2,52,16.4,Calm,85,,1.12.6,Mavic Mini,1SDCH7G0169R0K,1SFLH6Q0AB03DJ,1SRCH7F014TAHX,1U5X071EXP5ZJG,126.6,0.1,3.2,3.722939,2.23694,0,0,Mavic Mini,1SDCH7G0169R0K,1SFLH6Q0AB03DJ,1SRCH7F014TAHX,1U5X071EXP5ZJG,DJI Fly,,1.12.6,AAD56108-21F6-CE5E-2D97-59ADB0DE8303,1SDCH7G0169R0K,,,,,6.972918743,79.91589272,5,Home Point updated. RTH altitude adjusted to 40 m! (Code: 120852).,
1/26/2024,09:25.8,0m 2.8s,2.8,6.972915316,79.91591348,2.2,2.2,2.6,59,0.5,0,0.223694,0,0.223694,0,0,-2.23694,0,1.5,-1,28.5,28.5,,Auto Takeoff,Auto Fly,Takeoff (App Auto),12,5,TRUE,,Mavic Mini,TRUE,FALSE,,Smart,RC,FALSE,TRUE,FALSE,,,TRUE,,FALSE,FALSE,FALSE,FALSE,FALSE,FALSE,FALSE,FALSE,FALSE,FALSE,0,Follow Yaw,0,0,31.6,31.6,FALSE,FALSE,FALSE,FALSE,FALSE,FALSE,,TRUE,Normal,,100,1024,1024,1024,1024,1,FALSE,FALSE,FALSE,FALSE,FALSE,0,FALSE,FALSE,FALSE,FALSE,97,7.942,2172,2230,8.164,FALSE,3.972,3.97,0.014,FALSE,FALSE,NA,84,84,84.2,0,0,0,0,5,2464.5,616.14,,Idle,0,20,FALSE,5,TRUE,7,Go Home,FALSE,FALSE,FALSE,FALSE,FALSE,FALSE,FALSE,FALSE,TRUE,FALSE,FALSE,FALSE,6.972915133,79.91591311,0.1,,459.3,TRUE,1,1,FALSE,FALSE,FALSE,FALSE,,TRUE,FALSE,FALSE,Course Lock,131.2,52,16.4,Calm,85,,1.12.6,Mavic Mini,1SDCH7G0169R0K,1SFLH6Q0AB03DJ,1SRCH7F014TAHX,1U5X071EXP5ZJG,126.6,0.1,3.2,3.722939,2.23694,0,0,Mavic Mini,1SDCH7G0169R0K,1SFLH6Q0AB03DJ,1SRCH7F014TAHX,1U5X071EXP5ZJG,DJI Fly,,1.12.6,AAD56108-21F6-CE5E-2D97-59ADB0DE8303,1SDCH7G0169R0K,,,,,6.972918743,79.91589272,5,,
1/26/2024,09:25.9,0m 2.9s,2.9,6.97291528,79.9159135,2.9,2.9,2.9,60,0.5,0,0.223694,0,0.223694,0,0,-2.23694,0,1.2,-1.2,28.6,28.6,,P-GPS,Auto Fly,,12,5,TRUE,,Mavic Mini,TRUE,FALSE,,Smart,RC,FALSE,TRUE,FALSE,,,TRUE,,FALSE,FALSE,FALSE,FALSE,FALSE,FALSE,FALSE,FALSE,FALSE,FALSE,0,Follow Yaw,0,0,31.6,31.6,FALSE,FALSE,FALSE,FALSE,FALSE,FALSE,,TRUE,Normal,,100,1024,1024,1024,1024,1,FALSE,FALSE,FALSE,FALSE,FALSE,0,FALSE,FALSE,FALSE,FALSE,97,7.942,2172,2230,8.164,FALSE,3.972,3.97,0.014,FALSE,FALSE,NA,84,84,84.2,0,0,0,0,5,2464.5,616.14,,Idle,0,20,FALSE,5,TRUE,7,Go Home,FALSE,FALSE,FALSE,FALSE,FALSE,FALSE,FALSE,FALSE,TRUE,FALSE,FALSE,FALSE,6.972915133,79.91591311,0.1,,459.3,TRUE,1,1,FALSE,FALSE,FALSE,FALSE,,TRUE,FALSE,FALSE,Course Lock,131.2,52,16.4,Calm,85,,1.12.6,Mavic Mini,1SDCH7G0169R0K,1SFLH6Q0AB03DJ,1SRCH7F014TAHX,1U5X071EXP5ZJG,126.6,0.1,3.2,3.722939,2.23694,0,0,Mavic Mini,1SDCH7G0169R0K,1SFLH6Q0AB03DJ,1SRCH7F014TAHX,1U5X071EXP5ZJG,DJI Fly,,1.12.6,AAD56108-21F6-CE5E-2D97-59ADB0DE8303,1SDCH7G0169R0K,,,,,6.972918743,79.91589272,5,Flight mode changed to P-GPS.,
1/26/2024,09:26.1,0m 3.0s,3,6.972915241,79.91591352,3.2,3.2,3.2,60,0.5,0,0.223694,0,0.223694,0,0,-1.789552,0,1.1,-1.2,29,29,,P-GPS,Auto Fly,,12,5,TRUE,,Mavic Mini,TRUE,FALSE,,Smart,RC,FALSE,TRUE,FALSE,,,TRUE,,FALSE,FALSE,FALSE,FALSE,FALSE,FALSE,FALSE,FALSE,FALSE,FALSE,0,Follow Yaw,0,0,31.6,31.6,FALSE,FALSE,FALSE,FALSE,FALSE,FALSE,,TRUE,Normal,,100,1024,1024,1024,1024,1,FALSE,FALSE,FALSE,FALSE,FALSE,0,FALSE,FALSE,FALSE,FALSE,97,7.942,2172,2230,8.164,FALSE,3.972,3.97,0.014,FALSE,FALSE,NA,84,84,84.2,0,0,0,0,5,2464.5,616.14,,Idle,0,20,FALSE,5,TRUE,7,Go Home,FALSE,FALSE,FALSE,FALSE,FALSE,FALSE,FALSE,FALSE,TRUE,FALSE,FALSE,FALSE,6.972915133,79.91591311,0.1,,459.3,TRUE,1,1,FALSE,FALSE,FALSE,FALSE,,TRUE,FALSE,FALSE,Course Lock,131.2,52,16.4,Calm,85,,1.12.6,Mavic Mini,1SDCH7G0169R0K,1SFLH6Q0AB03DJ,1SRCH7F014TAHX,1U5X071EXP5ZJG,126.6,0.1,3.2,3.722939,2.23694,0,0,Mavic Mini,1SDCH7G0169R0K,1SFLH6Q0AB03DJ,1SRCH7F014TAHX,1U5X071EXP5ZJG,DJI Fly,,1.12.6,AAD56108-21F6-CE5E-2D97-59ADB0DE8303,1SDCH7G0169R0K,,,,,6.972918743,79.91589272,5,,
1/26/2024,09:26.2,0m 3.1s,3.1,6.972915206,79.91591354,3.2,3.2,3.6,60,0.6,0,0.223694,0,0.223694,0,0,-1.342164,0,1,-1.2,29.5,29.5,,P-GPS,Auto Fly,,12,5,TRUE,,Mavic Mini,TRUE,FALSE,,Smart,RC,FALSE,TRUE,FALSE,,,TRUE,,FALSE,FALSE,FALSE,FALSE,FALSE,FALSE,FALSE,FALSE,FALSE,FALSE,0,Follow Yaw,0,0,31.6,31.6,FALSE,FALSE,FALSE,FALSE,FALSE,FALSE,,TRUE,Normal,,100,1024,1024,1024,1024,1,FALSE,FALSE,FALSE,FALSE,FALSE,0,FALSE,FALSE,FALSE,FALSE,97,7.942,2172,2230,8.164,FALSE,3.972,3.97,0.014,FALSE,FALSE,NA,84,84,84.2,0,0,0,0,5,2464.5,616.14,,Idle,0,20,FALSE,5,TRUE,7,Go Home,FALSE,FALSE,FALSE,FALSE,FALSE,FALSE,FALSE,FALSE,TRUE,FALSE,FALSE,FALSE,6.972915133,79.91591311,0.1,,459.3,TRUE,1,1,FALSE,FALSE,FALSE,FALSE,,TRUE,FALSE,FALSE,Course Lock,131.2,52,16.4,Calm,85,,1.12.6,Mavic Mini,1SDCH7G0169R0K,1SFLH6Q0AB03DJ,1SRCH7F014TAHX,1U5X071EXP5ZJG,126.6,0.1,3.2,3.722939,2.23694,0,0,Mavic Mini,1SDCH7G0169R0K,1SFLH6Q0AB03DJ,1SRCH7F014TAHX,1U5X071EXP5ZJG,DJI Fly,,1.12.6,AAD56108-21F6-CE5E-2D97-59ADB0DE8303,1SDCH7G0169R0K,,,,,6.972918743,79.91589272,5,,
1/26/2024,09:26.3,0m 3.2s,3.2,6.972915173,79.91591355,3.6,3.6,3.6,61,0.6,0,0.223694,0,0.223694,0,0,-0.894776,0,0.9,-1.3,29.8,29.8,,P-GPS,Auto Fly,,12,5,TRUE,,Mavic Mini,TRUE,FALSE,,Smart,RC,FALSE,TRUE,FALSE,,,TRUE,,FALSE,FALSE,FALSE,FALSE,FALSE,FALSE,FALSE,FALSE,FALSE,FALSE,0,Follow Yaw,0,0,31.6,31.6,FALSE,FALSE,FALSE,FALSE,FALSE,FALSE,,TRUE,Normal,,100,1024,1024,1024,1024,1,FALSE,FALSE,FALSE,FALSE,FALSE,0,FALSE,FALSE,FALSE,FALSE,97,7.942,2172,2230,8.164,FALSE,3.972,3.97,0.014,FALSE,FALSE,NA,84,84,84.2,0,0,0,0,5,2464.5,616.14,,Idle,0,20,FALSE,5,TRUE,7,Go Home,FALSE,FALSE,FALSE,FALSE,FALSE,FALSE,FALSE,FALSE,TRUE,FALSE,FALSE,FALSE,6.972915133,79.91591311,0.1,,459.3,TRUE,1,1,FALSE,FALSE,FALSE,FALSE,,TRUE,FALSE,FALSE,Course Lock,131.2,52,16.4,Calm,85,,1.12.6,Mavic Mini,1SDCH7G0169R0K,1SFLH6Q0AB03DJ,1SRCH7F014TAHX,1U5X071EXP5ZJG,126.6,0.1,3.2,3.722939,2.23694,0,0,Mavic Mini,1SDCH7G0169R0K,1SFLH6Q0AB03DJ,1SRCH7F014TAHX,1U5X071EXP5ZJG,DJI Fly,,1.12.6,AAD56108-21F6-CE5E-2D97-59ADB0DE8303,1SDCH7G0169R0K,,,,,6.972918743,79.91589272,5,,
1/26/2024,09:26.4,0m 3.3s,3.3,6.972914987,79.91591351,3.6,3.6,3.9,61,0.6,0,0.223694,0,0.223694,0,0,-0.447388,0,0.6,-1.3,30,30,,P-GPS,Auto Fly,,12,5,TRUE,,Mavic Mini,TRUE,FALSE,,Smart,RC,FALSE,TRUE,FALSE,,,TRUE,,FALSE,FALSE,FALSE,FALSE,FALSE,FALSE,FALSE,FALSE,FALSE,FALSE,0,Follow Yaw,0,0,31.6,31.6,FALSE,FALSE,FALSE,FALSE,FALSE,FALSE,,TRUE,Normal,,100,1024,1024,1024,1024,1,FALSE,FALSE,FALSE,FALSE,FALSE,0,FALSE,FALSE,FALSE,FALSE,97,7.942,2172,2230,8.164,FALSE,3.972,3.97,0.014,FALSE,FALSE,NA,84,84,84.2,0,0,0,0,5,2464.5,616.14,,Idle,0,20,FALSE,5,TRUE,7,Go Home,FALSE,FALSE,FALSE,FALSE,FALSE,FALSE,FALSE,FALSE,TRUE,FALSE,FALSE,FALSE,6.972915133,79.91591311,0.1,,459.3,TRUE,1,1,FALSE,FALSE,FALSE,FALSE,,TRUE,FALSE,FALSE,Course Lock,131.2,52,16.4,Calm,85,,1.12.6,Mavic Mini,1SDCH7G0169R0K,1SFLH6Q0AB03DJ,1SRCH7F014TAHX,1U5X071EXP5ZJG,126.6,0.1,3.2,3.722939,2.23694,0,0,Mavic Mini,1SDCH7G0169R0K,1SFLH6Q0AB03DJ,1SRCH7F014TAHX,1U5X071EXP5ZJG,DJI Fly,,1.12.6,AAD56108-21F6-CE5E-2D97-59ADB0DE8303,1SDCH7G0169R0K,,,,,6.972918743,79.91589272,5,,
1/26/2024,09:26.6,0m 3.4s,3.4,6.972914932,79.91591352,3.6,3.6,3.9,61,0.7,0,0.223694,0,0.223694,0,0,0,0,0.5,-1.3,30.2,30.2,,P-GPS,Auto Fly,,12,5,TRUE,,Mavic Mini,TRUE,FALSE,,Smart,RC,FALSE,TRUE,FALSE,,,TRUE,,FALSE,FALSE,FALSE,FALSE,FALSE,FALSE,FALSE,FALSE,FALSE,FALSE,0,Follow Yaw,0,0,31.6,31.6,FALSE,FALSE,FALSE,FALSE,FALSE,FALSE,,TRUE,Normal,,100,1024,1024,1024,1024,1,FALSE,FALSE,FALSE,FALSE,FALSE,0,FALSE,FALSE,FALSE,FALSE,97,7.942,2172,2230,8.164,FALSE,3.972,3.97,0.014,FALSE,FALSE,NA,84,84,84.2,0,0,0,0,5,2464.5,616.14,,Idle,0,20,FALSE,5,TRUE,7,Go Home,FALSE,FALSE,FALSE,FALSE,FALSE,FALSE,FALSE,FALSE,TRUE,FALSE,FALSE,FALSE,6.972915133,79.91591311,0.1,,459.3,TRUE,1,1,FALSE,FALSE,FALSE,FALSE,,TRUE,FALSE,FALSE,Course Lock,131.2,52,16.4,Calm,85,,1.12.6,Mavic Mini,1SDCH7G0169R0K,1SFLH6Q0AB03DJ,1SRCH7F014TAHX,1U5X071EXP5ZJG,126.6,0.1,3.2,3.722939,2.23694,0,0,Mavic Mini,1SDCH7G0169R0K,1SFLH6Q0AB03DJ,1SRCH7F014TAHX,1U5X071EXP5ZJG,DJI Fly,,1.12.6,AAD56108-21F6-CE5E-2D97-59ADB0DE8303,1SDCH7G0169R0K,,,,,6.972918743,79.91589272,5,,
1/26/2024,09:26.7,0m 3.5s,3.5,6.972914935,79.91591348,3.9,3.9,3.9,61,0.7,0,0.223694,0,0.223694,0,0,0,0,0.5,-1.2,30.4,30.4,,P-GPS,Auto Fly,,12,5,TRUE,,Mavic Mini,TRUE,FALSE,,Smart,RC,FALSE,TRUE,FALSE,,,TRUE,,FALSE,FALSE,FALSE,FALSE,FALSE,FALSE,FALSE,FALSE,FALSE,FALSE,0,Follow Yaw,0,0,31.6,31.6,FALSE,FALSE,FALSE,FALSE,FALSE,FALSE,,TRUE,Normal,,100,1024,1024,1024,1024,1,FALSE,FALSE,FALSE,FALSE,FALSE,0,FALSE,FALSE,FALSE,FALSE,97,7.942,2172,2230,8.164,FALSE,3.972,3.97,0.014,FALSE,FALSE,NA,84,84,84.2,0,0,0,0,5,2464.5,616.14,,Idle,0,20,FALSE,5,TRUE,7,Go Home,FALSE,FALSE,FALSE,FALSE,FALSE,FALSE,FALSE,FALSE,TRUE,FALSE,FALSE,FALSE,6.972915133,79.91591311,0.1,,459.3,TRUE,1,1,FALSE,FALSE,FALSE,FALSE,,TRUE,FALSE,FALSE,Course Lock,131.2,52,16.4,Calm,85,,1.12.6,Mavic Mini,1SDCH7G0169R0K,1SFLH6Q0AB03DJ,1SRCH7F014TAHX,1U5X071EXP5ZJG,126.6,0.1,3.2,3.722939,2.23694,0,0,Mavic Mini,1SDCH7G0169R0K,1SFLH6Q0AB03DJ,1SRCH7F014TAHX,1U5X071EXP5ZJG,DJI Fly,,1.12.6,AAD56108-21F6-CE5E-2D97-59ADB0DE8303,1SDCH7G0169R0K,,,,,6.972918743,79.91589272,5,,
1/26/2024,09:26.7,0m 3.6s,3.6,6.972914948,79.91591343,3.9,3.9,3.9,61,0.7,0,0.223694,0,0.223694,0,0,0,0,0.5,-1,30.6,30.6,,P-GPS,Auto Fly,,12,5,TRUE,,Mavic Mini,TRUE,FALSE,,Smart,RC,FALSE,TRUE,FALSE,,,TRUE,,FALSE,FALSE,FALSE,FALSE,FALSE,FALSE,FALSE,FALSE,FALSE,FALSE,0,Follow Yaw,0,0,31.6,31.6,FALSE,FALSE,FALSE,FALSE,FALSE,FALSE,,TRUE,Normal,,100,1024,1024,1024,1024,1,FALSE,FALSE,FALSE,FALSE,FALSE,0,FALSE,FALSE,FALSE,FALSE,97,7.942,2172,2230,7.942,FALSE,3.972,3.97,0.014,FALSE,FALSE,NA,84,84,84.2,0,0,0,0,5,3004.3,751.07,,Idle,0,20,FALSE,5,TRUE,7,Go Home,FALSE,FALSE,FALSE,FALSE,FALSE,FALSE,FALSE,FALSE,TRUE,FALSE,FALSE,FALSE,6.972915133,79.91591311,0.1,,459.3,TRUE,1,1,FALSE,FALSE,FALSE,FALSE,,TRUE,FALSE,FALSE,Course Lock,131.2,52,16.4,Calm,85,,1.12.6,Mavic Mini,1SDCH7G0169R0K,1SFLH6Q0AB03DJ,1SRCH7F014TAHX,1U5X071EXP5ZJG,126.6,0.1,3.2,3.722939,2.23694,0,0,Mavic Mini,1SDCH7G0169R0K,1SFLH6Q0AB03DJ,1SRCH7F014TAHX,1U5X071EXP5ZJG,DJI Fly,,1.12.6,AAD56108-21F6-CE5E-2D97-59ADB0DE8303,1SDCH7G0169R0K,,,,,6.972918743,79.91589272,5,,
1/26/2024,09:26.8,0m 3.7s,3.7,6.972915344,79.91591329,3.9,3.9,3.9,61,0.8,0,0.223694,0,0.223694,0,0,0,0,0.5,-1,30.8,30.8,,P-GPS,Auto Fly,,12,5,TRUE,,Mavic Mini,TRUE,FALSE,,Smart,RC,FALSE,TRUE,FALSE,,,TRUE,,FALSE,FALSE,FALSE,FALSE,FALSE,FALSE,FALSE,FALSE,FALSE,FALSE,0,Follow Yaw,0,0,31.6,31.6,FALSE,FALSE,FALSE,FALSE,FALSE,FALSE,,TRUE,Normal,,100,1024,1024,1024,1024,1,FALSE,FALSE,FALSE,FALSE,FALSE,0,FALSE,FALSE,FALSE,FALSE,97,7.942,2172,2230,7.942,FALSE,3.972,3.97,0.014,FALSE,FALSE,NA,84,84,84.2,0,0,0,0,5,3004.3,751.07,,Idle,0,20,FALSE,5,TRUE,7,Go Home,FALSE,FALSE,FALSE,FALSE,FALSE,FALSE,FALSE,FALSE,TRUE,FALSE,FALSE,FALSE,6.972915133,79.91591311,0.1,,459.3,TRUE,1,1,FALSE,FALSE,FALSE,FALSE,,TRUE,FALSE,FALSE,Course Lock,131.2,52,16.4,Calm,85,,1.12.6,Mavic Mini,1SDCH7G0169R0K,1SFLH6Q0AB03DJ,1SRCH7F014TAHX,1U5X071EXP5ZJG,126.6,0.1,3.2,3.722939,2.23694,0,0,Mavic Mini,1SDCH7G0169R0K,1SFLH6Q0AB03DJ,1SRCH7F014TAHX,1U5X071EXP5ZJG,DJI Fly,,1.12.6,AAD56108-21F6-CE5E-2D97-59ADB0DE8303,1SDCH7G0169R0K,,,,,6.972918743,79.91589272,5,,
1/26/2024,09:26.9,0m 3.8s,3.8,6.972915497,79.91591323,3.9,3.9,3.9,61,0.9,0,0.223694,0,0.223694,0,0,0,0,0.5,-0.6,31,31,,P-GPS,Auto Fly,,12,5,TRUE,,Mavic Mini,TRUE,FALSE,,Smart,RC,FALSE,TRUE,FALSE,,,TRUE,,FALSE,FALSE,FALSE,FALSE,FALSE,FALSE,FALSE,FALSE,FALSE,FALSE,0,Follow Yaw,0,0,31.6,31.6,FALSE,FALSE,FALSE,FALSE,FALSE,FALSE,,TRUE,Normal,,100,1024,1024,1024,1024,1,FALSE,FALSE,FALSE,FALSE,FALSE,0,FALSE,FALSE,FALSE,FALSE,97,7.979,2171,2230,7.942,FALSE,3.991,3.988,0.014,FALSE,FALSE,NA,84,84,84.2,0,0,0,0,5,3004.3,751.07,,Idle,0,20,FALSE,5,TRUE,7,Go Home,FALSE,FALSE,FALSE,FALSE,FALSE,FALSE,FALSE,FALSE,TRUE,FALSE,FALSE,FALSE,6.972915133,79.91591311,0.1,,459.3,TRUE,1,1,FALSE,FALSE,FALSE,FALSE,,TRUE,FALSE,FALSE,Course Lock,131.2,52,16.4,Calm,85,,1.12.6,Mavic Mini,1SDCH7G0169R0K,1SFLH6Q0AB03DJ,1SRCH7F014TAHX,1U5X071EXP5ZJG,126.6,0.1,3.2,3.722939,2.23694,0,0,Mavic Mini,1SDCH7G0169R0K,1SFLH6Q0AB03DJ,1SRCH7F014TAHX,1U5X071EXP5ZJG,DJI Fly,,1.12.6,AAD56108-21F6-CE5E-2D97-59ADB0DE8303,1SDCH7G0169R0K,,,,,6.972918743,79.91589272,5,,
1/26/2024,09:26.9,0m 3.9s,3.9,6.972915586,79.91591323,3.9,3.9,3.9,61,0.9,0,0.223694,0,0.223694,0,0,0,0,0.5,-0.4,31.2,31.2,,P-GPS,Auto Fly,,12,5,TRUE,,Mavic Mini,TRUE,FALSE,,Smart,RC,FALSE,TRUE,FALSE,,,TRUE,,FALSE,FALSE,FALSE,FALSE,FALSE,FALSE,FALSE,FALSE,FALSE,FALSE,0,Follow Yaw,0,0,31.6,31.6,FALSE,FALSE,FALSE,FALSE,FALSE,FALSE,,TRUE,Normal,,100,1024,1024,1024,1024,1,FALSE,FALSE,FALSE,FALSE,FALSE,0,FALSE,FALSE,FALSE,FALSE,97,7.979,2171,2230,7.942,FALSE,3.991,3.988,0.014,FALSE,FALSE,NA,84,84,84.2,0,0,0,0,5,3004.3,751.07,,Idle,0,20,FALSE,5,TRUE,7,Go Home,FALSE,FALSE,FALSE,FALSE,FALSE,FALSE,FALSE,FALSE,TRUE,FALSE,FALSE,FALSE,6.972915133,79.91591311,0.1,,459.3,TRUE,1,1,FALSE,FALSE,FALSE,FALSE,,TRUE,FALSE,FALSE,Course Lock,131.2,52,16.4,Calm,85,,1.12.6,Mavic Mini,1SDCH7G0169R0K,1SFLH6Q0AB03DJ,1SRCH7F014TAHX,1U5X071EXP5ZJG,126.6,0.1,3.2,3.722939,2.23694,0,0,Mavic Mini,1SDCH7G0169R0K,1SFLH6Q0AB03DJ,1SRCH7F014TAHX,1U5X071EXP5ZJG,DJI Fly,,1.12.6,AAD56108-21F6-CE5E-2D97-59ADB0DE8303,1SDCH7G0169R0K,,,,,6.972918743,79.91589272,5,,
1/26/2024,09:27.2,0m 4.0s,4,6.972915674,79.91591323,3.9,3.9,3.9,61,1,0,0.223694,0,0.223694,0,0,0,0,0.5,-0.2,31.5,31.5,,P-GPS,Auto Fly,,12,5,TRUE,,Mavic Mini,TRUE,FALSE,,Smart,RC,FALSE,TRUE,FALSE,,,TRUE,,FALSE,FALSE,FALSE,FALSE,FALSE,FALSE,FALSE,FALSE,FALSE,FALSE,0,Follow Yaw,0,0,31.6,31.6,FALSE,FALSE,FALSE,FALSE,FALSE,FALSE,,TRUE,Normal,,100,1024,1024,1024,1024,1,FALSE,FALSE,FALSE,FALSE,FALSE,0,FALSE,FALSE,FALSE,FALSE,97,7.979,2171,2230,7.942,FALSE,3.991,3.988,0.014,FALSE,FALSE,NA,84,84,84.2,0,0,0,0,5,3004.3,751.07,,Idle,0,20,FALSE,5,TRUE,7,Go Home,FALSE,FALSE,FALSE,FALSE,FALSE,FALSE,FALSE,FALSE,TRUE,FALSE,FALSE,FALSE,6.972915133,79.91591311,0.2,,459.3,TRUE,1,1,FALSE,FALSE,FALSE,FALSE,,TRUE,FALSE,FALSE,Course Lock,131.2,52,16.4,Calm,85,,1.12.6,Mavic Mini,1SDCH7G0169R0K,1SFLH6Q0AB03DJ,1SRCH7F014TAHX,1U5X071EXP5ZJG,126.6,0.1,3.2,3.722939,2.23694,0,0,Mavic Mini,1SDCH7G0169R0K,1SFLH6Q0AB03DJ,1SRCH7F014TAHX,1U5X071EXP5ZJG,DJI Fly,,1.12.6,AAD56108-21F6-CE5E-2D97-59ADB0DE8303,1SDCH7G0169R0K,,,,,6.972913169,79.91589113,5,,
1/26/2024,09:27.2,0m 4.1s,4.1,6.972915807,79.91591333,3.9,3.9,3.9,61,1,0,0.223694,0,0.223694,0,0,0,0,0.7,-0.2,31.7,31.7,,P-GPS,Auto Fly,,12,5,TRUE,,Mavic Mini,TRUE,FALSE,,Smart,RC,FALSE,TRUE,FALSE,,,TRUE,,FALSE,FALSE,FALSE,FALSE,FALSE,FALSE,FALSE,FALSE,FALSE,FALSE,0,Follow Yaw,0,0,31.6,31.6,FALSE,FALSE,FALSE,FALSE,FALSE,FALSE,,TRUE,Normal,,100,1024,1024,1024,1024,1,FALSE,FALSE,FALSE,FALSE,FALSE,0,FALSE,FALSE,FALSE,FALSE,97,7.979,2171,2230,7.942,FALSE,3.991,3.988,0.014,FALSE,FALSE,NA,84,84,84.2,0,0,0,0,5,3004.3,751.07,,Idle,0,20,FALSE,5,TRUE,7,Go Home,FALSE,FALSE,FALSE,FALSE,FALSE,FALSE,FALSE,FALSE,TRUE,FALSE,FALSE,FALSE,6.972915133,79.91591311,0.2,,459.3,TRUE,1,1,FALSE,FALSE,FALSE,FALSE,,TRUE,FALSE,FALSE,Course Lock,131.2,52,16.4,Calm,85,,1.12.6,Mavic Mini,1SDCH7G0169R0K,1SFLH6Q0AB03DJ,1SRCH7F014TAHX,1U5X071EXP5ZJG,126.6,0.1,3.2,3.722939,2.23694,0,0,Mavic Mini,1SDCH7G0169R0K,1SFLH6Q0AB03DJ,1SRCH7F014TAHX,1U5X071EXP5ZJG,DJI Fly,,1.12.6,AAD56108-21F6-CE5E-2D97-59ADB0DE8303,1SDCH7G0169R0K,,,,,6.972913169,79.91589113,5,,
1/26/2024,09:27.3,0m 4.2s,4.2,6.972915887,79.91591332,3.9,3.9,3.9,61,1.1,0,0.223694,0,0.223694,0,0,0,0,0.7,-0.2,31.8,31.8,,P-GPS,Auto Fly,,12,5,TRUE,,Mavic Mini,TRUE,FALSE,,Smart,RC,FALSE,TRUE,FALSE,,,TRUE,,FALSE,FALSE,FALSE,FALSE,FALSE,FALSE,FALSE,FALSE,FALSE,FALSE,0,Follow Yaw,0,0,31.6,31.6,FALSE,FALSE,FALSE,FALSE,FALSE,FALSE,,TRUE,Normal,,100,1024,1024,1024,1024,1,FALSE,FALSE,FALSE,FALSE,FALSE,0,FALSE,FALSE,FALSE,FALSE,97,7.979,2171,2230,7.942,FALSE,3.991,3.988,0.014,FALSE,FALSE,NA,84,84,84.2,0,0,0,0,5,3004.3,751.07,,Idle,0,20,FALSE,5,TRUE,7,Go Home,FALSE,FALSE,FALSE,FALSE,FALSE,FALSE,FALSE,FALSE,TRUE,FALSE,FALSE,FALSE,6.972915133,79.91591311,0.2,,459.3,TRUE,1,1,FALSE,FALSE,FALSE,FALSE,,TRUE,FALSE,FALSE,Course Lock,131.2,52,16.4,Calm,85,,1.12.6,Mavic Mini,1SDCH7G0169R0K,1SFLH6Q0AB03DJ,1SRCH7F014TAHX,1U5X071EXP5ZJG,126.6,0.1,3.2,3.722939,2.23694,0,0,Mavic Mini,1SDCH7G0169R0K,1SFLH6Q0AB03DJ,1SRCH7F014TAHX,1U5X071EXP5ZJG,DJI Fly,,1.12.6,AAD56108-21F6-CE5E-2D97-59ADB0DE8303,1SDCH7G0169R0K,,,,,6.972913169,79.91589113,5,,
1/26/2024,09:27.4,0m 4.3s,4.3,6.972916047,79.91591327,3.9,3.9,3.9,61,1.1,0,0.223694,0,0.223694,0,0,0,0,0.7,-0.4,31.9,31.9,,P-GPS,Auto Fly,,12,5,TRUE,,Mavic Mini,TRUE,FALSE,,Smart,RC,FALSE,TRUE,FALSE,,,TRUE,,FALSE,FALSE,FALSE,FALSE,FALSE,FALSE,FALSE,FALSE,FALSE,FALSE,0,Follow Yaw,0,0,31.6,31.6,FALSE,FALSE,FALSE,FALSE,FALSE,FALSE,,TRUE,Normal,,100,1024,1024,1024,1024,1,FALSE,FALSE,FALSE,FALSE,FALSE,0,FALSE,FALSE,FALSE,FALSE,97,7.979,2171,2230,7.942,FALSE,3.991,3.988,0.014,FALSE,FALSE,NA,84,84,84.2,0,0,0,0,5,3004.3,751.07,,Idle,0,20,FALSE,5,TRUE,7,Go Home,FALSE,FALSE,FALSE,FALSE,FALSE,FALSE,FALSE,FALSE,TRUE,FALSE,FALSE,FALSE,6.972915133,79.91591311,0.3,,459.3,TRUE,1,1,FALSE,FALSE,FALSE,FALSE,,TRUE,FALSE,FALSE,Course Lock,131.2,52,16.4,Calm,85,,1.12.6,Mavic Mini,1SDCH7G0169R0K,1SFLH6Q0AB03DJ,1SRCH7F014TAHX,1U5X071EXP5ZJG,126.6,0.1,3.2,3.722939,2.23694,0,0,Mavic Mini,1SDCH7G0169R0K,1SFLH6Q0AB03DJ,1SRCH7F014TAHX,1U5X071EXP5ZJG,DJI Fly,,1.12.6,AAD56108-21F6-CE5E-2D97-59ADB0DE8303,1SDCH7G0169R0K,,,,,6.972913169,79.91589113,5,,
1/26/2024,09:27.5,0m 4.4s,4.4,6.972916197,79.91591321,3.9,3.9,4.2,61,1.2,0,0.223694,0,0.223694,0,0,0,0,0.7,-0.5,32.1,32.1,,P-GPS,Auto Fly,,12,5,TRUE,,Mavic Mini,TRUE,FALSE,,Smart,RC,FALSE,TRUE,FALSE,,,TRUE,,FALSE,FALSE,FALSE,FALSE,FALSE,FALSE,FALSE,FALSE,FALSE,FALSE,0,Follow Yaw,0,0,31.6,31.6,FALSE,FALSE,FALSE,FALSE,FALSE,FALSE,,TRUE,Normal,,100,1024,1024,1024,1024,1,FALSE,FALSE,FALSE,FALSE,FALSE,0,FALSE,FALSE,FALSE,FALSE,97,7.979,2171,2230,7.942,FALSE,3.991,3.988,0.014,FALSE,FALSE,NA,84,84,84.2,0,0,0,0,5,3004.3,751.07,,Idle,0,20,FALSE,5,TRUE,7,Go Home,FALSE,FALSE,FALSE,FALSE,FALSE,FALSE,FALSE,FALSE,TRUE,FALSE,FALSE,FALSE,6.972915133,79.91591311,0.3,,459.3,TRUE,1,1,FALSE,FALSE,FALSE,FALSE,,TRUE,FALSE,FALSE,Course Lock,131.2,52,16.4,Calm,85,,1.12.6,Mavic Mini,1SDCH7G0169R0K,1SFLH6Q0AB03DJ,1SRCH7F014TAHX,1U5X071EXP5ZJG,126.6,0.1,3.2,3.722939,2.23694,0,0,Mavic Mini,1SDCH7G0169R0K,1SFLH6Q0AB03DJ,1SRCH7F014TAHX,1U5X071EXP5ZJG,DJI Fly,,1.12.6,AAD56108-21F6-CE5E-2D97-59ADB0DE8303,1SDCH7G0169R0K,,,,,6.972913169,79.91589113,5,,
1/26/2024,09:27.6,0m 4.5s,4.5,6.972916725,79.91591308,4.2,4.2,4.2,61,1.4,0,0.223694,0,0.223694,0,0,0,0,0.7,-0.6,32.2,32.2,,P-GPS,Auto Fly,,12,5,TRUE,,Mavic Mini,TRUE,FALSE,,Smart,RC,FALSE,TRUE,FALSE,,,TRUE,,FALSE,FALSE,FALSE,FALSE,FALSE,FALSE,FALSE,FALSE,FALSE,FALSE,0,Follow Yaw,0,0,31.6,31.6,FALSE,FALSE,FALSE,FALSE,FALSE,FALSE,,TRUE,Normal,,100,1024,1024,1024,1024,1,FALSE,FALSE,FALSE,FALSE,FALSE,0,FALSE,FALSE,FALSE,FALSE,97,7.979,2171,2230,7.942,FALSE,3.991,3.988,0.014,FALSE,FALSE,NA,84,84,84.2,0,0,0,0,5,3004.3,751.07,,Idle,0,20,FALSE,5,TRUE,7,Go Home,FALSE,FALSE,FALSE,FALSE,FALSE,FALSE,FALSE,FALSE,TRUE,FALSE,FALSE,FALSE,6.972915133,79.91591311,0.5,,459.3,TRUE,1,1,FALSE,FALSE,FALSE,FALSE,,TRUE,FALSE,FALSE,Course Lock,131.2,52,16.4,Calm,85,,1.12.6,Mavic Mini,1SDCH7G0169R0K,1SFLH6Q0AB03DJ,1SRCH7F014TAHX,1U5X071EXP5ZJG,126.6,0.1,3.2,3.722939,2.23694,0,0,Mavic Mini,1SDCH7G0169R0K,1SFLH6Q0AB03DJ,1SRCH7F014TAHX,1U5X071EXP5ZJG,DJI Fly,,1.12.6,AAD56108-21F6-CE5E-2D97-59ADB0DE8303,1SDCH7G0169R0K,,,,,6.972913169,79.91589113,5,,
1/26/2024,09:27.7,0m 4.6s,4.6,6.972916933,79.91591302,4.2,4.2,4.2,61,1.5,0,0.223694,0,0.223694,0,0,0,0,0.6,-0.7,32.3,32.3,,P-GPS,Auto Fly,,12,5,TRUE,,Mavic Mini,TRUE,FALSE,,Smart,RC,FALSE,TRUE,FALSE,,,TRUE,,FALSE,FALSE,FALSE,FALSE,FALSE,FALSE,FALSE,FALSE,FALSE,FALSE,0,Follow Yaw,0,0,31.6,31.6,FALSE,FALSE,FALSE,FALSE,FALSE,FALSE,,TRUE,Normal,,100,1024,1024,1024,1024,1,FALSE,FALSE,FALSE,FALSE,FALSE,0,FALSE,FALSE,FALSE,FALSE,97,7.979,2171,2230,7.998,FALSE,3.991,3.988,0.014,FALSE,FALSE,NA,84,84,84.2,0,0,0,0,5,4371.3,1092.84,,Idle,0,20,FALSE,5,TRUE,7,Go Home,FALSE,FALSE,FALSE,FALSE,FALSE,FALSE,FALSE,FALSE,TRUE,FALSE,FALSE,FALSE,6.972915133,79.91591311,0.6,,459.3,TRUE,1,1,FALSE,FALSE,FALSE,FALSE,,TRUE,FALSE,FALSE,Course Lock,131.2,52,16.4,Calm,85,,1.12.6,Mavic Mini,1SDCH7G0169R0K,1SFLH6Q0AB03DJ,1SRCH7F014TAHX,1U5X071EXP5ZJG,126.6,0.1,3.2,3.722939,2.23694,0,0,Mavic Mini,1SDCH7G0169R0K,1SFLH6Q0AB03DJ,1SRCH7F014TAHX,1U5X071EXP5ZJG,DJI Fly,,1.12.6,AAD56108-21F6-CE5E-2D97-59ADB0DE8303,1SDCH7G0169R0K,,,,,6.972913169,79.91589113,5,,
1/26/2024,09:27.9,0m 4.7s,4.7,6.972917053,79.91591301,4.2,4.2,4.2,61,1.5,0,0.223694,0,0.223694,0,0,0,0,0.6,-0.8,32.4,32.4,,P-GPS,Auto Fly,,12,5,TRUE,,Mavic Mini,TRUE,FALSE,,Smart,RC,FALSE,TRUE,FALSE,,,TRUE,,FALSE,FALSE,FALSE,FALSE,FALSE,FALSE,FALSE,FALSE,FALSE,FALSE,0,Follow Yaw,0,0,31.6,31.6,FALSE,FALSE,FALSE,FALSE,FALSE,FALSE,,TRUE,Normal,,100,1024,1024,1024,1024,1,FALSE,FALSE,FALSE,FALSE,FALSE,0,FALSE,FALSE,FALSE,FALSE,97,7.979,2171,2230,7.998,FALSE,3.991,3.988,0.014,FALSE,FALSE,NA,84,84,84.2,0,0,0,0,5,4371.3,1092.84,,Idle,0,20,FALSE,5,TRUE,7,Go Home,FALSE,FALSE,FALSE,FALSE,FALSE,FALSE,FALSE,FALSE,TRUE,FALSE,FALSE,FALSE,6.972915133,79.91591311,0.7,,459.3,TRUE,1,1,FALSE,FALSE,FALSE,FALSE,,TRUE,FALSE,FALSE,Course Lock,131.2,52,16.4,Calm,85,,1.12.6,Mavic Mini,1SDCH7G0169R0K,1SFLH6Q0AB03DJ,1SRCH7F014TAHX,1U5X071EXP5ZJG,126.6,0.1,3.2,3.722939,2.23694,0,0,Mavic Mini,1SDCH7G0169R0K,1SFLH6Q0AB03DJ,1SRCH7F014TAHX,1U5X071EXP5ZJG,DJI Fly,,1.12.6,AAD56108-21F6-CE5E-2D97-59ADB0DE8303,1SDCH7G0169R0K,,,,,6.972913169,79.91589113,5,,
1/26/2024,09:27.9,0m 4.8s,4.8,6.972917167,79.91591299,4.2,4.2,4.2,61,1.5,0,0.223694,0,0.223694,0,0,0,0,0.6,-0.8,32.5,32.5,,P-GPS,Auto Fly,,12,5,TRUE,,Mavic Mini,TRUE,FALSE,,Smart,RC,FALSE,TRUE,FALSE,,,TRUE,,FALSE,FALSE,FALSE,FALSE,FALSE,FALSE,FALSE,FALSE,FALSE,FALSE,0,Follow Yaw,0,0,31.6,31.6,FALSE,FALSE,FALSE,FALSE,FALSE,FALSE,,TRUE,Normal,,100,1024,1024,1024,1024,1,FALSE,FALSE,FALSE,FALSE,FALSE,0,FALSE,FALSE,FALSE,FALSE,97,7.979,2171,2230,7.998,FALSE,3.991,3.988,0.014,FALSE,FALSE,NA,84,84,84.2,0,0,0,0,5,4371.3,1092.84,,Idle,0,20,FALSE,5,TRUE,7,Go Home,FALSE,FALSE,FALSE,FALSE,FALSE,FALSE,FALSE,FALSE,TRUE,FALSE,FALSE,FALSE,6.972915133,79.91591311,0.7,,459.3,TRUE,1,1,FALSE,FALSE,FALSE,FALSE,,TRUE,FALSE,FALSE,Course Lock,131.2,52,16.4,Calm,85,,1.12.6,Mavic Mini,1SDCH7G0169R0K,1SFLH6Q0AB03DJ,1SRCH7F014TAHX,1U5X071EXP5ZJG,126.6,0.1,3.2,3.722939,2.23694,0,0,Mavic Mini,1SDCH7G0169R0K,1SFLH6Q0AB03DJ,1SRCH7F014TAHX,1U5X071EXP5ZJG,DJI Fly,,1.12.6,AAD56108-21F6-CE5E-2D97-59ADB0DE8303,1SDCH7G0169R0K,,,,,6.972913169,79.91589113,5,,
1/26/2024,09:28.0,0m 4.9s,4.9,6.972917252,79.91591294,4.2,4.2,4.2,61,1.6,0,0.223694,0,0.223694,0,0,0,0,0.7,-0.9,32.5,32.5,,P-GPS,Auto Fly,,12,5,TRUE,,Mavic Mini,TRUE,FALSE,,Smart,RC,FALSE,TRUE,FALSE,,,TRUE,,FALSE,FALSE,FALSE,FALSE,FALSE,FALSE,FALSE,FALSE,FALSE,FALSE,0,Follow Yaw,0,0,31.6,31.6,FALSE,FALSE,FALSE,FALSE,FALSE,FALSE,,TRUE,Normal,,100,1024,1024,1024,1024,1,FALSE,FALSE,FALSE,FALSE,FALSE,0,FALSE,FALSE,FALSE,FALSE,97,7.964,2170,2230,7.998,FALSE,3.983,3.981,0.014,FALSE,FALSE,NA,84.2,84,84.2,0,0,0,0,5,4371.3,1092.84,,Idle,0,20,FALSE,5,TRUE,7,Go Home,FALSE,FALSE,FALSE,FALSE,FALSE,FALSE,FALSE,FALSE,TRUE,FALSE,FALSE,FALSE,6.972915133,79.91591311,0.7,,459.3,TRUE,1,1,FALSE,FALSE,FALSE,FALSE,,TRUE,FALSE,FALSE,Course Lock,131.2,52,16.4,Calm,85,,1.12.6,Mavic Mini,1SDCH7G0169R0K,1SFLH6Q0AB03DJ,1SRCH7F014TAHX,1U5X071EXP5ZJG,126.6,0.1,3.2,3.722939,2.23694,0,0,Mavic Mini,1SDCH7G0169R0K,1SFLH6Q0AB03DJ,1SRCH7F014TAHX,1U5X071EXP5ZJG,DJI Fly,,1.12.6,AAD56108-21F6-CE5E-2D97-59ADB0DE8303,1SDCH7G0169R0K,,,,,6.972913169,79.91589113,5,,
1/26/2024,09:28.1,0m 5.0s,5,6.972917252,79.91591294,4.2,4.2,4.2,61,1.6,0,0.223694,0,0.223694,0,0,0,0,0.8,-1,32.6,32.6,,P-GPS,Auto Fly,,12,5,TRUE,,Mavic Mini,TRUE,FALSE,,Smart,RC,FALSE,TRUE,FALSE,,,TRUE,,FALSE,FALSE,FALSE,FALSE,FALSE,FALSE,FALSE,FALSE,FALSE,FALSE,0,Follow Yaw,0,0,31.6,31.6,FALSE,FALSE,FALSE,FALSE,FALSE,FALSE,,TRUE,Normal,,100,1024,1024,1024,1024,1,FALSE,FALSE,FALSE,FALSE,FALSE,0,FALSE,FALSE,FALSE,FALSE,97,7.964,2170,2230,7.998,FALSE,3.983,3.981,0.014,FALSE,FALSE,NA,84.2,84,84.2,0,0,0,0,5,4371.3,1092.84,,Idle,0,20,FALSE,5,TRUE,7,Go Home,FALSE,FALSE,FALSE,FALSE,FALSE,FALSE,FALSE,FALSE,TRUE,FALSE,FALSE,FALSE,6.972915133,79.91591311,0.7,,459.3,TRUE,1,1,FALSE,FALSE,FALSE,FALSE,,TRUE,FALSE,FALSE,Course Lock,131.2,52,16.4,Calm,85,,1.12.6,Mavic Mini,1SDCH7G0169R0K,1SFLH6Q0AB03DJ,1SRCH7F014TAHX,1U5X071EXP5ZJG,126.6,0.1,3.2,3.722939,2.23694,0,0,Mavic Mini,1SDCH7G0169R0K,1SFLH6Q0AB03DJ,1SRCH7F014TAHX,1U5X071EXP5ZJG,DJI Fly,,1.12.6,AAD56108-21F6-CE5E-2D97-59ADB0DE8303,1SDCH7G0169R0K,,,,,6.972913169,79.91589113,5,,
1/26/2024,09:28.1,0m 5.1s,5.1,6.972917339,79.91591292,4.2,4.2,4.2,61,1.6,0,0.223694,0,0.223694,0,0,0,0,1,-1.1,32.6,32.6,,P-GPS,Auto Fly,,12,5,TRUE,,Mavic Mini,TRUE,FALSE,,Smart,RC,FALSE,TRUE,FALSE,,,TRUE,,FALSE,FALSE,FALSE,FALSE,FALSE,FALSE,FALSE,FALSE,FALSE,FALSE,0,Follow Yaw,0,0,31.6,31.6,FALSE,FALSE,FALSE,FALSE,FALSE,FALSE,,TRUE,Normal,,100,1024,1024,1024,1024,1,FALSE,FALSE,FALSE,FALSE,FALSE,0,FALSE,FALSE,FALSE,FALSE,97,7.964,2170,2230,7.998,FALSE,3.983,3.981,0.014,FALSE,FALSE,NA,84.2,84,84.2,0,0,0,0,5,4371.3,1092.84,,Idle,0,20,FALSE,5,TRUE,7,Go Home,FALSE,FALSE,FALSE,FALSE,FALSE,FALSE,FALSE,FALSE,TRUE,FALSE,FALSE,FALSE,6.972915133,79.91591311,0.8,,459.3,TRUE,1,1,FALSE,FALSE,FALSE,FALSE,,TRUE,FALSE,FALSE,Course Lock,131.2,52,16.4,Calm,85,,1.12.6,Mavic Mini,1SDCH7G0169R0K,1SFLH6Q0AB03DJ,1SRCH7F014TAHX,1U5X071EXP5ZJG,126.6,0.1,3.2,3.722939,2.23694,0,0,Mavic Mini,1SDCH7G0169R0K,1SFLH6Q0AB03DJ,1SRCH7F014TAHX,1U5X071EXP5ZJG,DJI Fly,,1.12.6,AAD56108-21F6-CE5E-2D97-59ADB0DE8303,1SDCH7G0169R0K,,,,,6.972913169,79.91589113,5,,
1/26/2024,09:28.4,0m 5.2s,5.2,6.972917422,79.91591289,4.2,4.2,4.2,61,1.6,0,0.223694,0,0.223694,0,0,0,0,0.9,-1,32.7,32.7,,P-GPS,Auto Fly,,12,5,TRUE,,Mavic Mini,TRUE,FALSE,,Smart,RC,FALSE,TRUE,FALSE,,,TRUE,,FALSE,FALSE,FALSE,FALSE,FALSE,FALSE,FALSE,FALSE,FALSE,FALSE,0,Follow Yaw,0,0,31.6,31.6,FALSE,FALSE,FALSE,FALSE,FALSE,FALSE,,TRUE,Normal,,100,1024,1024,1024,1024,1,FALSE,FALSE,FALSE,FALSE,FALSE,0,FALSE,FALSE,FALSE,FALSE,97,7.964,2170,2230,7.998,FALSE,3.983,3.981,0.014,FALSE,FALSE,NA,84.2,84,84.2,0,0,0,0,5,4371.3,1092.84,,Idle,0,20,FALSE,5,TRUE,7,Go Home,FALSE,FALSE,FALSE,FALSE,FALSE,FALSE,FALSE,FALSE,TRUE,FALSE,FALSE,FALSE,6.972915133,79.91591311,0.8,,459.3,TRUE,1,1,FALSE,FALSE,FALSE,FALSE,,TRUE,FALSE,FALSE,Course Lock,131.2,52,16.4,Calm,85,,1.12.6,Mavic Mini,1SDCH7G0169R0K,1SFLH6Q0AB03DJ,1SRCH7F014TAHX,1U5X071EXP5ZJG,126.6,0.1,3.2,3.722939,2.23694,0,0,Mavic Mini,1SDCH7G0169R0K,1SFLH6Q0AB03DJ,1SRCH7F014TAHX,1U5X071EXP5ZJG,DJI Fly,,1.12.6,AAD56108-21F6-CE5E-2D97-59ADB0DE8303,1SDCH7G0169R0K,,,,,6.972913169,79.91589113,5,,
1/26/2024,09:28.4,0m 5.3s,5.3,6.97291747,79.91591287,4.2,4.2,4.2,61,1.7,0,0.223694,0,0.223694,0,0,0,0,0.8,-1,32.8,32.8,,P-GPS,Auto Fly,,12,5,TRUE,,Mavic Mini,TRUE,FALSE,,Smart,RC,FALSE,TRUE,FALSE,,,TRUE,,FALSE,FALSE,FALSE,FALSE,FALSE,FALSE,FALSE,FALSE,FALSE,FALSE,0,Follow Yaw,0,0,31.6,31.6,FALSE,FALSE,FALSE,FALSE,FALSE,FALSE,,TRUE,Normal,,100,1024,1024,1024,1024,1,FALSE,FALSE,FALSE,FALSE,FALSE,0,FALSE,FALSE,FALSE,FALSE,97,7.964,2170,2230,7.998,FALSE,3.983,3.981,0.014,FALSE,FALSE,NA,84.2,84,84.2,0,0,0,0,5,4371.3,1092.84,,Idle,0,20,FALSE,5,TRUE,7,Go Home,FALSE,FALSE,FALSE,FALSE,FALSE,FALSE,FALSE,FALSE,TRUE,FALSE,FALSE,FALSE,6.972915133,79.91591311,0.8,,459.3,TRUE,1,1,FALSE,FALSE,FALSE,FALSE,,TRUE,FALSE,FALSE,Course Lock,131.2,52,16.4,Calm,85,,1.12.6,Mavic Mini,1SDCH7G0169R0K,1SFLH6Q0AB03DJ,1SRCH7F014TAHX,1U5X071EXP5ZJG,126.6,0.1,3.2,3.722939,2.23694,0,0,Mavic Mini,1SDCH7G0169R0K,1SFLH6Q0AB03DJ,1SRCH7F014TAHX,1U5X071EXP5ZJG,DJI Fly,,1.12.6,AAD56108-21F6-CE5E-2D97-59ADB0DE8303,1SDCH7G0169R0K,,,,,6.972913169,79.91589113,5,,
