CUSTOM.date [local],CUSTOM.updateTime [local],OSD.flyTime,OSD.flyTime [s],OSD.latitude,OSD.longitude,OSD.height [ft],OSD.heightMax [ft],OSD.vpsHeight [ft],OSD.altitude [ft],OSD.mileage [ft],OSD.hSpeed [MPH],OSD.hSpeedMax [MPH],OSD.xSpeed [MPH],OSD.xSpeedMax [MPH],OSD.ySpeed [MPH],OSD.ySpeedMax [MPH],OSD.zSpeed [MPH],OSD.zSpeedMax [MPH],OSD.pitch,OSD.roll,OSD.yaw,OSD.yaw [360],OSD.directionOfTravel,OSD.flycState,OSD.flycCommand,OSD.flightAction,OSD.gpsNum,OSD.gpsLevel,OSD.isGPSUsed,OSD.nonGPSCause,OSD.droneType,OSD.isSwaveWork,OSD.waveError,OSD.goHomeStatus,OSD.batteryType,OSD.ctrlDevice,OSD.isOnGround,OSD.isMotorOn,OSD.isMotorBlocked,OSD.motorStartFailedCause,OSD.motorFailReason,OSD.isImuPreheated,OSD.imuInitFailReason,OSD.isAcceletorOverRange,OSD.isBarometerDeadInAir,OSD.isCompassError,OSD.isGoHomeHeightModified,OSD.canIOCWork,OSD.isNotEnoughForce,OSD.isOutOfLimit,OSD.isPropellerCatapult,OSD.isVibrating,OSD.isVisionUsed,OSD.voltageWarning,GIMBAL.mode,GIMBAL.pitch,GIMBAL.roll,GIMBAL.yaw,GIMBAL.yaw [360],GIMBAL.isPitchAtLimit,GIMBAL.isRollAtLimit,GIMBAL.isYawAtLimit,GIMBAL.isStuck,CAMERA.isPhoto,CAMERA.isVideo,CAMERA.filename,CAMERA.sdCardIsInserted,CAMERA.sdCardState,RC.downlinkSignal,RC.uplinkSignal,RC.aileron,RC.elevator,RC.throttle,RC.rudder,RC.mode,RC.goHomeDepressed,RC.recordDepressed,RC.shutterDepressed,RC.playbackDepressed,RC.wheelDepressed,RC.wheelOffset,RC.custom1Depressed,RC.custom2Depressed,RC.custom3Depressed,RC.custom4Depressed,BATTERY.chargeLevel,BATTERY.currentPV [V],BATTERY.currentCapacity [mAh],BATTERY.fullCapacity [mAh],BATTERY.voltage [V],BATTERY.isCellVoltageEstimated,BATTERY.cellVoltage1 [V],BATTERY.cellVoltage2 [V],BATTERY.cellVoltage3 [V],BATTERY.cellVoltage4 [V],BATTERY.maxCellVoltageDeviation,BATTERY.isCellVoltageDeviationHigh,BATTERY.isVoltageLow,BATTERY.current [A],BATTERY.temperature [F],BATTERY.minTemperature [F],BATTERY.maxTemperature [F],BATTERY.usefulTime [s],BATTERY.goHomeTime [s],BATTERY.landTime [s],BATTERY.goHomeBattery,BATTERY.landBattery,BATTERY.safeFlyRadius,BATTERY.volumeConsume,BATTERY.status,BATTERY.goHomeStatus,BATTERY.goHomeCountdown,BATTERY.lowWarning,BATTERY.lowWarningGoHome,BATTERY.seriousLowWarning,BATTERY.seriousLowWarningLanding,BATTERY.timesCharged,MC.failSafeAction,MC.isObstacleAvoidanceEnabled,MC.isCollisionAvoidanceEnabled,MC.isRthObstacleAvoidanceEnabled,MC.isBraking,MC.isAvoidingObstacle,MC.isAvoidingActiveObstacle,MC.isAscentLimitedByObstacle,MC.isLandingConfirmationNeeded,MC.atLowAltitudeLimit,MC.atDistanceLimit,MC.atAirportAltitudeLimit,MC.atAirportBoundary,HOME.latitude,HOME.longitude,HOME.distance [ft],HOME.height [ft],HOME.heightLimit [ft],HOME.isHomeRecord,HOME.goHomeMode,HOME.aircraftHeadDirection,HOME.isDynamicHomePointEnabled,HOME.isReachedLimitDistance,HOME.isReachedLimitHeight,HOME.isCompassCalibrating,HOME.compassCalibrationState,HOME.isMultipleFlightModeEnabled,HOME.isBeginnerMode,HOME.isIOCEnabled,HOME.iocMode,HOME.goHomeHeight [ft],HOME.courseLockAngle,HOME.forceLandingHeight [ft],HOME.wind,HOME.dataRecorderFileIndex,RECOVER.appType,RECOVER.appVersion,RECOVER.aircraftName,RECOVER.aircraftSerial,RECOVER.cameraSerial,RECOVER.rcSerial,RECOVER.batterySerial,DETAILS.totalTime [s],DETAILS.totalDistance [ft],DETAILS.maxHeight [ft],DETAILS.maxHorizontalSpeed [MPH],DETAILS.maxVerticalSpeed [MPH],DETAILS.photoNum,DETAILS.videoTime [s],DETAILS.aircraftName,DETAILS.aircraftSerial,DETAILS.cameraSerial,DETAILS.rcSerial,DETAILS.batterySerial,DETAILS.appName,DETAILS.appType,DETAILS.appVersion,DETAILS.guid,SERIAL.flightController,SERIAL.camera,SERIAL.gimbal,SERIAL.rc,SERIAL.battery,APPGPS.latitude,APPGPS.longitude,APPGPS.accuracy,APP.message,APP.tip,APP.warning
6/13/2023,37:02.7,0m 0.1s,0.1,7.347186441,80.9442956,0,0,0.3,496,0,0,0,0,0,0,0,0,0,9.5,0.9,100.9,100.9,,Starting Motors,Other,,25,5,TRUE,,Avata,FALSE,FALSE,,Smart,RC,TRUE,TRUE,FALSE,,,TRUE,,FALSE,FALSE,FALSE,FALSE,FALSE,FALSE,FALSE,FALSE,FALSE,FALSE,0,Free,0,0,0,0,FALSE,FALSE,FALSE,FALSE,FALSE,FALSE,,FALSE,Normal,,,1024,1024,1024,1024,,FALSE,FALSE,FALSE,FALSE,FALSE,0,FALSE,FALSE,FALSE,FALSE,,,,,,TRUE,,,,,,FALSE,FALSE,NA,,,,,,,,,,,,Idle,,,TRUE,,FALSE,0,Hover,FALSE,FALSE,FALSE,FALSE,FALSE,FALSE,FALSE,FALSE,FALSE,FALSE,FALSE,FALSE,,,,,,FALSE,,,FALSE,FALSE,FALSE,FALSE,,FALSE,FALSE,FALSE,,,,,Calm,,,,,,,,,554,4,400.2,18.615143,13.869028,0,74062,DJI Avata,1581F4QWB22C6003,4TTTKBT1A100XF,,4YPXKBWFG101BB,DJI Fly,Linux,0.0.1,6E9ACB0B-7C8A-BD18-625E-DCAA44F24C02,,,,,,,,,,,
6/13/2023,37:02.8,0m 0.1s,0.1,7.347186451,80.9442956,0,0,0.3,496,0,0,0,0,0,0,0,0,0,9.5,0.9,100.9,100.9,,Starting Motors,Other,,25,5,TRUE,,Avata,FALSE,FALSE,,Smart,RC,TRUE,TRUE,FALSE,,,TRUE,,FALSE,FALSE,FALSE,FALSE,FALSE,FALSE,FALSE,FALSE,FALSE,FALSE,0,Free,0,0.6,101,101,FALSE,FALSE,FALSE,FALSE,FALSE,FALSE,,FALSE,Normal,,,0,0,0,0,2,FALSE,FALSE,FALSE,FALSE,FALSE,0,FALSE,FALSE,FALSE,FALSE,,,,,,TRUE,,,,,,FALSE,FALSE,NA,,,,,,,,,,,,Idle,,,TRUE,,FALSE,0,Hover,FALSE,FALSE,FALSE,FALSE,FALSE,FALSE,FALSE,FALSE,FALSE,FALSE,FALSE,FALSE,7.347162105,80.94428833,9.2,650.2,,TRUE,1,1,FALSE,FALSE,FALSE,FALSE,,TRUE,FALSE,FALSE,,98.4,,6.5,Calm,5,,,,,,,,554,4,400.2,18.615143,13.869028,0,74062,DJI Avata,1581F4QWB22C6003,4TTTKBT1A100XF,,4YPXKBWFG101BB,DJI Fly,Linux,0.0.1,6E9ACB0B-7C8A-BD18-625E-DCAA44F24C02,,,,,,,,,Data Recorder File Index is 5.; Set Return to Home (RTH) altitude to 30 m (98 ft).,,Aircraft in low-power state.; RMake sure surrounding area is safe and press Lock button twice to start propellers.; Aircraft in low-power state. Image transmission may stutter. Start propellers or recording to exit.
6/13/2023,37:02.8,0m 0.3s,0.3,7.347186543,80.94429559,0,0,0.3,496,0,0,0,0,0,0,0,0,0,9.5,0.9,100.9,100.9,,Starting Motors,Other,,25,5,TRUE,,Avata,FALSE,FALSE,,Smart,RC,TRUE,TRUE,FALSE,,,TRUE,,FALSE,FALSE,FALSE,FALSE,FALSE,FALSE,FALSE,FALSE,FALSE,FALSE,0,Free,0,0.6,101,101,FALSE,FALSE,FALSE,FALSE,FALSE,FALSE,,FALSE,Normal,,,0,0,0,0,2,FALSE,FALSE,FALSE,FALSE,FALSE,0,FALSE,FALSE,FALSE,FALSE,,,,,,TRUE,,,,,,FALSE,FALSE,NA,,,,,,,,,,,,Idle,,,TRUE,,FALSE,0,Hover,FALSE,FALSE,FALSE,FALSE,FALSE,FALSE,FALSE,FALSE,FALSE,FALSE,FALSE,FALSE,7.347162105,80.94428833,9.2,650.2,,TRUE,1,1,FALSE,FALSE,FALSE,FALSE,,TRUE,FALSE,FALSE,,98.4,,6.5,Calm,5,,,,,,,,554,4,400.2,18.615143,13.869028,0,74062,DJI Avata,1581F4QWB22C6003,4TTTKBT1A100XF,,4YPXKBWFG101BB,DJI Fly,Linux,0.0.1,6E9ACB0B-7C8A-BD18-625E-DCAA44F24C02,,,,,,,,,,,
6/13/2023,37:03.0,0m 0.5s,0.5,7.347186649,80.94429559,0,0,0.3,496,0,0,0,0,0,0,0,0,0,9.5,0.9,100.9,100.9,,Starting Motors,Other,,25,5,TRUE,,Avata,FALSE,FALSE,,Smart,RC,TRUE,TRUE,FALSE,,,TRUE,,FALSE,FALSE,FALSE,FALSE,FALSE,FALSE,FALSE,FALSE,FALSE,FALSE,0,Free,0,0.6,101,101,FALSE,FALSE,FALSE,FALSE,FALSE,FALSE,,FALSE,Normal,100,100,0,0,0,0,2,FALSE,FALSE,FALSE,FALSE,FALSE,0,FALSE,FALSE,FALSE,FALSE,,,,,,TRUE,,,,,,FALSE,FALSE,NA,,,,,,,,,,,,Idle,,,TRUE,,FALSE,0,Hover,FALSE,FALSE,FALSE,FALSE,FALSE,FALSE,FALSE,FALSE,FALSE,FALSE,FALSE,FALSE,7.347162105,80.94428833,9.3,650.2,,TRUE,1,1,FALSE,FALSE,FALSE,FALSE,,TRUE,FALSE,FALSE,,98.4,,6.5,Calm,5,,,,,,,,554,4,400.2,18.615143,13.869028,0,74062,DJI Avata,1581F4QWB22C6003,4TTTKBT1A100XF,,4YPXKBWFG101BB,DJI Fly,Linux,0.0.1,6E9ACB0B-7C8A-BD18-625E-DCAA44F24C02,,,,,,,,,,,
6/13/2023,37:03.2,0m 0.7s,0.7,7.347186757,80.94429559,0,0,0.3,496,0.1,0,0,0,0,0,0,0,0,9.5,0.9,100.9,100.9,,Starting Motors,Other,,25,5,TRUE,,Avata,FALSE,FALSE,,Smart,RC,TRUE,TRUE,FALSE,,,TRUE,,FALSE,FALSE,FALSE,FALSE,FALSE,FALSE,FALSE,FALSE,FALSE,FALSE,0,Free,0,0.6,101,101,FALSE,FALSE,FALSE,FALSE,FALSE,FALSE,,FALSE,Normal,100,100,0,0,0,0,2,FALSE,FALSE,FALSE,FALSE,FALSE,0,FALSE,FALSE,FALSE,FALSE,,,,,,TRUE,,,,,,FALSE,FALSE,NA,,,,,,,,,,,,Idle,,,TRUE,,FALSE,0,Hover,FALSE,FALSE,FALSE,FALSE,FALSE,FALSE,FALSE,FALSE,FALSE,FALSE,FALSE,FALSE,7.347162105,80.94428833,9.3,650.2,,TRUE,1,1,FALSE,FALSE,FALSE,FALSE,,TRUE,FALSE,FALSE,,98.4,,6.5,Calm,5,,,,,,,,554,4,400.2,18.615143,13.869028,0,74062,DJI Avata,1581F4QWB22C6003,4TTTKBT1A100XF,,4YPXKBWFG101BB,DJI Fly,Linux,0.0.1,6E9ACB0B-7C8A-BD18-625E-DCAA44F24C02,,,,,,,,,,,
6/13/2023,37:03.4,0m 0.9s,0.9,7.347186841,80.94429559,0,0,0.3,496,0.1,0,0,0,0,0,0,0,0,9.5,0.9,100.9,100.9,,Starting Motors,Other,,25,5,TRUE,,Avata,FALSE,FALSE,,Smart,RC,TRUE,TRUE,FALSE,,,TRUE,,FALSE,FALSE,FALSE,FALSE,FALSE,FALSE,FALSE,FALSE,FALSE,FALSE,0,Free,0,0.6,101,101,FALSE,FALSE,FALSE,FALSE,FALSE,FALSE,,FALSE,Normal,100,100,0,0,0,0,2,FALSE,FALSE,FALSE,FALSE,FALSE,0,FALSE,FALSE,FALSE,FALSE,,,,,,TRUE,,,,,,FALSE,FALSE,NA,,,,,,,,,,,,Idle,,,TRUE,,FALSE,0,Hover,FALSE,FALSE,FALSE,FALSE,FALSE,FALSE,FALSE,FALSE,FALSE,FALSE,FALSE,FALSE,7.347162105,80.94428833,9.3,650.2,,TRUE,1,1,FALSE,FALSE,FALSE,FALSE,,TRUE,FALSE,FALSE,,98.4,,6.5,Calm,5,,,,,,,,554,4,400.2,18.615143,13.869028,0,74062,DJI Avata,1581F4QWB22C6003,4TTTKBT1A100XF,,4YPXKBWFG101BB,DJI Fly,Linux,0.0.1,6E9ACB0B-7C8A-BD18-625E-DCAA44F24C02,,,,,,,,,,,
6/13/2023,37:03.6,0m 1.1s,1.1,7.347186926,80.94429559,0,0,0,496,0.1,0,0,0,0,0,0,0,0,9.5,0.9,100.9,100.9,,Starting Motors,Other,,25,5,TRUE,,Avata,TRUE,FALSE,,Smart,RC,TRUE,TRUE,FALSE,,,TRUE,,FALSE,FALSE,FALSE,FALSE,FALSE,FALSE,FALSE,FALSE,FALSE,FALSE,0,Free,0,0.6,101,101,FALSE,FALSE,FALSE,FALSE,FALSE,FALSE,,FALSE,Normal,100,100,0,0,0,0,2,FALSE,FALSE,FALSE,FALSE,FALSE,0,FALSE,FALSE,FALSE,FALSE,98,,,,16.73,TRUE,4.183,4.183,4.183,4.183,,FALSE,FALSE,NA,,,,0,0,0,23,0,0,0,,Idle,0,0,FALSE,0,FALSE,0,Hover,FALSE,FALSE,FALSE,FALSE,FALSE,FALSE,FALSE,FALSE,FALSE,FALSE,FALSE,FALSE,7.347162105,80.94428833,9.4,650.2,,TRUE,1,1,FALSE,FALSE,FALSE,FALSE,,TRUE,FALSE,FALSE,,98.4,,6.5,Calm,5,,,,,,,,554,4,400.2,18.615143,13.869028,0,74062,DJI Avata,1581F4QWB22C6003,4TTTKBT1A100XF,,4YPXKBWFG101BB,DJI Fly,Linux,0.0.1,6E9ACB0B-7C8A-BD18-625E-DCAA44F24C02,,,,,,,,,,,
6/13/2023,37:03.8,0m 1.3s,1.3,7.347187017,80.94429559,0,0,0,496,0.2,0,0,0,0,0,0,0,0,9.5,0.9,100.9,100.9,,Starting Motors,Other,,25,5,TRUE,,Avata,TRUE,FALSE,,Smart,RC,TRUE,TRUE,FALSE,,,TRUE,,FALSE,FALSE,FALSE,FALSE,FALSE,FALSE,FALSE,FALSE,FALSE,FALSE,0,Free,0,0.6,101,101,FALSE,FALSE,FALSE,FALSE,FALSE,FALSE,,FALSE,Normal,100,100,0,0,0,0,2,FALSE,FALSE,FALSE,FALSE,FALSE,0,FALSE,FALSE,FALSE,FALSE,98,,,,16.73,TRUE,4.183,4.183,4.183,4.183,,FALSE,FALSE,NA,,,,0,0,0,23,0,0,0,,Idle,0,0,FALSE,0,FALSE,0,Hover,FALSE,FALSE,FALSE,FALSE,FALSE,FALSE,FALSE,FALSE,FALSE,FALSE,FALSE,FALSE,7.347162105,80.94428833,9.4,650.2,,TRUE,1,1,FALSE,FALSE,FALSE,FALSE,,TRUE,FALSE,FALSE,,98.4,,6.5,Calm,5,,,,,,,,554,4,400.2,18.615143,13.869028,0,74062,DJI Avata,1581F4QWB22C6003,4TTTKBT1A100XF,,4YPXKBWFG101BB,DJI Fly,Linux,0.0.1,6E9ACB0B-7C8A-BD18-625E-DCAA44F24C02,,,,,,,,,,,
6/13/2023,37:04.0,0m 1.5s,1.5,7.34718711,80.94429556,0,0,0,496,0.2,0,0,0,0,0,0,0,0,9.5,0.9,100.9,100.9,,Starting Motors,Other,,25,5,TRUE,,Avata,TRUE,FALSE,,Smart,RC,TRUE,TRUE,FALSE,,,TRUE,,FALSE,FALSE,FALSE,FALSE,FALSE,FALSE,FALSE,FALSE,FALSE,FALSE,0,Free,0,0.7,101,101,FALSE,FALSE,FALSE,FALSE,FALSE,FALSE,,FALSE,Normal,100,100,0,0,0,0,2,FALSE,FALSE,FALSE,FALSE,FALSE,0,FALSE,FALSE,FALSE,FALSE,98,,,,16.73,TRUE,4.183,4.183,4.183,4.183,,FALSE,FALSE,NA,,,,0,0,0,23,0,0,0,,Idle,0,0,FALSE,0,FALSE,0,Hover,FALSE,FALSE,FALSE,FALSE,FALSE,FALSE,FALSE,FALSE,FALSE,FALSE,FALSE,FALSE,7.347162105,80.94428833,9.4,650.2,,TRUE,1,1,FALSE,FALSE,FALSE,FALSE,,TRUE,FALSE,FALSE,,98.4,,6.5,Calm,5,,,,,,,,554,4,400.2,18.615143,13.869028,0,74062,DJI Avata,1581F4QWB22C6003,4TTTKBT1A100XF,,4YPXKBWFG101BB,DJI Fly,Linux,0.0.1,6E9ACB0B-7C8A-BD18-625E-DCAA44F24C02,,,,,,,,,,,
6/13/2023,37:04.2,0m 1.7s,1.7,7.347187183,80.94429553,0,0,0,496,0.2,0,0,0,0,0,0,0,0,9.5,0.9,100.9,100.9,,Manual Takeoff,Other,,25,5,TRUE,,Avata,TRUE,FALSE,,Smart,RC,TRUE,TRUE,FALSE,,,TRUE,,FALSE,FALSE,FALSE,FALSE,FALSE,FALSE,FALSE,FALSE,FALSE,FALSE,0,Free,0,0.6,101,101,FALSE,FALSE,FALSE,FALSE,FALSE,FALSE,,FALSE,Normal,100,100,0,0,0,0,2,FALSE,FALSE,FALSE,FALSE,FALSE,0,FALSE,FALSE,FALSE,FALSE,98,,,,16.73,TRUE,4.183,4.183,4.183,4.183,,FALSE,FALSE,NA,,,,0,0,0,23,0,0,0,,Idle,0,0,FALSE,0,FALSE,0,Hover,FALSE,FALSE,FALSE,FALSE,FALSE,FALSE,FALSE,FALSE,FALSE,FALSE,FALSE,FALSE,7.347162105,80.94428833,9.5,650.2,,TRUE,1,1,FALSE,FALSE,FALSE,FALSE,,TRUE,FALSE,FALSE,,98.4,,6.5,Calm,5,,,,,,,,554,4,400.2,18.615143,13.869028,0,74062,DJI Avata,1581F4QWB22C6003,4TTTKBT1A100XF,,4YPXKBWFG101BB,DJI Fly,Linux,0.0.1,6E9ACB0B-7C8A-BD18-625E-DCAA44F24C02,,,,,,,,,,,
6/13/2023,37:04.4,0m 1.9s,1.9,7.347187262,80.94429551,0,0,0,496,0.2,0,0,0,0,0,0,0,0,9.5,0.9,100.9,100.9,,Manual Takeoff,Other,,25,5,TRUE,,Avata,TRUE,FALSE,,Smart,RC,TRUE,TRUE,FALSE,,,TRUE,,FALSE,FALSE,FALSE,FALSE,FALSE,FALSE,FALSE,FALSE,FALSE,FALSE,0,Free,0,0.6,101,101,FALSE,FALSE,FALSE,FALSE,FALSE,FALSE,,FALSE,Normal,100,100,0,0,0,0,2,FALSE,FALSE,FALSE,FALSE,FALSE,0,FALSE,FALSE,FALSE,FALSE,98,,,,16.73,TRUE,4.183,4.183,4.183,4.183,,FALSE,FALSE,NA,,,,0,0,0,23,0,0,0,,Idle,0,0,FALSE,0,FALSE,0,Hover,FALSE,FALSE,FALSE,FALSE,FALSE,FALSE,FALSE,FALSE,FALSE,FALSE,FALSE,FALSE,7.347162105,80.94428833,9.5,650.2,,TRUE,1,1,FALSE,FALSE,FALSE,FALSE,,TRUE,FALSE,FALSE,,98.4,,6.5,Calm,5,,,,,,,,554,4,400.2,18.615143,13.869028,0,74062,DJI Avata,1581F4QWB22C6003,4TTTKBT1A100XF,,4YPXKBWFG101BB,DJI Fly,Linux,0.0.1,6E9ACB0B-7C8A-BD18-625E-DCAA44F24C02,,,,,,,,,,,
6/13/2023,37:04.6,0m 2.1s,2.1,7.347187349,80.9442955,0,0,0,496,0.3,0,0,0,0,0,0,0,0,9.5,1,100.9,100.9,,Manual Takeoff,Other,,25,5,TRUE,,Avata,TRUE,FALSE,,Smart,RC,TRUE,TRUE,FALSE,,,TRUE,,FALSE,FALSE,FALSE,FALSE,FALSE,FALSE,FALSE,FALSE,FALSE,FALSE,0,Free,0,0.7,101,101,FALSE,FALSE,FALSE,FALSE,FALSE,FALSE,,FALSE,Normal,100,100,0,0,0,0,2,FALSE,FALSE,FALSE,FALSE,FALSE,0,FALSE,FALSE,FALSE,FALSE,98,,,,16.619,TRUE,4.155,4.155,4.155,4.155,,FALSE,FALSE,NA,,,,0,0,0,23,0,0,0,,Idle,0,0,FALSE,0,FALSE,0,Hover,FALSE,FALSE,FALSE,FALSE,FALSE,FALSE,FALSE,FALSE,FALSE,FALSE,FALSE,FALSE,7.347162105,80.94428833,9.5,650.2,,TRUE,1,1,FALSE,FALSE,FALSE,FALSE,,TRUE,FALSE,FALSE,,98.4,,6.5,Calm,5,,,,,,,,554,4,400.2,18.615143,13.869028,0,74062,DJI Avata,1581F4QWB22C6003,4TTTKBT1A100XF,,4YPXKBWFG101BB,DJI Fly,Linux,0.0.1,6E9ACB0B-7C8A-BD18-625E-DCAA44F24C02,,,,,,,,,,,
6/13/2023,37:04.8,0m 2.3s,2.3,7.347187444,80.94429548,0,0,0,496,0.3,0,0,0,0,0,0,0,0,9.5,0.9,100.9,100.9,,Manual Takeoff,Other,,25,5,TRUE,,Avata,TRUE,FALSE,,Smart,RC,TRUE,TRUE,FALSE,,,TRUE,,FALSE,FALSE,FALSE,FALSE,FALSE,FALSE,FALSE,FALSE,FALSE,FALSE,0,Free,0,0.7,101,101,FALSE,FALSE,FALSE,FALSE,FALSE,FALSE,,FALSE,Normal,100,100,0,0,0,0,2,FALSE,FALSE,FALSE,FALSE,FALSE,0,FALSE,FALSE,FALSE,FALSE,98,,,,16.619,TRUE,4.155,4.155,4.155,4.155,,FALSE,FALSE,NA,,,,0,0,0,23,0,0,0,,Idle,0,0,FALSE,0,FALSE,0,Hover,FALSE,FALSE,FALSE,FALSE,FALSE,FALSE,FALSE,FALSE,FALSE,FALSE,FALSE,FALSE,7.347162105,80.94428833,9.5,650.2,,TRUE,1,1,FALSE,FALSE,FALSE,FALSE,,TRUE,FALSE,FALSE,,98.4,,6.5,Calm,5,,,,,,,,554,4,400.2,18.615143,13.869028,0,74062,DJI Avata,1581F4QWB22C6003,4TTTKBT1A100XF,,4YPXKBWFG101BB,DJI Fly,Linux,0.0.1,6E9ACB0B-7C8A-BD18-625E-DCAA44F24C02,,,,,,,,,,,
6/13/2023,37:05.0,0m 2.5s,2.5,7.347187519,80.94429548,0,0,0,496,0.3,0,0,0,0,0,0,0,0,9.5,0.9,100.9,100.9,,Manual Takeoff,Other,,25,5,TRUE,,Avata,TRUE,FALSE,,Smart,RC,TRUE,TRUE,FALSE,,,TRUE,,FALSE,FALSE,FALSE,FALSE,FALSE,FALSE,FALSE,FALSE,FALSE,FALSE,0,Free,0,0.6,101,101,FALSE,FALSE,FALSE,FALSE,FALSE,FALSE,,FALSE,Normal,100,100,0,0,0,0,2,FALSE,FALSE,FALSE,FALSE,FALSE,0,FALSE,FALSE,FALSE,FALSE,98,,,,16.619,TRUE,4.155,4.155,4.155,4.155,,FALSE,FALSE,NA,,,,0,0,0,23,0,0,0,,Idle,0,0,FALSE,0,FALSE,0,Hover,FALSE,FALSE,FALSE,FALSE,FALSE,FALSE,FALSE,FALSE,FALSE,FALSE,FALSE,FALSE,7.347162105,80.94428833,9.6,650.2,,TRUE,1,1,FALSE,FALSE,FALSE,FALSE,,TRUE,FALSE,FALSE,,98.4,,6.5,Calm,5,,,,,,,,554,4,400.2,18.615143,13.869028,0,74062,DJI Avata,1581F4QWB22C6003,4TTTKBT1A100XF,,4YPXKBWFG101BB,DJI Fly,Linux,0.0.1,6E9ACB0B-7C8A-BD18-625E-DCAA44F24C02,,,,,,,,,,,
6/13/2023,37:05.2,0m 2.7s,2.7,7.347187599,80.94429544,0,0,0,496,0.4,0,0,0,0,0,0,0,0,9.5,0.9,100.9,100.9,,Manual Takeoff,Other,,25,5,TRUE,,Avata,TRUE,FALSE,,Smart,RC,TRUE,TRUE,FALSE,,,TRUE,,FALSE,FALSE,FALSE,FALSE,FALSE,FALSE,FALSE,FALSE,FALSE,FALSE,0,Free,0,0.6,101.1,101.1,FALSE,FALSE,FALSE,FALSE,FALSE,FALSE,,FALSE,Normal,100,100,0,0,0,0,2,FALSE,FALSE,FALSE,FALSE,FALSE,0,FALSE,FALSE,FALSE,FALSE,98,,,,16.619,TRUE,4.155,4.155,4.155,4.155,,FALSE,FALSE,NA,,,,0,0,0,23,0,0,0,,Idle,0,0,FALSE,0,FALSE,0,Hover,FALSE,FALSE,FALSE,FALSE,FALSE,FALSE,FALSE,FALSE,FALSE,FALSE,FALSE,FALSE,7.347162105,80.94428833,9.6,650.2,,TRUE,1,1,FALSE,FALSE,FALSE,FALSE,,TRUE,FALSE,FALSE,,98.4,,6.5,Calm,5,,,,,,,,554,4,400.2,18.615143,13.869028,0,74062,DJI Avata,1581F4QWB22C6003,4TTTKBT1A100XF,,4YPXKBWFG101BB,DJI Fly,Linux,0.0.1,6E9ACB0B-7C8A-BD18-625E-DCAA44F24C02,,,,,,,,,,,
6/13/2023,37:05.4,0m 2.9s,2.9,7.347187659,80.94429542,0,0,0,496,0.4,0,0,0,0,0,0,0,0,9.5,1,100.9,100.9,,Manual Takeoff,Other,,25,5,TRUE,,Avata,TRUE,FALSE,,Smart,RC,TRUE,TRUE,FALSE,,,TRUE,,FALSE,FALSE,FALSE,FALSE,FALSE,FALSE,FALSE,FALSE,FALSE,FALSE,0,Free,0,0.7,101.1,101.1,FALSE,FALSE,FALSE,FALSE,FALSE,FALSE,,FALSE,Normal,100,100,0,0,0,0,2,FALSE,FALSE,FALSE,FALSE,FALSE,0,FALSE,FALSE,FALSE,FALSE,98,,,,16.619,TRUE,4.155,4.155,4.155,4.155,,FALSE,FALSE,NA,,,,0,0,0,23,0,0,0,,Idle,0,0,FALSE,0,FALSE,0,Hover,FALSE,FALSE,FALSE,FALSE,FALSE,FALSE,FALSE,FALSE,FALSE,FALSE,FALSE,FALSE,7.347162105,80.94428833,9.6,650.2,,TRUE,1,1,FALSE,FALSE,FALSE,FALSE,,TRUE,FALSE,FALSE,,98.4,,6.5,Calm,5,,,,,,,,554,4,400.2,18.615143,13.869028,0,74062,DJI Avata,1581F4QWB22C6003,4TTTKBT1A100XF,,4YPXKBWFG101BB,DJI Fly,Linux,0.0.1,6E9ACB0B-7C8A-BD18-625E-DCAA44F24C02,,,,,,,,,,,
6/13/2023,37:05.6,0m 3.1s,3.1,7.347187727,80.94429539,0,0,0,496,0.4,0,0,0,0,0,0,0,0,9.5,0.9,100.9,100.9,,Manual Takeoff,Other,,25,5,TRUE,,Avata,TRUE,FALSE,,Smart,RC,TRUE,TRUE,FALSE,,,TRUE,,FALSE,FALSE,FALSE,FALSE,FALSE,FALSE,FALSE,FALSE,FALSE,FALSE,0,Free,0,0.6,101.1,101.1,FALSE,FALSE,FALSE,FALSE,FALSE,FALSE,,FALSE,Normal,100,100,0,0,0,0,2,FALSE,FALSE,FALSE,FALSE,FALSE,0,FALSE,FALSE,FALSE,FALSE,98,,,,16.601,TRUE,4.15,4.15,4.15,4.15,,FALSE,FALSE,NA,,,,0,0,0,23,0,0,0,,Idle,0,0,FALSE,0,FALSE,0,Hover,FALSE,FALSE,FALSE,FALSE,FALSE,FALSE,FALSE,FALSE,FALSE,FALSE,FALSE,FALSE,7.347162105,80.94428833,9.6,650.2,,TRUE,1,1,FALSE,FALSE,FALSE,FALSE,,TRUE,FALSE,FALSE,,98.4,,6.5,Calm,5,,,,,,,,554,4,400.2,18.615143,13.869028,0,74062,DJI Avata,1581F4QWB22C6003,4TTTKBT1A100XF,,4YPXKBWFG101BB,DJI Fly,Linux,0.0.1,6E9ACB0B-7C8A-BD18-625E-DCAA44F24C02,,,,,,,,,,,
6/13/2023,37:05.8,0m 3.1s,3.1,7.347187734,80.94429539,0,0,0,496,0.4,0,0,0,0,0,0,0,0,9.5,0.9,100.9,100.9,,Manual Takeoff,Other,,25,5,TRUE,,Avata,TRUE,FALSE,,Smart,RC,TRUE,TRUE,FALSE,,,TRUE,,FALSE,FALSE,FALSE,FALSE,FALSE,FALSE,FALSE,FALSE,FALSE,FALSE,0,Free,0,0.6,101.1,101.1,FALSE,FALSE,FALSE,FALSE,FALSE,FALSE,,FALSE,Normal,100,100,0,0,0,0,2,FALSE,FALSE,FALSE,FALSE,FALSE,0,FALSE,FALSE,FALSE,FALSE,98,16.599,2444,2484,16.601,FALSE,4.141,4.154,4.15,4.154,0.013,FALSE,FALSE,NA,93.2,93.2,93.2,0,0,0,23,0,0,0,,Idle,0,0,FALSE,0,FALSE,0,Hover,FALSE,FALSE,FALSE,FALSE,FALSE,FALSE,FALSE,FALSE,FALSE,FALSE,FALSE,FALSE,7.347162105,80.94428833,9.6,650.2,,TRUE,1,1,FALSE,FALSE,FALSE,FALSE,,TRUE,FALSE,FALSE,,98.4,,6.5,Calm,5,Linux,0.0.1,DJI Avata,1581F4QWB22C6003,,,,554,4,400.2,18.615143,13.869028,0,74062,DJI Avata,1581F4QWB22C6003,4TTTKBT1A100XF,,4YPXKBWFG101BB,DJI Fly,Linux,0.0.1,6E9ACB0B-7C8A-BD18-625E-DCAA44F24C02,1581F4QWB22C600307BM,,4TTTKBT1A100XF,,,,,,,,Motors starting. Press and hold the Lock button to take off.
6/13/2023,37:05.8,0m 3.3s,3.3,7.347187804,80.94429538,0,0,0,496,0.5,0,0,0,0,0,0,0,0,9.5,0.9,100.9,100.9,,Manual Takeoff,Other,,25,5,TRUE,,Avata,TRUE,FALSE,,Smart,RC,TRUE,TRUE,FALSE,,,TRUE,,FALSE,FALSE,FALSE,FALSE,FALSE,FALSE,FALSE,FALSE,FALSE,FALSE,0,Free,0,0.6,101.1,101.1,FALSE,FALSE,FALSE,FALSE,FALSE,FALSE,,FALSE,Normal,100,100,0,0,0,0,2,FALSE,FALSE,FALSE,FALSE,FALSE,0,FALSE,FALSE,FALSE,FALSE,98,16.599,2444,2484,16.601,FALSE,4.141,4.154,4.15,4.154,0.013,FALSE,FALSE,NA,93.2,93.2,93.2,0,0,0,23,0,0,0,,Idle,0,0,FALSE,0,FALSE,0,Hover,FALSE,FALSE,FALSE,FALSE,FALSE,FALSE,FALSE,FALSE,FALSE,FALSE,FALSE,FALSE,7.347162105,80.94428833,9.7,650.2,,TRUE,1,1,FALSE,FALSE,FALSE,FALSE,,TRUE,FALSE,FALSE,,98.4,,6.5,Calm,5,Linux,0.0.1,DJI Avata,1581F4QWB22C6003,,,,554,4,400.2,18.615143,13.869028,0,74062,DJI Avata,1581F4QWB22C6003,4TTTKBT1A100XF,,4YPXKBWFG101BB,DJI Fly,Linux,0.0.1,6E9ACB0B-7C8A-BD18-625E-DCAA44F24C02,1581F4QWB22C600307BM,,4TTTKBT1A100XF,,,,,,,,
6/13/2023,37:06.0,0m 3.5s,3.5,7.347187889,80.94429534,0,0,0,496,0.5,0,0,0,0,0,0,0,0,9.5,0.9,100.9,100.9,,Manual Takeoff,Other,,25,5,TRUE,,Avata,TRUE,FALSE,,Smart,RC,TRUE,TRUE,FALSE,,,TRUE,,FALSE,FALSE,FALSE,FALSE,FALSE,FALSE,FALSE,FALSE,FALSE,FALSE,0,Free,0,0.7,101.1,101.1,FALSE,FALSE,FALSE,FALSE,FALSE,FALSE,,FALSE,Normal,100,100,0,0,0,0,2,FALSE,FALSE,FALSE,FALSE,FALSE,0,FALSE,FALSE,FALSE,FALSE,98,16.599,2444,2484,16.601,FALSE,4.141,4.154,4.15,4.154,0.013,FALSE,FALSE,NA,93.2,93.2,93.2,0,0,0,23,0,0,0,,Idle,0,0,FALSE,0,FALSE,0,Hover,FALSE,FALSE,FALSE,FALSE,FALSE,FALSE,FALSE,FALSE,FALSE,FALSE,FALSE,FALSE,7.347162105,80.94428833,9.7,650.2,,TRUE,1,1,FALSE,FALSE,FALSE,FALSE,,TRUE,FALSE,FALSE,,98.4,,6.5,Calm,5,Linux,0.0.1,DJI Avata,1581F4QWB22C6003,,,,554,4,400.2,18.615143,13.869028,0,74062,DJI Avata,1581F4QWB22C6003,4TTTKBT1A100XF,,4YPXKBWFG101BB,DJI Fly,Linux,0.0.1,6E9ACB0B-7C8A-BD18-625E-DCAA44F24C02,1581F4QWB22C600307BM,,4TTTKBT1A100XF,,,,,,,,
6/13/2023,37:06.2,0m 3.7s,3.7,7.347187981,80.94429531,0,0,0,496,0.5,0,0,0,0,0,0,0,0,9.5,0.9,100.9,100.9,,Manual Takeoff,Other,,25,5,TRUE,,Avata,TRUE,FALSE,,Smart,RC,TRUE,TRUE,FALSE,,,TRUE,,FALSE,FALSE,FALSE,FALSE,FALSE,FALSE,FALSE,FALSE,FALSE,FALSE,0,Free,0,0.7,101.1,101.1,FALSE,FALSE,FALSE,FALSE,FALSE,FALSE,,FALSE,Normal,100,100,0,0,0,0,2,FALSE,FALSE,FALSE,FALSE,FALSE,0,FALSE,FALSE,FALSE,FALSE,98,16.599,2444,2484,16.601,FALSE,4.141,4.154,4.15,4.154,0.013,FALSE,FALSE,NA,93.2,93.2,93.2,0,0,0,23,0,0,0,,Idle,0,0,FALSE,0,FALSE,0,Hover,FALSE,FALSE,FALSE,FALSE,FALSE,FALSE,FALSE,FALSE,FALSE,FALSE,FALSE,FALSE,7.347162105,80.94428833,9.7,650.2,,TRUE,1,1,FALSE,FALSE,FALSE,FALSE,,TRUE,FALSE,FALSE,,98.4,,6.5,Calm,5,Linux,0.0.1,DJI Avata,1581F4QWB22C6003,,,,554,4,400.2,18.615143,13.869028,0,74062,DJI Avata,1581F4QWB22C6003,4TTTKBT1A100XF,,4YPXKBWFG101BB,DJI Fly,Linux,0.0.1,6E9ACB0B-7C8A-BD18-625E-DCAA44F24C02,1581F4QWB22C600307BM,,4TTTKBT1A100XF,,,,,,,,
6/13/2023,37:06.4,0m 3.9s,3.9,7.347188079,80.94429528,0,0,0,496,0.6,0,0,0,0,0,0,0,0,9.5,0.9,100.9,100.9,,Manual Takeoff,Other,,25,5,TRUE,,Avata,TRUE,FALSE,,Smart,RC,TRUE,TRUE,FALSE,,,TRUE,,FALSE,FALSE,FALSE,FALSE,FALSE,FALSE,FALSE,FALSE,FALSE,FALSE,0,Free,0,0.6,101.1,101.1,FALSE,FALSE,FALSE,FALSE,FALSE,FALSE,,FALSE,Normal,100,100,0,0,0,0,2,FALSE,FALSE,FALSE,FALSE,FALSE,0,FALSE,FALSE,FALSE,FALSE,98,16.599,2444,2484,16.601,FALSE,4.141,4.154,4.15,4.154,0.013,FALSE,FALSE,NA,93.2,93.2,93.2,0,0,0,23,0,0,0,,Idle,0,0,FALSE,0,FALSE,0,Hover,FALSE,FALSE,FALSE,FALSE,FALSE,FALSE,FALSE,FALSE,FALSE,FALSE,FALSE,FALSE,7.347162105,80.94428833,9.8,650.2,,TRUE,1,1,FALSE,FALSE,FALSE,FALSE,,TRUE,FALSE,FALSE,,98.4,,6.5,Calm,5,Linux,0.0.1,DJI Avata,1581F4QWB22C6003,,,,554,4,400.2,18.615143,13.869028,0,74062,DJI Avata,1581F4QWB22C6003,4TTTKBT1A100XF,,4YPXKBWFG101BB,DJI Fly,Linux,0.0.1,6E9ACB0B-7C8A-BD18-625E-DCAA44F24C02,1581F4QWB22C600307BM,,4TTTKBT1A100XF,,,,,,,,
6/13/2023,37:06.6,0m 4.1s,4.1,7.34718818,80.94429526,0,0,0,496,0.6,0,0,0,0,0,0,0,0,9.5,0.9,100.9,100.9,,Manual Takeoff,Other,,25,5,TRUE,,Avata,TRUE,FALSE,,Smart,RC,TRUE,TRUE,FALSE,,,TRUE,,FALSE,FALSE,FALSE,FALSE,FALSE,FALSE,FALSE,FALSE,FALSE,FALSE,0,Free,0,0.7,101.1,101.1,FALSE,FALSE,FALSE,FALSE,FALSE,FALSE,,FALSE,Normal,100,100,0,0,0,0,2,FALSE,FALSE,FALSE,FALSE,FALSE,0,FALSE,FALSE,FALSE,FALSE,98,16.599,2444,2484,16.597,FALSE,4.141,4.154,4.15,4.154,0.013,FALSE,FALSE,NA,93.2,93.2,93.2,0,0,0,23,0,0,0,,Idle,0,0,FALSE,0,FALSE,0,Hover,FALSE,FALSE,FALSE,FALSE,FALSE,FALSE,FALSE,FALSE,FALSE,FALSE,FALSE,FALSE,7.347162105,80.94428833,9.8,650.2,,TRUE,1,1,FALSE,FALSE,FALSE,FALSE,,TRUE,FALSE,FALSE,,98.4,,6.5,Calm,5,Linux,0.0.1,DJI Avata,1581F4QWB22C6003,,,,554,4,400.2,18.615143,13.869028,0,74062,DJI Avata,1581F4QWB22C6003,4TTTKBT1A100XF,,4YPXKBWFG101BB,DJI Fly,Linux,0.0.1,6E9ACB0B-7C8A-BD18-625E-DCAA44F24C02,1581F4QWB22C600307BM,,4TTTKBT1A100XF,,,,,,,,
6/13/2023,37:06.8,0m 4.3s,4.3,7.347188284,80.94429522,0,0,0,496,0.6,0,0,0,0,0,0,0,0,9.5,1,100.9,100.9,,Manual Takeoff,Other,,25,5,TRUE,,Avata,TRUE,FALSE,,Smart,RC,TRUE,TRUE,FALSE,,,TRUE,,FALSE,FALSE,FALSE,FALSE,FALSE,FALSE,FALSE,FALSE,FALSE,FALSE,0,Free,0,0.7,101.1,101.1,FALSE,FALSE,FALSE,FALSE,FALSE,FALSE,,FALSE,Normal,100,100,0,0,0,0,2,FALSE,FALSE,FALSE,FALSE,FALSE,0,FALSE,FALSE,FALSE,FALSE,98,16.594,2444,2484,16.597,FALSE,4.139,4.152,4.149,4.154,0.015,FALSE,FALSE,NA,93.2,93.2,93.2,0,0,0,23,0,0,0,,Idle,0,0,FALSE,0,FALSE,0,Hover,FALSE,FALSE,FALSE,FALSE,FALSE,FALSE,FALSE,FALSE,FALSE,FALSE,FALSE,FALSE,7.347162105,80.94428833,9.8,650.2,,TRUE,1,1,FALSE,FALSE,FALSE,FALSE,,TRUE,FALSE,FALSE,,98.4,,6.5,Calm,5,Linux,0.0.1,DJI Avata,1581F4QWB22C6003,,,,554,4,400.2,18.615143,13.869028,0,74062,DJI Avata,1581F4QWB22C6003,4TTTKBT1A100XF,,4YPXKBWFG101BB,DJI Fly,Linux,0.0.1,6E9ACB0B-7C8A-BD18-625E-DCAA44F24C02,1581F4QWB22C600307BM,,4TTTKBT1A100XF,,,,,,,,
6/13/2023,37:07.0,0m 4.5s,4.5,7.34718839,80.94429518,0,0,0,496,0.7,0,0,0,0,0,0,0,0,9.5,0.9,100.9,100.9,,Starting Motors,Other,,25,5,TRUE,,Avata,TRUE,FALSE,,Smart,RC,TRUE,TRUE,FALSE,,,TRUE,,FALSE,FALSE,FALSE,FALSE,FALSE,FALSE,FALSE,FALSE,FALSE,FALSE,0,Free,0,0.7,101.1,101.1,FALSE,FALSE,FALSE,FALSE,FALSE,FALSE,,FALSE,Normal,100,100,0,0,0,0,2,FALSE,FALSE,FALSE,FALSE,FALSE,0,FALSE,FALSE,FALSE,FALSE,98,16.594,2444,2484,16.597,FALSE,4.139,4.152,4.149,4.154,0.015,FALSE,FALSE,NA,93.2,93.2,93.2,0,0,0,23,0,0,0,,Idle,0,0,FALSE,0,FALSE,0,Hover,FALSE,FALSE,FALSE,FALSE,FALSE,FALSE,FALSE,FALSE,FALSE,FALSE,FALSE,FALSE,7.347162105,80.94428833,9.9,650.2,,TRUE,1,1,FALSE,FALSE,FALSE,FALSE,,TRUE,FALSE,FALSE,,98.4,,6.5,Calm,5,Linux,0.0.1,DJI Avata,1581F4QWB22C6003,,,,554,4,400.2,18.615143,13.869028,0,74062,DJI Avata,1581F4QWB22C6003,4TTTKBT1A100XF,,4YPXKBWFG101BB,DJI Fly,Linux,0.0.1,6E9ACB0B-7C8A-BD18-625E-DCAA44F24C02,1581F4QWB22C600307BM,,4TTTKBT1A100XF,,,,,,,,
6/13/2023,37:07.2,0m 4.7s,4.7,7.347188469,80.94429516,0,0,0,496,0.7,0,0,0,0,0,0,0,0,9.5,0.9,101,101,,Starting Motors,Other,,25,5,TRUE,,Avata,TRUE,FALSE,,Smart,RC,TRUE,TRUE,FALSE,,,TRUE,,FALSE,FALSE,FALSE,FALSE,FALSE,FALSE,FALSE,FALSE,FALSE,FALSE,0,Free,0,0.7,101.1,101.1,FALSE,FALSE,FALSE,FALSE,FALSE,FALSE,,FALSE,Normal,100,100,0,0,0,0,2,FALSE,FALSE,FALSE,FALSE,FALSE,0,FALSE,FALSE,FALSE,FALSE,98,16.594,2444,2484,16.597,FALSE,4.139,4.152,4.149,4.154,0.015,FALSE,FALSE,NA,93.2,93.2,93.2,0,0,0,23,0,0,0,,Idle,0,0,FALSE,0,FALSE,0,Hover,FALSE,FALSE,FALSE,FALSE,FALSE,FALSE,FALSE,FALSE,FALSE,FALSE,FALSE,FALSE,7.347162105,80.94428833,9.9,650.2,,TRUE,1,1,FALSE,FALSE,FALSE,FALSE,,TRUE,FALSE,FALSE,,98.4,,6.5,Calm,5,Linux,0.0.1,DJI Avata,1581F4QWB22C6003,,,,554,4,400.2,18.615143,13.869028,0,74062,DJI Avata,1581F4QWB22C6003,4TTTKBT1A100XF,,4YPXKBWFG101BB,DJI Fly,Linux,0.0.1,6E9ACB0B-7C8A-BD18-625E-DCAA44F24C02,1581F4QWB22C600307BM,,4TTTKBT1A100XF,,,,,,,,
6/13/2023,37:07.4,0m 4.9s,4.9,7.347188546,80.94429514,0,0,0,496,0.7,0,0,0,0,0,0,0,0,9.5,0.9,100.9,100.9,,Starting Motors,Other,,25,5,TRUE,,Avata,TRUE,FALSE,,Smart,RC,TRUE,TRUE,FALSE,,,TRUE,,FALSE,FALSE,FALSE,FALSE,FALSE,FALSE,FALSE,FALSE,FALSE,FALSE,0,Free,0,0.7,101.1,101.1,FALSE,FALSE,FALSE,FALSE,FALSE,FALSE,,FALSE,Normal,100,100,0,0,0,0,2,FALSE,FALSE,FALSE,FALSE,FALSE,0,FALSE,FALSE,FALSE,FALSE,98,16.594,2444,2484,16.597,FALSE,4.139,4.152,4.149,4.154,0.015,FALSE,FALSE,NA,93.2,93.2,93.2,0,0,0,23,0,0,0,,Idle,0,0,FALSE,0,FALSE,0,Hover,FALSE,FALSE,FALSE,FALSE,FALSE,FALSE,FALSE,FALSE,FALSE,FALSE,FALSE,FALSE,7.347162105,80.94428833,9.9,650.2,,TRUE,1,1,FALSE,FALSE,FALSE,FALSE,,TRUE,FALSE,FALSE,,98.4,,6.5,Calm,5,Linux,0.0.1,DJI Avata,1581F4QWB22C6003,,,,554,4,400.2,18.615143,13.869028,0,74062,DJI Avata,1581F4QWB22C6003,4TTTKBT1A100XF,,4YPXKBWFG101BB,DJI Fly,Linux,0.0.1,6E9ACB0B-7C8A-BD18-625E-DCAA44F24C02,1581F4QWB22C600307BM,,4TTTKBT1A100XF,,,,,,,,
6/13/2023,37:07.6,0m 5.1s,5.1,7.347188626,80.94429512,0,0,0,496,0.8,0,0,0,0,0,0,0,0,9.5,0.9,101,101,,Starting Motors,Other,,25,5,TRUE,,Avata,TRUE,FALSE,,Smart,RC,TRUE,TRUE,FALSE,,,TRUE,,FALSE,FALSE,FALSE,FALSE,FALSE,FALSE,FALSE,FALSE,FALSE,FALSE,0,Free,0,0.7,101.1,101.1,FALSE,FALSE,FALSE,FALSE,FALSE,FALSE,,FALSE,Normal,100,100,0,0,0,0,2,FALSE,FALSE,FALSE,FALSE,FALSE,0,FALSE,FALSE,FALSE,FALSE,98,16.594,2444,2484,16.59,FALSE,4.139,4.152,4.149,4.154,0.015,FALSE,FALSE,NA,93.2,93.2,93.2,0,0,0,23,0,0,0,,Idle,0,0,FALSE,0,FALSE,0,Hover,FALSE,FALSE,FALSE,FALSE,FALSE,FALSE,FALSE,FALSE,FALSE,FALSE,FALSE,FALSE,7.347162105,80.94428833,9.9,650.2,,TRUE,1,1,FALSE,FALSE,FALSE,FALSE,,TRUE,FALSE,FALSE,,98.4,,6.5,Calm,5,Linux,0.0.1,DJI Avata,1581F4QWB22C6003,,,,554,4,400.2,18.615143,13.869028,0,74062,DJI Avata,1581F4QWB22C6003,4TTTKBT1A100XF,,4YPXKBWFG101BB,DJI Fly,Linux,0.0.1,6E9ACB0B-7C8A-BD18-625E-DCAA44F24C02,1581F4QWB22C600307BM,,4TTTKBT1A100XF,,,,,,,,
6/13/2023,37:07.8,0m 5.3s,5.3,7.347188706,80.94429508,0,0,0,496,0.8,0,0,0,0,0,0,0,0,9.5,0.9,101,101,,Starting Motors,Other,,25,5,TRUE,,Avata,TRUE,FALSE,,Smart,RC,TRUE,TRUE,FALSE,,,TRUE,,FALSE,FALSE,FALSE,FALSE,FALSE,FALSE,FALSE,FALSE,FALSE,FALSE,0,Free,0,0.7,101.2,101.2,FALSE,FALSE,FALSE,FALSE,FALSE,FALSE,,FALSE,Normal,100,100,0,0,0,0,2,FALSE,FALSE,FALSE,FALSE,FALSE,0,FALSE,FALSE,FALSE,FALSE,98,16.605,2444,2484,16.59,FALSE,4.143,4.154,4.152,4.156,0.015,FALSE,FALSE,NA,93.2,93.2,93.2,0,0,0,23,0,0,0,,Idle,0,0,FALSE,0,FALSE,0,Hover,FALSE,FALSE,FALSE,FALSE,FALSE,FALSE,FALSE,FALSE,FALSE,FALSE,FALSE,FALSE,7.347162105,80.94428833,10,650.2,,TRUE,1,1,FALSE,FALSE,FALSE,FALSE,,TRUE,FALSE,FALSE,,98.4,,6.5,Calm,5,Linux,0.0.1,DJI Avata,1581F4QWB22C6003,,,,554,4,400.2,18.615143,13.869028,0,74062,DJI Avata,1581F4QWB22C6003,4TTTKBT1A100XF,,4YPXKBWFG101BB,DJI Fly,Linux,0.0.1,6E9ACB0B-7C8A-BD18-625E-DCAA44F24C02,1581F4QWB22C600307BM,,4TTTKBT1A100XF,,,,,,,,
6/13/2023,37:08.0,0m 5.5s,5.5,7.347188762,80.94429505,0,0,0,496,0.8,0,0,0,0,0,0,0,0,9.5,0.9,101,101,,Starting Motors,Other,,25,5,TRUE,,Avata,TRUE,FALSE,,Smart,RC,TRUE,TRUE,FALSE,,,TRUE,,FALSE,FALSE,FALSE,FALSE,FALSE,FALSE,FALSE,FALSE,FALSE,FALSE,0,Free,0,0.7,101.1,101.1,FALSE,FALSE,FALSE,FALSE,FALSE,FALSE,,FALSE,Normal,100,100,0,0,0,0,2,FALSE,FALSE,FALSE,FALSE,FALSE,0,FALSE,FALSE,FALSE,FALSE,98,16.605,2444,2484,16.59,FALSE,4.143,4.154,4.152,4.156,0.015,FALSE,FALSE,NA,93.2,93.2,93.2,0,0,0,23,0,0,0,,Idle,0,0,FALSE,0,FALSE,0,Hover,FALSE,FALSE,FALSE,FALSE,FALSE,FALSE,FALSE,FALSE,FALSE,FALSE,FALSE,FALSE,7.347162105,80.94428833,10,650.2,,TRUE,1,1,FALSE,FALSE,FALSE,FALSE,,TRUE,FALSE,FALSE,,98.4,,6.5,Calm,5,Linux,0.0.1,DJI Avata,1581F4QWB22C6003,,,,554,4,400.2,18.615143,13.869028,0,74062,DJI Avata,1581F4QWB22C6003,4TTTKBT1A100XF,,4YPXKBWFG101BB,DJI Fly,Linux,0.0.1,6E9ACB0B-7C8A-BD18-625E-DCAA44F24C02,1581F4QWB22C600307BM,,4TTTKBT1A100XF,,,,,,,,
6/13/2023,37:08.2,0m 5.7s,5.7,7.347188819,80.94429503,0,0,0,496,0.8,0,0,0,0,0,0,0,0,9.5,0.9,101,101,,Starting Motors,Other,,25,5,TRUE,,Avata,TRUE,FALSE,,Smart,RC,TRUE,TRUE,FALSE,,,TRUE,,FALSE,FALSE,FALSE,FALSE,FALSE,FALSE,FALSE,FALSE,FALSE,FALSE,0,Free,0,0.7,101.2,101.2,FALSE,FALSE,FALSE,FALSE,FALSE,FALSE,,FALSE,Normal,100,100,0,0,0,0,2,FALSE,FALSE,FALSE,FALSE,FALSE,0,FALSE,FALSE,FALSE,FALSE,98,16.605,2444,2484,16.59,FALSE,4.143,4.154,4.152,4.156,0.015,FALSE,FALSE,NA,93.2,93.2,93.2,0,0,0,23,0,0,0,,Idle,0,0,FALSE,0,FALSE,0,Hover,FALSE,FALSE,FALSE,FALSE,FALSE,FALSE,FALSE,FALSE,FALSE,FALSE,FALSE,FALSE,7.347162105,80.94428833,10,650.2,,TRUE,1,1,FALSE,FALSE,FALSE,FALSE,,TRUE,FALSE,FALSE,,98.4,,6.5,Calm,5,Linux,0.0.1,DJI Avata,1581F4QWB22C6003,,,,554,4,400.2,18.615143,13.869028,0,74062,DJI Avata,1581F4QWB22C6003,4TTTKBT1A100XF,,4YPXKBWFG101BB,DJI Fly,Linux,0.0.1,6E9ACB0B-7C8A-BD18-625E-DCAA44F24C02,1581F4QWB22C600307BM,,4TTTKBT1A100XF,,,,,,,,
6/13/2023,37:08.4,0m 5.9s,5.9,7.347188882,80.94429501,0,0,0,496,0.9,0,0,0,0,0,0,0,0,9.5,0.9,101,101,,Auto Takeoff,Other,,25,5,TRUE,,Avata,TRUE,FALSE,,Smart,RC,TRUE,TRUE,FALSE,,,TRUE,,FALSE,FALSE,FALSE,FALSE,FALSE,FALSE,FALSE,FALSE,FALSE,FALSE,0,Free,0,0.7,101.2,101.2,FALSE,FALSE,FALSE,FALSE,FALSE,FALSE,,FALSE,Normal,100,100,0,0,0,0,2,FALSE,FALSE,FALSE,FALSE,FALSE,0,FALSE,FALSE,FALSE,FALSE,98,16.605,2444,2484,16.59,FALSE,4.143,4.154,4.152,4.156,0.015,FALSE,FALSE,NA,93.2,93.2,93.2,0,0,0,23,0,0,0,,Idle,0,0,FALSE,0,FALSE,0,Hover,FALSE,FALSE,FALSE,FALSE,FALSE,FALSE,FALSE,FALSE,FALSE,FALSE,FALSE,FALSE,7.347162105,80.94428833,10,650.2,,TRUE,1,1,FALSE,FALSE,FALSE,FALSE,,TRUE,FALSE,FALSE,,98.4,,6.5,Calm,5,Linux,0.0.1,DJI Avata,1581F4QWB22C6003,,,,554,4,400.2,18.615143,13.869028,0,74062,DJI Avata,1581F4QWB22C6003,4TTTKBT1A100XF,,4YPXKBWFG101BB,DJI Fly,Linux,0.0.1,6E9ACB0B-7C8A-BD18-625E-DCAA44F24C02,1581F4QWB22C600307BM,,4TTTKBT1A100XF,,,,,,,,
6/13/2023,37:08.6,0m 6.1s,6.1,7.347188956,80.94429495,0,0,0,496,0.9,0,0,0,0,0,0,0,0,5.3,0.1,99.5,99.5,,Auto Takeoff,Other,,25,5,TRUE,,Avata,TRUE,FALSE,,Smart,RC,TRUE,TRUE,FALSE,,,TRUE,,FALSE,FALSE,FALSE,FALSE,FALSE,FALSE,FALSE,FALSE,FALSE,FALSE,0,Free,0,0.1,99.8,99.8,FALSE,FALSE,FALSE,FALSE,FALSE,FALSE,,FALSE,Normal,100,100,0,0,0,0,2,FALSE,FALSE,FALSE,FALSE,FALSE,0,FALSE,FALSE,FALSE,FALSE,98,16.605,2444,2484,16.562,FALSE,4.143,4.154,4.152,4.156,0.015,FALSE,FALSE,NA,93.2,93.2,93.2,0,0,0,23,0,0,0,,Idle,0,0,FALSE,0,FALSE,0,Hover,FALSE,FALSE,FALSE,FALSE,FALSE,FALSE,FALSE,FALSE,FALSE,FALSE,FALSE,FALSE,7.347162105,80.94428833,10,650.2,,TRUE,1,1,FALSE,FALSE,FALSE,FALSE,,TRUE,FALSE,FALSE,,98.4,,6.5,Calm,5,Linux,0.0.1,DJI Avata,1581F4QWB22C6003,,,,554,4,400.2,18.615143,13.869028,0,74062,DJI Avata,1581F4QWB22C6003,4TTTKBT1A100XF,,4YPXKBWFG101BB,DJI Fly,Linux,0.0.1,6E9ACB0B-7C8A-BD18-625E-DCAA44F24C02,1581F4QWB22C600307BM,,4TTTKBT1A100XF,,,,,,,,
6/13/2023,37:08.8,0m 6.3s,6.3,7.347189119,80.94429467,0.3,0.3,0,496,1,0.223694,0.223694,0,0,-0.223694,0,-0.894776,0,0.2,0.1,100,100,320.6,Auto Takeoff,Other,,25,5,TRUE,,Avata,TRUE,FALSE,,Smart,RC,FALSE,TRUE,FALSE,,,TRUE,,FALSE,FALSE,FALSE,FALSE,FALSE,FALSE,FALSE,FALSE,FALSE,FALSE,0,Free,0,-0.1,100.2,100.2,FALSE,FALSE,FALSE,FALSE,FALSE,FALSE,,FALSE,Normal,100,100,0,0,0,0,2,FALSE,FALSE,FALSE,FALSE,FALSE,0,FALSE,FALSE,FALSE,FALSE,98,16.547,2444,2484,16.562,FALSE,4.128,4.139,4.137,4.143,0.015,FALSE,FALSE,NA,93.2,93.2,93.2,0,0,30,23,10,0,0,,Idle,0,0,FALSE,0,FALSE,0,Go Home,FALSE,FALSE,FALSE,FALSE,FALSE,FALSE,FALSE,FALSE,FALSE,FALSE,FALSE,FALSE,7.347162105,80.94428833,10.1,650.2,,TRUE,1,1,FALSE,FALSE,FALSE,FALSE,,TRUE,FALSE,FALSE,,98.4,,6.5,Calm,5,Linux,0.0.1,DJI Avata,1581F4QWB22C6003,,,,554,4,400.2,18.615143,13.869028,0,74062,DJI Avata,1581F4QWB22C6003,4TTTKBT1A100XF,,4YPXKBWFG101BB,DJI Fly,Linux,0.0.1,6E9ACB0B-7C8A-BD18-625E-DCAA44F24C02,1581F4QWB22C600307BM,,4TTTKBT1A100XF,,,,,,,,
6/13/2023,37:08.9,0m 6.5s,6.5,7.347189362,80.94429439,0.6,0.6,0.3,496,1.2,0.223694,0.223694,0,0,-0.223694,0,-0.671082,0,-1.3,0.9,99.8,99.8,331.3,Auto Takeoff,Other,,25,5,TRUE,,Avata,TRUE,FALSE,,Smart,RC,FALSE,TRUE,FALSE,,,TRUE,,FALSE,FALSE,FALSE,FALSE,FALSE,FALSE,FALSE,FALSE,FALSE,FALSE,0,Free,0,0.7,100.1,100.1,FALSE,FALSE,FALSE,FALSE,FALSE,FALSE,,FALSE,Normal,100,100,0,0,0,0,2,FALSE,FALSE,FALSE,FALSE,FALSE,0,FALSE,FALSE,FALSE,FALSE,98,16.547,2444,2484,16.562,FALSE,4.128,4.139,4.137,4.143,0.015,FALSE,FALSE,NA,93.2,93.2,93.2,0,0,30,23,10,0,0,,Idle,0,0,FALSE,0,FALSE,0,Go Home,FALSE,FALSE,FALSE,FALSE,FALSE,FALSE,FALSE,FALSE,FALSE,FALSE,FALSE,FALSE,7.347162105,80.94428833,10.1,650.2,,TRUE,1,1,FALSE,FALSE,FALSE,FALSE,,TRUE,FALSE,FALSE,,98.4,,6.5,Calm,5,Linux,0.0.1,DJI Avata,1581F4QWB22C6003,,,,554,4,400.2,18.615143,13.869028,0,74062,DJI Avata,1581F4QWB22C6003,4TTTKBT1A100XF,,4YPXKBWFG101BB,DJI Fly,Linux,0.0.1,6E9ACB0B-7C8A-BD18-625E-DCAA44F24C02,1581F4QWB22C600307BM,,4TTTKBT1A100XF,,,,,,,,
6/13/2023,37:09.1,0m 6.7s,6.7,7.347189607,80.94429419,0.9,0.9,0.6,497,1.3,0.316351,0.316351,0.223694,0.223694,-0.223694,0,-0.447388,0,-1.8,1.4,99.9,99.9,338.3,Auto Takeoff,Other,,25,5,TRUE,,Avata,TRUE,FALSE,,Smart,RC,FALSE,TRUE,FALSE,,,TRUE,,FALSE,FALSE,FALSE,FALSE,FALSE,FALSE,FALSE,FALSE,FALSE,FALSE,0,Free,0,1.1,100.1,100.1,FALSE,FALSE,FALSE,FALSE,FALSE,FALSE,,FALSE,Normal,100,100,0,0,0,0,2,FALSE,FALSE,FALSE,FALSE,FALSE,0,FALSE,FALSE,FALSE,FALSE,98,16.547,2444,2484,16.562,FALSE,4.128,4.139,4.137,4.143,0.015,FALSE,FALSE,NA,93.2,93.2,93.2,0,0,30,23,10,0,0,,Idle,0,0,FALSE,0,FALSE,0,Go Home,FALSE,FALSE,FALSE,FALSE,FALSE,FALSE,FALSE,FALSE,FALSE,FALSE,FALSE,FALSE,7.347162105,80.94428833,10.2,650.2,,TRUE,1,1,FALSE,FALSE,FALSE,FALSE,,TRUE,FALSE,FALSE,,98.4,,6.5,Calm,5,Linux,0.0.1,DJI Avata,1581F4QWB22C6003,,,,554,4,400.2,18.615143,13.869028,0,74062,DJI Avata,1581F4QWB22C6003,4TTTKBT1A100XF,,4YPXKBWFG101BB,DJI Fly,Linux,0.0.1,6E9ACB0B-7C8A-BD18-625E-DCAA44F24C02,1581F4QWB22C600307BM,,4TTTKBT1A100XF,,,,,,,,
6/13/2023,37:09.3,0m 6.9s,6.9,7.347189837,80.94429398,0.9,0.9,0.9,497,1.4,0.223694,0.316351,0.223694,0.223694,0,0,-0.447388,0,-2.6,2.4,99.8,99.8,335.9,Auto Takeoff,Other,,24,5,TRUE,,Avata,TRUE,FALSE,,Smart,RC,FALSE,TRUE,FALSE,,,TRUE,,FALSE,FALSE,FALSE,FALSE,FALSE,FALSE,FALSE,FALSE,FALSE,FALSE,0,Free,0,2.1,100.1,100.1,FALSE,FALSE,FALSE,FALSE,FALSE,FALSE,,FALSE,Normal,100,100,0,0,0,0,2,FALSE,FALSE,FALSE,FALSE,FALSE,0,FALSE,FALSE,FALSE,FALSE,98,16.547,2444,2484,16.562,FALSE,4.128,4.139,4.137,4.143,0.015,FALSE,FALSE,NA,93.2,93.2,93.2,0,0,30,23,10,0,0,,Idle,0,0,FALSE,0,FALSE,0,Go Home,FALSE,FALSE,FALSE,FALSE,FALSE,FALSE,FALSE,FALSE,FALSE,FALSE,FALSE,FALSE,7.347162105,80.94428833,10.3,650.2,,TRUE,1,1,FALSE,FALSE,FALSE,FALSE,,TRUE,FALSE,FALSE,,98.4,,6.5,Calm,5,Linux,0.0.1,DJI Avata,1581F4QWB22C6003,,,,554,4,400.2,18.615143,13.869028,0,74062,DJI Avata,1581F4QWB22C6003,4TTTKBT1A100XF,,4YPXKBWFG101BB,DJI Fly,Linux,0.0.1,6E9ACB0B-7C8A-BD18-625E-DCAA44F24C02,1581F4QWB22C600307BM,,4TTTKBT1A100XF,,,,,,,,
6/13/2023,37:09.6,0m 7.1s,7.1,7.347190043,80.94429387,1.3,1.3,0.9,497,1.5,0,0.316351,0,0.223694,0,0,-0.447388,0,-2.6,3.4,99.6,99.6,,Auto Takeoff,Other,,25,5,TRUE,,Avata,TRUE,FALSE,,Smart,RC,FALSE,TRUE,FALSE,,,TRUE,,FALSE,FALSE,FALSE,FALSE,FALSE,FALSE,FALSE,FALSE,FALSE,FALSE,0,Free,0,3.2,100,100,FALSE,FALSE,FALSE,FALSE,FALSE,FALSE,,FALSE,Normal,100,100,0,0,0,0,2,FALSE,FALSE,FALSE,FALSE,FALSE,0,FALSE,FALSE,FALSE,FALSE,98,16.547,2444,2484,16.523,FALSE,4.128,4.139,4.137,4.143,0.015,FALSE,FALSE,NA,93.2,93.2,93.2,0,0,30,23,10,0,0,,Idle,0,0,FALSE,0,FALSE,0,Go Home,FALSE,FALSE,FALSE,FALSE,FALSE,FALSE,FALSE,FALSE,FALSE,FALSE,FALSE,FALSE,7.347162105,80.94428833,10.3,650.2,,TRUE,1,1,FALSE,FALSE,FALSE,FALSE,,TRUE,FALSE,FALSE,,98.4,,6.5,Calm,5,Linux,0.0.1,DJI Avata,1581F4QWB22C6003,,,,554,4,400.2,18.615143,13.869028,0,74062,DJI Avata,1581F4QWB22C6003,4TTTKBT1A100XF,,4YPXKBWFG101BB,DJI Fly,Linux,0.0.1,6E9ACB0B-7C8A-BD18-625E-DCAA44F24C02,1581F4QWB22C600307BM,,4TTTKBT1A100XF,,,,,,,,
6/13/2023,37:09.7,0m 7.3s,7.3,7.347190125,80.94429369,1.3,1.3,1.3,497,1.5,0,0.316351,0,0.223694,0,0,-0.447388,0,-4.7,2.1,99.5,99.5,,Auto Takeoff,Other,,25,5,TRUE,,Avata,TRUE,FALSE,,Smart,RC,FALSE,TRUE,FALSE,,,TRUE,,FALSE,FALSE,FALSE,FALSE,FALSE,FALSE,FALSE,FALSE,FALSE,FALSE,0,Free,0,2,99.9,99.9,FALSE,FALSE,FALSE,FALSE,FALSE,FALSE,,FALSE,Normal,100,100,0,0,0,0,2,FALSE,FALSE,FALSE,FALSE,FALSE,0,FALSE,FALSE,FALSE,FALSE,98,16.13,2444,2484,16.523,FALSE,4.023,4.033,4.036,4.038,0.015,FALSE,FALSE,NA,93.2,93.2,93.2,0,0,30,23,10,0,0,,Idle,0,0,FALSE,0,FALSE,0,Go Home,FALSE,FALSE,FALSE,FALSE,FALSE,FALSE,FALSE,FALSE,FALSE,FALSE,FALSE,FALSE,7.347188993,80.94429489,0.5,650.2,,TRUE,1,1,FALSE,FALSE,FALSE,FALSE,,TRUE,FALSE,FALSE,,98.4,,6.5,Calm,5,Linux,0.0.1,DJI Avata,1581F4QWB22C6003,,,,554,4,400.2,18.615143,13.869028,0,74062,DJI Avata,1581F4QWB22C6003,4TTTKBT1A100XF,,4YPXKBWFG101BB,DJI Fly,Linux,0.0.1,6E9ACB0B-7C8A-BD18-625E-DCAA44F24C02,1581F4QWB22C600307BM,,4TTTKBT1A100XF,,,,,,,,
6/13/2023,37:09.9,0m 7.5s,7.5,7.347190088,80.94429361,1.6,1.6,1.6,497,1.6,0,0.316351,0,0.223694,0,0,-0.447388,0,-5.2,0.5,99.7,99.7,,Auto Takeoff,Other,,25,5,TRUE,,Avata,TRUE,FALSE,,Smart,RC,FALSE,TRUE,FALSE,,,TRUE,,FALSE,FALSE,FALSE,FALSE,FALSE,FALSE,FALSE,FALSE,FALSE,FALSE,0,Free,0,0.4,99.9,99.9,FALSE,FALSE,FALSE,FALSE,FALSE,FALSE,,FALSE,Normal,100,100,0,0,0,0,2,FALSE,FALSE,FALSE,FALSE,FALSE,0,FALSE,FALSE,FALSE,FALSE,98,16.13,2444,2484,16.523,FALSE,4.023,4.033,4.036,4.038,0.015,FALSE,FALSE,NA,93.2,93.2,93.2,0,0,30,23,10,0,0,,Idle,0,0,FALSE,0,FALSE,0,Go Home,FALSE,FALSE,FALSE,FALSE,FALSE,FALSE,FALSE,FALSE,FALSE,FALSE,FALSE,FALSE,7.347188993,80.94429489,0.6,650.2,,TRUE,1,1,FALSE,FALSE,FALSE,FALSE,,TRUE,FALSE,FALSE,,98.4,,6.5,Calm,5,Linux,0.0.1,DJI Avata,1581F4QWB22C6003,,,,554,4,400.2,18.615143,13.869028,0,74062,DJI Avata,1581F4QWB22C6003,4TTTKBT1A100XF,,4YPXKBWFG101BB,DJI Fly,Linux,0.0.1,6E9ACB0B-7C8A-BD18-625E-DCAA44F24C02,1581F4QWB22C600307BM,,4TTTKBT1A100XF,,,,,,,,
6/13/2023,37:10.2,0m 7.7s,7.7,7.34718999,80.94429365,1.6,1.6,1.6,497,1.6,0,0.316351,0,0.223694,0,0,-0.671082,0,-3.8,-0.3,99.8,99.8,,Auto Takeoff,Other,,24,5,TRUE,,Avata,TRUE,FALSE,,Smart,RC,FALSE,TRUE,FALSE,,,TRUE,,FALSE,FALSE,FALSE,FALSE,FALSE,FALSE,FALSE,FALSE,FALSE,FALSE,0,Free,0,-0.5,100,100,FALSE,FALSE,FALSE,FALSE,FALSE,FALSE,,FALSE,Normal,100,100,0,0,0,0,2,FALSE,FALSE,FALSE,FALSE,FALSE,0,FALSE,FALSE,FALSE,FALSE,98,16.13,2444,2484,16.523,FALSE,4.023,4.033,4.036,4.038,0.015,FALSE,FALSE,NA,93.2,93.2,93.2,0,0,30,23,10,0,0,,Idle,0,0,FALSE,0,FALSE,0,Go Home,FALSE,FALSE,FALSE,FALSE,FALSE,FALSE,FALSE,FALSE,FALSE,FALSE,FALSE,FALSE,7.347188993,80.94429489,0.5,650.2,,TRUE,1,1,FALSE,FALSE,FALSE,FALSE,,TRUE,FALSE,FALSE,,98.4,,6.5,Calm,5,Linux,0.0.1,DJI Avata,1581F4QWB22C6003,,,,554,4,400.2,18.615143,13.869028,0,74062,DJI Avata,1581F4QWB22C6003,4TTTKBT1A100XF,,4YPXKBWFG101BB,DJI Fly,Linux,0.0.1,6E9ACB0B-7C8A-BD18-625E-DCAA44F24C02,1581F4QWB22C600307BM,,4TTTKBT1A100XF,,,,,,,,
6/13/2023,37:10.4,0m 7.9s,7.9,7.347189931,80.94429376,1.9,1.9,1.9,498,1.7,0,0.316351,0,0.223694,0,0,-0.671082,0,-3,-0.9,99.9,99.9,,Auto Takeoff,Other,,24,5,TRUE,,Avata,TRUE,FALSE,,Smart,RC,FALSE,TRUE,FALSE,,,TRUE,,FALSE,FALSE,FALSE,FALSE,FALSE,FALSE,FALSE,FALSE,FALSE,FALSE,0,Free,0,-1.2,100.1,100.1,FALSE,FALSE,FALSE,FALSE,FALSE,FALSE,,FALSE,Normal,100,100,0,0,0,0,2,FALSE,FALSE,FALSE,FALSE,FALSE,0,FALSE,FALSE,FALSE,FALSE,98,16.13,2444,2484,16.523,FALSE,4.023,4.033,4.036,4.038,0.015,FALSE,FALSE,NA,93.2,93.2,93.2,0,0,30,23,10,0,0,,Idle,0,0,FALSE,0,FALSE,0,Go Home,FALSE,FALSE,FALSE,FALSE,FALSE,FALSE,FALSE,FALSE,FALSE,FALSE,FALSE,FALSE,7.347188993,80.94429489,0.5,650.2,,TRUE,1,1,FALSE,FALSE,FALSE,FALSE,,TRUE,FALSE,FALSE,,98.4,,6.5,Calm,5,Linux,0.0.1,DJI Avata,1581F4QWB22C6003,,,,554,4,400.2,18.615143,13.869028,0,74062,DJI Avata,1581F4QWB22C6003,4TTTKBT1A100XF,,4YPXKBWFG101BB,DJI Fly,Linux,0.0.1,6E9ACB0B-7C8A-BD18-625E-DCAA44F24C02,1581F4QWB22C600307BM,,4TTTKBT1A100XF,,,,,,,,
6/13/2023,37:10.6,0m 8.1s,8.1,7.34718996,80.94429391,2.2,2.2,1.9,498,1.7,0,0.316351,0,0.223694,0,0,-0.447388,0,-2.6,-0.3,100,100,,Auto Takeoff,Other,,24,5,TRUE,,Avata,TRUE,FALSE,,Smart,RC,FALSE,TRUE,FALSE,,,TRUE,,FALSE,FALSE,FALSE,FALSE,FALSE,FALSE,FALSE,FALSE,FALSE,FALSE,0,Free,0,-0.7,100.2,100.2,FALSE,FALSE,FALSE,FALSE,FALSE,FALSE,,FALSE,Normal,100,100,0,0,0,0,2,FALSE,FALSE,FALSE,FALSE,FALSE,0,FALSE,FALSE,FALSE,FALSE,98,16.13,2444,2484,16.14,FALSE,4.023,4.033,4.036,4.038,0.015,FALSE,FALSE,NA,93.2,93.2,93.2,0,0,30,23,10,0,0,,Idle,0,0,FALSE,0,FALSE,0,Go Home,FALSE,FALSE,FALSE,FALSE,FALSE,FALSE,FALSE,FALSE,FALSE,FALSE,FALSE,FALSE,7.347188993,80.94429489,0.4,650.2,,TRUE,1,1,FALSE,FALSE,FALSE,FALSE,,TRUE,FALSE,FALSE,,98.4,,6.5,Calm,5,Linux,0.0.1,DJI Avata,1581F4QWB22C6003,,,,554,4,400.2,18.615143,13.869028,0,74062,DJI Avata,1581F4QWB22C6003,4TTTKBT1A100XF,,4YPXKBWFG101BB,DJI Fly,Linux,0.0.1,6E9ACB0B-7C8A-BD18-625E-DCAA44F24C02,1581F4QWB22C600307BM,,4TTTKBT1A100XF,,,,,,,,
6/13/2023,37:10.8,0m 8.3s,8.3,7.347190085,80.94429402,2.2,2.2,2.2,498,1.8,0,0.316351,0,0.223694,0,0,-0.671082,0,-2,0.7,100.1,100.1,,Auto Takeoff,Other,,25,5,TRUE,,Avata,TRUE,FALSE,,Smart,RC,FALSE,TRUE,FALSE,,,TRUE,,FALSE,FALSE,FALSE,FALSE,FALSE,FALSE,FALSE,FALSE,FALSE,FALSE,0,Free,0,0.2,100.4,100.4,FALSE,FALSE,FALSE,FALSE,FALSE,FALSE,,FALSE,Normal,100,100,0,0,0,0,2,FALSE,FALSE,FALSE,FALSE,FALSE,0,FALSE,FALSE,FALSE,FALSE,98,16.104,2438,2483,16.14,FALSE,4.015,4.028,4.029,4.032,0.017,FALSE,FALSE,NA,93.2,93.2,93.2,0,0,30,23,10,0,0,,Idle,0,0,FALSE,0,FALSE,0,Go Home,FALSE,FALSE,FALSE,FALSE,FALSE,FALSE,FALSE,FALSE,FALSE,FALSE,FALSE,FALSE,7.347188993,80.94429489,0.5,650.2,,TRUE,1,1,FALSE,FALSE,FALSE,FALSE,,TRUE,FALSE,FALSE,,98.4,,6.5,Calm,5,Linux,0.0.1,DJI Avata,1581F4QWB22C6003,,,,554,4,400.2,18.615143,13.869028,0,74062,DJI Avata,1581F4QWB22C6003,4TTTKBT1A100XF,,4YPXKBWFG101BB,DJI Fly,Linux,0.0.1,6E9ACB0B-7C8A-BD18-625E-DCAA44F24C02,1581F4QWB22C600307BM,,4TTTKBT1A100XF,,,,,,,,
6/13/2023,37:11.0,0m 8.5s,8.5,7.347190262,80.94429412,2.6,2.6,2.2,498,1.9,0,0.316351,0,0.223694,0,0,-0.671082,0,-1.4,2,99.9,99.9,,Auto Takeoff,Other,,25,5,TRUE,,Avata,TRUE,FALSE,,Smart,RC,FALSE,TRUE,FALSE,,,TRUE,,FALSE,FALSE,FALSE,FALSE,FALSE,FALSE,FALSE,FALSE,FALSE,FALSE,0,Free,0,1.5,100.3,100.3,FALSE,FALSE,FALSE,FALSE,FALSE,FALSE,,FALSE,Normal,100,100,0,0,0,0,2,FALSE,FALSE,FALSE,FALSE,FALSE,0,FALSE,FALSE,FALSE,FALSE,98,16.104,2438,2483,16.14,FALSE,4.015,4.028,4.029,4.032,0.017,FALSE,FALSE,NA,93.2,93.2,93.2,0,0,30,23,10,0,0,,Idle,0,0,FALSE,0,FALSE,0,Go Home,FALSE,FALSE,FALSE,FALSE,FALSE,FALSE,FALSE,FALSE,FALSE,FALSE,FALSE,FALSE,7.347188993,80.94429489,0.5,650.2,,TRUE,1,1,FALSE,FALSE,FALSE,FALSE,,TRUE,FALSE,FALSE,,98.4,,6.5,Calm,5,Linux,0.0.1,DJI Avata,1581F4QWB22C6003,,,,554,4,400.2,18.615143,13.869028,0,74062,DJI Avata,1581F4QWB22C6003,4TTTKBT1A100XF,,4YPXKBWFG101BB,DJI Fly,Linux,0.0.1,6E9ACB0B-7C8A-BD18-625E-DCAA44F24C02,1581F4QWB22C600307BM,,4TTTKBT1A100XF,,,,,,,,
6/13/2023,37:11.2,0m 8.7s,8.7,7.347190392,80.94429415,2.9,2.9,2.6,499,1.9,0,0.316351,0,0.223694,0,0,-0.671082,0,-1.3,2.6,99.9,99.9,,Auto Takeoff,Other,,25,5,TRUE,,Avata,TRUE,FALSE,,Smart,RC,FALSE,TRUE,FALSE,,,TRUE,,FALSE,FALSE,FALSE,FALSE,FALSE,FALSE,FALSE,FALSE,FALSE,FALSE,0,Free,0,2.3,100.3,100.3,FALSE,FALSE,FALSE,FALSE,FALSE,FALSE,,FALSE,Normal,100,100,0,0,0,0,2,FALSE,FALSE,FALSE,FALSE,FALSE,0,FALSE,FALSE,FALSE,FALSE,98,16.104,2438,2483,16.14,FALSE,4.015,4.028,4.029,4.032,0.017,FALSE,FALSE,NA,93.2,93.2,93.2,0,0,30,23,10,0,0,,Idle,0,0,FALSE,0,FALSE,0,Go Home,FALSE,FALSE,FALSE,FALSE,FALSE,FALSE,FALSE,FALSE,FALSE,FALSE,FALSE,FALSE,7.347188993,80.94429489,0.5,650.2,,TRUE,1,1,FALSE,FALSE,FALSE,FALSE,,TRUE,FALSE,FALSE,,98.4,,6.5,Calm,5,Linux,0.0.1,DJI Avata,1581F4QWB22C6003,,,,554,4,400.2,18.615143,13.869028,0,74062,DJI Avata,1581F4QWB22C6003,4TTTKBT1A100XF,,4YPXKBWFG101BB,DJI Fly,Linux,0.0.1,6E9ACB0B-7C8A-BD18-625E-DCAA44F24C02,1581F4QWB22C600307BM,,4TTTKBT1A100XF,,,,,,,,
6/13/2023,37:11.4,0m 8.9s,8.9,7.347190478,80.94429412,2.9,2.9,2.6,499,1.9,0,0.316351,0,0.223694,0,0,-0.447388,0,-2.2,2.6,99.8,99.8,,Auto Takeoff,Other,,25,5,TRUE,,Avata,TRUE,FALSE,,Smart,RC,FALSE,TRUE,FALSE,,,TRUE,,FALSE,FALSE,FALSE,FALSE,FALSE,FALSE,FALSE,FALSE,FALSE,FALSE,0,Free,0,2.4,100.3,100.3,FALSE,FALSE,FALSE,FALSE,FALSE,FALSE,,FALSE,Normal,100,100,0,0,0,0,2,FALSE,FALSE,FALSE,FALSE,FALSE,0,FALSE,FALSE,FALSE,FALSE,98,16.104,2438,2483,16.14,FALSE,4.015,4.028,4.029,4.032,0.017,FALSE,FALSE,NA,93.2,93.2,93.2,0,0,30,23,10,0,0,,Idle,0,0,FALSE,0,FALSE,0,Go Home,FALSE,FALSE,FALSE,FALSE,FALSE,FALSE,FALSE,FALSE,FALSE,FALSE,FALSE,FALSE,7.347188993,80.94429489,0.6,650.2,,TRUE,1,1,FALSE,FALSE,FALSE,FALSE,,TRUE,FALSE,FALSE,,98.4,,6.5,Calm,5,Linux,0.0.1,DJI Avata,1581F4QWB22C6003,,,,554,4,400.2,18.615143,13.869028,0,74062,DJI Avata,1581F4QWB22C6003,4TTTKBT1A100XF,,4YPXKBWFG101BB,DJI Fly,Linux,0.0.1,6E9ACB0B-7C8A-BD18-625E-DCAA44F24C02,1581F4QWB22C600307BM,,4TTTKBT1A100XF,,,,,,,,
6/13/2023,37:11.6,0m 9.1s,9.1,7.347190482,80.94429399,3.2,3.2,2.9,499,2,0,0.316351,0,0.223694,0,0,-0.671082,0,-3.1,2.3,99.7,99.7,,Auto Takeoff,Other,,25,5,TRUE,,Avata,TRUE,FALSE,,Smart,RC,FALSE,TRUE,FALSE,,,TRUE,,FALSE,FALSE,FALSE,FALSE,FALSE,FALSE,FALSE,FALSE,FALSE,FALSE,0,Free,0,2.1,100.2,100.2,FALSE,FALSE,FALSE,FALSE,FALSE,FALSE,,FALSE,Normal,100,100,0,0,0,0,2,FALSE,FALSE,FALSE,FALSE,FALSE,0,FALSE,FALSE,FALSE,FALSE,98,16.104,2438,2483,16.101,FALSE,4.015,4.028,4.029,4.032,0.017,FALSE,FALSE,NA,93.2,93.2,93.2,0,0,30,23,10,0,0,,Idle,0,0,FALSE,0,FALSE,0,Go Home,FALSE,FALSE,FALSE,FALSE,FALSE,FALSE,FALSE,FALSE,FALSE,FALSE,FALSE,FALSE,7.347188993,80.94429489,0.6,650.2,,TRUE,1,1,FALSE,FALSE,FALSE,FALSE,,TRUE,FALSE,FALSE,,98.4,,6.5,Calm,5,Linux,0.0.1,DJI Avata,1581F4QWB22C6003,,,,554,4,400.2,18.615143,13.869028,0,74062,DJI Avata,1581F4QWB22C6003,4TTTKBT1A100XF,,4YPXKBWFG101BB,DJI Fly,Linux,0.0.1,6E9ACB0B-7C8A-BD18-625E-DCAA44F24C02,1581F4QWB22C600307BM,,4TTTKBT1A100XF,,,,,,,,
6/13/2023,37:11.8,0m 9.3s,9.3,7.347190439,80.94429388,3.2,3.2,3.2,499,2,0,0.316351,0,0.223694,0,0,-0.671082,0,-3.8,2.1,99.7,99.7,,Auto Takeoff,Other,,25,5,TRUE,,Avata,TRUE,FALSE,,Smart,RC,FALSE,TRUE,FALSE,,,TRUE,,FALSE,FALSE,FALSE,FALSE,FALSE,FALSE,FALSE,FALSE,FALSE,FALSE,0,Free,0,1.9,100.2,100.2,FALSE,FALSE,FALSE,FALSE,FALSE,FALSE,,FALSE,Normal,100,100,0,0,0,0,2,FALSE,FALSE,FALSE,FALSE,FALSE,0,FALSE,FALSE,FALSE,FALSE,98,16.081,2433,2478,16.101,FALSE,4.011,4.021,4.023,4.026,0.017,FALSE,FALSE,NA,93.2,93.2,93.2,0,0,30,23,10,0,0,,Idle,0,0,FALSE,0,FALSE,0,Go Home,FALSE,FALSE,FALSE,FALSE,FALSE,FALSE,FALSE,FALSE,FALSE,FALSE,FALSE,FALSE,7.347188993,80.94429489,0.6,650.2,,TRUE,1,1,FALSE,FALSE,FALSE,FALSE,,TRUE,FALSE,FALSE,,98.4,,6.5,Calm,5,Linux,0.0.1,DJI Avata,1581F4QWB22C6003,,,,554,4,400.2,18.615143,13.869028,0,74062,DJI Avata,1581F4QWB22C6003,4TTTKBT1A100XF,,4YPXKBWFG101BB,DJI Fly,Linux,0.0.1,6E9ACB0B-7C8A-BD18-625E-DCAA44F24C02,1581F4QWB22C600307BM,,4TTTKBT1A100XF,,,,,,,,
6/13/2023,37:12.0,0m 9.5s,9.5,7.347190357,80.94429376,3.6,3.6,3.2,499,2.1,0,0.316351,0,0.223694,0,0,-0.671082,0,-3.7,1.3,99.8,99.8,,Auto Takeoff,Other,,25,5,TRUE,,Avata,TRUE,FALSE,,Smart,RC,FALSE,TRUE,FALSE,,,TRUE,,FALSE,FALSE,FALSE,FALSE,FALSE,FALSE,FALSE,FALSE,FALSE,FALSE,0,Free,0,1.2,100.2,100.2,FALSE,FALSE,FALSE,FALSE,FALSE,FALSE,,FALSE,Normal,100,100,0,0,0,0,2,FALSE,FALSE,FALSE,FALSE,FALSE,0,FALSE,FALSE,FALSE,FALSE,98,16.081,2433,2478,16.101,FALSE,4.011,4.021,4.023,4.026,0.017,FALSE,FALSE,NA,93.2,93.2,93.2,0,0,30,23,10,0,0,,Idle,0,0,FALSE,0,FALSE,0,Go Home,FALSE,FALSE,FALSE,FALSE,FALSE,FALSE,FALSE,FALSE,FALSE,FALSE,FALSE,FALSE,7.347188993,80.94429489,0.6,650.2,,TRUE,1,1,FALSE,FALSE,FALSE,FALSE,,TRUE,FALSE,FALSE,,98.4,,6.5,Calm,5,Linux,0.0.1,DJI Avata,1581F4QWB22C6003,,,,554,4,400.2,18.615143,13.869028,0,74062,DJI Avata,1581F4QWB22C6003,4TTTKBT1A100XF,,4YPXKBWFG101BB,DJI Fly,Linux,0.0.1,6E9ACB0B-7C8A-BD18-625E-DCAA44F24C02,1581F4QWB22C600307BM,,4TTTKBT1A100XF,,,,,,,,
6/13/2023,37:12.2,0m 9.7s,9.7,7.347190274,80.94429364,3.9,3.9,3.6,500,2.1,0,0.316351,0,0.223694,0,0,-0.671082,0,-3.8,0.6,106.5,106.5,,Normal,Other,,24,5,TRUE,,Avata,TRUE,FALSE,,Smart,RC,FALSE,TRUE,FALSE,,,TRUE,,FALSE,FALSE,FALSE,FALSE,FALSE,FALSE,FALSE,FALSE,FALSE,FALSE,0,Free,0.1,0.5,103,103,FALSE,FALSE,FALSE,FALSE,FALSE,FALSE,,FALSE,Normal,100,100,0,0,0,0,2,FALSE,FALSE,FALSE,FALSE,FALSE,0,FALSE,FALSE,FALSE,FALSE,98,16.081,2433,2478,16.101,FALSE,4.011,4.021,4.023,4.026,0.017,FALSE,FALSE,NA,93.2,93.2,93.2,0,0,30,23,10,0,0,,Idle,0,0,FALSE,0,FALSE,0,Go Home,FALSE,FALSE,FALSE,FALSE,FALSE,FALSE,FALSE,FALSE,FALSE,FALSE,FALSE,FALSE,7.347188993,80.94429489,0.6,650.2,,TRUE,1,1,FALSE,FALSE,FALSE,FALSE,,TRUE,FALSE,FALSE,,98.4,,6.5,Calm,5,Linux,0.0.1,DJI Avata,1581F4QWB22C6003,,,,554,4,400.2,18.615143,13.869028,0,74062,DJI Avata,1581F4QWB22C6003,4TTTKBT1A100XF,,4YPXKBWFG101BB,DJI Fly,Linux,0.0.1,6E9ACB0B-7C8A-BD18-625E-DCAA44F24C02,1581F4QWB22C600307BM,,4TTTKBT1A100XF,,,,,,,,
6/13/2023,37:12.4,0m 9.9s,9.9,7.347190198,80.94429353,3.9,3.9,3.6,500,2.2,0,0.316351,0,0.223694,0,0,-0.223694,0,-3.5,0,135.9,135.9,,Normal,Other,,24,5,TRUE,,Avata,TRUE,FALSE,,Smart,RC,FALSE,TRUE,FALSE,,,TRUE,,FALSE,FALSE,FALSE,FALSE,FALSE,FALSE,FALSE,FALSE,FALSE,FALSE,0,Free,0.1,0,132.8,132.8,FALSE,FALSE,FALSE,FALSE,FALSE,FALSE,,FALSE,Normal,100,100,0,0,0,0,2,FALSE,FALSE,FALSE,FALSE,FALSE,0,FALSE,FALSE,FALSE,FALSE,98,16.081,2433,2478,16.101,FALSE,4.011,4.021,4.023,4.026,0.017,FALSE,FALSE,NA,93.2,93.2,93.2,0,0,30,23,10,0,0,,Idle,0,0,FALSE,0,FALSE,0,Go Home,FALSE,FALSE,FALSE,FALSE,FALSE,FALSE,FALSE,FALSE,FALSE,FALSE,FALSE,FALSE,7.347188993,80.94429489,0.6,650.2,,TRUE,1,1,FALSE,FALSE,FALSE,FALSE,,TRUE,FALSE,FALSE,,98.4,,6.5,Calm,5,Linux,0.0.1,DJI Avata,1581F4QWB22C6003,,,,554,4,400.2,18.615143,13.869028,0,74062,DJI Avata,1581F4QWB22C6003,4TTTKBT1A100XF,,4YPXKBWFG101BB,DJI Fly,Linux,0.0.1,6E9ACB0B-7C8A-BD18-625E-DCAA44F24C02,1581F4QWB22C600307BM,,4TTTKBT1A100XF,,,,,,,,
6/13/2023,37:12.6,0m 10.1s,10.1,7.347190087,80.94429336,3.9,3.9,3.6,500,2.3,0,0.316351,0,0.223694,0,0,0,0,-2.4,-1.6,156.4,156.4,,Normal,Other,,25,5,TRUE,,Avata,TRUE,FALSE,,Smart,RC,FALSE,TRUE,FALSE,,,TRUE,,FALSE,FALSE,FALSE,FALSE,FALSE,FALSE,FALSE,FALSE,FALSE,FALSE,0,Free,-29.9,-1.6,154.3,154.3,FALSE,FALSE,FALSE,FALSE,FALSE,FALSE,,FALSE,Normal,100,100,0,0,0,0,2,FALSE,FALSE,FALSE,FALSE,FALSE,0,FALSE,FALSE,FALSE,FALSE,98,16.081,2433,2478,16.081,FALSE,4.011,4.021,4.023,4.026,0.017,FALSE,FALSE,NA,93.2,93.2,93.2,0,0,30,23,10,0,0,,Idle,0,0,FALSE,0,FALSE,0,Go Home,FALSE,FALSE,FALSE,FALSE,FALSE,FALSE,FALSE,FALSE,FALSE,FALSE,FALSE,FALSE,7.347188993,80.94429489,0.6,650.2,,TRUE,1,1,FALSE,FALSE,FALSE,FALSE,,TRUE,FALSE,FALSE,,98.4,,6.5,Calm,5,Linux,0.0.1,DJI Avata,1581F4QWB22C6003,,,,554,4,400.2,18.615143,13.869028,0,74062,DJI Avata,1581F4QWB22C6003,4TTTKBT1A100XF,,4YPXKBWFG101BB,DJI Fly,Linux,0.0.1,6E9ACB0B-7C8A-BD18-625E-DCAA44F24C02,1581F4QWB22C600307BM,,4TTTKBT1A100XF,,,,,,,,
6/13/2023,37:12.8,0m 10.1s,10.1,7.347190075,80.94429334,3.9,3.9,3.6,500,2.3,0,0.316351,0,0.223694,0,0,0,0,-2.2,-1.8,157.6,157.6,,Normal,Other,,25,5,TRUE,,Avata,TRUE,FALSE,,Smart,RC,FALSE,TRUE,FALSE,,,TRUE,,FALSE,FALSE,FALSE,FALSE,FALSE,FALSE,FALSE,FALSE,FALSE,FALSE,0,Free,-56.8,-2.2,162.3,162.3,FALSE,FALSE,FALSE,FALSE,FALSE,FALSE,,FALSE,Normal,100,100,0,0,0,0,2,FALSE,FALSE,FALSE,FALSE,FALSE,0,FALSE,FALSE,FALSE,FALSE,98,16.061,2428,2473,16.081,FALSE,4.006,4.016,4.018,4.021,0.017,FALSE,FALSE,NA,93.2,93.2,93.2,0,0,30,23,10,0,0,,Idle,0,0,FALSE,0,FALSE,0,Go Home,FALSE,FALSE,FALSE,FALSE,FALSE,FALSE,FALSE,FALSE,FALSE,FALSE,FALSE,FALSE,7.347188993,80.94429489,0.6,650.2,,TRUE,1,1,FALSE,FALSE,FALSE,FALSE,,TRUE,FALSE,FALSE,,98.4,,6.5,Calm,5,Linux,0.0.1,DJI Avata,1581F4QWB22C6003,,,,554,4,400.2,18.615143,13.869028,0,74062,DJI Avata,1581F4QWB22C6003,4TTTKBT1A100XF,,4YPXKBWFG101BB,DJI Fly,Linux,0.0.1,6E9ACB0B-7C8A-BD18-625E-DCAA44F24C02,1581F4QWB22C600307BM,,4TTTKBT1A100XF,,,,,,,,Press and hold Lock button to land.
6/13/2023,37:12.8,0m 10.3s,10.3,7.347189952,80.94429325,3.9,3.9,3.6,500,2.3,0,0.316351,0,0.223694,0,0,0,0,-1.9,-1.6,162.9,162.9,,Normal,Other,,26,5,TRUE,,Avata,TRUE,FALSE,,Smart,RC,FALSE,TRUE,FALSE,,,TRUE,,FALSE,FALSE,FALSE,FALSE,FALSE,FALSE,FALSE,FALSE,FALSE,FALSE,0,Free,-56.8,-2.2,162.3,162.3,FALSE,FALSE,FALSE,FALSE,FALSE,FALSE,,FALSE,Normal,100,100,0,0,0,0,2,FALSE,FALSE,FALSE,FALSE,FALSE,0,FALSE,FALSE,FALSE,FALSE,98,16.061,2428,2473,16.081,FALSE,4.006,4.016,4.018,4.021,0.017,FALSE,FALSE,NA,93.2,93.2,93.2,0,0,30,23,10,0,0,,Idle,0,0,FALSE,0,FALSE,0,Go Home,FALSE,FALSE,FALSE,FALSE,FALSE,FALSE,FALSE,FALSE,FALSE,FALSE,FALSE,FALSE,7.347188993,80.94429489,0.6,650.2,,TRUE,1,1,FALSE,FALSE,FALSE,FALSE,,TRUE,FALSE,FALSE,,98.4,,6.5,Calm,5,Linux,0.0.1,DJI Avata,1581F4QWB22C6003,,,,554,4,400.2,18.615143,13.869028,0,74062,DJI Avata,1581F4QWB22C6003,4TTTKBT1A100XF,,4YPXKBWFG101BB,DJI Fly,Linux,0.0.1,6E9ACB0B-7C8A-BD18-625E-DCAA44F24C02,1581F4QWB22C600307BM,,4TTTKBT1A100XF,,,,,,,,
6/13/2023,37:13.0,0m 10.5s,10.5,7.347189807,80.94429315,3.9,3.9,3.6,500,2.4,0,0.316351,0,0.223694,0,0,0,0,-1.6,-1.6,163.6,163.6,,Normal,Other,,26,5,TRUE,,Avata,TRUE,FALSE,,Smart,RC,FALSE,TRUE,FALSE,,,TRUE,,FALSE,FALSE,FALSE,FALSE,FALSE,FALSE,FALSE,FALSE,FALSE,FALSE,0,Free,-60.5,-2.2,163.4,163.4,FALSE,FALSE,FALSE,FALSE,FALSE,FALSE,,FALSE,Normal,100,100,0,0,0,0,2,FALSE,FALSE,FALSE,FALSE,FALSE,0,FALSE,FALSE,FALSE,FALSE,98,16.061,2428,2473,16.081,FALSE,4.006,4.016,4.018,4.021,0.017,FALSE,FALSE,NA,93.2,93.2,93.2,0,0,30,23,10,0,0,,Idle,0,0,FALSE,0,FALSE,0,Go Home,FALSE,FALSE,FALSE,FALSE,FALSE,FALSE,FALSE,FALSE,FALSE,FALSE,FALSE,FALSE,7.347188993,80.94429489,0.6,650.2,,TRUE,1,1,FALSE,FALSE,FALSE,FALSE,,TRUE,FALSE,FALSE,,98.4,,6.5,Calm,5,Linux,0.0.1,DJI Avata,1581F4QWB22C6003,,,,554,4,400.2,18.615143,13.869028,0,74062,DJI Avata,1581F4QWB22C6003,4TTTKBT1A100XF,,4YPXKBWFG101BB,DJI Fly,Linux,0.0.1,6E9ACB0B-7C8A-BD18-625E-DCAA44F24C02,1581F4QWB22C600307BM,,4TTTKBT1A100XF,,,,,,,,
6/13/2023,37:13.2,0m 10.7s,10.7,7.347189746,80.94429301,3.9,3.9,3.6,500,2.4,0,0.316351,0,0.223694,0,0,0,0,-2.5,-2,162.7,162.7,,Normal,Other,,26,5,TRUE,,Avata,TRUE,FALSE,,Smart,RC,FALSE,TRUE,FALSE,,,TRUE,,FALSE,FALSE,FALSE,FALSE,FALSE,FALSE,FALSE,FALSE,FALSE,FALSE,0,Free,-60.3,-2.4,162.7,162.7,FALSE,FALSE,FALSE,FALSE,FALSE,FALSE,,FALSE,Normal,100,100,0,0,0,0,2,FALSE,FALSE,FALSE,FALSE,FALSE,0,FALSE,FALSE,FALSE,FALSE,98,16.061,2428,2473,16.081,FALSE,4.006,4.016,4.018,4.021,0.017,FALSE,FALSE,NA,93.2,93.2,93.2,0,0,30,23,10,0,0,,Idle,0,0,FALSE,0,FALSE,0,Go Home,FALSE,FALSE,FALSE,FALSE,FALSE,FALSE,FALSE,FALSE,FALSE,FALSE,FALSE,FALSE,7.347188993,80.94429489,0.7,650.2,,TRUE,1,1,FALSE,FALSE,FALSE,FALSE,,TRUE,FALSE,FALSE,,98.4,,6.5,Calm,5,Linux,0.0.1,DJI Avata,1581F4QWB22C6003,,,,554,4,400.2,18.615143,13.869028,0,74062,DJI Avata,1581F4QWB22C6003,4TTTKBT1A100XF,,4YPXKBWFG101BB,DJI Fly,Linux,0.0.1,6E9ACB0B-7C8A-BD18-625E-DCAA44F24C02,1581F4QWB22C600307BM,,4TTTKBT1A100XF,,,,,,,,
6/13/2023,37:13.4,0m 10.9s,10.9,7.347189737,80.94429286,3.9,3.9,3.6,500,2.5,0,0.316351,0,0.223694,0,0,0,0,-3.4,-1.7,162.1,162.1,,Normal,Other,,26,5,TRUE,,Avata,TRUE,FALSE,,Smart,RC,FALSE,TRUE,FALSE,,,TRUE,,FALSE,FALSE,FALSE,FALSE,FALSE,FALSE,FALSE,FALSE,FALSE,FALSE,0,Free,-58.6,-2.3,162,162,FALSE,FALSE,FALSE,FALSE,FALSE,FALSE,,FALSE,Normal,100,100,0,0,0,0,2,FALSE,FALSE,FALSE,FALSE,FALSE,0,FALSE,FALSE,FALSE,FALSE,98,16.061,2428,2473,16.081,FALSE,4.006,4.016,4.018,4.021,0.017,FALSE,FALSE,NA,93.2,93.2,93.2,0,0,30,23,10,0,0,,Idle,0,0,FALSE,0,FALSE,0,Go Home,FALSE,FALSE,FALSE,FALSE,FALSE,FALSE,FALSE,FALSE,FALSE,FALSE,FALSE,FALSE,7.347188993,80.94429489,0.7,650.2,,TRUE,1,1,FALSE,FALSE,FALSE,FALSE,,TRUE,FALSE,FALSE,,98.4,,6.5,Calm,5,Linux,0.0.1,DJI Avata,1581F4QWB22C6003,,,,554,4,400.2,18.615143,13.869028,0,74062,DJI Avata,1581F4QWB22C6003,4TTTKBT1A100XF,,4YPXKBWFG101BB,DJI Fly,Linux,0.0.1,6E9ACB0B-7C8A-BD18-625E-DCAA44F24C02,1581F4QWB22C600307BM,,4TTTKBT1A100XF,,,,,,,,
6/13/2023,37:13.6,0m 11.1s,11.1,7.347189732,80.94429275,3.9,3.9,3.6,500,2.5,0,0.316351,0,0.223694,0,0,0,0,-3.9,-1,160.9,160.9,,Normal,Other,,26,5,TRUE,,Avata,TRUE,FALSE,,Smart,RC,FALSE,TRUE,FALSE,,,TRUE,,FALSE,FALSE,FALSE,FALSE,FALSE,FALSE,FALSE,FALSE,FALSE,FALSE,0,Free,-56.7,-1.6,160.9,160.9,FALSE,FALSE,FALSE,FALSE,FALSE,FALSE,,FALSE,Normal,100,100,0,0,0,0,2,FALSE,FALSE,FALSE,FALSE,FALSE,0,FALSE,FALSE,FALSE,FALSE,98,16.061,2428,2473,16.056,FALSE,4.006,4.016,4.018,4.021,0.017,FALSE,FALSE,NA,93.2,93.2,93.2,0,0,30,23,10,0,0,,Idle,0,0,FALSE,0,FALSE,0,Go Home,FALSE,FALSE,FALSE,FALSE,FALSE,FALSE,FALSE,FALSE,FALSE,FALSE,FALSE,FALSE,7.347188993,80.94429489,0.8,650.2,,TRUE,1,1,FALSE,FALSE,FALSE,FALSE,,TRUE,FALSE,FALSE,,98.4,,6.5,Calm,5,Linux,0.0.1,DJI Avata,1581F4QWB22C6003,,,,554,4,400.2,18.615143,13.869028,0,74062,DJI Avata,1581F4QWB22C6003,4TTTKBT1A100XF,,4YPXKBWFG101BB,DJI Fly,Linux,0.0.1,6E9ACB0B-7C8A-BD18-625E-DCAA44F24C02,1581F4QWB22C600307BM,,4TTTKBT1A100XF,,,,,,,,
