CUSTOM.date [local],CUSTOM.updateTime [local],OSD.flyTime,OSD.flyTime [s],OSD.latitude,OSD.longitude,OSD.height [ft],OSD.heightMax [ft],OSD.vpsHeight [ft],OSD.altitude [ft],OSD.mileage [ft],OSD.hSpeed [MPH],OSD.hSpeedMax [MPH],OSD.xSpeed [MPH],OSD.xSpeedMax [MPH],OSD.ySpeed [MPH],OSD.ySpeedMax [MPH],OSD.zSpeed [MPH],OSD.zSpeedMax [MPH],OSD.pitch,OSD.roll,OSD.yaw,OSD.yaw [360],OSD.flycState,OSD.flycCommand,OSD.flightAction,OSD.gpsNum,OSD.gpsLevel,OSD.isGPSUsed,OSD.nonGPSCause,OSD.droneType,OSD.isSwaveWork,OSD.waveError,OSD.goHomeStatus,OSD.batteryType,OSD.ctrlDevice,OSD.isOnGround,OSD.isMotorOn,OSD.isMotorBlocked,OSD.motorStartFailedCause,OSD.motorFailReason,OSD.isImuPreheated,OSD.imuInitFailReason,OSD.isAcceletorOverRange,OSD.isBarometerDeadInAir,OSD.isCompassError,OSD.isGoHomeHeightModified,OSD.canIOCWork,OSD.isNotEnoughForce,OSD.isOutOfLimit,OSD.isPropellerCatapult,OSD.isVibrating,OSD.isVisionUsed,OSD.voltageWarning,GIMBAL.mode,GIMBAL.pitch,GIMBAL.roll,GIMBAL.yaw,GIMBAL.yaw [360],GIMBAL.isPitchAtLimit,GIMBAL.isRollAtLimit,GIMBAL.isYawAtLimit,GIMBAL.isStuck,CAMERA.isPhoto,CAMERA.isVideo,CAMERA.filename,CAMERA.sdCardIsInserted,CAMERA.sdCardState,RC.downlinkSignal,RC.uplinkSignal,RC.aileron,RC.elevator,RC.throttle,RC.rudder,RC.mode,RC.goHomeDepressed,RC.recordDepressed,RC.shutterDepressed,RC.playbackDepressed,RC.wheelDepressed,RC.wheelOffset,RC.custom1Depressed,RC.custom2Depressed,RC.custom3Depressed,RC.custom4Depressed,BATTERY.chargeLevel,BATTERY.currentPV [V],BATTERY.currentCapacity [mAh],BATTERY.fullCapacity [mAh],BATTERY.voltage [V],BATTERY.isCellVoltageEstimated,BATTERY.cellVoltage1 [V],BATTERY.cellVoltage2 [V],BATTERY.cellVoltage3 [V],BATTERY.maxCellVoltageDeviation,BATTERY.isCellVoltageDeviationHigh,BATTERY.isVoltageLow,BATTERY.current [A],BATTERY.temperature [F],BATTERY.minTemperature [F],BATTERY.maxTemperature [F],BATTERY.usefulTime [s],BATTERY.goHomeTime [s],BATTERY.landTime [s],BATTERY.goHomeBattery,BATTERY.landBattery,BATTERY.safeFlyRadius,BATTERY.volumeConsume,BATTERY.status,BATTERY.goHomeStatus,BATTERY.goHomeCountdown,BATTERY.lowWarning,BATTERY.lowWarningGoHome,BATTERY.seriousLowWarning,BATTERY.seriousLowWarningLanding,BATTERY.timesCharged,MC.failSafeAction,MC.isObstacleAvoidanceEnabled,MC.isCollisionAvoidanceEnabled,MC.isRthObstacleAvoidanceEnabled,MC.isBraking,MC.isAvoidingObstacle,MC.isAvoidingActiveObstacle,MC.isAscentLimitedByObstacle,MC.isLandingConfirmationNeeded,MC.atLowAltitudeLimit,MC.atDistanceLimit,MC.atAirportAltitudeLimit,MC.atAirportBoundary,HOME.latitude,HOME.longitude,HOME.distance [ft],HOME.height [ft],HOME.heightLimit [ft],HOME.isHomeRecord,HOME.goHomeMode,HOME.aircraftHeadDirection,HOME.isDynamicHomePointEnabled,HOME.isReachedLimitDistance,HOME.isReachedLimitHeight,HOME.isCompassCalibrating,HOME.compassCalibrationState,HOME.isMultipleFlightModeEnabled,HOME.isBeginnerMode,HOME.isIOCEnabled,HOME.iocMode,HOME.goHomeHeight [ft],HOME.courseLockAngle,HOME.forceLandingHeight [ft],HOME.wind,HOME.dataRecorderFileIndex,RECOVER.appType,RECOVER.appVersion,RECOVER.aircraftName,RECOVER.aircraftSerial,RECOVER.cameraSerial,RECOVER.rcSerial,RECOVER.batterySerial,DETAILS.totalTime [s],DETAILS.totalDistance [ft],DETAILS.maxHeight [ft],DETAILS.maxHorizontalSpeed [MPH],DETAILS.maxVerticalSpeed [MPH],DETAILS.photoNum,DETAILS.videoTime [s],DETAILS.aircraftName,DETAILS.aircraftSerial,DETAILS.cameraSerial,DETAILS.rcSerial,DETAILS.batterySerial,DETAILS.appName,DETAILS.appType,DETAILS.appVersion,DETAILS.guid,SERIAL.flightController,SERIAL.camera,SERIAL.gimbal,SERIAL.rc,SERIAL.battery,APPGPS.latitude,APPGPS.longitude,APPGPS.accuracy,APP.message,APP.tip,APP.warning
4/11/2023,56:01.2,0m 0.0s,0,7.498429667,80.35316574,0,0,0.3,403,0,,,,,,,,,5.7,2.5,113.9,113.9,Starting Motors,Auto Fly,Takeoff (App Auto),23,5,TRUE,,Air 2S,FALSE,FALSE,,Smart,RC,TRUE,TRUE,FALSE,,,TRUE,,FALSE,FALSE,FALSE,FALSE,FALSE,FALSE,FALSE,FALSE,FALSE,FALSE,0,Follow Yaw,0,0,117.3,117.3,FALSE,FALSE,FALSE,FALSE,FALSE,FALSE,,TRUE,Normal,,,1024,1024,1024,1024,,FALSE,FALSE,FALSE,FALSE,FALSE,0,FALSE,FALSE,FALSE,FALSE,88,12.626,2895,3325,12.626,TRUE,4.209,4.209,4.209,,FALSE,FALSE,1.344,100.2,100.2,100.2,,,,,,,,,Idle,,,TRUE,,FALSE,17,Go Home,TRUE,TRUE,TRUE,FALSE,FALSE,FALSE,FALSE,FALSE,FALSE,FALSE,FALSE,FALSE,,,,,,FALSE,,,FALSE,FALSE,FALSE,FALSE,,FALSE,FALSE,FALSE,,,,,Calm,,, 1.9.9,dji aircraft,3YTBJ7B003000F,42UQJ4U23A05JY,396LJ68101003F,1Z3PJ6QEA3082T,257.6,0.2,9.8,3.325435,1.565858,0,38988,dji aircraft,3YTBJ7B003000F,42UQJ4U23A05JY,396LJ68101003F,1Z3PJ6QEA3082T,DJI Fly,, 1.9.9,79F37DF5-76F2-AAFE-490A-26C297CC919A,3YTBJ7B003000F,,,,,,,,,,
4/11/2023,56:01.3,0m 0.1s,0.1,7.498429635,80.35316577,0,0,0.3,403,0,,,,,,,,,5.7,2.5,114,114,Starting Motors,Auto Fly,Takeoff (App Auto),23,5,TRUE,,Air 2S,FALSE,FALSE,,Smart,RC,TRUE,TRUE,FALSE,,,TRUE,,FALSE,FALSE,FALSE,FALSE,FALSE,FALSE,FALSE,FALSE,FALSE,FALSE,0,Follow Yaw,0,0,117.3,117.3,FALSE,FALSE,FALSE,FALSE,FALSE,FALSE,,TRUE,Normal,,100,1024,1024,1024,1024,1,FALSE,FALSE,FALSE,FALSE,FALSE,0,FALSE,FALSE,FALSE,FALSE,88,12.626,2895,3325,12.626,TRUE,4.209,4.209,4.209,,FALSE,FALSE,1.344,100.2,100.2,100.2,,,,,,,,,Idle,,,TRUE,,FALSE,17,Go Home,TRUE,TRUE,TRUE,FALSE,FALSE,FALSE,FALSE,FALSE,FALSE,FALSE,FALSE,FALSE,,,,,,FALSE,,,FALSE,FALSE,FALSE,FALSE,,FALSE,FALSE,FALSE,,,,,Calm,,, 1.9.9,dji aircraft,3YTBJ7B003000F,42UQJ4U23A05JY,396LJ68101003F,1Z3PJ6QEA3082T,257.6,0.2,9.8,3.325435,1.565858,0,38988,dji aircraft,3YTBJ7B003000F,42UQJ4U23A05JY,396LJ68101003F,1Z3PJ6QEA3082T,DJI Fly,, 1.9.9,79F37DF5-76F2-AAFE-490A-26C297CC919A,3YTBJ7B003000F,,,,,,,,,,
4/11/2023,56:01.4,0m 0.2s,0.2,7.498429542,80.35316587,0,0,0.3,403,0,,,,,,,,,5.7,2.5,114,114,Starting Motors,Auto Fly,Takeoff (App Auto),23,5,TRUE,,Air 2S,FALSE,FALSE,,Smart,RC,TRUE,TRUE,FALSE,,,TRUE,,FALSE,FALSE,FALSE,FALSE,FALSE,FALSE,FALSE,FALSE,FALSE,FALSE,0,Follow Yaw,0,0,117.3,117.3,FALSE,FALSE,FALSE,FALSE,FALSE,FALSE,,TRUE,Normal,,100,1024,1024,1024,1024,1,FALSE,FALSE,FALSE,FALSE,FALSE,0,FALSE,FALSE,FALSE,FALSE,88,12.626,2895,3325,12.626,TRUE,4.209,4.209,4.209,,FALSE,FALSE,1.344,100.2,100.2,100.2,,,,,,,,,Idle,,,TRUE,,FALSE,17,Go Home,TRUE,TRUE,TRUE,FALSE,FALSE,FALSE,FALSE,FALSE,FALSE,FALSE,FALSE,FALSE,,,,,,FALSE,,,FALSE,FALSE,FALSE,FALSE,,FALSE,FALSE,FALSE,,,,,Calm,,, 1.9.9,dji aircraft,3YTBJ7B003000F,42UQJ4U23A05JY,396LJ68101003F,1Z3PJ6QEA3082T,257.6,0.2,9.8,3.325435,1.565858,0,38988,dji aircraft,3YTBJ7B003000F,42UQJ4U23A05JY,396LJ68101003F,1Z3PJ6QEA3082T,DJI Fly,, 1.9.9,79F37DF5-76F2-AAFE-490A-26C297CC919A,3YTBJ7B003000F,,,,,,,,,,
4/11/2023,56:01.5,0m 0.3s,0.3,7.498429505,80.3531659,0,0,0.3,403,0,,,,,,,,,5.7,2.5,114,114,Starting Motors,Auto Fly,Takeoff (App Auto),23,5,TRUE,,Air 2S,FALSE,FALSE,,Smart,RC,TRUE,TRUE,FALSE,,,TRUE,,FALSE,FALSE,FALSE,FALSE,FALSE,FALSE,FALSE,FALSE,FALSE,FALSE,0,Follow Yaw,0,0,117.3,117.3,FALSE,FALSE,FALSE,FALSE,FALSE,FALSE,,TRUE,Normal,,100,1024,1024,1024,1024,1,FALSE,FALSE,FALSE,FALSE,FALSE,0,FALSE,FALSE,FALSE,FALSE,88,12.626,2895,3325,12.626,TRUE,4.209,4.209,4.209,,FALSE,FALSE,1.344,100.2,100.2,100.2,,,,,,,,,Idle,,,TRUE,,FALSE,17,Go Home,TRUE,TRUE,TRUE,FALSE,FALSE,FALSE,FALSE,FALSE,FALSE,FALSE,FALSE,FALSE,,,,,,FALSE,,,FALSE,FALSE,FALSE,FALSE,,FALSE,FALSE,FALSE,,,,,Calm,,, 1.9.9,dji aircraft,3YTBJ7B003000F,42UQJ4U23A05JY,396LJ68101003F,1Z3PJ6QEA3082T,257.6,0.2,9.8,3.325435,1.565858,0,38988,dji aircraft,3YTBJ7B003000F,42UQJ4U23A05JY,396LJ68101003F,1Z3PJ6QEA3082T,DJI Fly,, 1.9.9,79F37DF5-76F2-AAFE-490A-26C297CC919A,3YTBJ7B003000F,,,,,,,,,,
4/11/2023,56:01.6,0m 0.4s,0.4,7.498429422,80.35316582,0,0,0.3,403,0.1,,,,,,,,,5.7,2.5,114.1,114.1,Starting Motors,Auto Fly,Takeoff (App Auto),23,5,TRUE,,Air 2S,FALSE,FALSE,,Smart,RC,TRUE,TRUE,FALSE,,,TRUE,,FALSE,FALSE,FALSE,FALSE,FALSE,FALSE,FALSE,FALSE,FALSE,FALSE,0,Follow Yaw,0,0,117.3,117.3,FALSE,FALSE,FALSE,FALSE,FALSE,FALSE,,TRUE,Normal,,100,1024,1024,1024,1024,1,FALSE,FALSE,FALSE,FALSE,FALSE,0,FALSE,FALSE,FALSE,FALSE,88,12.626,2895,3325,12.626,TRUE,4.209,4.209,4.209,,FALSE,FALSE,1.344,100.2,100.2,100.2,,,,,,,,,Idle,,,TRUE,,FALSE,17,Go Home,TRUE,TRUE,TRUE,FALSE,FALSE,FALSE,FALSE,FALSE,FALSE,FALSE,FALSE,FALSE,,,,,,FALSE,,,FALSE,FALSE,FALSE,FALSE,,FALSE,FALSE,FALSE,,,,,Calm,,, 1.9.9,dji aircraft,3YTBJ7B003000F,42UQJ4U23A05JY,396LJ68101003F,1Z3PJ6QEA3082T,257.6,0.2,9.8,3.325435,1.565858,0,38988,dji aircraft,3YTBJ7B003000F,42UQJ4U23A05JY,396LJ68101003F,1Z3PJ6QEA3082T,DJI Fly,, 1.9.9,79F37DF5-76F2-AAFE-490A-26C297CC919A,3YTBJ7B003000F,,,,,,,,,,
4/11/2023,56:01.7,0m 0.5s,0.5,7.49842938,80.35316585,0,0,0.3,403,0.1,,,,,,,,,5.7,2.5,114.1,114.1,Starting Motors,Auto Fly,Takeoff (App Auto),23,5,TRUE,,Air 2S,FALSE,FALSE,,Smart,RC,TRUE,TRUE,FALSE,,,TRUE,,FALSE,FALSE,FALSE,FALSE,FALSE,FALSE,FALSE,FALSE,FALSE,FALSE,0,Follow Yaw,0,0,117.3,117.3,FALSE,FALSE,FALSE,FALSE,FALSE,FALSE,,TRUE,Normal,,100,1024,1024,1024,1024,1,FALSE,FALSE,FALSE,FALSE,FALSE,0,FALSE,FALSE,FALSE,FALSE,88,12.626,2895,3325,12.581,TRUE,4.194,4.194,4.194,,FALSE,FALSE,1.344,100.2,100.2,100.2,0,13,0,0,10,5234.5,1342.2,,Idle,0,15,FALSE,10,TRUE,17,Go Home,TRUE,TRUE,TRUE,FALSE,FALSE,FALSE,FALSE,FALSE,FALSE,FALSE,FALSE,FALSE,7.498463369,80.35316783,12.4,462.5,1640.4,TRUE,1,1,FALSE,FALSE,FALSE,FALSE,,TRUE,FALSE,FALSE,Course Lock,285.4,198.8,16.4,Calm,35,, 1.9.9,dji aircraft,3YTBJ7B003000F,42UQJ4U23A05JY,396LJ68101003F,1Z3PJ6QEA3082T,257.6,0.2,9.8,3.325435,1.565858,0,38988,dji aircraft,3YTBJ7B003000F,42UQJ4U23A05JY,396LJ68101003F,1Z3PJ6QEA3082T,DJI Fly,, 1.9.9,79F37DF5-76F2-AAFE-490A-26C297CC919A,3YTBJ7B003000F,,,,,,,,Data Recorder File Index is 35.,,
4/11/2023,56:01.8,0m 0.6s,0.6,7.49842947,80.35316595,0,0,0.3,403,0.1,,,,,,,,,5.7,2.5,114.1,114.1,Starting Motors,Auto Fly,Takeoff (App Auto),23,5,TRUE,,Air 2S,FALSE,FALSE,,Smart,RC,TRUE,TRUE,FALSE,,,TRUE,,FALSE,FALSE,FALSE,FALSE,FALSE,FALSE,FALSE,FALSE,FALSE,FALSE,0,Follow Yaw,0,0,117.3,117.3,FALSE,FALSE,FALSE,FALSE,FALSE,FALSE,,TRUE,Normal,100,100,1024,1024,1024,1024,1,FALSE,FALSE,FALSE,FALSE,FALSE,0,FALSE,FALSE,FALSE,FALSE,88,12.626,2895,3325,12.581,TRUE,4.194,4.194,4.194,,FALSE,FALSE,1.344,100.2,100.2,100.2,0,13,0,0,10,5234.5,1342.2,,Idle,0,15,FALSE,10,TRUE,17,Go Home,TRUE,TRUE,TRUE,FALSE,FALSE,FALSE,FALSE,FALSE,FALSE,FALSE,FALSE,FALSE,7.498463369,80.35316783,12.3,462.5,1640.4,TRUE,1,1,FALSE,FALSE,FALSE,FALSE,,TRUE,FALSE,FALSE,Course Lock,285.4,198.8,16.4,Calm,35,, 1.9.9,dji aircraft,3YTBJ7B003000F,42UQJ4U23A05JY,396LJ68101003F,1Z3PJ6QEA3082T,257.6,0.2,9.8,3.325435,1.565858,0,38988,dji aircraft,3YTBJ7B003000F,42UQJ4U23A05JY,396LJ68101003F,1Z3PJ6QEA3082T,DJI Fly,, 1.9.9,79F37DF5-76F2-AAFE-490A-26C297CC919A,3YTBJ7B003000F,,,,,,,,,,
4/11/2023,56:01.9,0m 0.7s,0.7,7.498429439,80.35316598,0,0,0.3,403,0.1,,,,,,,,,5.7,2.5,114.1,114.1,Starting Motors,Auto Fly,Takeoff (App Auto),23,5,TRUE,,Air 2S,FALSE,FALSE,,Smart,RC,TRUE,TRUE,FALSE,,,TRUE,,FALSE,FALSE,FALSE,FALSE,FALSE,FALSE,FALSE,FALSE,FALSE,FALSE,0,Follow Yaw,0,0,117.3,117.3,FALSE,FALSE,FALSE,FALSE,FALSE,FALSE,,TRUE,Normal,100,100,1024,1024,1024,1024,1,FALSE,FALSE,FALSE,FALSE,FALSE,0,FALSE,FALSE,FALSE,FALSE,88,12.507,2895,3325,12.581,FALSE,4.182,4.166,4.159,0.023,FALSE,FALSE,1.695,100.2,100.2,100.2,0,13,0,0,10,5234.5,1342.2,,Idle,0,15,FALSE,10,TRUE,17,Go Home,TRUE,TRUE,TRUE,FALSE,FALSE,FALSE,FALSE,FALSE,FALSE,FALSE,FALSE,FALSE,7.498463369,80.35316783,12.3,462.5,1640.4,TRUE,1,1,FALSE,FALSE,FALSE,FALSE,,TRUE,FALSE,FALSE,Course Lock,285.4,198.8,16.4,Calm,35,, 1.9.9,dji aircraft,3YTBJ7B003000F,42UQJ4U23A05JY,396LJ68101003F,1Z3PJ6QEA3082T,257.6,0.2,9.8,3.325435,1.565858,0,38988,dji aircraft,3YTBJ7B003000F,42UQJ4U23A05JY,396LJ68101003F,1Z3PJ6QEA3082T,DJI Fly,, 1.9.9,79F37DF5-76F2-AAFE-490A-26C297CC919A,3YTBJ7B003000F,,,,,,,,,,
4/11/2023,56:02.0,0m 0.8s,0.8,7.498429347,80.35316608,0,0,0.3,403,0.2,,,,,,,,,5.6,2.5,114.2,114.2,Starting Motors,Auto Fly,Takeoff (App Auto),23,5,TRUE,,Air 2S,FALSE,FALSE,,Smart,RC,TRUE,TRUE,FALSE,,,TRUE,,FALSE,FALSE,FALSE,FALSE,FALSE,FALSE,FALSE,FALSE,FALSE,FALSE,0,Follow Yaw,0,0,117.3,117.3,FALSE,FALSE,FALSE,FALSE,FALSE,FALSE,,TRUE,Normal,100,100,1024,1024,1024,1024,1,FALSE,FALSE,FALSE,FALSE,FALSE,0,FALSE,FALSE,FALSE,FALSE,88,12.507,2895,3325,12.581,FALSE,4.182,4.166,4.159,0.023,FALSE,FALSE,1.695,100.2,100.2,100.2,0,13,0,0,10,5234.5,1342.2,,Idle,0,15,FALSE,10,TRUE,17,Go Home,TRUE,TRUE,TRUE,FALSE,FALSE,FALSE,FALSE,FALSE,FALSE,FALSE,FALSE,FALSE,7.498463369,80.35316783,12.4,462.5,1640.4,TRUE,1,1,FALSE,FALSE,FALSE,FALSE,,TRUE,FALSE,FALSE,Course Lock,285.4,198.8,16.4,Calm,35,, 1.9.9,dji aircraft,3YTBJ7B003000F,42UQJ4U23A05JY,396LJ68101003F,1Z3PJ6QEA3082T,257.6,0.2,9.8,3.325435,1.565858,0,38988,dji aircraft,3YTBJ7B003000F,42UQJ4U23A05JY,396LJ68101003F,1Z3PJ6QEA3082T,DJI Fly,, 1.9.9,79F37DF5-76F2-AAFE-490A-26C297CC919A,3YTBJ7B003000F,,,,,,,,,,
4/11/2023,56:02.1,0m 0.9s,0.9,7.498429311,80.35316611,0,0,0.3,403,0.2,,,,,,,,,5.6,2.5,114.2,114.2,Starting Motors,Auto Fly,Takeoff (App Auto),23,5,TRUE,,Air 2S,FALSE,FALSE,,Smart,RC,TRUE,TRUE,FALSE,,,TRUE,,FALSE,FALSE,FALSE,FALSE,FALSE,FALSE,FALSE,FALSE,FALSE,FALSE,0,Follow Yaw,0,0,117.3,117.3,FALSE,FALSE,FALSE,FALSE,FALSE,FALSE,,TRUE,Normal,100,100,1024,1024,1024,1024,1,FALSE,FALSE,FALSE,FALSE,FALSE,0,FALSE,FALSE,FALSE,FALSE,88,12.507,2895,3325,12.581,FALSE,4.182,4.166,4.159,0.023,FALSE,FALSE,1.695,100.2,100.2,100.2,0,13,0,0,10,5234.5,1342.2,,Idle,0,15,FALSE,10,TRUE,17,Go Home,TRUE,TRUE,TRUE,FALSE,FALSE,FALSE,FALSE,FALSE,FALSE,FALSE,FALSE,FALSE,7.498463369,80.35316783,12.4,462.5,1640.4,TRUE,1,1,FALSE,FALSE,FALSE,FALSE,,TRUE,FALSE,FALSE,Course Lock,285.4,198.8,16.4,Calm,35,, 1.9.9,dji aircraft,3YTBJ7B003000F,42UQJ4U23A05JY,396LJ68101003F,1Z3PJ6QEA3082T,257.6,0.2,9.8,3.325435,1.565858,0,38988,dji aircraft,3YTBJ7B003000F,42UQJ4U23A05JY,396LJ68101003F,1Z3PJ6QEA3082T,DJI Fly,, 1.9.9,79F37DF5-76F2-AAFE-490A-26C297CC919A,3YTBJ7B003000F,,,,,,,,,,
4/11/2023,56:02.3,0m 1.0s,1,7.498429389,80.35316604,0,0,0.3,403,0.2,,,,,,,,,5.7,2.5,114.2,114.2,Starting Motors,Auto Fly,Takeoff (App Auto),23,5,TRUE,,Air 2S,FALSE,FALSE,,Smart,RC,TRUE,TRUE,FALSE,,,TRUE,,FALSE,FALSE,FALSE,FALSE,FALSE,FALSE,FALSE,FALSE,FALSE,FALSE,0,Follow Yaw,0,0,117.3,117.3,FALSE,FALSE,FALSE,FALSE,FALSE,FALSE,,TRUE,Normal,100,100,1024,1024,1024,1024,1,FALSE,FALSE,FALSE,FALSE,FALSE,0,FALSE,FALSE,FALSE,FALSE,88,12.507,2895,3325,12.581,FALSE,4.182,4.166,4.159,0.023,FALSE,FALSE,1.695,100.2,100.2,100.2,0,13,0,0,10,5234.5,1342.2,,Idle,0,15,FALSE,10,TRUE,17,Go Home,TRUE,TRUE,TRUE,FALSE,FALSE,FALSE,FALSE,FALSE,FALSE,FALSE,FALSE,FALSE,7.498463369,80.35316783,12.4,462.5,1640.4,TRUE,1,1,FALSE,FALSE,FALSE,FALSE,,TRUE,FALSE,FALSE,Course Lock,285.4,198.8,16.4,Calm,35,, 1.9.9,dji aircraft,3YTBJ7B003000F,42UQJ4U23A05JY,396LJ68101003F,1Z3PJ6QEA3082T,257.6,0.2,9.8,3.325435,1.565858,0,38988,dji aircraft,3YTBJ7B003000F,42UQJ4U23A05JY,396LJ68101003F,1Z3PJ6QEA3082T,DJI Fly,, 1.9.9,79F37DF5-76F2-AAFE-490A-26C297CC919A,3YTBJ7B003000F,,,,,,,,,,
4/11/2023,56:02.4,0m 1.1s,1.1,7.498429347,80.35316607,0,0,0.3,403,0.3,,,,,,,,,5.7,2.5,112.5,112.5,Starting Motors,Auto Fly,Takeoff (App Auto),23,5,TRUE,,Air 2S,FALSE,FALSE,,Smart,RC,TRUE,TRUE,FALSE,,,TRUE,,FALSE,FALSE,FALSE,FALSE,FALSE,FALSE,FALSE,FALSE,FALSE,FALSE,0,Follow Yaw,0,0,117.3,117.3,FALSE,FALSE,FALSE,FALSE,FALSE,FALSE,,TRUE,Normal,100,100,1024,1024,1024,1024,1,FALSE,FALSE,FALSE,FALSE,FALSE,0,FALSE,FALSE,FALSE,FALSE,88,12.507,2895,3325,12.581,FALSE,4.182,4.166,4.159,0.023,FALSE,FALSE,1.695,100.2,100.2,100.2,0,13,0,0,10,5234.5,1342.2,,Idle,0,15,FALSE,10,TRUE,17,Go Home,TRUE,TRUE,TRUE,FALSE,FALSE,FALSE,FALSE,FALSE,FALSE,FALSE,FALSE,FALSE,7.498463369,80.35316783,12.4,462.5,1640.4,TRUE,1,1,FALSE,FALSE,FALSE,FALSE,,TRUE,FALSE,FALSE,Course Lock,285.4,198.8,16.4,Calm,35,, 1.9.9,dji aircraft,3YTBJ7B003000F,42UQJ4U23A05JY,396LJ68101003F,1Z3PJ6QEA3082T,257.6,0.2,9.8,3.325435,1.565858,0,38988,dji aircraft,3YTBJ7B003000F,42UQJ4U23A05JY,396LJ68101003F,1Z3PJ6QEA3082T,DJI Fly,, 1.9.9,79F37DF5-76F2-AAFE-490A-26C297CC919A,3YTBJ7B003000F,,,,,,,,,,
4/11/2023,56:02.5,0m 1.2s,1.2,7.498429414,80.35316617,0,0,0.3,403,0.3,,,,,,,,,5.6,2.5,112.4,112.4,Starting Motors,Auto Fly,Takeoff (App Auto),23,5,TRUE,,Air 2S,FALSE,FALSE,,Smart,RC,TRUE,TRUE,FALSE,,,TRUE,,FALSE,FALSE,FALSE,FALSE,FALSE,FALSE,FALSE,FALSE,FALSE,FALSE,0,Follow Yaw,0,0,117.2,117.2,FALSE,FALSE,FALSE,FALSE,FALSE,FALSE,,TRUE,Normal,100,100,1024,1024,1024,1024,1,FALSE,FALSE,FALSE,FALSE,FALSE,0,FALSE,FALSE,FALSE,FALSE,88,12.507,2895,3325,12.581,FALSE,4.182,4.166,4.159,0.023,FALSE,FALSE,1.695,100.2,100.2,100.2,0,13,0,0,10,5234.5,1342.2,,Idle,0,15,FALSE,10,TRUE,17,Go Home,TRUE,TRUE,TRUE,FALSE,FALSE,FALSE,FALSE,FALSE,FALSE,FALSE,FALSE,FALSE,7.498463369,80.35316783,12.4,462.5,1640.4,TRUE,1,1,FALSE,FALSE,FALSE,FALSE,,TRUE,FALSE,FALSE,Course Lock,285.4,198.8,16.4,Calm,35,, 1.9.9,dji aircraft,3YTBJ7B003000F,42UQJ4U23A05JY,396LJ68101003F,1Z3PJ6QEA3082T,257.6,0.2,9.8,3.325435,1.565858,0,38988,dji aircraft,3YTBJ7B003000F,42UQJ4U23A05JY,396LJ68101003F,1Z3PJ6QEA3082T,DJI Fly,, 1.9.9,79F37DF5-76F2-AAFE-490A-26C297CC919A,3YTBJ7B003000F,,,,,,,,,,
4/11/2023,56:02.5,0m 1.3s,1.3,7.498429401,80.3531662,0,0,0.3,403,0.3,,,,,,,,,5.6,2.5,112.5,112.5,Starting Motors,Auto Fly,Takeoff (App Auto),23,5,TRUE,,Air 2S,FALSE,FALSE,,Smart,RC,TRUE,TRUE,FALSE,,,TRUE,,FALSE,FALSE,FALSE,FALSE,FALSE,FALSE,FALSE,FALSE,FALSE,FALSE,0,Follow Yaw,0,0,117.1,117.1,FALSE,FALSE,FALSE,FALSE,FALSE,FALSE,,TRUE,Normal,100,100,1024,1024,1024,1024,1,FALSE,FALSE,FALSE,FALSE,FALSE,0,FALSE,FALSE,FALSE,FALSE,88,12.507,2895,3325,12.581,FALSE,4.182,4.166,4.159,0.023,FALSE,FALSE,1.695,100.2,100.2,100.2,0,13,0,0,10,5234.5,1342.2,,Idle,0,15,FALSE,10,TRUE,17,Go Home,TRUE,TRUE,TRUE,FALSE,FALSE,FALSE,FALSE,FALSE,FALSE,FALSE,FALSE,FALSE,7.498463369,80.35316783,12.4,462.5,1640.4,TRUE,1,1,FALSE,FALSE,FALSE,FALSE,,TRUE,FALSE,FALSE,Course Lock,285.4,198.8,16.4,Calm,35,, 1.9.9,dji aircraft,3YTBJ7B003000F,42UQJ4U23A05JY,396LJ68101003F,1Z3PJ6QEA3082T,257.6,0.2,9.8,3.325435,1.565858,0,38988,dji aircraft,3YTBJ7B003000F,42UQJ4U23A05JY,396LJ68101003F,1Z3PJ6QEA3082T,DJI Fly,, 1.9.9,79F37DF5-76F2-AAFE-490A-26C297CC919A,3YTBJ7B003000F,,,,,,,,,,
4/11/2023,56:02.6,0m 1.4s,1.4,7.498429295,80.35316613,0,0,0.3,403,0.4,,,,,,,,,5.6,2.5,112.5,112.5,Starting Motors,Auto Fly,Takeoff (App Auto),23,5,TRUE,,Air 2S,FALSE,FALSE,,Smart,RC,TRUE,TRUE,FALSE,,,TRUE,,FALSE,FALSE,FALSE,FALSE,FALSE,FALSE,FALSE,FALSE,FALSE,FALSE,0,Follow Yaw,0,0,117.1,117.1,FALSE,FALSE,FALSE,FALSE,FALSE,FALSE,,TRUE,Normal,100,100,1024,1024,1024,1024,1,FALSE,FALSE,FALSE,FALSE,FALSE,0,FALSE,FALSE,FALSE,FALSE,88,12.507,2895,3325,12.581,FALSE,4.182,4.166,4.159,0.023,FALSE,FALSE,1.695,100.2,100.2,100.2,0,13,0,0,10,5234.5,1342.2,,Idle,0,15,FALSE,10,TRUE,17,Go Home,TRUE,TRUE,TRUE,FALSE,FALSE,FALSE,FALSE,FALSE,FALSE,FALSE,FALSE,FALSE,7.498463369,80.35316783,12.4,462.5,1640.4,TRUE,1,1,FALSE,FALSE,FALSE,FALSE,,TRUE,FALSE,FALSE,Course Lock,285.4,198.8,16.4,Calm,35,, 1.9.9,dji aircraft,3YTBJ7B003000F,42UQJ4U23A05JY,396LJ68101003F,1Z3PJ6QEA3082T,257.6,0.2,9.8,3.325435,1.565858,0,38988,dji aircraft,3YTBJ7B003000F,42UQJ4U23A05JY,396LJ68101003F,1Z3PJ6QEA3082T,DJI Fly,, 1.9.9,79F37DF5-76F2-AAFE-490A-26C297CC919A,3YTBJ7B003000F,,,,,,,,,,
4/11/2023,56:02.7,0m 1.5s,1.5,7.498429275,80.35316616,0,0,0.3,403,0.4,,,,,,,,,5.7,2.5,112.5,112.5,Auto Takeoff,Auto Fly,Takeoff (App Auto),23,5,TRUE,,Air 2S,FALSE,FALSE,,Smart,RC,TRUE,TRUE,FALSE,,,TRUE,,FALSE,FALSE,FALSE,FALSE,FALSE,FALSE,FALSE,FALSE,FALSE,FALSE,0,Follow Yaw,0,0,117,117,FALSE,FALSE,FALSE,FALSE,FALSE,FALSE,,TRUE,Normal,100,100,1024,1024,1024,1024,1,FALSE,FALSE,FALSE,FALSE,FALSE,0,FALSE,FALSE,FALSE,FALSE,88,12.507,2895,3325,12.657,FALSE,4.182,4.166,4.159,0.023,FALSE,FALSE,1.695,100.2,100.2,100.2,0,14,0,0,10,5265.2,1350.06,,Idle,0,15,FALSE,10,TRUE,17,Go Home,TRUE,TRUE,TRUE,FALSE,FALSE,FALSE,FALSE,FALSE,FALSE,FALSE,FALSE,FALSE,7.498463369,80.35316783,12.4,462.5,1640.4,TRUE,1,1,FALSE,FALSE,FALSE,FALSE,,TRUE,FALSE,FALSE,Course Lock,285.4,198.8,16.4,Calm,35,, 1.9.9,dji aircraft,3YTBJ7B003000F,42UQJ4U23A05JY,396LJ68101003F,1Z3PJ6QEA3082T,257.6,0.2,9.8,3.325435,1.565858,0,38988,dji aircraft,3YTBJ7B003000F,42UQJ4U23A05JY,396LJ68101003F,1Z3PJ6QEA3082T,DJI Fly,, 1.9.9,79F37DF5-76F2-AAFE-490A-26C297CC919A,3YTBJ7B003000F,,,,,,,,,,
4/11/2023,56:02.8,0m 1.6s,1.6,7.498429185,80.3531664,0,0,0.3,403,0.5,,,,,,,,,5.6,2.5,112.6,112.6,Auto Takeoff,Auto Fly,Takeoff (App Auto),23,5,TRUE,,Air 2S,FALSE,FALSE,,Smart,RC,TRUE,TRUE,FALSE,,,TRUE,,FALSE,FALSE,FALSE,FALSE,FALSE,FALSE,FALSE,FALSE,FALSE,FALSE,0,Follow Yaw,0,0,117,117,FALSE,FALSE,FALSE,FALSE,FALSE,FALSE,,TRUE,Normal,100,100,1024,1024,1024,1024,1,FALSE,FALSE,FALSE,FALSE,FALSE,0,FALSE,FALSE,FALSE,FALSE,88,12.507,2895,3325,12.657,FALSE,4.182,4.166,4.159,0.023,FALSE,FALSE,1.695,100.2,100.2,100.2,0,14,0,0,10,5265.2,1350.06,,Idle,0,15,FALSE,10,TRUE,17,Go Home,TRUE,TRUE,TRUE,FALSE,FALSE,FALSE,FALSE,FALSE,FALSE,FALSE,FALSE,FALSE,7.498463369,80.35316783,12.4,462.5,1640.4,TRUE,1,1,FALSE,FALSE,FALSE,FALSE,,TRUE,FALSE,FALSE,Course Lock,285.4,198.8,16.4,Calm,35,, 1.9.9,dji aircraft,3YTBJ7B003000F,42UQJ4U23A05JY,396LJ68101003F,1Z3PJ6QEA3082T,257.6,0.2,9.8,3.325435,1.565858,0,38988,dji aircraft,3YTBJ7B003000F,42UQJ4U23A05JY,396LJ68101003F,1Z3PJ6QEA3082T,DJI Fly,, 1.9.9,79F37DF5-76F2-AAFE-490A-26C297CC919A,3YTBJ7B003000F,,,,,,,,,,
4/11/2023,56:02.9,0m 1.7s,1.7,7.498429158,80.35316645,0,0,0.3,403,0.5,,,,,,,,,5.6,2.5,112.6,112.6,Auto Takeoff,Auto Fly,Takeoff (App Auto),23,5,TRUE,,Air 2S,FALSE,FALSE,,Smart,RC,TRUE,TRUE,FALSE,,,TRUE,,FALSE,FALSE,FALSE,FALSE,FALSE,FALSE,FALSE,FALSE,FALSE,FALSE,0,Follow Yaw,0,0,117,117,FALSE,FALSE,FALSE,FALSE,FALSE,FALSE,,TRUE,Normal,100,100,1024,1024,1024,1024,1,FALSE,FALSE,FALSE,FALSE,FALSE,0,FALSE,FALSE,FALSE,FALSE,88,12.489,2894,3325,12.657,FALSE,4.166,4.163,4.16,0.023,FALSE,FALSE,4.145,100.2,100.2,100.2,0,14,0,0,10,5265.2,1350.06,,Idle,0,15,FALSE,10,TRUE,17,Go Home,TRUE,TRUE,TRUE,FALSE,FALSE,FALSE,FALSE,FALSE,FALSE,FALSE,FALSE,FALSE,7.498463369,80.35316783,12.4,462.5,1640.4,TRUE,1,1,FALSE,FALSE,FALSE,FALSE,,TRUE,FALSE,FALSE,Course Lock,285.4,198.8,16.4,Calm,35,, 1.9.9,dji aircraft,3YTBJ7B003000F,42UQJ4U23A05JY,396LJ68101003F,1Z3PJ6QEA3082T,257.6,0.2,9.8,3.325435,1.565858,0,38988,dji aircraft,3YTBJ7B003000F,42UQJ4U23A05JY,396LJ68101003F,1Z3PJ6QEA3082T,DJI Fly,, 1.9.9,79F37DF5-76F2-AAFE-490A-26C297CC919A,3YTBJ7B003000F,,,,,,,,,,
4/11/2023,56:03.0,0m 1.8s,1.8,7.498429213,80.35316637,0,0,0.3,403,0.5,,,,,,,,,5.6,2.5,112.6,112.6,Auto Takeoff,Auto Fly,Takeoff (App Auto),23,5,TRUE,,Air 2S,FALSE,FALSE,,Smart,RC,TRUE,TRUE,FALSE,,,TRUE,,FALSE,FALSE,FALSE,FALSE,FALSE,FALSE,FALSE,FALSE,FALSE,FALSE,0,Follow Yaw,0,0,116.9,116.9,FALSE,FALSE,FALSE,FALSE,FALSE,FALSE,,TRUE,Normal,100,100,1024,1024,1024,1024,1,FALSE,FALSE,FALSE,FALSE,FALSE,0,FALSE,FALSE,FALSE,FALSE,88,12.489,2894,3325,12.657,FALSE,4.166,4.163,4.16,0.023,FALSE,FALSE,4.145,100.2,100.2,100.2,0,14,0,0,10,5265.2,1350.06,,Idle,0,15,FALSE,10,TRUE,17,Go Home,TRUE,TRUE,TRUE,FALSE,FALSE,FALSE,FALSE,FALSE,FALSE,FALSE,FALSE,FALSE,7.498463369,80.35316783,12.4,462.5,1640.4,TRUE,1,1,FALSE,FALSE,FALSE,FALSE,,TRUE,FALSE,FALSE,Course Lock,285.4,198.8,16.4,Calm,35,, 1.9.9,dji aircraft,3YTBJ7B003000F,42UQJ4U23A05JY,396LJ68101003F,1Z3PJ6QEA3082T,257.6,0.2,9.8,3.325435,1.565858,0,38988,dji aircraft,3YTBJ7B003000F,42UQJ4U23A05JY,396LJ68101003F,1Z3PJ6QEA3082T,DJI Fly,, 1.9.9,79F37DF5-76F2-AAFE-490A-26C297CC919A,3YTBJ7B003000F,,,,,,,,,,
4/11/2023,56:03.1,0m 1.9s,1.9,7.498429192,80.3531664,0,0,0.3,403,0.5,,,,,,,,,5.4,2.5,112.4,112.4,Auto Takeoff,Auto Fly,Takeoff (App Auto),23,5,TRUE,,Air 2S,FALSE,FALSE,,Smart,RC,TRUE,TRUE,FALSE,,,TRUE,,FALSE,FALSE,FALSE,FALSE,FALSE,FALSE,FALSE,FALSE,FALSE,FALSE,0,Follow Yaw,0,0,116.9,116.9,FALSE,FALSE,FALSE,FALSE,FALSE,FALSE,,TRUE,Normal,100,100,1024,1024,1024,1024,1,FALSE,FALSE,FALSE,FALSE,FALSE,0,FALSE,FALSE,FALSE,FALSE,88,12.489,2894,3325,12.657,FALSE,4.166,4.163,4.16,0.023,FALSE,FALSE,4.145,100.2,100.2,100.2,0,14,0,0,10,5265.2,1350.06,,Idle,0,15,FALSE,10,TRUE,17,Go Home,TRUE,TRUE,TRUE,FALSE,FALSE,FALSE,FALSE,FALSE,FALSE,FALSE,FALSE,FALSE,7.498463369,80.35316783,12.4,462.5,1640.4,TRUE,1,1,FALSE,FALSE,FALSE,FALSE,,TRUE,FALSE,FALSE,Course Lock,285.4,198.8,16.4,Calm,35,, 1.9.9,dji aircraft,3YTBJ7B003000F,42UQJ4U23A05JY,396LJ68101003F,1Z3PJ6QEA3082T,257.6,0.2,9.8,3.325435,1.565858,0,38988,dji aircraft,3YTBJ7B003000F,42UQJ4U23A05JY,396LJ68101003F,1Z3PJ6QEA3082T,DJI Fly,, 1.9.9,79F37DF5-76F2-AAFE-490A-26C297CC919A,3YTBJ7B003000F,,,,,,,,,,
4/11/2023,56:03.2,0m 2.0s,2,7.498429061,80.35316646,0,0,0.3,403,0.6,,,,,,,,,2.5,2.4,111.7,111.7,Auto Takeoff,Auto Fly,Takeoff (App Auto),23,5,TRUE,,Air 2S,FALSE,FALSE,,Smart,RC,TRUE,TRUE,FALSE,,,TRUE,,FALSE,FALSE,FALSE,FALSE,FALSE,FALSE,FALSE,FALSE,FALSE,FALSE,0,Follow Yaw,0,0,116.8,116.8,FALSE,FALSE,FALSE,FALSE,FALSE,FALSE,,TRUE,Normal,100,100,1024,1024,1024,1024,1,FALSE,FALSE,FALSE,FALSE,FALSE,0,FALSE,FALSE,FALSE,FALSE,88,12.489,2894,3325,12.657,FALSE,4.166,4.163,4.16,0.023,FALSE,FALSE,4.145,100.2,100.2,100.2,0,14,0,0,10,5265.2,1350.06,,Idle,0,15,FALSE,10,TRUE,17,Go Home,TRUE,TRUE,TRUE,FALSE,FALSE,FALSE,FALSE,FALSE,FALSE,FALSE,FALSE,FALSE,7.498463369,80.35316783,12.5,462.5,1640.4,TRUE,1,1,FALSE,FALSE,FALSE,FALSE,,TRUE,FALSE,FALSE,Course Lock,285.4,198.8,16.4,Calm,35,, 1.9.9,dji aircraft,3YTBJ7B003000F,42UQJ4U23A05JY,396LJ68101003F,1Z3PJ6QEA3082T,257.6,0.2,9.8,3.325435,1.565858,0,38988,dji aircraft,3YTBJ7B003000F,42UQJ4U23A05JY,396LJ68101003F,1Z3PJ6QEA3082T,DJI Fly,, 1.9.9,79F37DF5-76F2-AAFE-490A-26C297CC919A,3YTBJ7B003000F,,,,,7.498444225,80.35321301,4.7464,,,
4/11/2023,56:03.3,0m 2.1s,2.1,7.498428991,80.35316647,0,0,0.3,403,0.6,,,,,,,-0.223694,,-2.6,2.5,110.6,110.6,Auto Takeoff,Auto Fly,Takeoff (App Auto),23,5,TRUE,,Air 2S,FALSE,FALSE,,Smart,RC,TRUE,TRUE,FALSE,,,TRUE,,FALSE,FALSE,FALSE,FALSE,FALSE,FALSE,FALSE,FALSE,FALSE,FALSE,0,Follow Yaw,0,0,116.7,116.7,FALSE,FALSE,FALSE,FALSE,FALSE,FALSE,,TRUE,Normal,100,100,1024,1024,1024,1024,1,FALSE,FALSE,FALSE,FALSE,FALSE,0,FALSE,FALSE,FALSE,FALSE,88,12.489,2894,3325,12.657,FALSE,4.166,4.163,4.16,0.023,FALSE,FALSE,4.145,100.2,100.2,100.2,0,14,0,0,10,5265.2,1350.06,,Idle,0,15,FALSE,10,TRUE,17,Go Home,TRUE,TRUE,TRUE,FALSE,FALSE,FALSE,FALSE,FALSE,FALSE,FALSE,FALSE,FALSE,7.498463369,80.35316783,12.5,462.5,1640.4,TRUE,1,1,FALSE,FALSE,FALSE,FALSE,,TRUE,FALSE,FALSE,Course Lock,285.4,198.8,16.4,Calm,35,, 1.9.9,dji aircraft,3YTBJ7B003000F,42UQJ4U23A05JY,396LJ68101003F,1Z3PJ6QEA3082T,257.6,0.2,9.8,3.325435,1.565858,0,38988,dji aircraft,3YTBJ7B003000F,42UQJ4U23A05JY,396LJ68101003F,1Z3PJ6QEA3082T,DJI Fly,, 1.9.9,79F37DF5-76F2-AAFE-490A-26C297CC919A,3YTBJ7B003000F,,,,,7.498444225,80.35321301,4.7464,,,
4/11/2023,56:03.4,0m 2.2s,2.2,7.498428958,80.35316635,0,0,0.3,403,0.7,0.223694,0.223694,-0.223694,,,,-0.223694,,-3.2,2,110.5,110.5,Auto Takeoff,Auto Fly,Takeoff (App Auto),23,5,TRUE,,Air 2S,FALSE,FALSE,,Smart,RC,FALSE,TRUE,FALSE,,,TRUE,,FALSE,FALSE,FALSE,FALSE,FALSE,FALSE,FALSE,FALSE,FALSE,FALSE,0,Follow Yaw,0,0,116.5,116.5,FALSE,FALSE,FALSE,FALSE,FALSE,FALSE,,TRUE,Normal,100,100,1024,1024,1024,1024,1,FALSE,FALSE,FALSE,FALSE,FALSE,0,FALSE,FALSE,FALSE,FALSE,88,12.489,2894,3325,12.657,FALSE,4.166,4.163,4.16,0.023,FALSE,FALSE,4.145,100.2,100.2,100.2,0,14,0,0,10,5265.2,1350.06,,Idle,0,15,FALSE,10,TRUE,17,Go Home,TRUE,TRUE,TRUE,FALSE,FALSE,FALSE,FALSE,FALSE,FALSE,FALSE,FALSE,FALSE,7.498463369,80.35316783,12.5,462.5,1640.4,TRUE,1,1,FALSE,FALSE,FALSE,FALSE,,TRUE,FALSE,FALSE,Course Lock,285.4,198.8,16.4,Calm,35,, 1.9.9,dji aircraft,3YTBJ7B003000F,42UQJ4U23A05JY,396LJ68101003F,1Z3PJ6QEA3082T,257.6,0.2,9.8,3.325435,1.565858,0,38988,dji aircraft,3YTBJ7B003000F,42UQJ4U23A05JY,396LJ68101003F,1Z3PJ6QEA3082T,DJI Fly,, 1.9.9,79F37DF5-76F2-AAFE-490A-26C297CC919A,3YTBJ7B003000F,,,,,7.498444225,80.35321301,4.7464,,,
4/11/2023,56:03.5,0m 2.3s,2.3,7.498428782,80.35316638,0,0,0.3,403,0.7,0.223694,0.223694,-0.223694,,,,-0.671082,,-1.3,0,110.7,110.7,Auto Takeoff,Auto Fly,Takeoff (App Auto),23,5,TRUE,,Air 2S,FALSE,FALSE,,Smart,RC,FALSE,TRUE,FALSE,,,TRUE,,FALSE,FALSE,FALSE,FALSE,FALSE,FALSE,FALSE,FALSE,FALSE,FALSE,0,Follow Yaw,0,0,116.4,116.4,FALSE,FALSE,FALSE,FALSE,FALSE,FALSE,,TRUE,Normal,100,100,1024,1024,1024,1024,1,FALSE,FALSE,FALSE,FALSE,FALSE,0,FALSE,FALSE,FALSE,FALSE,88,12.489,2894,3325,12.657,FALSE,4.166,4.163,4.16,0.023,FALSE,FALSE,4.145,100.2,100.2,100.2,0,14,0,0,10,5265.2,1350.06,,Idle,0,15,FALSE,10,TRUE,17,Go Home,TRUE,TRUE,TRUE,FALSE,FALSE,FALSE,FALSE,FALSE,FALSE,FALSE,FALSE,FALSE,7.498463369,80.35316783,12.6,462.5,1640.4,TRUE,1,1,FALSE,FALSE,FALSE,FALSE,,TRUE,FALSE,FALSE,Course Lock,285.4,198.8,16.4,Calm,35,, 1.9.9,dji aircraft,3YTBJ7B003000F,42UQJ4U23A05JY,396LJ68101003F,1Z3PJ6QEA3082T,257.6,0.2,9.8,3.325435,1.565858,0,38988,dji aircraft,3YTBJ7B003000F,42UQJ4U23A05JY,396LJ68101003F,1Z3PJ6QEA3082T,DJI Fly,, 1.9.9,79F37DF5-76F2-AAFE-490A-26C297CC919A,3YTBJ7B003000F,,,,,7.498444225,80.35321301,4.7464,,,
4/11/2023,56:03.6,0m 2.4s,2.4,7.498428663,80.35316652,0.3,0.3,0.3,403,0.8,0.223694,0.223694,-0.223694,,,,-0.894776,,0,-1.2,110.5,110.5,Auto Takeoff,Auto Fly,Takeoff (App Auto),23,5,TRUE,,Air 2S,FALSE,FALSE,,Smart,RC,FALSE,TRUE,FALSE,,,TRUE,,FALSE,FALSE,FALSE,FALSE,FALSE,FALSE,FALSE,FALSE,FALSE,FALSE,0,Follow Yaw,0,0,116.2,116.2,FALSE,FALSE,FALSE,FALSE,FALSE,FALSE,,TRUE,Normal,100,100,1024,1024,1024,1024,1,FALSE,FALSE,FALSE,FALSE,FALSE,0,FALSE,FALSE,FALSE,FALSE,88,12.489,2894,3325,12.657,FALSE,4.166,4.163,4.16,0.023,FALSE,FALSE,4.145,100.2,100.2,100.2,0,14,0,0,10,5265.2,1350.06,,Idle,0,15,FALSE,10,TRUE,17,Go Home,TRUE,TRUE,TRUE,FALSE,FALSE,FALSE,FALSE,FALSE,FALSE,FALSE,FALSE,FALSE,7.498463369,80.35316783,12.6,462.5,1640.4,TRUE,1,1,FALSE,FALSE,FALSE,FALSE,,TRUE,FALSE,FALSE,Course Lock,285.4,198.8,16.4,Calm,35,, 1.9.9,dji aircraft,3YTBJ7B003000F,42UQJ4U23A05JY,396LJ68101003F,1Z3PJ6QEA3082T,257.6,0.2,9.8,3.325435,1.565858,0,38988,dji aircraft,3YTBJ7B003000F,42UQJ4U23A05JY,396LJ68101003F,1Z3PJ6QEA3082T,DJI Fly,, 1.9.9,79F37DF5-76F2-AAFE-490A-26C297CC919A,3YTBJ7B003000F,,,,,7.498444225,80.35321301,4.7464,,,
4/11/2023,56:03.7,0m 2.5s,2.5,7.498428487,80.35316657,0.3,0.3,0.3,403,0.9,0.223694,0.223694,-0.223694,,,,-0.894776,,0.9,-1.1,110.4,110.4,Auto Takeoff,Auto Fly,Takeoff (App Auto),23,5,TRUE,,Air 2S,FALSE,FALSE,,Smart,RC,FALSE,TRUE,FALSE,,,TRUE,,FALSE,FALSE,FALSE,FALSE,FALSE,FALSE,FALSE,FALSE,FALSE,FALSE,0,Follow Yaw,0,0,116.1,116.1,FALSE,FALSE,FALSE,FALSE,FALSE,FALSE,,TRUE,Normal,100,100,1024,1024,1024,1024,1,FALSE,FALSE,FALSE,FALSE,FALSE,0,FALSE,FALSE,FALSE,FALSE,88,12.489,2894,3325,12.452,FALSE,4.166,4.163,4.16,0.023,FALSE,FALSE,4.145,100.2,100.2,100.2,0,0,0,0,10,5557.4,1424.97,,Idle,0,15,FALSE,10,TRUE,17,Go Home,TRUE,TRUE,TRUE,FALSE,FALSE,FALSE,FALSE,FALSE,FALSE,FALSE,FALSE,FALSE,7.498429018,80.35316635,0.2,462.5,1640.4,TRUE,1,1,FALSE,FALSE,FALSE,FALSE,,TRUE,FALSE,FALSE,Course Lock,285.4,198.8,16.4,Calm,35,, 1.9.9,dji aircraft,3YTBJ7B003000F,42UQJ4U23A05JY,396LJ68101003F,1Z3PJ6QEA3082T,257.6,0.2,9.8,3.325435,1.565858,0,38988,dji aircraft,3YTBJ7B003000F,42UQJ4U23A05JY,396LJ68101003F,1Z3PJ6QEA3082T,DJI Fly,, 1.9.9,79F37DF5-76F2-AAFE-490A-26C297CC919A,3YTBJ7B003000F,,,,,7.498444225,80.35321301,4.7464,Home Point Updated.,,
4/11/2023,56:03.8,0m 2.6s,2.6,7.498428358,80.35316657,0.3,0.3,0.6,403,0.9,0.223694,0.223694,-0.223694,,,,-0.894776,,1.1,-1.1,110.5,110.5,Auto Takeoff,Auto Fly,Takeoff (App Auto),23,5,TRUE,,Air 2S,TRUE,FALSE,,Smart,RC,FALSE,TRUE,FALSE,,,TRUE,,FALSE,FALSE,FALSE,FALSE,FALSE,FALSE,FALSE,FALSE,FALSE,FALSE,0,Follow Yaw,0,0,116,116,FALSE,FALSE,FALSE,FALSE,FALSE,FALSE,,TRUE,Normal,100,100,1024,1024,1024,1024,1,FALSE,FALSE,FALSE,FALSE,FALSE,0,FALSE,FALSE,FALSE,FALSE,88,12.489,2894,3325,12.452,FALSE,4.166,4.163,4.16,0.023,FALSE,FALSE,4.145,100.2,100.2,100.2,0,0,0,0,10,5557.4,1424.97,,Idle,0,15,FALSE,10,TRUE,17,Go Home,TRUE,TRUE,TRUE,FALSE,FALSE,FALSE,FALSE,FALSE,TRUE,FALSE,FALSE,FALSE,7.498429018,80.35316635,0.2,462.5,1640.4,TRUE,1,1,FALSE,FALSE,FALSE,FALSE,,TRUE,FALSE,FALSE,Course Lock,285.4,198.8,16.4,Calm,35,, 1.9.9,dji aircraft,3YTBJ7B003000F,42UQJ4U23A05JY,396LJ68101003F,1Z3PJ6QEA3082T,257.6,0.2,9.8,3.325435,1.565858,0,38988,dji aircraft,3YTBJ7B003000F,42UQJ4U23A05JY,396LJ68101003F,1Z3PJ6QEA3082T,DJI Fly,, 1.9.9,79F37DF5-76F2-AAFE-490A-26C297CC919A,3YTBJ7B003000F,,,,,7.498444225,80.35321301,4.7464,,,
4/11/2023,56:03.9,0m 2.7s,2.7,7.498428207,80.35316661,0.6,0.6,0.6,404,1,0.223694,0.223694,-0.223694,,,,-0.894776,,0.8,-1.4,110.4,110.4,Auto Takeoff,Auto Fly,Takeoff (App Auto),23,5,TRUE,,Air 2S,TRUE,FALSE,,Smart,RC,FALSE,TRUE,FALSE,,,TRUE,,FALSE,FALSE,FALSE,FALSE,FALSE,FALSE,FALSE,FALSE,FALSE,FALSE,0,Follow Yaw,0,0,115.8,115.8,FALSE,FALSE,FALSE,FALSE,FALSE,FALSE,,TRUE,Normal,100,100,1024,1024,1024,1024,1,FALSE,FALSE,FALSE,FALSE,FALSE,0,FALSE,FALSE,FALSE,FALSE,88,12.342,2893,3325,12.452,FALSE,4.13,4.11,4.102,0.028,FALSE,FALSE,3.943,100.2,100.2,100.2,0,0,0,0,10,5557.4,1424.97,,Idle,0,15,FALSE,10,TRUE,17,Go Home,TRUE,TRUE,TRUE,FALSE,FALSE,FALSE,FALSE,FALSE,TRUE,FALSE,FALSE,FALSE,7.498429018,80.35316635,0.3,462.5,1640.4,TRUE,1,1,FALSE,FALSE,FALSE,FALSE,,TRUE,FALSE,FALSE,Course Lock,285.4,198.8,16.4,Calm,35,, 1.9.9,dji aircraft,3YTBJ7B003000F,42UQJ4U23A05JY,396LJ68101003F,1Z3PJ6QEA3082T,257.6,0.2,9.8,3.325435,1.565858,0,38988,dji aircraft,3YTBJ7B003000F,42UQJ4U23A05JY,396LJ68101003F,1Z3PJ6QEA3082T,DJI Fly,, 1.9.9,79F37DF5-76F2-AAFE-490A-26C297CC919A,3YTBJ7B003000F,,,,,7.498444225,80.35321301,4.7464,,,
4/11/2023,56:04.1,0m 2.8s,2.8,7.498428254,80.35316654,0.6,0.6,0.9,404,1,0.223694,0.223694,-0.223694,,,,-0.894776,,1,-2.7,110.3,110.3,Auto Takeoff,Auto Fly,Takeoff (App Auto),23,5,TRUE,,Air 2S,TRUE,FALSE,,Smart,RC,FALSE,TRUE,FALSE,,,TRUE,,FALSE,FALSE,FALSE,FALSE,FALSE,FALSE,FALSE,FALSE,FALSE,FALSE,0,Follow Yaw,0,0,115.7,115.7,FALSE,FALSE,FALSE,FALSE,FALSE,FALSE,,TRUE,Normal,100,100,1024,1024,1024,1024,1,FALSE,FALSE,FALSE,FALSE,FALSE,0,FALSE,FALSE,FALSE,FALSE,88,12.342,2893,3325,12.452,FALSE,4.13,4.11,4.102,0.028,FALSE,FALSE,3.943,100.2,100.2,100.2,0,0,0,0,10,5557.4,1424.97,,Idle,0,15,FALSE,10,TRUE,17,Go Home,TRUE,TRUE,TRUE,FALSE,FALSE,FALSE,FALSE,FALSE,TRUE,FALSE,FALSE,FALSE,7.498429018,80.35316635,0.2,462.5,1640.4,TRUE,1,1,FALSE,FALSE,FALSE,FALSE,,TRUE,FALSE,FALSE,Course Lock,285.4,198.8,16.4,Calm,35,, 1.9.9,dji aircraft,3YTBJ7B003000F,42UQJ4U23A05JY,396LJ68101003F,1Z3PJ6QEA3082T,257.6,0.2,9.8,3.325435,1.565858,0,38988,dji aircraft,3YTBJ7B003000F,42UQJ4U23A05JY,396LJ68101003F,1Z3PJ6QEA3082T,DJI Fly,, 1.9.9,79F37DF5-76F2-AAFE-490A-26C297CC919A,3YTBJ7B003000F,,,,,7.498444225,80.35321301,4.7464,,,
4/11/2023,56:04.1,0m 2.9s,2.9,7.49842816,80.35316656,0.9,0.9,0.9,404,1,,0.223694,,,,,-0.894776,,0.8,-2.8,110.4,110.4,Auto Takeoff,Auto Fly,Takeoff (App Auto),23,5,TRUE,,Air 2S,TRUE,FALSE,,Smart,RC,FALSE,TRUE,FALSE,,,TRUE,,FALSE,FALSE,FALSE,FALSE,FALSE,FALSE,FALSE,FALSE,FALSE,FALSE,0,Follow Yaw,0,0,115.6,115.6,FALSE,FALSE,FALSE,FALSE,FALSE,FALSE,,TRUE,Normal,100,100,1024,1024,1024,1024,1,FALSE,FALSE,FALSE,FALSE,FALSE,0,FALSE,FALSE,FALSE,FALSE,88,12.342,2893,3325,12.452,FALSE,4.13,4.11,4.102,0.028,FALSE,FALSE,3.943,100.2,100.2,100.2,0,0,0,0,10,5557.4,1424.97,,Idle,0,15,FALSE,10,TRUE,17,Go Home,TRUE,TRUE,TRUE,FALSE,FALSE,FALSE,FALSE,FALSE,TRUE,FALSE,FALSE,FALSE,7.498429018,80.35316635,0.3,462.5,1640.4,TRUE,1,1,FALSE,FALSE,FALSE,FALSE,,TRUE,FALSE,FALSE,Course Lock,285.4,198.8,16.4,Calm,35,, 1.9.9,dji aircraft,3YTBJ7B003000F,42UQJ4U23A05JY,396LJ68101003F,1Z3PJ6QEA3082T,257.6,0.2,9.8,3.325435,1.565858,0,38988,dji aircraft,3YTBJ7B003000F,42UQJ4U23A05JY,396LJ68101003F,1Z3PJ6QEA3082T,DJI Fly,, 1.9.9,79F37DF5-76F2-AAFE-490A-26C297CC919A,3YTBJ7B003000F,,,,,7.498444225,80.35321301,4.7464,,,
4/11/2023,56:04.3,0m 3.0s,3,7.498427805,80.35316626,0.9,0.9,1.3,404,1.2,,0.223694,,,,,-0.894776,,0.5,-2.6,110.5,110.5,Auto Takeoff,Auto Fly,Takeoff (App Auto),23,5,TRUE,,Air 2S,TRUE,FALSE,,Smart,RC,FALSE,TRUE,FALSE,,,TRUE,,FALSE,FALSE,FALSE,FALSE,FALSE,FALSE,FALSE,FALSE,FALSE,FALSE,0,Follow Yaw,0,0,115.6,115.6,FALSE,FALSE,FALSE,FALSE,FALSE,FALSE,,TRUE,Normal,100,100,1024,1024,1024,1024,1,FALSE,FALSE,FALSE,FALSE,FALSE,0,FALSE,FALSE,FALSE,FALSE,88,12.342,2893,3325,12.452,FALSE,4.13,4.11,4.102,0.028,FALSE,FALSE,3.943,100.2,100.2,100.2,0,0,0,0,10,5557.4,1424.97,,Idle,0,15,FALSE,10,TRUE,17,Go Home,TRUE,TRUE,TRUE,FALSE,FALSE,FALSE,FALSE,FALSE,TRUE,FALSE,FALSE,FALSE,7.498429018,80.35316635,0.4,462.5,1640.4,TRUE,1,1,FALSE,FALSE,FALSE,FALSE,,TRUE,FALSE,FALSE,Course Lock,285.4,198.8,16.4,Calm,35,, 1.9.9,dji aircraft,3YTBJ7B003000F,42UQJ4U23A05JY,396LJ68101003F,1Z3PJ6QEA3082T,257.6,0.2,9.8,3.325435,1.565858,0,38988,dji aircraft,3YTBJ7B003000F,42UQJ4U23A05JY,396LJ68101003F,1Z3PJ6QEA3082T,DJI Fly,, 1.9.9,79F37DF5-76F2-AAFE-490A-26C297CC919A,3YTBJ7B003000F,,,,,7.498444225,80.35321301,4.7464,,,
4/11/2023,56:04.4,0m 3.1s,3.1,7.498427749,80.35316625,1.3,1.3,1.3,404,1.2,,0.223694,,,,,-0.894776,,0.1,-2.3,110.6,110.6,Auto Takeoff,Auto Fly,Takeoff (App Auto),23,5,TRUE,,Air 2S,TRUE,FALSE,,Smart,RC,FALSE,TRUE,FALSE,,,TRUE,,FALSE,FALSE,FALSE,FALSE,FALSE,FALSE,FALSE,FALSE,FALSE,FALSE,0,Follow Yaw,0,0,115.5,115.5,FALSE,FALSE,FALSE,FALSE,FALSE,FALSE,,TRUE,Normal,100,100,1024,1024,1024,1024,1,FALSE,FALSE,FALSE,FALSE,FALSE,0,FALSE,FALSE,FALSE,FALSE,88,12.342,2893,3325,12.452,FALSE,4.13,4.11,4.102,0.028,FALSE,FALSE,3.943,100.2,100.2,100.2,0,0,0,0,10,5557.4,1424.97,,Idle,0,15,FALSE,10,TRUE,17,Go Home,TRUE,TRUE,TRUE,FALSE,FALSE,FALSE,FALSE,FALSE,TRUE,FALSE,FALSE,FALSE,7.498429018,80.35316635,0.4,462.5,1640.4,TRUE,1,1,FALSE,FALSE,FALSE,FALSE,,TRUE,FALSE,FALSE,Course Lock,285.4,198.8,16.4,Calm,35,, 1.9.9,dji aircraft,3YTBJ7B003000F,42UQJ4U23A05JY,396LJ68101003F,1Z3PJ6QEA3082T,257.6,0.2,9.8,3.325435,1.565858,0,38988,dji aircraft,3YTBJ7B003000F,42UQJ4U23A05JY,396LJ68101003F,1Z3PJ6QEA3082T,DJI Fly,, 1.9.9,79F37DF5-76F2-AAFE-490A-26C297CC919A,3YTBJ7B003000F,,,,,7.498444225,80.35321301,4.7464,,,
4/11/2023,56:04.4,0m 3.2s,3.2,7.498427732,80.35316654,1.3,1.3,1.6,404,1.3,,0.223694,,,,,-1.11847,,0.1,-1.7,110.5,110.5,Auto Takeoff,Auto Fly,Takeoff (App Auto),23,5,TRUE,,Air 2S,TRUE,FALSE,,Smart,RC,FALSE,TRUE,FALSE,,,TRUE,,FALSE,FALSE,FALSE,FALSE,FALSE,FALSE,FALSE,FALSE,FALSE,FALSE,0,Follow Yaw,0,0,115.4,115.4,FALSE,FALSE,FALSE,FALSE,FALSE,FALSE,,TRUE,Normal,100,100,1024,1024,1024,1024,1,FALSE,FALSE,FALSE,FALSE,FALSE,0,FALSE,FALSE,FALSE,FALSE,88,12.342,2893,3325,12.452,FALSE,4.13,4.11,4.102,0.028,FALSE,FALSE,3.943,100.2,100.2,100.2,0,0,0,0,10,5557.4,1424.97,,Idle,0,15,FALSE,10,TRUE,17,Go Home,TRUE,TRUE,TRUE,FALSE,FALSE,FALSE,FALSE,FALSE,TRUE,FALSE,FALSE,FALSE,7.498429018,80.35316635,0.4,462.5,1640.4,TRUE,1,1,FALSE,FALSE,FALSE,FALSE,,TRUE,FALSE,FALSE,Course Lock,285.4,198.8,16.4,Calm,35,, 1.9.9,dji aircraft,3YTBJ7B003000F,42UQJ4U23A05JY,396LJ68101003F,1Z3PJ6QEA3082T,257.6,0.2,9.8,3.325435,1.565858,0,38988,dji aircraft,3YTBJ7B003000F,42UQJ4U23A05JY,396LJ68101003F,1Z3PJ6QEA3082T,DJI Fly,, 1.9.9,79F37DF5-76F2-AAFE-490A-26C297CC919A,3YTBJ7B003000F,,,,,7.498444225,80.35321301,4.7464,,,
4/11/2023,56:04.5,0m 3.3s,3.3,7.498427711,80.35316656,1.6,1.6,1.6,405,1.3,,0.223694,,,,,-1.11847,,0.1,-1.6,110.5,110.5,Auto Takeoff,Auto Fly,Takeoff (App Auto),23,5,TRUE,,Air 2S,TRUE,FALSE,,Smart,RC,FALSE,TRUE,FALSE,,,TRUE,,FALSE,FALSE,FALSE,FALSE,FALSE,FALSE,FALSE,FALSE,FALSE,FALSE,0,Follow Yaw,0,0,115.4,115.4,FALSE,FALSE,FALSE,FALSE,FALSE,FALSE,,TRUE,Normal,100,100,1024,1024,1024,1024,1,FALSE,FALSE,FALSE,FALSE,FALSE,0,FALSE,FALSE,FALSE,FALSE,88,12.342,2893,3325,12.452,FALSE,4.13,4.11,4.102,0.028,FALSE,FALSE,3.943,100.2,100.2,100.2,0,0,0,0,10,5557.4,1424.97,,Idle,0,15,FALSE,10,TRUE,17,Go Home,TRUE,TRUE,TRUE,FALSE,FALSE,FALSE,FALSE,FALSE,TRUE,FALSE,FALSE,FALSE,7.498429018,80.35316635,0.4,462.5,1640.4,TRUE,1,1,FALSE,FALSE,FALSE,FALSE,,TRUE,FALSE,FALSE,Course Lock,285.4,198.8,16.4,Calm,35,, 1.9.9,dji aircraft,3YTBJ7B003000F,42UQJ4U23A05JY,396LJ68101003F,1Z3PJ6QEA3082T,257.6,0.2,9.8,3.325435,1.565858,0,38988,dji aircraft,3YTBJ7B003000F,42UQJ4U23A05JY,396LJ68101003F,1Z3PJ6QEA3082T,DJI Fly,, 1.9.9,79F37DF5-76F2-AAFE-490A-26C297CC919A,3YTBJ7B003000F,,,,,7.498444225,80.35321301,4.7464,,,
4/11/2023,56:04.6,0m 3.4s,3.4,7.498427578,80.35316621,1.6,1.6,1.9,405,1.5,,0.223694,,,,,-1.11847,,0,-1.8,110.5,110.5,Auto Takeoff,Auto Fly,Takeoff (App Auto),23,5,TRUE,,Air 2S,TRUE,FALSE,,Smart,RC,FALSE,TRUE,FALSE,,,TRUE,,FALSE,FALSE,FALSE,FALSE,FALSE,FALSE,FALSE,FALSE,FALSE,FALSE,0,Follow Yaw,0,0,115.3,115.3,FALSE,FALSE,FALSE,FALSE,FALSE,FALSE,,TRUE,Normal,100,100,1024,1024,1024,1024,1,FALSE,FALSE,FALSE,FALSE,FALSE,0,FALSE,FALSE,FALSE,FALSE,88,12.342,2893,3325,12.452,FALSE,4.13,4.11,4.102,0.028,FALSE,FALSE,3.943,100.2,100.2,100.2,0,0,0,0,10,5557.4,1424.97,,Idle,0,15,FALSE,10,TRUE,17,Go Home,TRUE,TRUE,TRUE,FALSE,FALSE,FALSE,FALSE,FALSE,TRUE,FALSE,FALSE,FALSE,7.498429018,80.35316635,0.5,462.5,1640.4,TRUE,1,1,FALSE,FALSE,FALSE,FALSE,,TRUE,FALSE,FALSE,Course Lock,285.4,198.8,16.4,Calm,35,, 1.9.9,dji aircraft,3YTBJ7B003000F,42UQJ4U23A05JY,396LJ68101003F,1Z3PJ6QEA3082T,257.6,0.2,9.8,3.325435,1.565858,0,38988,dji aircraft,3YTBJ7B003000F,42UQJ4U23A05JY,396LJ68101003F,1Z3PJ6QEA3082T,DJI Fly,, 1.9.9,79F37DF5-76F2-AAFE-490A-26C297CC919A,3YTBJ7B003000F,,,,,7.498444225,80.35321301,4.7464,,,
4/11/2023,56:04.7,0m 3.5s,3.5,7.498427566,80.35316621,1.9,1.9,1.9,405,1.5,,0.223694,,,,,-1.11847,,0,-1.7,110.5,110.5,Auto Takeoff,Auto Fly,Takeoff (App Auto),23,5,TRUE,,Air 2S,TRUE,FALSE,,Smart,RC,FALSE,TRUE,FALSE,,,TRUE,,FALSE,FALSE,FALSE,FALSE,FALSE,FALSE,FALSE,FALSE,FALSE,FALSE,0,Follow Yaw,0,0,115.3,115.3,FALSE,FALSE,FALSE,FALSE,FALSE,FALSE,,TRUE,Normal,100,100,1024,1024,1024,1024,1,FALSE,FALSE,FALSE,FALSE,FALSE,0,FALSE,FALSE,FALSE,FALSE,88,12.342,2893,3325,12.444,FALSE,4.13,4.11,4.102,0.028,FALSE,FALSE,3.943,100.2,100.2,100.2,0,0,0,0,10,6389.2,1638.26,,Idle,0,15,FALSE,10,TRUE,17,Go Home,TRUE,TRUE,TRUE,FALSE,FALSE,FALSE,FALSE,FALSE,TRUE,FALSE,FALSE,FALSE,7.498429018,80.35316635,0.5,462.5,1640.4,TRUE,1,1,FALSE,FALSE,FALSE,FALSE,,TRUE,FALSE,FALSE,Course Lock,285.4,198.8,16.4,Calm,35,, 1.9.9,dji aircraft,3YTBJ7B003000F,42UQJ4U23A05JY,396LJ68101003F,1Z3PJ6QEA3082T,257.6,0.2,9.8,3.325435,1.565858,0,38988,dji aircraft,3YTBJ7B003000F,42UQJ4U23A05JY,396LJ68101003F,1Z3PJ6QEA3082T,DJI Fly,, 1.9.9,79F37DF5-76F2-AAFE-490A-26C297CC919A,3YTBJ7B003000F,,,,,7.498444225,80.35321301,4.7464,,,Home Point updated. RTH altitude adjusted to 87 m.
4/11/2023,56:04.8,0m 3.6s,3.6,7.498427444,80.35316643,1.9,1.9,2.2,405,1.6,,0.223694,,,,,-1.11847,,0.1,-1.3,110.6,110.6,Auto Takeoff,Auto Fly,Takeoff (App Auto),23,5,TRUE,,Air 2S,TRUE,FALSE,,Smart,RC,FALSE,TRUE,FALSE,,,TRUE,,FALSE,FALSE,FALSE,FALSE,FALSE,FALSE,FALSE,FALSE,FALSE,FALSE,0,Follow Yaw,0,0,115.2,115.2,FALSE,FALSE,FALSE,FALSE,FALSE,FALSE,,TRUE,Normal,100,100,1024,1024,1024,1024,1,FALSE,FALSE,FALSE,FALSE,FALSE,0,FALSE,FALSE,FALSE,FALSE,88,12.342,2893,3325,12.444,FALSE,4.13,4.11,4.102,0.028,FALSE,FALSE,3.943,100.2,100.2,100.2,0,0,0,0,10,6389.2,1638.26,,Idle,0,15,FALSE,10,TRUE,17,Go Home,TRUE,TRUE,TRUE,FALSE,FALSE,FALSE,FALSE,FALSE,TRUE,FALSE,FALSE,FALSE,7.498429018,80.35316635,0.5,462.5,1640.4,TRUE,1,1,FALSE,FALSE,FALSE,FALSE,,TRUE,FALSE,FALSE,Course Lock,285.4,198.8,16.4,Calm,35,, 1.9.9,dji aircraft,3YTBJ7B003000F,42UQJ4U23A05JY,396LJ68101003F,1Z3PJ6QEA3082T,257.6,0.2,9.8,3.325435,1.565858,0,38988,dji aircraft,3YTBJ7B003000F,42UQJ4U23A05JY,396LJ68101003F,1Z3PJ6QEA3082T,DJI Fly,, 1.9.9,79F37DF5-76F2-AAFE-490A-26C297CC919A,3YTBJ7B003000F,,,,,7.498444225,80.35321301,4.7464,,,
4/11/2023,56:04.9,0m 3.7s,3.7,7.498427433,80.35316646,2.2,2.2,2.2,405,1.6,,0.223694,,,,,-1.11847,,0.3,-1.4,110.6,110.6,Auto Takeoff,Auto Fly,Takeoff (App Auto),23,5,TRUE,,Air 2S,TRUE,FALSE,,Smart,RC,FALSE,TRUE,FALSE,,,TRUE,,FALSE,FALSE,FALSE,FALSE,FALSE,FALSE,FALSE,FALSE,FALSE,FALSE,0,Follow Yaw,0,0,115.2,115.2,FALSE,FALSE,FALSE,FALSE,FALSE,FALSE,,TRUE,Normal,100,100,1024,1024,1024,1024,1,FALSE,FALSE,FALSE,FALSE,FALSE,0,FALSE,FALSE,FALSE,FALSE,88,12.324,2891,3325,12.444,FALSE,4.121,4.106,4.097,0.028,FALSE,FALSE,7.322,100.2,100.2,100.2,0,0,0,0,10,6389.2,1638.26,,Idle,0,15,FALSE,10,TRUE,17,Go Home,TRUE,TRUE,TRUE,FALSE,FALSE,FALSE,FALSE,FALSE,TRUE,FALSE,FALSE,FALSE,7.498429018,80.35316635,0.5,462.5,1640.4,TRUE,1,1,FALSE,FALSE,FALSE,FALSE,,TRUE,FALSE,FALSE,Course Lock,285.4,198.8,16.4,Calm,35,, 1.9.9,dji aircraft,3YTBJ7B003000F,42UQJ4U23A05JY,396LJ68101003F,1Z3PJ6QEA3082T,257.6,0.2,9.8,3.325435,1.565858,0,38988,dji aircraft,3YTBJ7B003000F,42UQJ4U23A05JY,396LJ68101003F,1Z3PJ6QEA3082T,DJI Fly,, 1.9.9,79F37DF5-76F2-AAFE-490A-26C297CC919A,3YTBJ7B003000F,,,,,7.498444225,80.35321301,4.7464,,,
4/11/2023,56:05.0,0m 3.8s,3.8,7.498427232,80.3531663,2.2,2.2,2.6,405,1.7,,0.223694,,,,,-0.894776,,0.5,-1.6,110.5,110.5,Auto Takeoff,Auto Fly,Takeoff (App Auto),23,5,TRUE,,Air 2S,TRUE,FALSE,,Smart,RC,FALSE,TRUE,FALSE,,,TRUE,,FALSE,FALSE,FALSE,FALSE,FALSE,FALSE,FALSE,FALSE,FALSE,FALSE,0,Follow Yaw,0,0,115.1,115.1,FALSE,FALSE,FALSE,FALSE,FALSE,FALSE,,TRUE,Normal,100,100,1024,1024,1024,1024,1,FALSE,FALSE,FALSE,FALSE,FALSE,0,FALSE,FALSE,FALSE,FALSE,88,12.324,2891,3325,12.444,FALSE,4.121,4.106,4.097,0.028,FALSE,FALSE,7.322,100.2,100.2,100.2,0,0,0,0,10,6389.2,1638.26,,Idle,0,15,FALSE,10,TRUE,17,Go Home,TRUE,TRUE,TRUE,FALSE,FALSE,FALSE,FALSE,FALSE,TRUE,FALSE,FALSE,FALSE,7.498429018,80.35316635,0.6,462.5,1640.4,TRUE,1,1,FALSE,FALSE,FALSE,FALSE,,TRUE,FALSE,FALSE,Course Lock,285.4,198.8,16.4,Calm,35,, 1.9.9,dji aircraft,3YTBJ7B003000F,42UQJ4U23A05JY,396LJ68101003F,1Z3PJ6QEA3082T,257.6,0.2,9.8,3.325435,1.565858,0,38988,dji aircraft,3YTBJ7B003000F,42UQJ4U23A05JY,396LJ68101003F,1Z3PJ6QEA3082T,DJI Fly,, 1.9.9,79F37DF5-76F2-AAFE-490A-26C297CC919A,3YTBJ7B003000F,,,,,7.498444225,80.35321301,4.7464,,,
4/11/2023,56:05.1,0m 3.9s,3.9,7.498427217,80.3531663,2.6,2.6,2.6,406,1.7,,0.223694,,,,,-0.894776,,0.6,-1.6,110.5,110.5,Auto Takeoff,Auto Fly,Takeoff (App Auto),23,5,TRUE,,Air 2S,TRUE,FALSE,,Smart,RC,FALSE,TRUE,FALSE,,,TRUE,,FALSE,FALSE,FALSE,FALSE,FALSE,FALSE,FALSE,FALSE,FALSE,FALSE,0,Follow Yaw,0,0,115.1,115.1,FALSE,FALSE,FALSE,FALSE,FALSE,FALSE,,TRUE,Normal,100,100,1024,1024,1024,1024,1,FALSE,FALSE,FALSE,FALSE,FALSE,0,FALSE,FALSE,FALSE,FALSE,88,12.324,2891,3325,12.444,FALSE,4.121,4.106,4.097,0.028,FALSE,FALSE,7.322,100.2,100.2,100.2,0,0,0,0,10,6389.2,1638.26,,Idle,0,15,FALSE,10,TRUE,17,Go Home,TRUE,TRUE,TRUE,FALSE,FALSE,FALSE,FALSE,FALSE,TRUE,FALSE,FALSE,FALSE,7.498429018,80.35316635,0.6,462.5,1640.4,TRUE,1,1,FALSE,FALSE,FALSE,FALSE,,TRUE,FALSE,FALSE,Course Lock,285.4,198.8,16.4,Calm,35,, 1.9.9,dji aircraft,3YTBJ7B003000F,42UQJ4U23A05JY,396LJ68101003F,1Z3PJ6QEA3082T,257.6,0.2,9.8,3.325435,1.565858,0,38988,dji aircraft,3YTBJ7B003000F,42UQJ4U23A05JY,396LJ68101003F,1Z3PJ6QEA3082T,DJI Fly,, 1.9.9,79F37DF5-76F2-AAFE-490A-26C297CC919A,3YTBJ7B003000F,,,,,7.498444225,80.35321301,4.7464,,,
4/11/2023,56:05.2,0m 4.0s,4,7.49842716,80.3531663,2.6,2.6,2.9,406,1.7,,0.223694,,,,,-0.894776,,0.5,-1.3,110.5,110.5,Auto Takeoff,Auto Fly,Takeoff (App Auto),23,5,TRUE,,Air 2S,TRUE,FALSE,,Smart,RC,FALSE,TRUE,FALSE,,,TRUE,,FALSE,FALSE,FALSE,FALSE,FALSE,FALSE,FALSE,FALSE,FALSE,FALSE,0,Follow Yaw,0,0,115.1,115.1,FALSE,FALSE,FALSE,FALSE,FALSE,FALSE,,TRUE,Normal,100,100,1024,1024,1024,1024,1,FALSE,FALSE,FALSE,FALSE,FALSE,0,FALSE,FALSE,FALSE,FALSE,88,12.324,2891,3325,12.444,FALSE,4.121,4.106,4.097,0.028,FALSE,FALSE,7.322,100.2,100.2,100.2,0,0,0,0,10,6389.2,1638.26,,Idle,0,15,FALSE,10,TRUE,17,Go Home,TRUE,TRUE,TRUE,FALSE,FALSE,FALSE,FALSE,FALSE,TRUE,FALSE,FALSE,FALSE,7.498429018,80.35316635,0.6,462.5,1640.4,TRUE,1,1,FALSE,FALSE,FALSE,FALSE,,TRUE,FALSE,FALSE,Course Lock,285.4,198.8,16.4,Calm,35,, 1.9.9,dji aircraft,3YTBJ7B003000F,42UQJ4U23A05JY,396LJ68101003F,1Z3PJ6QEA3082T,257.6,0.2,9.8,3.325435,1.565858,0,38988,dji aircraft,3YTBJ7B003000F,42UQJ4U23A05JY,396LJ68101003F,1Z3PJ6QEA3082T,DJI Fly,, 1.9.9,79F37DF5-76F2-AAFE-490A-26C297CC919A,3YTBJ7B003000F,,,,,7.498447197,80.35321216,4.7452,,,
4/11/2023,56:05.3,0m 4.1s,4.1,7.498427157,80.3531663,2.9,2.9,2.9,406,1.7,,0.223694,,,,,-0.894776,,0.4,-0.9,110.6,110.6,Auto Takeoff,Auto Fly,Takeoff (App Auto),23,5,TRUE,,Air 2S,TRUE,FALSE,,Smart,RC,FALSE,TRUE,FALSE,,,TRUE,,FALSE,FALSE,FALSE,FALSE,FALSE,FALSE,FALSE,FALSE,FALSE,FALSE,0,Follow Yaw,0,0,115,115,FALSE,FALSE,FALSE,FALSE,FALSE,FALSE,,TRUE,Normal,100,100,1024,1024,1024,1024,1,FALSE,FALSE,FALSE,FALSE,FALSE,0,FALSE,FALSE,FALSE,FALSE,88,12.324,2891,3325,12.444,FALSE,4.121,4.106,4.097,0.028,FALSE,FALSE,7.322,100.2,100.2,100.2,0,0,0,0,10,6389.2,1638.26,,Idle,0,15,FALSE,10,TRUE,17,Go Home,TRUE,TRUE,TRUE,FALSE,FALSE,FALSE,FALSE,FALSE,TRUE,FALSE,FALSE,FALSE,7.498429018,80.35316635,0.6,462.5,1640.4,TRUE,1,1,FALSE,FALSE,FALSE,FALSE,,TRUE,FALSE,FALSE,Course Lock,285.4,198.8,16.4,Calm,35,, 1.9.9,dji aircraft,3YTBJ7B003000F,42UQJ4U23A05JY,396LJ68101003F,1Z3PJ6QEA3082T,257.6,0.2,9.8,3.325435,1.565858,0,38988,dji aircraft,3YTBJ7B003000F,42UQJ4U23A05JY,396LJ68101003F,1Z3PJ6QEA3082T,DJI Fly,, 1.9.9,79F37DF5-76F2-AAFE-490A-26C297CC919A,3YTBJ7B003000F,,,,,7.498447197,80.35321216,4.7452,,,
4/11/2023,56:05.4,0m 4.2s,4.2,7.498427254,80.35316643,2.9,2.9,3.2,406,1.8,,0.223694,,,,,-0.894776,,0.7,-0.7,110.6,110.6,Auto Takeoff,Auto Fly,Takeoff (App Auto),23,5,TRUE,,Air 2S,TRUE,FALSE,,Smart,RC,FALSE,TRUE,FALSE,,,TRUE,,FALSE,FALSE,FALSE,FALSE,FALSE,FALSE,FALSE,FALSE,FALSE,FALSE,0,Follow Yaw,0,0,115,115,FALSE,FALSE,FALSE,FALSE,FALSE,FALSE,,TRUE,Normal,100,100,1024,1024,1024,1024,1,FALSE,FALSE,FALSE,FALSE,FALSE,0,FALSE,FALSE,FALSE,FALSE,88,12.324,2891,3325,12.444,FALSE,4.121,4.106,4.097,0.028,FALSE,FALSE,7.322,100.2,100.2,100.2,0,0,0,0,10,6389.2,1638.26,,Idle,0,15,FALSE,10,TRUE,17,Go Home,TRUE,TRUE,TRUE,FALSE,FALSE,FALSE,FALSE,FALSE,TRUE,FALSE,FALSE,FALSE,7.498429018,80.35316635,0.6,462.5,1640.4,TRUE,1,1,FALSE,FALSE,FALSE,FALSE,,TRUE,FALSE,FALSE,Course Lock,285.4,198.8,16.4,Calm,35,, 1.9.9,dji aircraft,3YTBJ7B003000F,42UQJ4U23A05JY,396LJ68101003F,1Z3PJ6QEA3082T,257.6,0.2,9.8,3.325435,1.565858,0,38988,dji aircraft,3YTBJ7B003000F,42UQJ4U23A05JY,396LJ68101003F,1Z3PJ6QEA3082T,DJI Fly,, 1.9.9,79F37DF5-76F2-AAFE-490A-26C297CC919A,3YTBJ7B003000F,,,,,7.498447197,80.35321216,4.7452,,,
4/11/2023,56:05.5,0m 4.3s,4.3,7.498427248,80.35316642,2.9,2.9,3.2,406,1.8,,0.223694,,,,,-0.894776,,0.7,-0.9,110.6,110.6,Auto Takeoff,Auto Fly,Takeoff (App Auto),23,5,TRUE,,Air 2S,TRUE,FALSE,,Smart,RC,FALSE,TRUE,FALSE,,,TRUE,,FALSE,FALSE,FALSE,FALSE,FALSE,FALSE,FALSE,FALSE,FALSE,FALSE,0,Follow Yaw,0,0,115,115,FALSE,FALSE,FALSE,FALSE,FALSE,FALSE,,TRUE,Normal,100,100,1024,1024,1024,1024,1,FALSE,FALSE,FALSE,FALSE,FALSE,0,FALSE,FALSE,FALSE,FALSE,88,12.324,2891,3325,12.444,FALSE,4.121,4.106,4.097,0.028,FALSE,FALSE,7.322,100.2,100.2,100.2,0,0,0,0,10,6389.2,1638.26,,Idle,0,15,FALSE,10,TRUE,17,Go Home,TRUE,TRUE,TRUE,FALSE,FALSE,FALSE,FALSE,FALSE,TRUE,FALSE,FALSE,FALSE,7.498429018,80.35316635,0.6,462.5,1640.4,TRUE,1,1,FALSE,FALSE,FALSE,FALSE,,TRUE,FALSE,FALSE,Course Lock,285.4,198.8,16.4,Calm,35,, 1.9.9,dji aircraft,3YTBJ7B003000F,42UQJ4U23A05JY,396LJ68101003F,1Z3PJ6QEA3082T,257.6,0.2,9.8,3.325435,1.565858,0,38988,dji aircraft,3YTBJ7B003000F,42UQJ4U23A05JY,396LJ68101003F,1Z3PJ6QEA3082T,DJI Fly,, 1.9.9,79F37DF5-76F2-AAFE-490A-26C297CC919A,3YTBJ7B003000F,,,,,7.498447197,80.35321216,4.7452,,,
4/11/2023,56:05.6,0m 4.4s,4.4,7.498426945,80.3531662,3.2,3.2,3.6,406,1.9,,0.223694,,,,,-0.894776,,0.7,-1.4,110.6,110.6,Auto Takeoff,Auto Fly,Takeoff (App Auto),23,5,TRUE,,Air 2S,TRUE,FALSE,,Smart,RC,FALSE,TRUE,FALSE,,,TRUE,,FALSE,FALSE,FALSE,FALSE,FALSE,FALSE,FALSE,FALSE,FALSE,FALSE,0,Follow Yaw,0,0,114.9,114.9,FALSE,FALSE,FALSE,FALSE,FALSE,FALSE,,TRUE,Normal,100,100,1024,1024,1024,1024,1,FALSE,FALSE,FALSE,FALSE,FALSE,0,FALSE,FALSE,FALSE,FALSE,88,12.324,2891,3325,12.444,FALSE,4.121,4.106,4.097,0.028,FALSE,FALSE,7.322,100.2,100.2,100.2,0,0,0,0,10,6389.2,1638.26,,Idle,0,15,FALSE,10,TRUE,17,Go Home,TRUE,TRUE,TRUE,FALSE,FALSE,FALSE,FALSE,FALSE,TRUE,FALSE,FALSE,FALSE,7.498429018,80.35316635,0.7,462.5,1640.4,TRUE,1,1,FALSE,FALSE,FALSE,FALSE,,TRUE,FALSE,FALSE,Course Lock,285.4,198.8,16.4,Calm,35,, 1.9.9,dji aircraft,3YTBJ7B003000F,42UQJ4U23A05JY,396LJ68101003F,1Z3PJ6QEA3082T,257.6,0.2,9.8,3.325435,1.565858,0,38988,dji aircraft,3YTBJ7B003000F,42UQJ4U23A05JY,396LJ68101003F,1Z3PJ6QEA3082T,DJI Fly,, 1.9.9,79F37DF5-76F2-AAFE-490A-26C297CC919A,3YTBJ7B003000F,,,,,7.498447197,80.35321216,4.7452,,,
4/11/2023,56:05.7,0m 4.5s,4.5,7.498426906,80.35316616,3.2,3.2,3.6,406,1.9,,0.223694,,,,,-0.894776,,0.7,-1.6,110.4,110.4,P-GPS (Brake),Auto Fly,,23,5,TRUE,,Air 2S,TRUE,FALSE,,Smart,RC,FALSE,TRUE,FALSE,,,TRUE,,FALSE,FALSE,FALSE,FALSE,FALSE,FALSE,FALSE,FALSE,FALSE,FALSE,0,Follow Yaw,0,0,114.9,114.9,FALSE,FALSE,FALSE,FALSE,FALSE,FALSE,,TRUE,Normal,100,100,1024,1024,1024,1024,1,FALSE,FALSE,FALSE,FALSE,FALSE,0,FALSE,FALSE,FALSE,FALSE,87,12.324,2891,3325,12.328,FALSE,4.121,4.106,4.097,0.028,FALSE,FALSE,7.322,100.2,100.2,100.2,0,0,0,0,10,7925.2,2032.12,,Idle,0,15,FALSE,10,TRUE,17,Go Home,TRUE,TRUE,TRUE,FALSE,FALSE,FALSE,FALSE,FALSE,TRUE,FALSE,FALSE,FALSE,7.498429018,80.35316635,0.7,462.5,1640.4,TRUE,1,1,FALSE,FALSE,FALSE,FALSE,,TRUE,FALSE,FALSE,Course Lock,285.4,198.8,16.4,Calm,35,, 1.9.9,dji aircraft,3YTBJ7B003000F,42UQJ4U23A05JY,396LJ68101003F,1Z3PJ6QEA3082T,257.6,0.2,9.8,3.325435,1.565858,0,38988,dji aircraft,3YTBJ7B003000F,42UQJ4U23A05JY,396LJ68101003F,1Z3PJ6QEA3082T,DJI Fly,, 1.9.9,79F37DF5-76F2-AAFE-490A-26C297CC919A,3YTBJ7B003000F,,,,,7.498447197,80.35321216,4.7452,,,
4/11/2023,56:05.9,0m 4.6s,4.6,7.498427095,80.35316613,3.6,3.6,3.6,407,2,,0.223694,,,,,-0.671082,,0.3,-1.6,110.3,110.3,P-GPS (Brake),Auto Fly,,23,5,TRUE,,Air 2S,TRUE,FALSE,,Smart,RC,FALSE,TRUE,FALSE,,,TRUE,,FALSE,FALSE,FALSE,FALSE,FALSE,FALSE,FALSE,FALSE,FALSE,FALSE,0,Follow Yaw,0,0,114.9,114.9,FALSE,FALSE,FALSE,FALSE,FALSE,FALSE,,TRUE,Normal,100,100,1024,1024,1024,1024,1,FALSE,FALSE,FALSE,FALSE,FALSE,0,FALSE,FALSE,FALSE,FALSE,87,12.324,2891,3325,12.328,FALSE,4.121,4.106,4.097,0.028,FALSE,FALSE,7.322,100.2,100.2,100.2,0,0,0,0,10,7925.2,2032.12,,Idle,0,15,FALSE,10,TRUE,17,Go Home,TRUE,TRUE,TRUE,FALSE,FALSE,FALSE,FALSE,FALSE,TRUE,FALSE,FALSE,FALSE,7.498429018,80.35316635,0.7,462.5,1640.4,TRUE,1,1,FALSE,FALSE,FALSE,FALSE,,TRUE,FALSE,FALSE,Course Lock,285.4,198.8,16.4,Calm,35,, 1.9.9,dji aircraft,3YTBJ7B003000F,42UQJ4U23A05JY,396LJ68101003F,1Z3PJ6QEA3082T,257.6,0.2,9.8,3.325435,1.565858,0,38988,dji aircraft,3YTBJ7B003000F,42UQJ4U23A05JY,396LJ68101003F,1Z3PJ6QEA3082T,DJI Fly,, 1.9.9,79F37DF5-76F2-AAFE-490A-26C297CC919A,3YTBJ7B003000F,,,,,7.498447197,80.35321216,4.7452,,,
4/11/2023,56:06.0,0m 4.7s,4.7,7.498427078,80.35316607,3.6,3.6,3.9,407,2,,0.223694,,,,,-0.223694,,0.1,-1.6,110.4,110.4,P-GPS (Brake),Auto Fly,,23,5,TRUE,,Air 2S,TRUE,FALSE,,Smart,RC,FALSE,TRUE,FALSE,,,TRUE,,FALSE,FALSE,FALSE,FALSE,FALSE,FALSE,FALSE,FALSE,FALSE,FALSE,0,Follow Yaw,0,0,114.9,114.9,FALSE,FALSE,FALSE,FALSE,FALSE,FALSE,,TRUE,Normal,100,100,1024,1024,1024,1024,1,FALSE,FALSE,FALSE,FALSE,FALSE,0,FALSE,FALSE,FALSE,FALSE,87,12.31,2889,3325,12.328,FALSE,4.117,4.101,4.092,0.028,FALSE,FALSE,7.092,100.2,100.2,100.2,0,0,0,0,10,7925.2,2032.12,,Idle,0,15,FALSE,10,TRUE,17,Go Home,TRUE,TRUE,TRUE,FALSE,FALSE,FALSE,FALSE,FALSE,TRUE,FALSE,FALSE,FALSE,7.498429018,80.35316635,0.7,462.5,1640.4,TRUE,1,1,FALSE,FALSE,FALSE,FALSE,,TRUE,FALSE,FALSE,Course Lock,285.4,198.8,16.4,Calm,35,, 1.9.9,dji aircraft,3YTBJ7B003000F,42UQJ4U23A05JY,396LJ68101003F,1Z3PJ6QEA3082T,257.6,0.2,9.8,3.325435,1.565858,0,38988,dji aircraft,3YTBJ7B003000F,42UQJ4U23A05JY,396LJ68101003F,1Z3PJ6QEA3082T,DJI Fly,, 1.9.9,79F37DF5-76F2-AAFE-490A-26C297CC919A,3YTBJ7B003000F,,,,,7.498447197,80.35321216,4.7452,,,
4/11/2023,56:06.0,0m 4.8s,4.8,7.498427099,80.3531664,3.6,3.6,3.9,407,2.1,,0.223694,,,,,,,0.1,-1.4,110.5,110.5,P-GPS (Brake),Auto Fly,,23,5,TRUE,,Air 2S,TRUE,FALSE,,Smart,RC,FALSE,TRUE,FALSE,,,TRUE,,FALSE,FALSE,FALSE,FALSE,FALSE,FALSE,FALSE,FALSE,FALSE,FALSE,0,Follow Yaw,0,0,114.9,114.9,FALSE,FALSE,FALSE,FALSE,FALSE,FALSE,,TRUE,Normal,100,100,1024,1024,1024,1024,1,FALSE,FALSE,FALSE,FALSE,FALSE,0,FALSE,FALSE,FALSE,FALSE,87,12.31,2889,3325,12.328,FALSE,4.117,4.101,4.092,0.028,FALSE,FALSE,7.092,100.2,100.2,100.2,0,0,0,0,10,7925.2,2032.12,,Idle,0,15,FALSE,10,TRUE,17,Go Home,TRUE,TRUE,TRUE,FALSE,FALSE,FALSE,FALSE,FALSE,TRUE,FALSE,FALSE,FALSE,7.498429018,80.35316635,0.7,462.5,1640.4,TRUE,1,1,FALSE,FALSE,FALSE,FALSE,,TRUE,FALSE,FALSE,Course Lock,285.4,198.8,16.4,Calm,35,, 1.9.9,dji aircraft,3YTBJ7B003000F,42UQJ4U23A05JY,396LJ68101003F,1Z3PJ6QEA3082T,257.6,0.2,9.8,3.325435,1.565858,0,38988,dji aircraft,3YTBJ7B003000F,42UQJ4U23A05JY,396LJ68101003F,1Z3PJ6QEA3082T,DJI Fly,, 1.9.9,79F37DF5-76F2-AAFE-490A-26C297CC919A,3YTBJ7B003000F,,,,,7.498447197,80.35321216,4.7452,,,
4/11/2023,56:06.1,0m 4.9s,4.9,7.498427086,80.35316637,3.6,3.6,3.9,407,2.1,,0.223694,,,,,,,-0.1,-1.2,110.8,110.8,P-GPS (Brake),Auto Fly,,23,5,TRUE,,Air 2S,TRUE,FALSE,,Smart,RC,FALSE,TRUE,FALSE,,,TRUE,,FALSE,FALSE,FALSE,FALSE,FALSE,FALSE,FALSE,FALSE,FALSE,FALSE,0,Follow Yaw,0,0,114.9,114.9,FALSE,FALSE,FALSE,FALSE,FALSE,FALSE,,TRUE,Normal,100,100,1024,1024,1143,1024,1,FALSE,FALSE,FALSE,FALSE,FALSE,0,FALSE,FALSE,FALSE,FALSE,87,12.31,2889,3325,12.328,FALSE,4.117,4.101,4.092,0.028,FALSE,FALSE,7.092,100.2,100.2,100.2,0,0,0,0,10,7925.2,2032.12,,Idle,0,15,FALSE,10,TRUE,17,Go Home,TRUE,TRUE,TRUE,FALSE,FALSE,FALSE,FALSE,FALSE,TRUE,FALSE,FALSE,FALSE,7.498429018,80.35316635,0.7,462.5,1640.4,TRUE,1,1,FALSE,FALSE,FALSE,FALSE,,TRUE,FALSE,FALSE,Course Lock,285.4,198.8,16.4,Calm,35,, 1.9.9,dji aircraft,3YTBJ7B003000F,42UQJ4U23A05JY,396LJ68101003F,1Z3PJ6QEA3082T,257.6,0.2,9.8,3.325435,1.565858,0,38988,dji aircraft,3YTBJ7B003000F,42UQJ4U23A05JY,396LJ68101003F,1Z3PJ6QEA3082T,DJI Fly,, 1.9.9,79F37DF5-76F2-AAFE-490A-26C297CC919A,3YTBJ7B003000F,,,,,7.498447197,80.35321216,4.7452,,,
4/11/2023,56:06.2,0m 5.0s,5,7.498426965,80.3531662,3.6,3.6,3.9,407,2.2,,0.223694,,,,,,,-0.2,-1.2,111.1,111.1,P-GPS (Brake),Auto Fly,,23,5,TRUE,,Air 2S,TRUE,FALSE,,Smart,RC,FALSE,TRUE,FALSE,,,TRUE,,FALSE,FALSE,FALSE,FALSE,FALSE,FALSE,FALSE,FALSE,FALSE,FALSE,0,Follow Yaw,0,0,114.9,114.9,FALSE,FALSE,FALSE,FALSE,FALSE,FALSE,,TRUE,Normal,100,100,1024,1024,1051,1024,1,FALSE,FALSE,FALSE,FALSE,FALSE,0,FALSE,FALSE,FALSE,FALSE,87,12.31,2889,3325,12.328,FALSE,4.117,4.101,4.092,0.028,FALSE,FALSE,7.092,100.2,100.2,100.2,0,0,0,0,10,7925.2,2032.12,,Idle,0,15,FALSE,10,TRUE,17,Go Home,TRUE,TRUE,TRUE,FALSE,FALSE,FALSE,FALSE,FALSE,TRUE,FALSE,FALSE,FALSE,7.498429018,80.35316635,0.7,462.5,1640.4,TRUE,1,1,FALSE,FALSE,FALSE,FALSE,,TRUE,FALSE,FALSE,Course Lock,285.4,198.8,16.4,Calm,35,, 1.9.9,dji aircraft,3YTBJ7B003000F,42UQJ4U23A05JY,396LJ68101003F,1Z3PJ6QEA3082T,257.6,0.2,9.8,3.325435,1.565858,0,38988,dji aircraft,3YTBJ7B003000F,42UQJ4U23A05JY,396LJ68101003F,1Z3PJ6QEA3082T,DJI Fly,, 1.9.9,79F37DF5-76F2-AAFE-490A-26C297CC919A,3YTBJ7B003000F,,,,,7.498447197,80.35321216,4.7452,,,
4/11/2023,56:06.3,0m 5.1s,5.1,7.498426936,80.35316616,3.6,3.6,3.9,407,2.2,,0.223694,,,,,,,-0.1,-0.9,111.2,111.2,P-GPS (Brake),Auto Fly,,23,5,TRUE,,Air 2S,TRUE,FALSE,,Smart,RC,FALSE,TRUE,FALSE,,,TRUE,,FALSE,FALSE,FALSE,FALSE,FALSE,FALSE,FALSE,FALSE,FALSE,FALSE,0,Follow Yaw,0,0,114.9,114.9,FALSE,FALSE,FALSE,FALSE,FALSE,FALSE,,TRUE,Normal,100,100,1024,1024,1051,1024,1,FALSE,FALSE,FALSE,FALSE,FALSE,0,FALSE,FALSE,FALSE,FALSE,87,12.31,2889,3325,12.328,FALSE,4.117,4.101,4.092,0.028,FALSE,FALSE,7.092,100.2,100.2,100.2,0,0,0,0,10,7925.2,2032.12,,Idle,0,15,FALSE,10,TRUE,17,Go Home,TRUE,TRUE,TRUE,FALSE,FALSE,FALSE,FALSE,FALSE,TRUE,FALSE,FALSE,FALSE,7.498429018,80.35316635,0.7,462.5,1640.4,TRUE,1,1,FALSE,FALSE,FALSE,FALSE,,TRUE,FALSE,FALSE,Course Lock,285.4,198.8,16.4,Calm,35,, 1.9.9,dji aircraft,3YTBJ7B003000F,42UQJ4U23A05JY,396LJ68101003F,1Z3PJ6QEA3082T,257.6,0.2,9.8,3.325435,1.565858,0,38988,dji aircraft,3YTBJ7B003000F,42UQJ4U23A05JY,396LJ68101003F,1Z3PJ6QEA3082T,DJI Fly,, 1.9.9,79F37DF5-76F2-AAFE-490A-26C297CC919A,3YTBJ7B003000F,,,,,7.498447197,80.35321216,4.7452,,,
