CUSTOM.date [local],CUSTOM.updateTime [local],OSD.flyTime,OSD.flyTime [s],OSD.latitude,OSD.longitude,OSD.height [ft],OSD.heightMax [ft],OSD.vpsHeight [ft],OSD.altitude [ft],OSD.mileage [ft],OSD.hSpeed [MPH],OSD.hSpeedMax [MPH],OSD.xSpeed [MPH],OSD.xSpeedMax [MPH],OSD.ySpeed [MPH],OSD.ySpeedMax [MPH],OSD.zSpeed [MPH],OSD.zSpeedMax [MPH],OSD.pitch,OSD.roll,OSD.yaw,OSD.yaw [360],OSD.directionOfTravel,OSD.flycState,OSD.flycCommand,OSD.flightAction,OSD.gpsNum,OSD.gpsLevel,OSD.isGPSUsed,OSD.nonGPSCause,OSD.droneType,OSD.isSwaveWork,OSD.waveError,OSD.goHomeStatus,OSD.batteryType,OSD.ctrlDevice,OSD.isOnGround,OSD.isMotorOn,OSD.isMotorBlocked,OSD.motorStartFailedCause,OSD.motorFailReason,OSD.isImuPreheated,OSD.imuInitFailReason,OSD.isAcceletorOverRange,OSD.isBarometerDeadInAir,OSD.isCompassError,OSD.isGoHomeHeightModified,OSD.canIOCWork,OSD.isNotEnoughForce,OSD.isOutOfLimit,OSD.isPropellerCatapult,OSD.isVibrating,OSD.isVisionUsed,OSD.voltageWarning,GIMBAL.mode,GIMBAL.pitch,GIMBAL.roll,GIMBAL.yaw,GIMBAL.yaw [360],GIMBAL.isPitchAtLimit,GIMBAL.isRollAtLimit,GIMBAL.isYawAtLimit,GIMBAL.isStuck,CAMERA.isPhoto,CAMERA.isVideo,CAMERA.filename,CAMERA.sdCardIsInserted,CAMERA.sdCardState,RC.downlinkSignal,RC.uplinkSignal,RC.aileron,RC.elevator,RC.throttle,RC.rudder,RC.mode,RC.goHomeDepressed,RC.recordDepressed,RC.shutterDepressed,RC.playbackDepressed,RC.wheelDepressed,RC.wheelOffset,RC.custom1Depressed,RC.custom2Depressed,RC.custom3Depressed,RC.custom4Depressed,BATTERY.chargeLevel,BATTERY.currentPV [V],BATTERY.currentCapacity [mAh],BATTERY.fullCapacity [mAh],BATTERY.voltage [V],BATTERY.isCellVoltageEstimated,BATTERY.cellVoltage1 [V],BATTERY.cellVoltage2 [V],BATTERY.maxCellVoltageDeviation,BATTERY.isCellVoltageDeviationHigh,BATTERY.isVoltageLow,BATTERY.current [A],BATTERY.temperature [F],BATTERY.minTemperature [F],BATTERY.maxTemperature [F],BATTERY.usefulTime [s],BATTERY.goHomeTime [s],BATTERY.landTime [s],BATTERY.goHomeBattery,BATTERY.landBattery,BATTERY.safeFlyRadius,BATTERY.volumeConsume,BATTERY.status,BATTERY.goHomeStatus,BATTERY.goHomeCountdown,BATTERY.lowWarning,BATTERY.lowWarningGoHome,BATTERY.seriousLowWarning,BATTERY.seriousLowWarningLanding,BATTERY.timesCharged,MC.failSafeAction,MC.isObstacleAvoidanceEnabled,MC.isCollisionAvoidanceEnabled,MC.isRthObstacleAvoidanceEnabled,MC.isBraking,MC.isAvoidingObstacle,MC.isAvoidingActiveObstacle,MC.isAscentLimitedByObstacle,MC.isLandingConfirmationNeeded,MC.atLowAltitudeLimit,MC.atDistanceLimit,MC.atAirportAltitudeLimit,MC.atAirportBoundary,HOME.latitude,HOME.longitude,HOME.distance [ft],HOME.height [ft],HOME.heightLimit [ft],HOME.isHomeRecord,HOME.goHomeMode,HOME.aircraftHeadDirection,HOME.isDynamicHomePointEnabled,HOME.isReachedLimitDistance,HOME.isReachedLimitHeight,HOME.isCompassCalibrating,HOME.compassCalibrationState,HOME.isMultipleFlightModeEnabled,HOME.isBeginnerMode,HOME.isIOCEnabled,HOME.iocMode,HOME.goHomeHeight [ft],HOME.courseLockAngle,HOME.forceLandingHeight [ft],HOME.wind,HOME.dataRecorderFileIndex,RECOVER.appType,RECOVER.appVersion,RECOVER.aircraftName,RECOVER.aircraftSerial,RECOVER.cameraSerial,RECOVER.rcSerial,RECOVER.batterySerial,DETAILS.totalTime [s],DETAILS.totalDistance [ft],DETAILS.maxHeight [ft],DETAILS.maxHorizontalSpeed [MPH],DETAILS.maxVerticalSpeed [MPH],DETAILS.photoNum,DETAILS.videoTime [s],DETAILS.aircraftName,DETAILS.aircraftSerial,DETAILS.cameraSerial,DETAILS.rcSerial,DETAILS.batterySerial,DETAILS.appName,DETAILS.appType,DETAILS.appVersion,DETAILS.guid,SERIAL.flightController,SERIAL.camera,SERIAL.gimbal,SERIAL.rc,SERIAL.battery,APPGPS.latitude,APPGPS.longitude,APPGPS.accuracy,APP.tip,APP.warning
1/26/2024,43:28.3,14m 8.5s,848.5,6.972901251,79.91590785,0,0,0.3,57,0,0,0,0,0,0,0,0,0,3.8,1,25.5,25.5,,Starting Motors,Auto Fly,Takeoff (RC Assisted),14,5,TRUE,,Mavic Mini,FALSE,FALSE,,Smart,RC,TRUE,TRUE,FALSE,,,TRUE,,FALSE,FALSE,FALSE,FALSE,FALSE,FALSE,FALSE,FALSE,FALSE,FALSE,0,Follow Yaw,0,0,23.1,23.1,FALSE,FALSE,FALSE,FALSE,FALSE,FALSE,,FALSE,Normal,,,1024,1024,1024,1024,,FALSE,FALSE,FALSE,FALSE,FALSE,0,FALSE,FALSE,FALSE,FALSE,41,7.332,898,2230,7.332,TRUE,3.666,3.666,,FALSE,FALSE,NA,115,114.9,114.9,,,,,,,,,Idle,,,TRUE,,FALSE,7,Hover,FALSE,FALSE,FALSE,FALSE,FALSE,FALSE,FALSE,FALSE,FALSE,FALSE,FALSE,FALSE,,,,,,FALSE,,,FALSE,FALSE,FALSE,FALSE,,FALSE,FALSE,FALSE,,,,,Calm,,,,,,,,,94.1,0.1,0,2.730632,1.11847,0,0,Mavic Mini,1SDCH7G0169R0K,1SFLH6Q0AB03DJ,1SRCH7F014TAHX,1U5X071EXP5ZJG,DJI Fly,,1.12.6,4448D792-2100-44E2-3BD1-BCB0F5D4E0B0,1SDCH7G0169R0K,,,,,,,,Flight mode changed to Starting Motors.,
1/26/2024,43:28.4,14m 8.6s,848.6,6.972901249,79.91590785,0,0,0.3,57,0,0,0,0,0,0,0,0,0,3.8,1,25.5,25.5,,Starting Motors,Auto Fly,Takeoff (RC Assisted),14,5,TRUE,,Mavic Mini,FALSE,FALSE,,Smart,RC,TRUE,TRUE,FALSE,,,TRUE,,FALSE,FALSE,FALSE,FALSE,FALSE,FALSE,FALSE,FALSE,FALSE,FALSE,0,Follow Yaw,0,0,23.1,23.1,FALSE,FALSE,FALSE,FALSE,FALSE,FALSE,,TRUE,Normal,,,364,364,364,1684,1,FALSE,FALSE,FALSE,FALSE,FALSE,0,FALSE,FALSE,FALSE,FALSE,41,7.332,898,2230,7.332,TRUE,3.666,3.666,,FALSE,FALSE,NA,115,114.9,114.9,,,,,,,,,Idle,,,TRUE,,FALSE,7,Go Home,FALSE,FALSE,FALSE,FALSE,FALSE,FALSE,FALSE,FALSE,FALSE,FALSE,FALSE,FALSE,,,,,,FALSE,,,FALSE,FALSE,FALSE,FALSE,,FALSE,FALSE,FALSE,,,,,Calm,,,1.12.6,Mavic Mini,1SDCH7G0169R0K,1SFLH6Q0AB03DJ,1SRCH7F014TAHX,1U5X071EXP5ZJG,94.1,0.1,0,2.730632,1.11847,0,0,Mavic Mini,1SDCH7G0169R0K,1SFLH6Q0AB03DJ,1SRCH7F014TAHX,1U5X071EXP5ZJG,DJI Fly,,1.12.6,4448D792-2100-44E2-3BD1-BCB0F5D4E0B0,1SDCH7G0169R0K,,,,,,,,,
1/26/2024,29:19.9,14m 8.7s,848.7,6.972901381,79.91590787,0,0,0.3,57,0,0,0,0,0,0,0,0,0,3.8,1,25.5,25.5,,Starting Motors,Auto Fly,Takeoff (RC Assisted),14,5,TRUE,,Mavic Mini,TRUE,FALSE,,Smart,RC,TRUE,TRUE,FALSE,,,TRUE,,FALSE,FALSE,FALSE,FALSE,FALSE,FALSE,FALSE,FALSE,FALSE,FALSE,0,Follow Yaw,0,0,23.1,23.1,FALSE,FALSE,FALSE,FALSE,FALSE,FALSE,,TRUE,Normal,,,364,364,364,1684,1,FALSE,FALSE,FALSE,FALSE,FALSE,0,FALSE,FALSE,FALSE,FALSE,41,7.332,898,2230,7.332,TRUE,3.666,3.666,,FALSE,FALSE,NA,115,114.9,114.9,,,,,,,,,Idle,,,TRUE,,FALSE,7,Go Home,FALSE,FALSE,FALSE,FALSE,FALSE,FALSE,FALSE,FALSE,FALSE,FALSE,FALSE,FALSE,,,,,,FALSE,,,FALSE,FALSE,FALSE,FALSE,,FALSE,FALSE,FALSE,,,,,Calm,,,1.12.6,Mavic Mini,1SDCH7G0169R0K,1SFLH6Q0AB03DJ,1SRCH7F014TAHX,1U5X071EXP5ZJG,94.1,0.1,0,2.730632,1.11847,0,0,Mavic Mini,1SDCH7G0169R0K,1SFLH6Q0AB03DJ,1SRCH7F014TAHX,1U5X071EXP5ZJG,DJI Fly,,1.12.6,4448D792-2100-44E2-3BD1-BCB0F5D4E0B0,1SDCH7G0169R0K,,,,,,,,,
1/26/2024,29:20.0,14m 8.8s,848.8,6.972901431,79.91590787,0,0,0.3,57,0,0,0,0,0,0,0,0,0,4,1,25.5,25.5,,Starting Motors,Auto Fly,Takeoff (RC Assisted),14,5,TRUE,,Mavic Mini,TRUE,FALSE,,Smart,RC,TRUE,TRUE,FALSE,,,TRUE,,FALSE,FALSE,FALSE,FALSE,FALSE,FALSE,FALSE,FALSE,FALSE,FALSE,0,Follow Yaw,0,0,23.1,23.1,FALSE,FALSE,FALSE,FALSE,FALSE,FALSE,,TRUE,Normal,,100,364,364,364,1684,1,FALSE,FALSE,FALSE,FALSE,FALSE,0,FALSE,FALSE,FALSE,FALSE,41,7.332,898,2230,7.332,TRUE,3.666,3.666,,FALSE,FALSE,NA,115,114.9,114.9,,,,,,,,,Idle,,,TRUE,,FALSE,7,Go Home,FALSE,FALSE,FALSE,FALSE,FALSE,FALSE,FALSE,FALSE,FALSE,FALSE,FALSE,FALSE,,,,,,FALSE,,,FALSE,FALSE,FALSE,FALSE,,FALSE,FALSE,FALSE,,,,,Calm,,,1.12.6,Mavic Mini,1SDCH7G0169R0K,1SFLH6Q0AB03DJ,1SRCH7F014TAHX,1U5X071EXP5ZJG,94.1,0.1,0,2.730632,1.11847,0,0,Mavic Mini,1SDCH7G0169R0K,1SFLH6Q0AB03DJ,1SRCH7F014TAHX,1U5X071EXP5ZJG,DJI Fly,,1.12.6,4448D792-2100-44E2-3BD1-BCB0F5D4E0B0,1SDCH7G0169R0K,,,,,,,,,
1/26/2024,29:20.1,14m 8.9s,848.9,6.972901445,79.91590786,0,0,0.3,57,0,0,0,0,0,0,0,0,0,4,1,25.5,25.5,,Starting Motors,Auto Fly,Takeoff (RC Assisted),14,5,TRUE,,Mavic Mini,TRUE,FALSE,,Smart,RC,TRUE,TRUE,FALSE,,,TRUE,,FALSE,FALSE,FALSE,FALSE,FALSE,FALSE,FALSE,FALSE,FALSE,FALSE,0,Follow Yaw,0,0,23.1,23.1,FALSE,FALSE,FALSE,FALSE,FALSE,FALSE,,TRUE,Normal,,100,364,364,364,1684,1,FALSE,FALSE,FALSE,FALSE,FALSE,0,FALSE,FALSE,FALSE,FALSE,41,7.326,898,2230,7.326,FALSE,3.665,3.661,0.004,FALSE,FALSE,NA,115,114.9,114.9,,,,,,,,,Idle,,,TRUE,,FALSE,7,Go Home,FALSE,FALSE,FALSE,FALSE,FALSE,FALSE,FALSE,FALSE,FALSE,FALSE,FALSE,FALSE,,,,,,FALSE,,,FALSE,FALSE,FALSE,FALSE,,FALSE,FALSE,FALSE,,,,,Calm,,,1.12.6,Mavic Mini,1SDCH7G0169R0K,1SFLH6Q0AB03DJ,1SRCH7F014TAHX,1U5X071EXP5ZJG,94.1,0.1,0,2.730632,1.11847,0,0,Mavic Mini,1SDCH7G0169R0K,1SFLH6Q0AB03DJ,1SRCH7F014TAHX,1U5X071EXP5ZJG,DJI Fly,,1.12.6,4448D792-2100-44E2-3BD1-BCB0F5D4E0B0,1SDCH7G0169R0K,,,,,,,,,
1/26/2024,29:20.3,14m 9.0s,849,6.972901354,79.91590786,0,0,0.3,57,0.1,0,0,0,0,0,0,0,0,3.9,1,25.3,25.3,,Starting Motors,Auto Fly,Takeoff (RC Assisted),14,5,TRUE,,Mavic Mini,TRUE,FALSE,,Smart,RC,TRUE,TRUE,FALSE,,,TRUE,,FALSE,FALSE,FALSE,FALSE,FALSE,FALSE,FALSE,FALSE,FALSE,FALSE,0,Follow Yaw,0,0,23.1,23.1,FALSE,FALSE,FALSE,FALSE,FALSE,FALSE,,TRUE,Normal,,100,364,364,364,1684,1,FALSE,FALSE,FALSE,FALSE,FALSE,0,FALSE,FALSE,FALSE,FALSE,41,7.326,898,2230,7.326,FALSE,3.665,3.661,0.004,FALSE,FALSE,NA,115,114.9,114.9,,,,,,,,,Idle,,,TRUE,,FALSE,7,Go Home,FALSE,FALSE,FALSE,FALSE,FALSE,FALSE,FALSE,FALSE,FALSE,FALSE,FALSE,FALSE,,,,,,FALSE,,,FALSE,FALSE,FALSE,FALSE,,FALSE,FALSE,FALSE,,,,,Calm,,,1.12.6,Mavic Mini,1SDCH7G0169R0K,1SFLH6Q0AB03DJ,1SRCH7F014TAHX,1U5X071EXP5ZJG,94.1,0.1,0,2.730632,1.11847,0,0,Mavic Mini,1SDCH7G0169R0K,1SFLH6Q0AB03DJ,1SRCH7F014TAHX,1U5X071EXP5ZJG,DJI Fly,,1.12.6,4448D792-2100-44E2-3BD1-BCB0F5D4E0B0,1SDCH7G0169R0K,,,,,,,,,
1/26/2024,29:20.4,14m 9.1s,849.1,6.97290129,79.91590785,0,0,0.3,57,0.1,0,0,0,0,0,0,0,0,4,1.3,24.9,24.9,,Starting Motors,Auto Fly,Takeoff (RC Assisted),14,5,TRUE,,Mavic Mini,TRUE,FALSE,,Smart,RC,TRUE,TRUE,FALSE,,,TRUE,,FALSE,FALSE,FALSE,FALSE,FALSE,FALSE,FALSE,FALSE,FALSE,FALSE,0,Follow Yaw,0,0,22.9,22.9,FALSE,FALSE,FALSE,FALSE,FALSE,FALSE,,TRUE,Normal,,100,364,364,364,1684,1,FALSE,FALSE,FALSE,FALSE,FALSE,0,FALSE,FALSE,FALSE,FALSE,41,7.326,898,2230,7.321,FALSE,3.665,3.661,0.004,FALSE,FALSE,NA,115,114.9,114.9,0,17,0,0,5,2759.9,689.99,,Idle,0,20,FALSE,5,TRUE,7,Go Home,FALSE,FALSE,FALSE,FALSE,FALSE,FALSE,FALSE,FALSE,FALSE,FALSE,FALSE,FALSE,6.972972558,79.91593469,27.7,,459.3,TRUE,1,1,FALSE,FALSE,FALSE,FALSE,,TRUE,FALSE,FALSE,Course Lock,131.2,52,16.4,Calm,85,,1.12.6,Mavic Mini,1SDCH7G0169R0K,1SFLH6Q0AB03DJ,1SRCH7F014TAHX,1U5X071EXP5ZJG,94.1,0.1,0,2.730632,1.11847,0,0,Mavic Mini,1SDCH7G0169R0K,1SFLH6Q0AB03DJ,1SRCH7F014TAHX,1U5X071EXP5ZJG,DJI Fly,,1.12.6,4448D792-2100-44E2-3BD1-BCB0F5D4E0B0,1SDCH7G0169R0K,,,,,,,,Data Recorder File Index is 85.; Set Return to Home (RTH) altitude to 40 m (131 ft).; Set maximum flight altitude to 140 m (459 ft).,
1/26/2024,29:20.5,14m 9.2s,849.2,6.972901207,79.91590788,0,0,0.3,57,0.1,0,0,0,0,0,0,0,0,4,1.2,24.9,24.9,,Starting Motors,Auto Fly,Takeoff (RC Assisted),14,5,TRUE,,Mavic Mini,TRUE,FALSE,,Smart,RC,TRUE,TRUE,FALSE,,,TRUE,,FALSE,FALSE,FALSE,FALSE,FALSE,FALSE,FALSE,FALSE,FALSE,FALSE,0,Follow Yaw,0,0,22.6,22.6,FALSE,FALSE,FALSE,FALSE,FALSE,FALSE,,TRUE,Normal,,100,364,364,364,1684,1,FALSE,FALSE,FALSE,FALSE,FALSE,0,FALSE,FALSE,FALSE,FALSE,41,7.326,898,2230,7.321,FALSE,3.665,3.661,0.004,FALSE,FALSE,NA,115,114.9,114.9,0,17,0,0,5,2759.9,689.99,,Idle,0,20,FALSE,5,TRUE,7,Go Home,FALSE,FALSE,FALSE,FALSE,FALSE,FALSE,FALSE,FALSE,FALSE,FALSE,FALSE,FALSE,6.972972558,79.91593469,27.7,,459.3,TRUE,1,1,FALSE,FALSE,FALSE,FALSE,,TRUE,FALSE,FALSE,Course Lock,131.2,52,16.4,Calm,85,,1.12.6,Mavic Mini,1SDCH7G0169R0K,1SFLH6Q0AB03DJ,1SRCH7F014TAHX,1U5X071EXP5ZJG,94.1,0.1,0,2.730632,1.11847,0,0,Mavic Mini,1SDCH7G0169R0K,1SFLH6Q0AB03DJ,1SRCH7F014TAHX,1U5X071EXP5ZJG,DJI Fly,,1.12.6,4448D792-2100-44E2-3BD1-BCB0F5D4E0B0,1SDCH7G0169R0K,,,,,,,,,
1/26/2024,29:20.6,14m 9.3s,849.3,6.972901235,79.91590787,0,0,0.3,57,0.1,0,0,0,0,0,0,0,0,4,1.2,24.9,24.9,,Starting Motors,Auto Fly,Takeoff (RC Assisted),14,5,TRUE,,Mavic Mini,TRUE,FALSE,,Smart,RC,TRUE,TRUE,FALSE,,,TRUE,,FALSE,FALSE,FALSE,FALSE,FALSE,FALSE,FALSE,FALSE,FALSE,FALSE,0,Follow Yaw,0,0,22.6,22.6,FALSE,FALSE,FALSE,FALSE,FALSE,FALSE,,TRUE,Normal,,100,364,364,364,1684,1,FALSE,FALSE,FALSE,FALSE,FALSE,0,FALSE,FALSE,FALSE,FALSE,41,7.326,898,2230,7.321,FALSE,3.665,3.661,0.004,FALSE,FALSE,NA,115,114.9,114.9,0,17,0,0,5,2759.9,689.99,,Idle,0,20,FALSE,5,TRUE,7,Go Home,FALSE,FALSE,FALSE,FALSE,FALSE,FALSE,FALSE,FALSE,FALSE,FALSE,FALSE,FALSE,6.972972558,79.91593469,27.7,,459.3,TRUE,1,1,FALSE,FALSE,FALSE,FALSE,,TRUE,FALSE,FALSE,Course Lock,131.2,52,16.4,Calm,85,,1.12.6,Mavic Mini,1SDCH7G0169R0K,1SFLH6Q0AB03DJ,1SRCH7F014TAHX,1U5X071EXP5ZJG,94.1,0.1,0,2.730632,1.11847,0,0,Mavic Mini,1SDCH7G0169R0K,1SFLH6Q0AB03DJ,1SRCH7F014TAHX,1U5X071EXP5ZJG,DJI Fly,,1.12.6,4448D792-2100-44E2-3BD1-BCB0F5D4E0B0,1SDCH7G0169R0K,,,,,,,,,
1/26/2024,29:20.6,14m 9.4s,849.4,6.972901298,79.91590787,0,0,0.3,57,0.1,0,0,0,0,0,0,0,0,4,1.2,24.9,24.9,,Starting Motors,Auto Fly,Takeoff (RC Assisted),14,5,TRUE,,Mavic Mini,TRUE,FALSE,,Smart,RC,TRUE,TRUE,FALSE,,,TRUE,,FALSE,FALSE,FALSE,FALSE,FALSE,FALSE,FALSE,FALSE,FALSE,FALSE,0,Follow Yaw,0,0,22.5,22.5,FALSE,FALSE,FALSE,FALSE,FALSE,FALSE,,TRUE,Normal,,100,364,364,364,1684,1,FALSE,FALSE,FALSE,FALSE,FALSE,0,FALSE,FALSE,FALSE,FALSE,41,7.326,898,2230,7.321,FALSE,3.665,3.661,0.004,FALSE,FALSE,NA,115,114.9,114.9,0,17,0,0,5,2759.9,689.99,,Idle,0,20,FALSE,5,TRUE,7,Go Home,FALSE,FALSE,FALSE,FALSE,FALSE,FALSE,FALSE,FALSE,FALSE,FALSE,FALSE,FALSE,6.972972558,79.91593469,27.7,,459.3,TRUE,1,1,FALSE,FALSE,FALSE,FALSE,,TRUE,FALSE,FALSE,Course Lock,131.2,52,16.4,Calm,85,,1.12.6,Mavic Mini,1SDCH7G0169R0K,1SFLH6Q0AB03DJ,1SRCH7F014TAHX,1U5X071EXP5ZJG,94.1,0.1,0,2.730632,1.11847,0,0,Mavic Mini,1SDCH7G0169R0K,1SFLH6Q0AB03DJ,1SRCH7F014TAHX,1U5X071EXP5ZJG,DJI Fly,,1.12.6,4448D792-2100-44E2-3BD1-BCB0F5D4E0B0,1SDCH7G0169R0K,,,,,,,,,
1/26/2024,29:20.8,14m 9.5s,849.5,6.972901349,79.91590787,0,0,0.3,57,0.2,0,0,0,0,0,0,0,0,4,1.2,24.9,24.9,,Starting Motors,Auto Fly,Takeoff (RC Assisted),14,5,TRUE,,Mavic Mini,TRUE,FALSE,,Smart,RC,TRUE,TRUE,FALSE,,,TRUE,,FALSE,FALSE,FALSE,FALSE,FALSE,FALSE,FALSE,FALSE,FALSE,FALSE,0,Follow Yaw,0,0,22.5,22.5,FALSE,FALSE,FALSE,FALSE,FALSE,FALSE,,TRUE,Normal,,100,364,364,364,1684,1,FALSE,FALSE,FALSE,FALSE,FALSE,0,FALSE,FALSE,FALSE,FALSE,41,7.326,898,2230,7.321,FALSE,3.665,3.661,0.004,FALSE,FALSE,NA,115,114.9,114.9,0,17,0,0,5,2759.9,689.99,,Idle,0,20,FALSE,5,TRUE,7,Go Home,FALSE,FALSE,FALSE,FALSE,FALSE,FALSE,FALSE,FALSE,FALSE,FALSE,FALSE,FALSE,6.972972558,79.91593469,27.7,,459.3,TRUE,1,1,FALSE,FALSE,FALSE,FALSE,,TRUE,FALSE,FALSE,Course Lock,131.2,52,16.4,Calm,85,,1.12.6,Mavic Mini,1SDCH7G0169R0K,1SFLH6Q0AB03DJ,1SRCH7F014TAHX,1U5X071EXP5ZJG,94.1,0.1,0,2.730632,1.11847,0,0,Mavic Mini,1SDCH7G0169R0K,1SFLH6Q0AB03DJ,1SRCH7F014TAHX,1U5X071EXP5ZJG,DJI Fly,,1.12.6,4448D792-2100-44E2-3BD1-BCB0F5D4E0B0,1SDCH7G0169R0K,,,,,,,,,
1/26/2024,29:20.8,14m 9.6s,849.6,6.972901481,79.91590787,0,0,0.3,57,0.2,0,0,0,0,0,0,0,0,4.1,1.2,24.9,24.9,,Manual Takeoff,Auto Fly,Takeoff (RC Assisted),14,5,TRUE,,Mavic Mini,TRUE,FALSE,,Smart,RC,TRUE,TRUE,FALSE,,,TRUE,,FALSE,FALSE,FALSE,FALSE,FALSE,FALSE,FALSE,FALSE,FALSE,FALSE,0,Follow Yaw,0,0,22.5,22.5,FALSE,FALSE,FALSE,FALSE,FALSE,FALSE,,TRUE,Normal,,100,364,364,364,1684,1,FALSE,FALSE,FALSE,FALSE,FALSE,0,FALSE,FALSE,FALSE,FALSE,41,7.326,898,2230,7.321,FALSE,3.665,3.661,0.004,FALSE,FALSE,NA,115,114.9,114.9,0,17,0,0,5,2759.9,689.99,,Idle,0,20,FALSE,5,TRUE,7,Go Home,FALSE,FALSE,FALSE,FALSE,FALSE,FALSE,FALSE,FALSE,FALSE,FALSE,FALSE,FALSE,6.972972558,79.91593469,27.6,,459.3,TRUE,1,1,FALSE,FALSE,FALSE,FALSE,,TRUE,FALSE,FALSE,Course Lock,131.2,52,16.4,Calm,85,,1.12.6,Mavic Mini,1SDCH7G0169R0K,1SFLH6Q0AB03DJ,1SRCH7F014TAHX,1U5X071EXP5ZJG,94.1,0.1,0,2.730632,1.11847,0,0,Mavic Mini,1SDCH7G0169R0K,1SFLH6Q0AB03DJ,1SRCH7F014TAHX,1U5X071EXP5ZJG,DJI Fly,,1.12.6,4448D792-2100-44E2-3BD1-BCB0F5D4E0B0,1SDCH7G0169R0K,,,,,,,,Flight mode changed to Manual Takeoff.,
1/26/2024,29:20.9,14m 9.7s,849.7,6.972901491,79.91590784,0,0,0.3,57,0.2,0,0,0,0,0,0,0,0,4.1,1.2,24.9,24.9,,Manual Takeoff,Auto Fly,Takeoff (RC Assisted),14,5,TRUE,,Mavic Mini,TRUE,FALSE,,Smart,RC,TRUE,TRUE,FALSE,,,TRUE,,FALSE,FALSE,FALSE,FALSE,FALSE,FALSE,FALSE,FALSE,FALSE,FALSE,0,Follow Yaw,0,0,22.5,22.5,FALSE,FALSE,FALSE,FALSE,FALSE,FALSE,,TRUE,Normal,,100,364,364,364,1684,1,FALSE,FALSE,FALSE,FALSE,FALSE,0,FALSE,FALSE,FALSE,FALSE,41,7.326,898,2230,7.321,FALSE,3.665,3.661,0.004,FALSE,FALSE,NA,115,114.9,114.9,0,17,0,0,5,2759.9,689.99,,Idle,0,20,FALSE,5,TRUE,7,Go Home,FALSE,FALSE,FALSE,FALSE,FALSE,FALSE,FALSE,FALSE,FALSE,FALSE,FALSE,FALSE,6.972972558,79.91593469,27.6,,459.3,TRUE,1,1,FALSE,FALSE,FALSE,FALSE,,TRUE,FALSE,FALSE,Course Lock,131.2,52,16.4,Calm,85,,1.12.6,Mavic Mini,1SDCH7G0169R0K,1SFLH6Q0AB03DJ,1SRCH7F014TAHX,1U5X071EXP5ZJG,94.1,0.1,0,2.730632,1.11847,0,0,Mavic Mini,1SDCH7G0169R0K,1SFLH6Q0AB03DJ,1SRCH7F014TAHX,1U5X071EXP5ZJG,DJI Fly,,1.12.6,4448D792-2100-44E2-3BD1-BCB0F5D4E0B0,1SDCH7G0169R0K,,,,,,,,,
1/26/2024,29:21.0,14m 9.8s,849.8,6.972901488,79.91590778,0,0,0.3,57,0.2,0,0,0,0,0,0,0,0,4,1.2,24.9,24.9,,Manual Takeoff,Auto Fly,Takeoff (RC Assisted),14,5,TRUE,,Mavic Mini,TRUE,FALSE,,Smart,RC,TRUE,TRUE,FALSE,,,TRUE,,FALSE,FALSE,FALSE,FALSE,FALSE,FALSE,FALSE,FALSE,FALSE,FALSE,0,Follow Yaw,0,0,22.5,22.5,FALSE,FALSE,FALSE,FALSE,FALSE,FALSE,,TRUE,Normal,,100,364,364,364,1684,1,FALSE,FALSE,FALSE,FALSE,FALSE,0,FALSE,FALSE,FALSE,FALSE,41,7.326,898,2230,7.321,FALSE,3.665,3.661,0.004,FALSE,FALSE,NA,115,114.9,114.9,0,17,0,0,5,2759.9,689.99,,Idle,0,20,FALSE,5,TRUE,7,Go Home,FALSE,FALSE,FALSE,FALSE,FALSE,FALSE,FALSE,FALSE,FALSE,FALSE,FALSE,FALSE,6.972972558,79.91593469,27.6,,459.3,TRUE,1,1,FALSE,FALSE,FALSE,FALSE,,TRUE,FALSE,FALSE,Course Lock,131.2,52,16.4,Calm,85,,1.12.6,Mavic Mini,1SDCH7G0169R0K,1SFLH6Q0AB03DJ,1SRCH7F014TAHX,1U5X071EXP5ZJG,94.1,0.1,0,2.730632,1.11847,0,0,Mavic Mini,1SDCH7G0169R0K,1SFLH6Q0AB03DJ,1SRCH7F014TAHX,1U5X071EXP5ZJG,DJI Fly,,1.12.6,4448D792-2100-44E2-3BD1-BCB0F5D4E0B0,1SDCH7G0169R0K,,,,,,,,,
1/26/2024,29:21.1,14m 9.9s,849.9,6.972901483,79.91590773,0,0,0.3,57,0.3,0,0,0,0,0,0,0,0,4,1.2,24.9,24.9,,Manual Takeoff,Auto Fly,Takeoff (RC Assisted),14,5,TRUE,,Mavic Mini,TRUE,FALSE,,Smart,RC,TRUE,TRUE,FALSE,,,TRUE,,FALSE,FALSE,FALSE,FALSE,FALSE,FALSE,FALSE,FALSE,FALSE,FALSE,0,Follow Yaw,0,0,22.5,22.5,FALSE,FALSE,FALSE,FALSE,FALSE,FALSE,,TRUE,Normal,,100,586,489,365,1655,1,FALSE,FALSE,FALSE,FALSE,FALSE,0,FALSE,FALSE,FALSE,FALSE,41,7.326,898,2230,7.321,FALSE,3.665,3.661,0.004,FALSE,FALSE,NA,115,114.9,114.9,0,17,0,0,5,2759.9,689.99,,Idle,0,20,FALSE,5,TRUE,7,Go Home,FALSE,FALSE,FALSE,FALSE,FALSE,FALSE,FALSE,FALSE,FALSE,FALSE,FALSE,FALSE,6.972972558,79.91593469,27.7,,459.3,TRUE,1,1,FALSE,FALSE,FALSE,FALSE,,TRUE,FALSE,FALSE,Course Lock,131.2,52,16.4,Calm,85,,1.12.6,Mavic Mini,1SDCH7G0169R0K,1SFLH6Q0AB03DJ,1SRCH7F014TAHX,1U5X071EXP5ZJG,94.1,0.1,0,2.730632,1.11847,0,0,Mavic Mini,1SDCH7G0169R0K,1SFLH6Q0AB03DJ,1SRCH7F014TAHX,1U5X071EXP5ZJG,DJI Fly,,1.12.6,4448D792-2100-44E2-3BD1-BCB0F5D4E0B0,1SDCH7G0169R0K,,,,,,,,,
1/26/2024,29:21.2,14m 10.0s,850,6.972901439,79.91590766,0,0,0.3,57,0.3,0,0,0,0,0,0,0,0,4,1.2,24.9,24.9,,Manual Takeoff,Auto Fly,Takeoff (RC Assisted),14,5,TRUE,,Mavic Mini,TRUE,FALSE,,Smart,RC,TRUE,TRUE,FALSE,,,TRUE,,FALSE,FALSE,FALSE,FALSE,FALSE,FALSE,FALSE,FALSE,FALSE,FALSE,0,Follow Yaw,0,0,22.5,22.5,FALSE,FALSE,FALSE,FALSE,FALSE,FALSE,,TRUE,Normal,,100,586,489,365,1655,1,FALSE,FALSE,FALSE,FALSE,FALSE,0,FALSE,FALSE,FALSE,FALSE,41,7.326,898,2230,7.321,FALSE,3.665,3.661,0.004,FALSE,FALSE,NA,115,114.9,114.9,0,17,0,0,5,2759.9,689.99,,Idle,0,20,FALSE,5,TRUE,7,Go Home,FALSE,FALSE,FALSE,FALSE,FALSE,FALSE,FALSE,FALSE,FALSE,FALSE,FALSE,FALSE,6.972972558,79.91593469,27.7,,459.3,TRUE,1,1,FALSE,FALSE,FALSE,FALSE,,TRUE,FALSE,FALSE,Course Lock,131.2,52,16.4,Calm,85,,1.12.6,Mavic Mini,1SDCH7G0169R0K,1SFLH6Q0AB03DJ,1SRCH7F014TAHX,1U5X071EXP5ZJG,94.1,0.1,0,2.730632,1.11847,0,0,Mavic Mini,1SDCH7G0169R0K,1SFLH6Q0AB03DJ,1SRCH7F014TAHX,1U5X071EXP5ZJG,DJI Fly,,1.12.6,4448D792-2100-44E2-3BD1-BCB0F5D4E0B0,1SDCH7G0169R0K,,,,,,,,,
1/26/2024,29:21.3,14m 10.1s,850.1,6.972901429,79.91590765,0,0,0.3,57,0.3,0,0,0,0,0,0,0,0,4,1.2,24.9,24.9,,Manual Takeoff,Auto Fly,Takeoff (RC Assisted),14,5,TRUE,,Mavic Mini,TRUE,FALSE,,Smart,RC,TRUE,TRUE,FALSE,,,TRUE,,FALSE,FALSE,FALSE,FALSE,FALSE,FALSE,FALSE,FALSE,FALSE,FALSE,0,Follow Yaw,0,0,22.5,22.5,FALSE,FALSE,FALSE,FALSE,FALSE,FALSE,,TRUE,Normal,,100,933,820,1024,1024,1,FALSE,FALSE,FALSE,FALSE,FALSE,0,FALSE,FALSE,FALSE,FALSE,41,7.309,897,2230,7.334,FALSE,3.656,3.653,0.004,FALSE,FALSE,NA,115,114.9,114.9,0,17,0,0,5,2835.8,708.95,,Idle,0,20,FALSE,5,TRUE,7,Go Home,FALSE,FALSE,FALSE,FALSE,FALSE,FALSE,FALSE,FALSE,FALSE,FALSE,FALSE,FALSE,6.972972558,79.91593469,27.7,,459.3,TRUE,1,1,FALSE,FALSE,FALSE,FALSE,,TRUE,FALSE,FALSE,Course Lock,131.2,52,16.4,Calm,85,,1.12.6,Mavic Mini,1SDCH7G0169R0K,1SFLH6Q0AB03DJ,1SRCH7F014TAHX,1U5X071EXP5ZJG,94.1,0.1,0,2.730632,1.11847,0,0,Mavic Mini,1SDCH7G0169R0K,1SFLH6Q0AB03DJ,1SRCH7F014TAHX,1U5X071EXP5ZJG,DJI Fly,,1.12.6,4448D792-2100-44E2-3BD1-BCB0F5D4E0B0,1SDCH7G0169R0K,,,,,,,,,
1/26/2024,29:21.4,14m 10.2s,850.2,6.972901418,79.91590764,0,0,0.3,57,0.3,0,0,0,0,0,0,0,0,4,1.2,24.9,24.9,,Manual Takeoff,Auto Fly,Takeoff (RC Assisted),14,5,TRUE,,Mavic Mini,TRUE,FALSE,,Smart,RC,TRUE,TRUE,FALSE,,,TRUE,,FALSE,FALSE,FALSE,FALSE,FALSE,FALSE,FALSE,FALSE,FALSE,FALSE,0,Follow Yaw,0,0,22.5,22.5,FALSE,FALSE,FALSE,FALSE,FALSE,FALSE,,TRUE,Normal,,100,1024,1024,1024,1024,1,FALSE,FALSE,FALSE,FALSE,FALSE,0,FALSE,FALSE,FALSE,FALSE,41,7.309,897,2230,7.334,FALSE,3.656,3.653,0.004,FALSE,FALSE,NA,115,114.9,114.9,0,17,0,0,5,2835.8,708.95,,Idle,0,20,FALSE,5,TRUE,7,Go Home,FALSE,FALSE,FALSE,FALSE,FALSE,FALSE,FALSE,FALSE,FALSE,FALSE,FALSE,FALSE,6.972972558,79.91593469,27.7,,459.3,TRUE,1,1,FALSE,FALSE,FALSE,FALSE,,TRUE,FALSE,FALSE,Course Lock,131.2,52,16.4,Calm,85,,1.12.6,Mavic Mini,1SDCH7G0169R0K,1SFLH6Q0AB03DJ,1SRCH7F014TAHX,1U5X071EXP5ZJG,94.1,0.1,0,2.730632,1.11847,0,0,Mavic Mini,1SDCH7G0169R0K,1SFLH6Q0AB03DJ,1SRCH7F014TAHX,1U5X071EXP5ZJG,DJI Fly,,1.12.6,4448D792-2100-44E2-3BD1-BCB0F5D4E0B0,1SDCH7G0169R0K,,,,,,,,,
1/26/2024,29:21.5,14m 10.3s,850.3,6.972901421,79.91590763,0,0,0.3,57,0.3,0,0,0,0,0,0,0,0,4,1.2,24.9,24.9,,Manual Takeoff,Auto Fly,Takeoff (RC Assisted),14,5,TRUE,,Mavic Mini,TRUE,FALSE,,Smart,RC,TRUE,TRUE,FALSE,,,TRUE,,FALSE,FALSE,FALSE,FALSE,FALSE,FALSE,FALSE,FALSE,FALSE,FALSE,0,Follow Yaw,0,0,22.5,22.5,FALSE,FALSE,FALSE,FALSE,FALSE,FALSE,,TRUE,Normal,,100,1024,1024,1024,1024,1,FALSE,FALSE,FALSE,FALSE,FALSE,0,FALSE,FALSE,FALSE,FALSE,41,7.309,897,2230,7.334,FALSE,3.656,3.653,0.004,FALSE,FALSE,NA,115,114.9,114.9,0,17,0,0,5,2835.8,708.95,,Idle,0,20,FALSE,5,TRUE,7,Go Home,FALSE,FALSE,FALSE,FALSE,FALSE,FALSE,FALSE,FALSE,FALSE,FALSE,FALSE,FALSE,6.972972558,79.91593469,27.7,,459.3,TRUE,1,1,FALSE,FALSE,FALSE,FALSE,,TRUE,FALSE,FALSE,Course Lock,131.2,52,16.4,Calm,85,,1.12.6,Mavic Mini,1SDCH7G0169R0K,1SFLH6Q0AB03DJ,1SRCH7F014TAHX,1U5X071EXP5ZJG,94.1,0.1,0,2.730632,1.11847,0,0,Mavic Mini,1SDCH7G0169R0K,1SFLH6Q0AB03DJ,1SRCH7F014TAHX,1U5X071EXP5ZJG,DJI Fly,,1.12.6,4448D792-2100-44E2-3BD1-BCB0F5D4E0B0,1SDCH7G0169R0K,,,,,,,,,
1/26/2024,29:21.6,14m 10.4s,850.4,6.972901526,79.91590757,0,0,0.3,57,0.3,0,0,0,0,0,0,0,0,4,1.2,24.9,24.9,,Manual Takeoff,Auto Fly,Takeoff (RC Assisted),14,5,TRUE,,Mavic Mini,TRUE,FALSE,,Smart,RC,TRUE,TRUE,FALSE,,,TRUE,,FALSE,FALSE,FALSE,FALSE,FALSE,FALSE,FALSE,FALSE,FALSE,FALSE,0,Follow Yaw,0,0,22.5,22.5,FALSE,FALSE,FALSE,FALSE,FALSE,FALSE,,TRUE,Normal,,100,1024,1024,1024,1024,1,FALSE,FALSE,FALSE,FALSE,FALSE,0,FALSE,FALSE,FALSE,FALSE,41,7.309,897,2230,7.334,FALSE,3.656,3.653,0.004,FALSE,FALSE,NA,115,114.9,114.9,0,17,0,0,5,2835.8,708.95,,Idle,0,20,FALSE,5,TRUE,7,Go Home,FALSE,FALSE,FALSE,FALSE,FALSE,FALSE,FALSE,FALSE,FALSE,FALSE,FALSE,FALSE,6.972972558,79.91593469,27.7,,459.3,TRUE,1,1,FALSE,FALSE,FALSE,FALSE,,TRUE,FALSE,FALSE,Course Lock,131.2,52,16.4,Calm,85,,1.12.6,Mavic Mini,1SDCH7G0169R0K,1SFLH6Q0AB03DJ,1SRCH7F014TAHX,1U5X071EXP5ZJG,94.1,0.1,0,2.730632,1.11847,0,0,Mavic Mini,1SDCH7G0169R0K,1SFLH6Q0AB03DJ,1SRCH7F014TAHX,1U5X071EXP5ZJG,DJI Fly,,1.12.6,4448D792-2100-44E2-3BD1-BCB0F5D4E0B0,1SDCH7G0169R0K,,,,,,,,,
1/26/2024,29:21.8,14m 10.5s,850.5,6.972901559,79.91590753,0,0,0.3,57,0.4,0,0,0,0,0,0,0,0,4,1.2,24.9,24.9,,Manual Takeoff,Auto Fly,Takeoff (RC Assisted),14,5,TRUE,,Mavic Mini,TRUE,FALSE,,Smart,RC,TRUE,TRUE,FALSE,,,TRUE,,FALSE,FALSE,FALSE,FALSE,FALSE,FALSE,FALSE,FALSE,FALSE,FALSE,0,Follow Yaw,0,0,22.5,22.5,FALSE,FALSE,FALSE,FALSE,FALSE,FALSE,,TRUE,Normal,,100,1024,1024,1024,1024,1,FALSE,FALSE,FALSE,FALSE,FALSE,0,FALSE,FALSE,FALSE,FALSE,41,7.309,897,2230,7.334,FALSE,3.656,3.653,0.004,FALSE,FALSE,NA,115,114.9,114.9,0,17,0,0,5,2835.8,708.95,,Idle,0,20,FALSE,5,TRUE,7,Go Home,FALSE,FALSE,FALSE,FALSE,FALSE,FALSE,FALSE,FALSE,FALSE,FALSE,FALSE,FALSE,6.972972558,79.91593469,27.7,,459.3,TRUE,1,1,FALSE,FALSE,FALSE,FALSE,,TRUE,FALSE,FALSE,Course Lock,131.2,52,16.4,Calm,85,,1.12.6,Mavic Mini,1SDCH7G0169R0K,1SFLH6Q0AB03DJ,1SRCH7F014TAHX,1U5X071EXP5ZJG,94.1,0.1,0,2.730632,1.11847,0,0,Mavic Mini,1SDCH7G0169R0K,1SFLH6Q0AB03DJ,1SRCH7F014TAHX,1U5X071EXP5ZJG,DJI Fly,,1.12.6,4448D792-2100-44E2-3BD1-BCB0F5D4E0B0,1SDCH7G0169R0K,,,,,,,,,
1/26/2024,29:21.9,14m 10.6s,850.6,6.972901568,79.91590751,0,0,0.3,57,0.4,0,0,0,0,0,0,0,0,4,1.2,24.9,24.9,,Manual Takeoff,Auto Fly,Takeoff (RC Assisted),14,5,TRUE,,Mavic Mini,TRUE,FALSE,,Smart,RC,TRUE,TRUE,FALSE,,,TRUE,,FALSE,FALSE,FALSE,FALSE,FALSE,FALSE,FALSE,FALSE,FALSE,FALSE,0,Follow Yaw,0,0,22.5,22.5,FALSE,FALSE,FALSE,FALSE,FALSE,FALSE,,TRUE,Normal,,100,1024,1024,1024,1024,1,FALSE,FALSE,FALSE,FALSE,FALSE,0,FALSE,FALSE,FALSE,FALSE,41,7.309,897,2230,7.334,FALSE,3.656,3.653,0.004,FALSE,FALSE,NA,115,114.9,114.9,0,17,0,0,5,2835.8,708.95,,Idle,0,20,FALSE,5,TRUE,7,Go Home,FALSE,FALSE,FALSE,FALSE,FALSE,FALSE,FALSE,FALSE,FALSE,FALSE,FALSE,FALSE,6.972972558,79.91593469,27.7,,459.3,TRUE,1,1,FALSE,FALSE,FALSE,FALSE,,TRUE,FALSE,FALSE,Course Lock,131.2,52,16.4,Calm,85,,1.12.6,Mavic Mini,1SDCH7G0169R0K,1SFLH6Q0AB03DJ,1SRCH7F014TAHX,1U5X071EXP5ZJG,94.1,0.1,0,2.730632,1.11847,0,0,Mavic Mini,1SDCH7G0169R0K,1SFLH6Q0AB03DJ,1SRCH7F014TAHX,1U5X071EXP5ZJG,DJI Fly,,1.12.6,4448D792-2100-44E2-3BD1-BCB0F5D4E0B0,1SDCH7G0169R0K,,,,,6.972912918,79.91592566,5,,
1/26/2024,29:22.0,14m 10.7s,850.7,6.972901571,79.91590749,0,0,0.3,57,0.4,0,0,0,0,0,0,0,0,4,1.2,24.9,24.9,,Manual Takeoff,Auto Fly,Takeoff (RC Assisted),14,5,TRUE,,Mavic Mini,TRUE,FALSE,,Smart,RC,TRUE,TRUE,FALSE,,,TRUE,,FALSE,FALSE,FALSE,FALSE,FALSE,FALSE,FALSE,FALSE,FALSE,FALSE,0,Follow Yaw,0,0,22.5,22.5,FALSE,FALSE,FALSE,FALSE,FALSE,FALSE,,TRUE,Normal,,100,1024,1024,1174,1024,1,FALSE,FALSE,FALSE,FALSE,FALSE,0,FALSE,FALSE,FALSE,FALSE,41,7.309,897,2230,7.334,FALSE,3.656,3.653,0.004,FALSE,FALSE,NA,115,114.9,114.9,0,17,0,0,5,2835.8,708.95,,Idle,0,20,FALSE,5,TRUE,7,Go Home,FALSE,FALSE,FALSE,FALSE,FALSE,FALSE,FALSE,FALSE,FALSE,FALSE,FALSE,FALSE,6.972972558,79.91593469,27.7,,459.3,TRUE,1,1,FALSE,FALSE,FALSE,FALSE,,TRUE,FALSE,FALSE,Course Lock,131.2,52,16.4,Calm,85,,1.12.6,Mavic Mini,1SDCH7G0169R0K,1SFLH6Q0AB03DJ,1SRCH7F014TAHX,1U5X071EXP5ZJG,94.1,0.1,0,2.730632,1.11847,0,0,Mavic Mini,1SDCH7G0169R0K,1SFLH6Q0AB03DJ,1SRCH7F014TAHX,1U5X071EXP5ZJG,DJI Fly,,1.12.6,4448D792-2100-44E2-3BD1-BCB0F5D4E0B0,1SDCH7G0169R0K,,,,,6.972912918,79.91592566,5,,
1/26/2024,29:22.1,14m 10.8s,850.8,6.972901564,79.91590743,0,0,0.3,57,0.4,0,0,0,0,0,0,0,0,4,1.2,24.9,24.9,,Manual Takeoff,Auto Fly,Takeoff (RC Assisted),14,5,TRUE,,Mavic Mini,TRUE,FALSE,,Smart,RC,TRUE,TRUE,FALSE,,,TRUE,,FALSE,FALSE,FALSE,FALSE,FALSE,FALSE,FALSE,FALSE,FALSE,FALSE,0,Follow Yaw,0,0,22.5,22.5,FALSE,FALSE,FALSE,FALSE,FALSE,FALSE,,TRUE,Normal,,100,1024,1024,1373,1024,1,FALSE,FALSE,FALSE,FALSE,FALSE,0,FALSE,FALSE,FALSE,FALSE,41,7.309,897,2230,7.334,FALSE,3.656,3.653,0.004,FALSE,FALSE,NA,115,114.9,114.9,0,17,0,0,5,2835.8,708.95,,Idle,0,20,FALSE,5,TRUE,7,Go Home,FALSE,FALSE,FALSE,FALSE,FALSE,FALSE,FALSE,FALSE,FALSE,FALSE,FALSE,FALSE,6.972972558,79.91593469,27.7,,459.3,TRUE,1,1,FALSE,FALSE,FALSE,FALSE,,TRUE,FALSE,FALSE,Course Lock,131.2,52,16.4,Calm,85,,1.12.6,Mavic Mini,1SDCH7G0169R0K,1SFLH6Q0AB03DJ,1SRCH7F014TAHX,1U5X071EXP5ZJG,94.1,0.1,0,2.730632,1.11847,0,0,Mavic Mini,1SDCH7G0169R0K,1SFLH6Q0AB03DJ,1SRCH7F014TAHX,1U5X071EXP5ZJG,DJI Fly,,1.12.6,4448D792-2100-44E2-3BD1-BCB0F5D4E0B0,1SDCH7G0169R0K,,,,,6.972912918,79.91592566,5,,
1/26/2024,29:22.1,14m 10.9s,850.9,6.972901558,79.91590738,0,0,0.3,57,0.4,0,0,0,0,0,0,0,0,4.1,1.2,24.9,24.9,,Manual Takeoff,Auto Fly,Takeoff (RC Assisted),14,5,TRUE,,Mavic Mini,TRUE,FALSE,,Smart,RC,TRUE,TRUE,FALSE,,,TRUE,,FALSE,FALSE,FALSE,FALSE,FALSE,FALSE,FALSE,FALSE,FALSE,FALSE,0,Follow Yaw,0,0,22.5,22.5,FALSE,FALSE,FALSE,FALSE,FALSE,FALSE,,TRUE,Normal,,100,1024,1024,1373,1024,1,FALSE,FALSE,FALSE,FALSE,FALSE,0,FALSE,FALSE,FALSE,FALSE,41,7.309,897,2230,7.334,FALSE,3.656,3.653,0.004,FALSE,FALSE,NA,115,114.9,114.9,0,17,0,0,5,2835.8,708.95,,Idle,0,20,FALSE,5,TRUE,7,Go Home,FALSE,FALSE,FALSE,FALSE,FALSE,FALSE,FALSE,FALSE,FALSE,FALSE,FALSE,FALSE,6.972972558,79.91593469,27.7,,459.3,TRUE,1,1,FALSE,FALSE,FALSE,FALSE,,TRUE,FALSE,FALSE,Course Lock,131.2,52,16.4,Calm,85,,1.12.6,Mavic Mini,1SDCH7G0169R0K,1SFLH6Q0AB03DJ,1SRCH7F014TAHX,1U5X071EXP5ZJG,94.1,0.1,0,2.730632,1.11847,0,0,Mavic Mini,1SDCH7G0169R0K,1SFLH6Q0AB03DJ,1SRCH7F014TAHX,1U5X071EXP5ZJG,DJI Fly,,1.12.6,4448D792-2100-44E2-3BD1-BCB0F5D4E0B0,1SDCH7G0169R0K,,,,,6.972912918,79.91592566,5,,
1/26/2024,29:22.2,14m 11.0s,851,6.972901599,79.91590731,0,0,0.3,57,0.5,0,0,0,0,0,0,0,0,4,1.1,24.9,24.9,,Manual Takeoff,Auto Fly,Takeoff (RC Assisted),14,5,TRUE,,Mavic Mini,TRUE,FALSE,,Smart,RC,TRUE,TRUE,FALSE,,,TRUE,,FALSE,FALSE,FALSE,FALSE,FALSE,FALSE,FALSE,FALSE,FALSE,FALSE,0,Follow Yaw,0,0,22.5,22.5,FALSE,FALSE,FALSE,FALSE,FALSE,FALSE,,TRUE,Normal,,100,1024,1024,1485,1024,1,FALSE,FALSE,FALSE,FALSE,FALSE,0,FALSE,FALSE,FALSE,FALSE,41,7.309,897,2230,7.334,FALSE,3.656,3.653,0.004,FALSE,FALSE,NA,115,114.9,114.9,0,17,0,0,5,2835.8,708.95,,Idle,0,20,FALSE,5,TRUE,7,Go Home,FALSE,FALSE,FALSE,FALSE,FALSE,FALSE,FALSE,FALSE,FALSE,FALSE,FALSE,FALSE,6.972972558,79.91593469,27.7,,459.3,TRUE,1,1,FALSE,FALSE,FALSE,FALSE,,TRUE,FALSE,FALSE,Course Lock,131.2,52,16.4,Calm,85,,1.12.6,Mavic Mini,1SDCH7G0169R0K,1SFLH6Q0AB03DJ,1SRCH7F014TAHX,1U5X071EXP5ZJG,94.1,0.1,0,2.730632,1.11847,0,0,Mavic Mini,1SDCH7G0169R0K,1SFLH6Q0AB03DJ,1SRCH7F014TAHX,1U5X071EXP5ZJG,DJI Fly,,1.12.6,4448D792-2100-44E2-3BD1-BCB0F5D4E0B0,1SDCH7G0169R0K,,,,,6.972912918,79.91592566,5,,
1/26/2024,29:22.3,14m 11.1s,851.1,6.97290163,79.91590726,0,0,0.3,57,0.5,0,0,0,0,0,0,0,0,4,1.1,24.9,24.9,,Manual Takeoff,Auto Fly,Takeoff (RC Assisted),14,5,TRUE,,Mavic Mini,TRUE,FALSE,,Smart,RC,TRUE,TRUE,FALSE,,,TRUE,,FALSE,FALSE,FALSE,FALSE,FALSE,FALSE,FALSE,FALSE,FALSE,FALSE,0,Follow Yaw,0,0,22.5,22.5,FALSE,FALSE,FALSE,FALSE,FALSE,FALSE,,TRUE,Normal,,100,1024,1024,1485,1024,1,FALSE,FALSE,FALSE,FALSE,FALSE,0,FALSE,FALSE,FALSE,FALSE,41,7.309,897,2230,7.3,FALSE,3.656,3.653,0.004,FALSE,FALSE,NA,115,114.9,114.9,0,17,0,0,5,2835.8,708.95,,Idle,0,20,FALSE,5,TRUE,7,Go Home,FALSE,FALSE,FALSE,FALSE,FALSE,FALSE,FALSE,FALSE,FALSE,FALSE,FALSE,FALSE,6.972972558,79.91593469,27.7,,459.3,TRUE,1,1,FALSE,FALSE,FALSE,FALSE,,TRUE,FALSE,FALSE,Course Lock,131.2,52,16.4,Calm,85,,1.12.6,Mavic Mini,1SDCH7G0169R0K,1SFLH6Q0AB03DJ,1SRCH7F014TAHX,1U5X071EXP5ZJG,94.1,0.1,0,2.730632,1.11847,0,0,Mavic Mini,1SDCH7G0169R0K,1SFLH6Q0AB03DJ,1SRCH7F014TAHX,1U5X071EXP5ZJG,DJI Fly,,1.12.6,4448D792-2100-44E2-3BD1-BCB0F5D4E0B0,1SDCH7G0169R0K,,,,,6.972912918,79.91592566,5,,
1/26/2024,29:22.4,14m 11.2s,851.2,6.972901636,79.91590724,0,0,0.3,57,0.5,0,0,0,0,0,0,0,0,3.9,1,24.8,24.8,,Manual Takeoff,Auto Fly,Takeoff (RC Assisted),14,5,TRUE,,Mavic Mini,TRUE,FALSE,,Smart,RC,TRUE,TRUE,FALSE,,,TRUE,,FALSE,FALSE,FALSE,FALSE,FALSE,FALSE,FALSE,FALSE,FALSE,FALSE,0,Follow Yaw,0,0,22.5,22.5,FALSE,FALSE,FALSE,FALSE,FALSE,FALSE,,TRUE,Normal,,100,1024,1024,1469,1024,1,FALSE,FALSE,FALSE,FALSE,FALSE,0,FALSE,FALSE,FALSE,FALSE,41,7.298,897,2230,7.3,FALSE,3.651,3.648,0.004,FALSE,FALSE,NA,115,114.9,114.9,0,17,0,0,5,2835.8,708.95,,Idle,0,20,FALSE,5,TRUE,7,Go Home,FALSE,FALSE,FALSE,FALSE,FALSE,FALSE,FALSE,FALSE,FALSE,FALSE,FALSE,FALSE,6.972972558,79.91593469,27.7,,459.3,TRUE,1,1,FALSE,FALSE,FALSE,FALSE,,TRUE,FALSE,FALSE,Course Lock,131.2,52,16.4,Calm,85,,1.12.6,Mavic Mini,1SDCH7G0169R0K,1SFLH6Q0AB03DJ,1SRCH7F014TAHX,1U5X071EXP5ZJG,94.1,0.1,0,2.730632,1.11847,0,0,Mavic Mini,1SDCH7G0169R0K,1SFLH6Q0AB03DJ,1SRCH7F014TAHX,1U5X071EXP5ZJG,DJI Fly,,1.12.6,4448D792-2100-44E2-3BD1-BCB0F5D4E0B0,1SDCH7G0169R0K,,,,,6.972912918,79.91592566,5,,
1/26/2024,29:22.5,14m 11.3s,851.3,6.972901711,79.91590726,0,0,0.3,57,0.5,0,0,0,0,0,0,0,0,3.4,0.9,24.4,24.4,,Manual Takeoff,Auto Fly,Takeoff (RC Assisted),14,5,TRUE,,Mavic Mini,TRUE,FALSE,,Smart,RC,TRUE,TRUE,FALSE,,,TRUE,,FALSE,FALSE,FALSE,FALSE,FALSE,FALSE,FALSE,FALSE,FALSE,FALSE,0,Follow Yaw,0,0,22.3,22.3,FALSE,FALSE,FALSE,FALSE,FALSE,FALSE,,TRUE,Normal,,100,1024,1024,1449,1024,1,FALSE,FALSE,FALSE,FALSE,FALSE,0,FALSE,FALSE,FALSE,FALSE,41,7.298,897,2230,7.3,FALSE,3.651,3.648,0.004,FALSE,FALSE,NA,115,114.9,114.9,0,17,0,0,5,2835.8,708.95,,Idle,0,20,FALSE,5,TRUE,7,Go Home,FALSE,FALSE,FALSE,FALSE,FALSE,FALSE,FALSE,FALSE,FALSE,FALSE,FALSE,FALSE,6.972972558,79.91593469,27.6,,459.3,TRUE,1,1,FALSE,FALSE,FALSE,FALSE,,TRUE,FALSE,FALSE,Course Lock,131.2,52,16.4,Calm,85,,1.12.6,Mavic Mini,1SDCH7G0169R0K,1SFLH6Q0AB03DJ,1SRCH7F014TAHX,1U5X071EXP5ZJG,94.1,0.1,0,2.730632,1.11847,0,0,Mavic Mini,1SDCH7G0169R0K,1SFLH6Q0AB03DJ,1SRCH7F014TAHX,1U5X071EXP5ZJG,DJI Fly,,1.12.6,4448D792-2100-44E2-3BD1-BCB0F5D4E0B0,1SDCH7G0169R0K,,,,,6.972912918,79.91592566,5,,
1/26/2024,29:22.6,14m 11.4s,851.4,6.972901763,79.91590727,0,0,0.3,57,0.5,0,0,0,0,0,0,0,0,2.2,0.4,23.6,23.6,,Manual Takeoff,Auto Fly,Takeoff (RC Assisted),14,5,TRUE,,Mavic Mini,TRUE,FALSE,,Smart,RC,TRUE,TRUE,FALSE,,,TRUE,,FALSE,FALSE,FALSE,FALSE,FALSE,FALSE,FALSE,FALSE,FALSE,FALSE,0,Follow Yaw,0,0,21.8,21.8,FALSE,FALSE,FALSE,FALSE,FALSE,FALSE,,TRUE,Normal,,100,1024,1024,1390,1024,1,FALSE,FALSE,FALSE,FALSE,FALSE,0,FALSE,FALSE,FALSE,FALSE,41,7.298,897,2230,7.3,FALSE,3.651,3.648,0.004,FALSE,FALSE,NA,115,114.9,114.9,0,17,0,0,5,2835.8,708.95,,Idle,0,20,FALSE,5,TRUE,7,Go Home,FALSE,FALSE,FALSE,FALSE,FALSE,FALSE,FALSE,FALSE,FALSE,FALSE,FALSE,FALSE,6.972972558,79.91593469,27.6,,459.3,TRUE,1,1,FALSE,FALSE,FALSE,FALSE,,TRUE,FALSE,FALSE,Course Lock,131.2,52,16.4,Calm,85,,1.12.6,Mavic Mini,1SDCH7G0169R0K,1SFLH6Q0AB03DJ,1SRCH7F014TAHX,1U5X071EXP5ZJG,94.1,0.1,0,2.730632,1.11847,0,0,Mavic Mini,1SDCH7G0169R0K,1SFLH6Q0AB03DJ,1SRCH7F014TAHX,1U5X071EXP5ZJG,DJI Fly,,1.12.6,4448D792-2100-44E2-3BD1-BCB0F5D4E0B0,1SDCH7G0169R0K,,,,,6.972912918,79.91592566,5,,
1/26/2024,29:22.7,14m 11.5s,851.5,6.972901785,79.91590728,0,0,0.3,57,0.5,0,0,0,0,0,0,0,0,0.5,0.2,22.7,22.7,,Manual Takeoff,Auto Fly,Takeoff (RC Assisted),14,5,TRUE,,Mavic Mini,TRUE,FALSE,,Smart,RC,TRUE,TRUE,FALSE,,,TRUE,,FALSE,FALSE,FALSE,FALSE,FALSE,FALSE,FALSE,FALSE,FALSE,FALSE,0,Follow Yaw,0,0,20.9,20.9,FALSE,FALSE,FALSE,FALSE,FALSE,FALSE,,TRUE,Normal,,100,1024,1024,1309,1024,1,FALSE,FALSE,FALSE,FALSE,FALSE,0,FALSE,FALSE,FALSE,FALSE,41,7.298,897,2230,7.3,FALSE,3.651,3.648,0.004,FALSE,FALSE,NA,115,114.9,114.9,0,17,0,0,5,2835.8,708.95,,Idle,0,20,FALSE,5,TRUE,7,Go Home,FALSE,FALSE,FALSE,FALSE,FALSE,FALSE,FALSE,FALSE,FALSE,FALSE,FALSE,FALSE,6.972972558,79.91593469,27.6,,459.3,TRUE,1,1,FALSE,FALSE,FALSE,FALSE,,TRUE,FALSE,FALSE,Course Lock,131.2,52,16.4,Calm,85,,1.12.6,Mavic Mini,1SDCH7G0169R0K,1SFLH6Q0AB03DJ,1SRCH7F014TAHX,1U5X071EXP5ZJG,94.1,0.1,0,2.730632,1.11847,0,0,Mavic Mini,1SDCH7G0169R0K,1SFLH6Q0AB03DJ,1SRCH7F014TAHX,1U5X071EXP5ZJG,DJI Fly,,1.12.6,4448D792-2100-44E2-3BD1-BCB0F5D4E0B0,1SDCH7G0169R0K,,,,,6.972912918,79.91592566,5,,
1/26/2024,29:22.9,14m 11.6s,851.6,6.972901727,79.91590727,0,0,0.3,57,0.6,0,0,0,0,0,0,0,0,0.2,0,21.9,21.9,,Manual Takeoff,Auto Fly,Takeoff (RC Assisted),14,5,TRUE,,Mavic Mini,TRUE,FALSE,,Smart,RC,TRUE,TRUE,FALSE,,,TRUE,,FALSE,FALSE,FALSE,FALSE,FALSE,FALSE,FALSE,FALSE,FALSE,FALSE,0,Follow Yaw,0,0,20.2,20.2,FALSE,FALSE,FALSE,FALSE,FALSE,FALSE,,TRUE,Normal,,100,1024,1024,1200,1024,1,FALSE,FALSE,FALSE,FALSE,FALSE,0,FALSE,FALSE,FALSE,FALSE,41,7.298,897,2230,7.3,FALSE,3.651,3.648,0.004,FALSE,FALSE,NA,115,114.9,114.9,0,17,0,0,5,2835.8,708.95,,Idle,0,20,FALSE,5,TRUE,7,Go Home,FALSE,FALSE,FALSE,FALSE,FALSE,FALSE,FALSE,FALSE,FALSE,FALSE,FALSE,FALSE,6.972972558,79.91593469,27.6,,459.3,TRUE,1,1,FALSE,FALSE,FALSE,FALSE,,TRUE,FALSE,FALSE,Course Lock,131.2,52,16.4,Calm,85,,1.12.6,Mavic Mini,1SDCH7G0169R0K,1SFLH6Q0AB03DJ,1SRCH7F014TAHX,1U5X071EXP5ZJG,94.1,0.1,0,2.730632,1.11847,0,0,Mavic Mini,1SDCH7G0169R0K,1SFLH6Q0AB03DJ,1SRCH7F014TAHX,1U5X071EXP5ZJG,DJI Fly,,1.12.6,4448D792-2100-44E2-3BD1-BCB0F5D4E0B0,1SDCH7G0169R0K,,,,,6.972912918,79.91592566,5,,
1/26/2024,29:22.9,14m 11.7s,851.7,6.972901598,79.91590733,0,0,0.3,57,0.6,0,0,0,0,0,0,-0.223694,0,1.2,-0.8,21,21,,P-GPS,Auto Fly,,14,5,TRUE,,Mavic Mini,TRUE,FALSE,,Smart,RC,FALSE,TRUE,FALSE,,,TRUE,,FALSE,FALSE,FALSE,FALSE,FALSE,FALSE,FALSE,FALSE,FALSE,FALSE,0,Follow Yaw,0,0,19.4,19.4,FALSE,FALSE,FALSE,FALSE,FALSE,FALSE,,TRUE,Normal,,100,1024,1024,1024,1024,1,FALSE,FALSE,FALSE,FALSE,FALSE,0,FALSE,FALSE,FALSE,FALSE,41,7.298,897,2230,7.3,FALSE,3.651,3.648,0.004,FALSE,FALSE,NA,115,114.9,114.9,0,17,0,0,5,2835.8,708.95,,Idle,0,20,FALSE,5,TRUE,7,Go Home,FALSE,FALSE,FALSE,FALSE,FALSE,FALSE,FALSE,FALSE,FALSE,FALSE,FALSE,FALSE,6.972972558,79.91593469,27.7,,459.3,TRUE,1,1,FALSE,FALSE,FALSE,FALSE,,TRUE,FALSE,FALSE,Course Lock,131.2,52,16.4,Calm,85,,1.12.6,Mavic Mini,1SDCH7G0169R0K,1SFLH6Q0AB03DJ,1SRCH7F014TAHX,1U5X071EXP5ZJG,94.1,0.1,0,2.730632,1.11847,0,0,Mavic Mini,1SDCH7G0169R0K,1SFLH6Q0AB03DJ,1SRCH7F014TAHX,1U5X071EXP5ZJG,DJI Fly,,1.12.6,4448D792-2100-44E2-3BD1-BCB0F5D4E0B0,1SDCH7G0169R0K,,,,,6.972912918,79.91592566,5,Flight mode changed to P-GPS.,
1/26/2024,29:23.0,14m 11.8s,851.8,6.97290152,79.91590739,0,0,0.3,57,0.6,0,0,0,0,0,0,-0.671082,0,0.1,-0.7,20.8,20.8,,P-GPS,Auto Fly,,14,5,TRUE,,Mavic Mini,TRUE,FALSE,,Smart,RC,FALSE,TRUE,FALSE,,,TRUE,,FALSE,FALSE,FALSE,FALSE,FALSE,FALSE,FALSE,FALSE,FALSE,FALSE,0,Follow Yaw,0,0,19.4,19.4,FALSE,FALSE,FALSE,FALSE,FALSE,FALSE,,TRUE,Normal,,100,1024,1024,1024,1024,1,FALSE,FALSE,FALSE,FALSE,FALSE,0,FALSE,FALSE,FALSE,FALSE,41,7.298,897,2230,7.3,FALSE,3.651,3.648,0.004,FALSE,FALSE,NA,115,114.9,114.9,0,17,0,0,5,2835.8,708.95,,Idle,0,20,FALSE,5,TRUE,7,Go Home,FALSE,FALSE,FALSE,FALSE,FALSE,FALSE,FALSE,FALSE,FALSE,FALSE,FALSE,FALSE,6.972972558,79.91593469,27.7,,459.3,TRUE,1,1,FALSE,FALSE,FALSE,FALSE,,TRUE,FALSE,FALSE,Course Lock,131.2,52,16.4,Calm,85,,1.12.6,Mavic Mini,1SDCH7G0169R0K,1SFLH6Q0AB03DJ,1SRCH7F014TAHX,1U5X071EXP5ZJG,94.1,0.1,0,2.730632,1.11847,0,0,Mavic Mini,1SDCH7G0169R0K,1SFLH6Q0AB03DJ,1SRCH7F014TAHX,1U5X071EXP5ZJG,DJI Fly,,1.12.6,4448D792-2100-44E2-3BD1-BCB0F5D4E0B0,1SDCH7G0169R0K,,,,,6.972912918,79.91592566,5,,
1/26/2024,29:23.1,14m 11.9s,851.9,6.972901447,79.91590745,0,0,0.6,57,0.7,0.223694,0.223694,-0.223694,0,0,0,-0.894776,0,0.4,-1.2,20.9,20.9,149.7,P-GPS,Auto Fly,,14,5,TRUE,,Mavic Mini,TRUE,FALSE,,Smart,RC,FALSE,TRUE,FALSE,,,TRUE,,FALSE,FALSE,FALSE,FALSE,FALSE,FALSE,FALSE,FALSE,FALSE,FALSE,0,Follow Yaw,0,0,19.4,19.4,FALSE,FALSE,FALSE,FALSE,FALSE,FALSE,,TRUE,Normal,,100,1024,1024,1024,1024,1,FALSE,FALSE,FALSE,FALSE,FALSE,0,FALSE,FALSE,FALSE,FALSE,41,7.298,897,2230,7.3,FALSE,3.651,3.648,0.004,FALSE,FALSE,NA,115,114.9,114.9,0,17,0,0,5,2835.8,708.95,,Idle,0,20,FALSE,5,TRUE,7,Go Home,FALSE,FALSE,FALSE,FALSE,FALSE,FALSE,FALSE,FALSE,FALSE,FALSE,FALSE,FALSE,6.972972558,79.91593469,27.7,,459.3,TRUE,1,1,FALSE,FALSE,FALSE,FALSE,,TRUE,FALSE,FALSE,Course Lock,131.2,52,16.4,Calm,85,,1.12.6,Mavic Mini,1SDCH7G0169R0K,1SFLH6Q0AB03DJ,1SRCH7F014TAHX,1U5X071EXP5ZJG,94.1,0.1,0,2.730632,1.11847,0,0,Mavic Mini,1SDCH7G0169R0K,1SFLH6Q0AB03DJ,1SRCH7F014TAHX,1U5X071EXP5ZJG,DJI Fly,,1.12.6,4448D792-2100-44E2-3BD1-BCB0F5D4E0B0,1SDCH7G0169R0K,,,,,6.972912918,79.91592566,5,,
1/26/2024,29:23.2,14m 12.0s,852,6.972901406,79.91590748,0.3,0.3,0.6,58,0.7,0.223694,0.223694,-0.223694,0,0,0,-0.894776,0,0.2,-1.9,20.7,20.7,149.8,P-GPS,Auto Fly,,14,5,TRUE,,Mavic Mini,TRUE,FALSE,,Smart,RC,FALSE,TRUE,FALSE,,,TRUE,,FALSE,FALSE,FALSE,FALSE,FALSE,FALSE,FALSE,FALSE,FALSE,FALSE,0,Follow Yaw,0,0,19.4,19.4,FALSE,FALSE,FALSE,FALSE,FALSE,FALSE,,TRUE,Normal,,100,1024,1024,1024,1024,1,FALSE,FALSE,FALSE,FALSE,FALSE,0,FALSE,FALSE,FALSE,FALSE,41,7.298,897,2230,7.3,FALSE,3.651,3.648,0.004,FALSE,FALSE,NA,115,114.9,114.9,0,17,0,0,5,2835.8,708.95,,Idle,0,20,FALSE,5,TRUE,7,Go Home,FALSE,FALSE,FALSE,FALSE,FALSE,FALSE,FALSE,FALSE,FALSE,FALSE,FALSE,FALSE,6.972972558,79.91593469,27.7,,459.3,TRUE,1,1,FALSE,FALSE,FALSE,FALSE,,TRUE,FALSE,FALSE,Course Lock,131.2,52,16.4,Calm,85,,1.12.6,Mavic Mini,1SDCH7G0169R0K,1SFLH6Q0AB03DJ,1SRCH7F014TAHX,1U5X071EXP5ZJG,94.1,0.1,0,2.730632,1.11847,0,0,Mavic Mini,1SDCH7G0169R0K,1SFLH6Q0AB03DJ,1SRCH7F014TAHX,1U5X071EXP5ZJG,DJI Fly,,1.12.6,4448D792-2100-44E2-3BD1-BCB0F5D4E0B0,1SDCH7G0169R0K,,,,,6.972912918,79.91592566,5,,
1/26/2024,29:23.3,14m 12.1s,852.1,6.972901152,79.91590749,0.3,0.3,0.6,58,0.8,0.223694,0.223694,-0.223694,0,0,0,-0.894776,0,-0.5,-1.6,20.9,20.9,178.3,P-GPS,Auto Fly,,14,5,TRUE,,Mavic Mini,TRUE,FALSE,,Smart,RC,FALSE,TRUE,FALSE,,,TRUE,,FALSE,FALSE,FALSE,FALSE,FALSE,FALSE,FALSE,FALSE,FALSE,FALSE,0,Follow Yaw,0,0,19.4,19.4,FALSE,FALSE,FALSE,FALSE,FALSE,FALSE,,TRUE,Normal,,100,1024,1024,1024,1024,1,FALSE,FALSE,FALSE,FALSE,FALSE,0,FALSE,FALSE,FALSE,FALSE,41,7.298,897,2230,7.28,FALSE,3.651,3.648,0.004,FALSE,FALSE,NA,115,114.9,114.9,0,0,0,0,5,3026.3,756.58,,Idle,0,20,FALSE,5,TRUE,7,Go Home,FALSE,FALSE,FALSE,FALSE,FALSE,FALSE,FALSE,FALSE,FALSE,FALSE,FALSE,FALSE,6.972901614,79.91590732,0.1,,459.3,TRUE,1,1,FALSE,FALSE,FALSE,FALSE,,TRUE,FALSE,FALSE,Course Lock,131.2,52,16.4,Calm,85,,1.12.6,Mavic Mini,1SDCH7G0169R0K,1SFLH6Q0AB03DJ,1SRCH7F014TAHX,1U5X071EXP5ZJG,94.1,0.1,0,2.730632,1.11847,0,0,Mavic Mini,1SDCH7G0169R0K,1SFLH6Q0AB03DJ,1SRCH7F014TAHX,1U5X071EXP5ZJG,DJI Fly,,1.12.6,4448D792-2100-44E2-3BD1-BCB0F5D4E0B0,1SDCH7G0169R0K,,,,,6.972912918,79.91592566,5,Home Point Updated.,
1/26/2024,29:23.4,14m 12.2s,852.2,6.972900917,79.91590751,0.3,0.3,0.9,58,0.9,0.223694,0.223694,-0.223694,0,0,0,-0.894776,0,-1.1,-1.9,21.2,21.2,175.9,P-GPS,Auto Fly,,14,5,TRUE,,Mavic Mini,TRUE,FALSE,,Smart,RC,FALSE,TRUE,FALSE,,,TRUE,,FALSE,FALSE,FALSE,FALSE,FALSE,FALSE,FALSE,FALSE,FALSE,FALSE,0,Follow Yaw,0,0,19.4,19.4,FALSE,FALSE,FALSE,FALSE,FALSE,FALSE,,TRUE,Normal,,100,1024,1024,1024,1024,1,FALSE,FALSE,FALSE,FALSE,FALSE,0,FALSE,FALSE,FALSE,FALSE,41,7.298,897,2230,7.28,FALSE,3.651,3.648,0.004,FALSE,FALSE,NA,115,114.9,114.9,0,0,0,0,5,3026.3,756.58,,Idle,0,20,FALSE,5,TRUE,7,Go Home,FALSE,FALSE,FALSE,FALSE,FALSE,FALSE,FALSE,FALSE,FALSE,FALSE,FALSE,FALSE,6.972901614,79.91590732,0.2,,459.3,TRUE,1,1,FALSE,FALSE,FALSE,FALSE,,TRUE,FALSE,FALSE,Course Lock,131.2,52,16.4,Calm,85,,1.12.6,Mavic Mini,1SDCH7G0169R0K,1SFLH6Q0AB03DJ,1SRCH7F014TAHX,1U5X071EXP5ZJG,94.1,0.1,0,2.730632,1.11847,0,0,Mavic Mini,1SDCH7G0169R0K,1SFLH6Q0AB03DJ,1SRCH7F014TAHX,1U5X071EXP5ZJG,DJI Fly,,1.12.6,4448D792-2100-44E2-3BD1-BCB0F5D4E0B0,1SDCH7G0169R0K,,,,,6.972912918,79.91592566,5,Home Point updated. RTH altitude adjusted to 40 m! (Code: 120852).,
1/26/2024,29:23.5,14m 12.3s,852.3,6.972900706,79.91590753,0.6,0.6,0.9,58,1,0.223694,0.223694,-0.223694,0,0,0,-1.11847,0,-2.1,-1.7,21.4,21.4,175.7,P-GPS,Auto Fly,,14,5,TRUE,,Mavic Mini,TRUE,FALSE,,Smart,RC,FALSE,TRUE,FALSE,,,TRUE,,FALSE,FALSE,FALSE,FALSE,FALSE,FALSE,FALSE,FALSE,FALSE,FALSE,0,Follow Yaw,0,0,19.4,19.4,FALSE,FALSE,FALSE,FALSE,FALSE,FALSE,,TRUE,Normal,,100,1024,1024,1024,1024,1,FALSE,FALSE,FALSE,FALSE,FALSE,0,FALSE,FALSE,FALSE,FALSE,41,7.298,897,2230,7.28,FALSE,3.651,3.648,0.004,FALSE,FALSE,NA,115,114.9,114.9,0,0,0,0,5,3026.3,756.58,,Idle,0,20,FALSE,5,TRUE,7,Go Home,FALSE,FALSE,FALSE,FALSE,FALSE,FALSE,FALSE,FALSE,FALSE,FALSE,FALSE,FALSE,6.972901614,79.91590732,0.3,,459.3,TRUE,1,1,FALSE,FALSE,FALSE,FALSE,,TRUE,FALSE,FALSE,Course Lock,131.2,52,16.4,Calm,85,,1.12.6,Mavic Mini,1SDCH7G0169R0K,1SFLH6Q0AB03DJ,1SRCH7F014TAHX,1U5X071EXP5ZJG,94.1,0.1,0,2.730632,1.11847,0,0,Mavic Mini,1SDCH7G0169R0K,1SFLH6Q0AB03DJ,1SRCH7F014TAHX,1U5X071EXP5ZJG,DJI Fly,,1.12.6,4448D792-2100-44E2-3BD1-BCB0F5D4E0B0,1SDCH7G0169R0K,,,,,6.972912918,79.91592566,5,,
1/26/2024,29:23.7,14m 12.4s,852.4,6.972900556,79.91590757,0.6,0.6,0.9,58,1,0.223694,0.223694,-0.223694,0,0,0,-0.894776,0,-1.3,-2.1,21.3,21.3,169.7,P-GPS,Auto Fly,,14,5,TRUE,,Mavic Mini,TRUE,FALSE,,Smart,RC,FALSE,TRUE,FALSE,,,TRUE,,FALSE,FALSE,FALSE,FALSE,FALSE,FALSE,FALSE,FALSE,FALSE,FALSE,0,Follow Yaw,0,0,19.4,19.4,FALSE,FALSE,FALSE,FALSE,FALSE,FALSE,,TRUE,Normal,,100,1024,1024,1024,1024,1,FALSE,FALSE,FALSE,FALSE,FALSE,0,FALSE,FALSE,FALSE,FALSE,41,7.157,895,2230,7.28,FALSE,3.58,3.577,0.004,FALSE,FALSE,NA,115,114.9,114.9,0,0,0,0,5,3026.3,756.58,,Idle,0,20,FALSE,5,TRUE,7,Go Home,FALSE,FALSE,FALSE,FALSE,FALSE,FALSE,FALSE,FALSE,FALSE,FALSE,FALSE,FALSE,6.972901614,79.91590732,0.3,,459.3,TRUE,1,1,FALSE,FALSE,FALSE,FALSE,,TRUE,FALSE,FALSE,Course Lock,131.2,52,16.4,Calm,85,,1.12.6,Mavic Mini,1SDCH7G0169R0K,1SFLH6Q0AB03DJ,1SRCH7F014TAHX,1U5X071EXP5ZJG,94.1,0.1,0,2.730632,1.11847,0,0,Mavic Mini,1SDCH7G0169R0K,1SFLH6Q0AB03DJ,1SRCH7F014TAHX,1U5X071EXP5ZJG,DJI Fly,,1.12.6,4448D792-2100-44E2-3BD1-BCB0F5D4E0B0,1SDCH7G0169R0K,,,,,6.972912918,79.91592566,5,,
1/26/2024,29:23.8,14m 12.5s,852.5,6.972900422,79.91590759,0.9,0.9,1.3,58,1.1,0.223694,0.223694,-0.223694,0,0,0,-0.894776,0,-1.9,-2.3,21.4,21.4,173.3,P-GPS,Auto Fly,,14,5,TRUE,,Mavic Mini,TRUE,FALSE,,Smart,RC,FALSE,TRUE,FALSE,,,TRUE,,FALSE,FALSE,FALSE,FALSE,FALSE,FALSE,FALSE,FALSE,FALSE,FALSE,0,Follow Yaw,0,0,19.4,19.4,FALSE,FALSE,FALSE,FALSE,FALSE,FALSE,,TRUE,Normal,,100,1024,1024,1024,1024,1,FALSE,FALSE,FALSE,FALSE,FALSE,0,FALSE,FALSE,FALSE,FALSE,41,7.157,895,2230,7.28,FALSE,3.58,3.577,0.004,FALSE,FALSE,NA,115,114.9,114.9,0,0,0,0,5,3026.3,756.58,,Idle,0,20,FALSE,5,TRUE,7,Go Home,FALSE,FALSE,FALSE,FALSE,FALSE,FALSE,FALSE,FALSE,FALSE,FALSE,FALSE,FALSE,6.972901614,79.91590732,0.4,,459.3,TRUE,1,1,FALSE,FALSE,FALSE,FALSE,,TRUE,FALSE,FALSE,Course Lock,131.2,52,16.4,Calm,85,,1.12.6,Mavic Mini,1SDCH7G0169R0K,1SFLH6Q0AB03DJ,1SRCH7F014TAHX,1U5X071EXP5ZJG,94.1,0.1,0,2.730632,1.11847,0,0,Mavic Mini,1SDCH7G0169R0K,1SFLH6Q0AB03DJ,1SRCH7F014TAHX,1U5X071EXP5ZJG,DJI Fly,,1.12.6,4448D792-2100-44E2-3BD1-BCB0F5D4E0B0,1SDCH7G0169R0K,,,,,6.972912918,79.91592566,5,,
1/26/2024,29:23.9,14m 12.6s,852.6,6.972900335,79.91590753,0.9,0.9,1.3,58,1.1,0.223694,0.223694,-0.223694,0,0,0,-0.894776,0,-1.2,-2.2,21.3,21.3,206.7,P-GPS,Auto Fly,,14,5,TRUE,,Mavic Mini,TRUE,FALSE,,Smart,RC,FALSE,TRUE,FALSE,,,TRUE,,FALSE,FALSE,FALSE,FALSE,FALSE,FALSE,FALSE,FALSE,FALSE,FALSE,0,Follow Yaw,0,0,19.4,19.4,FALSE,FALSE,FALSE,FALSE,FALSE,FALSE,,TRUE,Normal,,100,1024,1024,1024,1024,1,FALSE,FALSE,FALSE,FALSE,FALSE,0,FALSE,FALSE,FALSE,FALSE,41,7.157,895,2230,7.28,FALSE,3.58,3.577,0.004,FALSE,FALSE,NA,115,114.9,114.9,0,0,0,0,5,3026.3,756.58,,Idle,0,20,FALSE,5,TRUE,7,Go Home,FALSE,FALSE,FALSE,FALSE,FALSE,FALSE,FALSE,FALSE,FALSE,FALSE,FALSE,FALSE,6.972901614,79.91590732,0.4,,459.3,TRUE,1,1,FALSE,FALSE,FALSE,FALSE,,TRUE,FALSE,FALSE,Course Lock,131.2,52,16.4,Calm,85,,1.12.6,Mavic Mini,1SDCH7G0169R0K,1SFLH6Q0AB03DJ,1SRCH7F014TAHX,1U5X071EXP5ZJG,94.1,0.1,0,2.730632,1.11847,0,0,Mavic Mini,1SDCH7G0169R0K,1SFLH6Q0AB03DJ,1SRCH7F014TAHX,1U5X071EXP5ZJG,DJI Fly,,1.12.6,4448D792-2100-44E2-3BD1-BCB0F5D4E0B0,1SDCH7G0169R0K,,,,,6.972912918,79.91592566,5,,
1/26/2024,29:24.0,14m 12.7s,852.7,6.972900232,79.9159075,0.9,0.9,1.3,58,1.1,0,0.223694,0,0,0,0,-0.671082,0,-1.7,-2.1,21.4,21.4,,P-GPS,Auto Fly,,14,5,TRUE,,Mavic Mini,TRUE,FALSE,,Smart,RC,FALSE,TRUE,FALSE,,,TRUE,,FALSE,FALSE,FALSE,FALSE,FALSE,FALSE,FALSE,FALSE,FALSE,FALSE,0,Follow Yaw,0,0,19.4,19.4,FALSE,FALSE,FALSE,FALSE,FALSE,FALSE,,TRUE,Normal,,100,1024,1024,1024,1024,1,FALSE,FALSE,FALSE,FALSE,FALSE,0,FALSE,FALSE,FALSE,FALSE,41,7.157,895,2230,7.28,FALSE,3.58,3.577,0.004,FALSE,FALSE,NA,115,114.9,114.9,0,0,0,0,5,3026.3,756.58,,Idle,0,20,FALSE,5,TRUE,7,Go Home,FALSE,FALSE,FALSE,FALSE,FALSE,FALSE,FALSE,FALSE,FALSE,FALSE,FALSE,FALSE,6.972901614,79.91590732,0.5,,459.3,TRUE,1,1,FALSE,FALSE,FALSE,FALSE,,TRUE,FALSE,FALSE,Course Lock,131.2,52,16.4,Calm,85,,1.12.6,Mavic Mini,1SDCH7G0169R0K,1SFLH6Q0AB03DJ,1SRCH7F014TAHX,1U5X071EXP5ZJG,94.1,0.1,0,2.730632,1.11847,0,0,Mavic Mini,1SDCH7G0169R0K,1SFLH6Q0AB03DJ,1SRCH7F014TAHX,1U5X071EXP5ZJG,DJI Fly,,1.12.6,4448D792-2100-44E2-3BD1-BCB0F5D4E0B0,1SDCH7G0169R0K,,,,,6.972912918,79.91592566,5,,
1/26/2024,29:24.1,14m 12.8s,852.8,6.972900175,79.91590747,0.9,0.9,1.6,58,1.2,0.223694,0.223694,-0.223694,0,0,0,-0.447388,0,-1.9,-2.3,21.4,21.4,205.2,P-GPS,Auto Fly,,14,5,TRUE,,Mavic Mini,TRUE,FALSE,,Smart,RC,FALSE,TRUE,FALSE,,,TRUE,,FALSE,FALSE,FALSE,FALSE,FALSE,FALSE,FALSE,FALSE,FALSE,FALSE,0,Follow Yaw,0,0,19.4,19.4,FALSE,FALSE,FALSE,FALSE,FALSE,FALSE,,TRUE,Normal,,100,1024,1024,1024,1024,1,FALSE,FALSE,FALSE,FALSE,FALSE,0,FALSE,FALSE,FALSE,FALSE,41,7.157,895,2230,7.28,FALSE,3.58,3.577,0.004,FALSE,FALSE,NA,115,114.9,114.9,0,0,0,0,5,3026.3,756.58,,Idle,0,20,FALSE,5,TRUE,7,Go Home,FALSE,FALSE,FALSE,FALSE,FALSE,FALSE,FALSE,FALSE,FALSE,FALSE,FALSE,FALSE,6.972901614,79.91590732,0.5,,459.3,TRUE,1,1,FALSE,FALSE,FALSE,FALSE,,TRUE,FALSE,FALSE,Course Lock,131.2,52,16.4,Calm,85,,1.12.6,Mavic Mini,1SDCH7G0169R0K,1SFLH6Q0AB03DJ,1SRCH7F014TAHX,1U5X071EXP5ZJG,94.1,0.1,0,2.730632,1.11847,0,0,Mavic Mini,1SDCH7G0169R0K,1SFLH6Q0AB03DJ,1SRCH7F014TAHX,1U5X071EXP5ZJG,DJI Fly,,1.12.6,4448D792-2100-44E2-3BD1-BCB0F5D4E0B0,1SDCH7G0169R0K,,,,,6.972912918,79.91592566,5,,
1/26/2024,29:24.1,14m 12.9s,852.9,6.972900127,79.91590742,0.9,0.9,1.6,58,1.2,0,0.223694,0,0,0,0,-0.223694,0,-2.1,-2.3,21.5,21.5,,P-GPS,Auto Fly,,14,5,TRUE,,Mavic Mini,TRUE,FALSE,,Smart,RC,FALSE,TRUE,FALSE,,,TRUE,,FALSE,FALSE,FALSE,FALSE,FALSE,FALSE,FALSE,FALSE,FALSE,FALSE,0,Follow Yaw,0,0,19.4,19.4,FALSE,FALSE,FALSE,FALSE,FALSE,FALSE,,TRUE,Normal,,100,1024,1024,1024,1113,1,FALSE,FALSE,FALSE,FALSE,FALSE,0,FALSE,FALSE,FALSE,FALSE,41,7.157,895,2230,7.28,FALSE,3.58,3.577,0.004,FALSE,FALSE,NA,115,114.9,114.9,0,0,0,0,5,3026.3,756.58,,Idle,0,20,FALSE,5,TRUE,7,Go Home,FALSE,FALSE,FALSE,FALSE,FALSE,FALSE,FALSE,FALSE,FALSE,FALSE,FALSE,FALSE,6.972901614,79.91590732,0.5,,459.3,TRUE,1,1,FALSE,FALSE,FALSE,FALSE,,TRUE,FALSE,FALSE,Course Lock,131.2,52,16.4,Calm,85,,1.12.6,Mavic Mini,1SDCH7G0169R0K,1SFLH6Q0AB03DJ,1SRCH7F014TAHX,1U5X071EXP5ZJG,94.1,0.1,0,2.730632,1.11847,0,0,Mavic Mini,1SDCH7G0169R0K,1SFLH6Q0AB03DJ,1SRCH7F014TAHX,1U5X071EXP5ZJG,DJI Fly,,1.12.6,4448D792-2100-44E2-3BD1-BCB0F5D4E0B0,1SDCH7G0169R0K,,,,,6.972912918,79.91592566,5,,
1/26/2024,29:24.2,14m 13.0s,853,6.972900366,79.91590719,0.9,0.9,1.6,58,1.3,0,0.223694,0,0,0,0,-0.223694,0,-2.1,-1.8,21.5,21.5,,P-GPS,Auto Fly,,14,5,TRUE,,Mavic Mini,TRUE,FALSE,,Smart,RC,FALSE,TRUE,FALSE,,,TRUE,,FALSE,FALSE,FALSE,FALSE,FALSE,FALSE,FALSE,FALSE,FALSE,FALSE,0,Follow Yaw,0,0,19.4,19.4,FALSE,FALSE,FALSE,FALSE,FALSE,FALSE,,TRUE,Normal,,100,1024,1024,1024,1113,1,FALSE,FALSE,FALSE,FALSE,FALSE,0,FALSE,FALSE,FALSE,FALSE,41,7.157,895,2230,7.28,FALSE,3.58,3.577,0.004,FALSE,FALSE,NA,115,114.9,114.9,0,0,0,0,5,3026.3,756.58,,Idle,0,20,FALSE,5,TRUE,7,Go Home,FALSE,FALSE,FALSE,FALSE,FALSE,FALSE,FALSE,FALSE,FALSE,FALSE,FALSE,FALSE,6.972901614,79.91590732,0.4,,459.3,TRUE,1,1,FALSE,FALSE,FALSE,FALSE,,TRUE,FALSE,FALSE,Course Lock,131.2,52,16.4,Calm,85,,1.12.6,Mavic Mini,1SDCH7G0169R0K,1SFLH6Q0AB03DJ,1SRCH7F014TAHX,1U5X071EXP5ZJG,94.1,0.1,0,2.730632,1.11847,0,0,Mavic Mini,1SDCH7G0169R0K,1SFLH6Q0AB03DJ,1SRCH7F014TAHX,1U5X071EXP5ZJG,DJI Fly,,1.12.6,4448D792-2100-44E2-3BD1-BCB0F5D4E0B0,1SDCH7G0169R0K,,,,,6.972912918,79.91592566,5,,
1/26/2024,29:24.3,14m 13.1s,853.1,6.972900324,79.91590711,0.9,0.9,1.6,58,1.3,0,0.223694,0,0,0,0,0,0,-2.2,-1.6,21.5,21.5,,P-GPS,Auto Fly,,14,5,TRUE,,Mavic Mini,TRUE,FALSE,,Smart,RC,FALSE,TRUE,FALSE,,,TRUE,,FALSE,FALSE,FALSE,FALSE,FALSE,FALSE,FALSE,FALSE,FALSE,FALSE,0,Follow Yaw,0,0,19.4,19.4,FALSE,FALSE,FALSE,FALSE,FALSE,FALSE,,TRUE,Normal,,100,1024,1024,1024,1229,1,FALSE,FALSE,FALSE,FALSE,FALSE,0,FALSE,FALSE,FALSE,FALSE,40,7.157,895,2230,7.169,FALSE,3.58,3.577,0.004,FALSE,FALSE,NA,115,114.9,114.9,0,0,0,0,5,3586.7,896.69,,Idle,0,20,FALSE,5,TRUE,7,Go Home,FALSE,FALSE,FALSE,FALSE,FALSE,FALSE,FALSE,FALSE,FALSE,FALSE,FALSE,FALSE,6.972901614,79.91590732,0.4,,459.3,TRUE,1,1,FALSE,FALSE,FALSE,FALSE,,TRUE,FALSE,FALSE,Course Lock,131.2,52,16.4,Calm,85,,1.12.6,Mavic Mini,1SDCH7G0169R0K,1SFLH6Q0AB03DJ,1SRCH7F014TAHX,1U5X071EXP5ZJG,94.1,0.1,0,2.730632,1.11847,0,0,Mavic Mini,1SDCH7G0169R0K,1SFLH6Q0AB03DJ,1SRCH7F014TAHX,1U5X071EXP5ZJG,DJI Fly,,1.12.6,4448D792-2100-44E2-3BD1-BCB0F5D4E0B0,1SDCH7G0169R0K,,,,,6.972912918,79.91592566,5,,
1/26/2024,29:24.4,14m 13.2s,853.2,6.972900236,79.91590706,0.9,0.9,1.6,58,1.4,0,0.223694,0,0,0,0,0,0,-2.4,-1.4,21.5,21.5,,P-GPS,Auto Fly,,14,5,TRUE,,Mavic Mini,TRUE,FALSE,,Smart,RC,FALSE,TRUE,FALSE,,,TRUE,,FALSE,FALSE,FALSE,FALSE,FALSE,FALSE,FALSE,FALSE,FALSE,FALSE,0,Follow Yaw,0,0,19.6,19.6,FALSE,FALSE,FALSE,FALSE,FALSE,FALSE,,TRUE,Normal,,100,1024,1024,1024,1247,1,FALSE,FALSE,FALSE,FALSE,FALSE,0,FALSE,FALSE,FALSE,FALSE,40,7.157,895,2230,7.169,FALSE,3.58,3.577,0.004,FALSE,FALSE,NA,115,114.9,114.9,0,0,0,0,5,3586.7,896.69,,Idle,0,20,FALSE,5,TRUE,7,Go Home,FALSE,FALSE,FALSE,FALSE,FALSE,FALSE,FALSE,FALSE,FALSE,FALSE,FALSE,FALSE,6.972901614,79.91590732,0.5,,459.3,TRUE,1,1,FALSE,FALSE,FALSE,FALSE,,TRUE,FALSE,FALSE,Course Lock,131.2,52,16.4,Calm,85,,1.12.6,Mavic Mini,1SDCH7G0169R0K,1SFLH6Q0AB03DJ,1SRCH7F014TAHX,1U5X071EXP5ZJG,94.1,0.1,0,2.730632,1.11847,0,0,Mavic Mini,1SDCH7G0169R0K,1SFLH6Q0AB03DJ,1SRCH7F014TAHX,1U5X071EXP5ZJG,DJI Fly,,1.12.6,4448D792-2100-44E2-3BD1-BCB0F5D4E0B0,1SDCH7G0169R0K,,,,,6.972912918,79.91592566,5,,
1/26/2024,29:24.5,14m 13.3s,853.3,6.97290013,79.91590703,0.9,0.9,1.6,58,1.4,0.223694,0.223694,-0.223694,0,0,0,0,0,-3.1,-2,21.7,21.7,195.6,P-GPS,Auto Fly,,14,5,TRUE,,Mavic Mini,TRUE,FALSE,,Smart,RC,FALSE,TRUE,FALSE,,,TRUE,,FALSE,FALSE,FALSE,FALSE,FALSE,FALSE,FALSE,FALSE,FALSE,FALSE,0,Follow Yaw,0,0,20.2,20.2,FALSE,FALSE,FALSE,FALSE,FALSE,FALSE,,TRUE,Normal,,100,1024,1024,1024,1235,1,FALSE,FALSE,FALSE,FALSE,FALSE,0,FALSE,FALSE,FALSE,FALSE,40,7.157,895,2230,7.169,FALSE,3.58,3.577,0.004,FALSE,FALSE,NA,115,114.9,114.9,0,0,0,0,5,3586.7,896.69,,Idle,0,20,FALSE,5,TRUE,7,Go Home,FALSE,FALSE,FALSE,FALSE,FALSE,FALSE,FALSE,FALSE,FALSE,FALSE,FALSE,FALSE,6.972901614,79.91590732,0.5,,459.3,TRUE,1,1,FALSE,FALSE,FALSE,FALSE,,TRUE,FALSE,FALSE,Course Lock,131.2,52,16.4,Calm,85,,1.12.6,Mavic Mini,1SDCH7G0169R0K,1SFLH6Q0AB03DJ,1SRCH7F014TAHX,1U5X071EXP5ZJG,94.1,0.1,0,2.730632,1.11847,0,0,Mavic Mini,1SDCH7G0169R0K,1SFLH6Q0AB03DJ,1SRCH7F014TAHX,1U5X071EXP5ZJG,DJI Fly,,1.12.6,4448D792-2100-44E2-3BD1-BCB0F5D4E0B0,1SDCH7G0169R0K,,,,,6.972912918,79.91592566,5,,
1/26/2024,29:24.6,14m 13.4s,853.4,6.972899755,79.9159071,0.9,0.9,1.6,58,1.6,0.223694,0.223694,-0.223694,0,0,0,0,0,-3.1,-2.4,22.1,22.1,171.6,P-GPS,Auto Fly,,14,5,TRUE,,Mavic Mini,TRUE,FALSE,,Smart,RC,FALSE,TRUE,FALSE,,,TRUE,,FALSE,FALSE,FALSE,FALSE,FALSE,FALSE,FALSE,FALSE,FALSE,FALSE,0,Follow Yaw,0,0,21.3,21.3,FALSE,FALSE,FALSE,FALSE,FALSE,FALSE,,TRUE,Normal,,100,1024,1024,1024,1024,1,FALSE,FALSE,FALSE,FALSE,FALSE,0,FALSE,FALSE,FALSE,FALSE,40,7.157,895,2230,7.169,FALSE,3.58,3.577,0.004,FALSE,FALSE,NA,115,114.9,114.9,0,0,0,0,5,3586.7,896.69,,Idle,0,20,FALSE,5,TRUE,7,Go Home,FALSE,FALSE,FALSE,FALSE,FALSE,FALSE,FALSE,FALSE,FALSE,FALSE,FALSE,FALSE,6.972901614,79.91590732,0.6,,459.3,TRUE,1,1,FALSE,FALSE,FALSE,FALSE,,TRUE,FALSE,FALSE,Course Lock,131.2,52,16.4,Calm,85,,1.12.6,Mavic Mini,1SDCH7G0169R0K,1SFLH6Q0AB03DJ,1SRCH7F014TAHX,1U5X071EXP5ZJG,94.1,0.1,0,2.730632,1.11847,0,0,Mavic Mini,1SDCH7G0169R0K,1SFLH6Q0AB03DJ,1SRCH7F014TAHX,1U5X071EXP5ZJG,DJI Fly,,1.12.6,4448D792-2100-44E2-3BD1-BCB0F5D4E0B0,1SDCH7G0169R0K,,,,,6.972912918,79.91592566,5,,
1/26/2024,29:24.7,14m 13.5s,853.5,6.972899619,79.91590709,0.9,0.9,1.6,58,1.6,0,0.223694,0,0,0,0,0,0,-2.9,-2.5,22.9,22.9,,P-GPS,Auto Fly,,14,5,TRUE,,Mavic Mini,TRUE,FALSE,,Smart,RC,FALSE,TRUE,FALSE,,,TRUE,,FALSE,FALSE,FALSE,FALSE,FALSE,FALSE,FALSE,FALSE,FALSE,FALSE,0,Follow Yaw,0,0,22.6,22.6,FALSE,FALSE,FALSE,FALSE,FALSE,FALSE,,TRUE,Normal,,100,1024,1024,1024,1024,1,FALSE,FALSE,FALSE,FALSE,FALSE,0,FALSE,FALSE,FALSE,FALSE,40,7.166,894,2230,7.169,FALSE,3.583,3.583,0.004,FALSE,FALSE,NA,115,114.9,114.9,0,0,0,0,5,3586.7,896.69,,Idle,0,20,FALSE,5,TRUE,7,Go Home,FALSE,FALSE,FALSE,FALSE,FALSE,FALSE,FALSE,FALSE,FALSE,FALSE,FALSE,FALSE,6.972901614,79.91590732,0.7,,459.3,TRUE,1,1,FALSE,FALSE,FALSE,FALSE,,TRUE,FALSE,FALSE,Course Lock,131.2,52,16.4,Calm,85,,1.12.6,Mavic Mini,1SDCH7G0169R0K,1SFLH6Q0AB03DJ,1SRCH7F014TAHX,1U5X071EXP5ZJG,94.1,0.1,0,2.730632,1.11847,0,0,Mavic Mini,1SDCH7G0169R0K,1SFLH6Q0AB03DJ,1SRCH7F014TAHX,1U5X071EXP5ZJG,DJI Fly,,1.12.6,4448D792-2100-44E2-3BD1-BCB0F5D4E0B0,1SDCH7G0169R0K,,,,,6.972912918,79.91592566,5,,
1/26/2024,29:24.9,14m 13.6s,853.6,6.972899558,79.9159071,0.9,0.9,1.6,58,1.6,0,0.223694,0,0,0,0,0,0,-2.7,-2.2,24,24,,P-GPS,Auto Fly,,14,5,TRUE,,Mavic Mini,TRUE,FALSE,,Smart,RC,FALSE,TRUE,FALSE,,,TRUE,,FALSE,FALSE,FALSE,FALSE,FALSE,FALSE,FALSE,FALSE,FALSE,FALSE,0,Follow Yaw,0,0,23.7,23.7,FALSE,FALSE,FALSE,FALSE,FALSE,FALSE,,TRUE,Normal,,100,1024,1024,1024,1024,1,FALSE,FALSE,FALSE,FALSE,FALSE,0,FALSE,FALSE,FALSE,FALSE,40,7.166,894,2230,7.169,FALSE,3.583,3.583,0.004,FALSE,FALSE,NA,115,114.9,114.9,0,0,0,0,5,3586.7,896.69,,Idle,0,20,FALSE,5,TRUE,7,Go Home,FALSE,FALSE,FALSE,FALSE,FALSE,FALSE,FALSE,FALSE,FALSE,FALSE,FALSE,FALSE,6.972901614,79.91590732,0.7,,459.3,TRUE,1,1,FALSE,FALSE,FALSE,FALSE,,TRUE,FALSE,FALSE,Course Lock,131.2,52,16.4,Calm,85,,1.12.6,Mavic Mini,1SDCH7G0169R0K,1SFLH6Q0AB03DJ,1SRCH7F014TAHX,1U5X071EXP5ZJG,94.1,0.1,0,2.730632,1.11847,0,0,Mavic Mini,1SDCH7G0169R0K,1SFLH6Q0AB03DJ,1SRCH7F014TAHX,1U5X071EXP5ZJG,DJI Fly,,1.12.6,4448D792-2100-44E2-3BD1-BCB0F5D4E0B0,1SDCH7G0169R0K,,,,,6.972912918,79.91592566,5,,
1/26/2024,29:25.0,14m 13.7s,853.7,6.972899512,79.9159071,0.9,0.9,1.6,58,1.6,0,0.223694,0,0,0,0,0,0,-2.3,-2.6,25,25,,P-GPS,Auto Fly,,14,5,TRUE,,Mavic Mini,TRUE,FALSE,,Smart,RC,FALSE,TRUE,FALSE,,,TRUE,,FALSE,FALSE,FALSE,FALSE,FALSE,FALSE,FALSE,FALSE,FALSE,FALSE,0,Follow Yaw,0,0,24.4,24.4,FALSE,FALSE,FALSE,FALSE,FALSE,FALSE,,TRUE,Normal,,100,1024,1024,1024,1024,1,FALSE,FALSE,FALSE,FALSE,FALSE,0,FALSE,FALSE,FALSE,FALSE,40,7.166,894,2230,7.169,FALSE,3.583,3.583,0.004,FALSE,FALSE,NA,115,114.9,114.9,0,0,0,0,5,3586.7,896.69,,Idle,0,20,FALSE,5,TRUE,7,Go Home,FALSE,FALSE,FALSE,FALSE,FALSE,FALSE,FALSE,FALSE,FALSE,FALSE,FALSE,FALSE,6.972901614,79.91590732,0.7,,459.3,TRUE,1,1,FALSE,FALSE,FALSE,FALSE,,TRUE,FALSE,FALSE,Course Lock,131.2,52,16.4,Calm,85,,1.12.6,Mavic Mini,1SDCH7G0169R0K,1SFLH6Q0AB03DJ,1SRCH7F014TAHX,1U5X071EXP5ZJG,94.1,0.1,0,2.730632,1.11847,0,0,Mavic Mini,1SDCH7G0169R0K,1SFLH6Q0AB03DJ,1SRCH7F014TAHX,1U5X071EXP5ZJG,DJI Fly,,1.12.6,4448D792-2100-44E2-3BD1-BCB0F5D4E0B0,1SDCH7G0169R0K,,,,,6.972912918,79.91592566,5,,
1/26/2024,29:25.1,14m 13.8s,853.8,6.97289943,79.91590712,0.9,0.9,1.6,58,1.7,0,0.223694,0,0,0,0,0,0,-1.7,-2.8,25.9,25.9,,P-GPS,Auto Fly,,14,5,TRUE,,Mavic Mini,TRUE,FALSE,,Smart,RC,FALSE,TRUE,FALSE,,,TRUE,,FALSE,FALSE,FALSE,FALSE,FALSE,FALSE,FALSE,FALSE,FALSE,FALSE,0,Follow Yaw,0,0,24.8,24.8,FALSE,FALSE,FALSE,FALSE,FALSE,FALSE,,TRUE,Normal,,100,1024,1024,1024,1024,1,FALSE,FALSE,FALSE,FALSE,FALSE,0,FALSE,FALSE,FALSE,FALSE,40,7.166,894,2230,7.169,FALSE,3.583,3.583,0.004,FALSE,FALSE,NA,115,114.9,114.9,0,0,0,0,5,3586.7,896.69,,Idle,0,20,FALSE,5,TRUE,7,Go Home,FALSE,FALSE,FALSE,FALSE,FALSE,FALSE,FALSE,FALSE,FALSE,FALSE,FALSE,FALSE,6.972901614,79.91590732,0.7,,459.3,TRUE,1,1,FALSE,FALSE,FALSE,FALSE,,TRUE,FALSE,FALSE,Course Lock,131.2,52,16.4,Calm,85,,1.12.6,Mavic Mini,1SDCH7G0169R0K,1SFLH6Q0AB03DJ,1SRCH7F014TAHX,1U5X071EXP5ZJG,94.1,0.1,0,2.730632,1.11847,0,0,Mavic Mini,1SDCH7G0169R0K,1SFLH6Q0AB03DJ,1SRCH7F014TAHX,1U5X071EXP5ZJG,DJI Fly,,1.12.6,4448D792-2100-44E2-3BD1-BCB0F5D4E0B0,1SDCH7G0169R0K,,,,,6.972912918,79.91592566,5,,
