CUSTOM.date [local],CUSTOM.updateTime [local],OSD.flyTime,OSD.flyTime [s],OSD.latitude,OSD.longitude,OSD.height [ft],OSD.heightMax [ft],OSD.vpsHeight [ft],OSD.altitude [ft],OSD.mileage [ft],OSD.hSpeed [MPH],OSD.hSpeedMax [MPH],OSD.xSpeed [MPH],OSD.xSpeedMax [MPH],OSD.ySpeed [MPH],OSD.ySpeedMax [MPH],OSD.zSpeed [MPH],OSD.zSpeedMax [MPH],OSD.pitch,OSD.roll,OSD.yaw,OSD.yaw [360],OSD.directionOfTravel,OSD.flycState,OSD.flycCommand,OSD.flightAction,OSD.gpsNum,OSD.gpsLevel,OSD.isGPSUsed,OSD.nonGPSCause,OSD.droneType,OSD.isSwaveWork,OSD.waveError,OSD.goHomeStatus,OSD.batteryType,OSD.ctrlDevice,OSD.isOnGround,OSD.isMotorOn,OSD.isMotorBlocked,OSD.motorStartFailedCause,OSD.motorFailReason,OSD.isImuPreheated,OSD.imuInitFailReason,OSD.isAcceletorOverRange,OSD.isBarometerDeadInAir,OSD.isCompassError,OSD.isGoHomeHeightModified,OSD.canIOCWork,OSD.isNotEnoughForce,OSD.isOutOfLimit,OSD.isPropellerCatapult,OSD.isVibrating,OSD.isVisionUsed,OSD.voltageWarning,GIMBAL.mode,GIMBAL.pitch,GIMBAL.roll,GIMBAL.yaw,GIMBAL.yaw [360],GIMBAL.isPitchAtLimit,GIMBAL.isRollAtLimit,GIMBAL.isYawAtLimit,GIMBAL.isStuck,CAMERA.isPhoto,CAMERA.isVideo,CAMERA.filename,CAMERA.sdCardIsInserted,CAMERA.sdCardState,RC.downlinkSignal,RC.uplinkSignal,RC.aileron,RC.elevator,RC.throttle,RC.rudder,RC.mode,RC.goHomeDepressed,RC.recordDepressed,RC.shutterDepressed,RC.playbackDepressed,RC.wheelDepressed,RC.wheelOffset,RC.custom1Depressed,RC.custom2Depressed,RC.custom3Depressed,RC.custom4Depressed,BATTERY.chargeLevel,BATTERY.currentPV [V],BATTERY.currentCapacity [mAh],BATTERY.fullCapacity [mAh],BATTERY.voltage [V],BATTERY.isCellVoltageEstimated,BATTERY.cellVoltage1 [V],BATTERY.cellVoltage2 [V],BATTERY.maxCellVoltageDeviation,BATTERY.isCellVoltageDeviationHigh,BATTERY.isVoltageLow,BATTERY.current [A],BATTERY.temperature [F],BATTERY.minTemperature [F],BATTERY.maxTemperature [F],BATTERY.usefulTime [s],BATTERY.goHomeTime [s],BATTERY.landTime [s],BATTERY.goHomeBattery,BATTERY.landBattery,BATTERY.safeFlyRadius,BATTERY.volumeConsume,BATTERY.status,BATTERY.goHomeStatus,BATTERY.goHomeCountdown,BATTERY.lowWarning,BATTERY.lowWarningGoHome,BATTERY.seriousLowWarning,BATTERY.seriousLowWarningLanding,BATTERY.timesCharged,MC.failSafeAction,MC.isObstacleAvoidanceEnabled,MC.isCollisionAvoidanceEnabled,MC.isRthObstacleAvoidanceEnabled,MC.isBraking,MC.isAvoidingObstacle,MC.isAvoidingActiveObstacle,MC.isAscentLimitedByObstacle,MC.isLandingConfirmationNeeded,MC.atLowAltitudeLimit,MC.atDistanceLimit,MC.atAirportAltitudeLimit,MC.atAirportBoundary,HOME.latitude,HOME.longitude,HOME.distance [ft],HOME.height [ft],HOME.heightLimit [ft],HOME.isHomeRecord,HOME.goHomeMode,HOME.aircraftHeadDirection,HOME.isDynamicHomePointEnabled,HOME.isReachedLimitDistance,HOME.isReachedLimitHeight,HOME.isCompassCalibrating,HOME.compassCalibrationState,HOME.isMultipleFlightModeEnabled,HOME.isBeginnerMode,HOME.isIOCEnabled,HOME.iocMode,HOME.goHomeHeight [ft],HOME.courseLockAngle,HOME.forceLandingHeight [ft],HOME.wind,HOME.dataRecorderFileIndex,RECOVER.appType,RECOVER.appVersion,RECOVER.aircraftName,RECOVER.aircraftSerial,RECOVER.cameraSerial,RECOVER.rcSerial,RECOVER.batterySerial,DETAILS.totalTime [s],DETAILS.totalDistance [ft],DETAILS.maxHeight [ft],DETAILS.maxHorizontalSpeed [MPH],DETAILS.maxVerticalSpeed [MPH],DETAILS.photoNum,DETAILS.videoTime [s],DETAILS.aircraftName,DETAILS.aircraftSerial,DETAILS.cameraSerial,DETAILS.rcSerial,DETAILS.batterySerial,DETAILS.appName,DETAILS.appType,DETAILS.appVersion,DETAILS.guid,SERIAL.flightController,SERIAL.camera,SERIAL.gimbal,SERIAL.rc,SERIAL.battery,APPGPS.latitude,APPGPS.longitude,APPGPS.accuracy,APP.tip,APP.warning
2/27/2024,20:18.4,8m 24.0s,504,6.974621535,79.9143962,0,0,,52,0,0,0,0,0,0,0,0,0,4.5,-1.2,20.6,20.6,,Starting Motors,Other,Takeoff (RC Assisted),14,4,TRUE,,Mavic Mini,FALSE,FALSE,,Smart,RC,TRUE,TRUE,FALSE,,,TRUE,,FALSE,FALSE,FALSE,FALSE,FALSE,FALSE,FALSE,FALSE,FALSE,FALSE,0,Follow Yaw,0,0,19,19,FALSE,FALSE,FALSE,FALSE,FALSE,FALSE,,TRUE,Normal,,,794,1013,1024,1024,1,FALSE,FALSE,FALSE,FALSE,FALSE,0,FALSE,FALSE,FALSE,FALSE,63,7.669,1307,2063,7.669,TRUE,3.835,3.835,,FALSE,FALSE,NA,113.4,113.3,113.3,,,,,,,,,Idle,,,TRUE,,FALSE,6,Go Home,FALSE,FALSE,FALSE,FALSE,FALSE,FALSE,FALSE,FALSE,FALSE,FALSE,FALSE,FALSE,,,,,,FALSE,,,FALSE,FALSE,FALSE,FALSE,,FALSE,FALSE,FALSE,,,,,Calm,,,1.12.8,Mavic Mini,1SDCH7G0169R0K,1SFLH6Q0AB03DJ,1SRCH7F014TAHX,1U5X071EXP6C9Y,88.9,0.3,9.8,11.258295,4.47388,0,602,Mavic Mini,1SDCH7G0169R0K,1SFLH6Q0AB03DJ,1SRCH7F014TAHX,1U5X071EXP6C9Y,DJI Fly,,1.12.8,31AD7946-3796-A7C4-7ED2-014FC5DFED87,1SDCH7G0169R0K,,,,,,,,Flight mode changed to Starting Motors.,
2/27/2024,11:54.5,8m 24.1s,504.1,6.974621331,79.91439654,0,0,,52,0,0,0,0,0,0,0,0,0,4.6,-1.2,20.6,20.6,,Starting Motors,Other,Takeoff (RC Assisted),14,4,TRUE,,Mavic Mini,FALSE,FALSE,,Smart,RC,TRUE,TRUE,FALSE,,,TRUE,,FALSE,FALSE,FALSE,FALSE,FALSE,FALSE,FALSE,FALSE,FALSE,FALSE,0,Follow Yaw,0,0,19,19,FALSE,FALSE,FALSE,FALSE,FALSE,FALSE,,TRUE,Normal,,,1024,1024,1024,1024,1,FALSE,FALSE,FALSE,FALSE,FALSE,0,FALSE,FALSE,FALSE,FALSE,63,7.669,1307,2063,7.669,TRUE,3.835,3.835,,FALSE,FALSE,NA,113.4,113.3,113.3,,,,,,,,,Idle,,,TRUE,,FALSE,6,Go Home,FALSE,FALSE,FALSE,FALSE,FALSE,FALSE,FALSE,FALSE,FALSE,FALSE,FALSE,FALSE,,,,,,FALSE,,,FALSE,FALSE,FALSE,FALSE,,FALSE,FALSE,FALSE,,,,,Calm,,,1.12.8,Mavic Mini,1SDCH7G0169R0K,1SFLH6Q0AB03DJ,1SRCH7F014TAHX,1U5X071EXP6C9Y,88.9,0.3,9.8,11.258295,4.47388,0,602,Mavic Mini,1SDCH7G0169R0K,1SFLH6Q0AB03DJ,1SRCH7F014TAHX,1U5X071EXP6C9Y,DJI Fly,,1.12.8,31AD7946-3796-A7C4-7ED2-014FC5DFED87,1SDCH7G0169R0K,,,,,,,,,
2/27/2024,11:54.6,8m 24.2s,504.2,6.974621386,79.91439653,0,0,0.3,52,0,0,0,0,0,0,0,0,0,4.6,-1.2,20.6,20.6,,Starting Motors,Other,Takeoff (RC Assisted),14,4,TRUE,,Mavic Mini,TRUE,FALSE,,Smart,RC,TRUE,TRUE,FALSE,,,TRUE,,FALSE,FALSE,FALSE,FALSE,FALSE,FALSE,FALSE,FALSE,FALSE,FALSE,0,Follow Yaw,0,0,19.1,19.1,FALSE,FALSE,FALSE,FALSE,FALSE,FALSE,,TRUE,Normal,,,1024,1024,1024,1024,1,FALSE,FALSE,FALSE,FALSE,FALSE,0,FALSE,FALSE,FALSE,FALSE,63,7.669,1307,2063,7.669,TRUE,3.835,3.835,,FALSE,FALSE,NA,113.4,113.3,113.3,,,,,,,,,Idle,,,TRUE,,FALSE,6,Go Home,FALSE,FALSE,FALSE,FALSE,FALSE,FALSE,FALSE,FALSE,FALSE,FALSE,FALSE,FALSE,,,,,,FALSE,,,FALSE,FALSE,FALSE,FALSE,,FALSE,FALSE,FALSE,,,,,Calm,,,1.12.8,Mavic Mini,1SDCH7G0169R0K,1SFLH6Q0AB03DJ,1SRCH7F014TAHX,1U5X071EXP6C9Y,88.9,0.3,9.8,11.258295,4.47388,0,602,Mavic Mini,1SDCH7G0169R0K,1SFLH6Q0AB03DJ,1SRCH7F014TAHX,1U5X071EXP6C9Y,DJI Fly,,1.12.8,31AD7946-3796-A7C4-7ED2-014FC5DFED87,1SDCH7G0169R0K,,,,,,,,,
2/27/2024,11:54.7,8m 24.3s,504.3,6.974621418,79.9143965,0,0,0.3,52,0,0,0,0,0,0,0,0,0,4.6,-1.2,20.7,20.7,,Starting Motors,Other,Takeoff (RC Assisted),14,4,TRUE,,Mavic Mini,TRUE,FALSE,,Smart,RC,TRUE,TRUE,FALSE,,,TRUE,,FALSE,FALSE,FALSE,FALSE,FALSE,FALSE,FALSE,FALSE,FALSE,FALSE,0,Follow Yaw,0,0,19.1,19.1,FALSE,FALSE,FALSE,FALSE,FALSE,FALSE,,TRUE,Normal,,100,1024,1024,1024,1024,1,FALSE,FALSE,FALSE,FALSE,FALSE,0,FALSE,FALSE,FALSE,FALSE,63,7.669,1307,2063,7.669,FALSE,3.837,3.832,0.005,FALSE,FALSE,NA,113.4,113.3,113.3,,,,,,,,,Idle,,,TRUE,,FALSE,6,Go Home,FALSE,FALSE,FALSE,FALSE,FALSE,FALSE,FALSE,FALSE,FALSE,FALSE,FALSE,FALSE,,,,,,FALSE,,,FALSE,FALSE,FALSE,FALSE,,FALSE,FALSE,FALSE,,,,,Calm,,,1.12.8,Mavic Mini,1SDCH7G0169R0K,1SFLH6Q0AB03DJ,1SRCH7F014TAHX,1U5X071EXP6C9Y,88.9,0.3,9.8,11.258295,4.47388,0,602,Mavic Mini,1SDCH7G0169R0K,1SFLH6Q0AB03DJ,1SRCH7F014TAHX,1U5X071EXP6C9Y,DJI Fly,,1.12.8,31AD7946-3796-A7C4-7ED2-014FC5DFED87,1SDCH7G0169R0K,,,,,,,,,
2/27/2024,11:54.8,8m 24.4s,504.4,6.974621437,79.91439645,0,0,0.3,52,0,0,0,0,0,0,0,0,0,4.7,-1.2,20.7,20.7,,Starting Motors,Other,Takeoff (RC Assisted),14,4,TRUE,,Mavic Mini,TRUE,FALSE,,Smart,RC,TRUE,TRUE,FALSE,,,TRUE,,FALSE,FALSE,FALSE,FALSE,FALSE,FALSE,FALSE,FALSE,FALSE,FALSE,0,Follow Yaw,0,0,19.1,19.1,FALSE,FALSE,FALSE,FALSE,FALSE,FALSE,,TRUE,Normal,,100,1024,1024,1024,1024,1,FALSE,FALSE,FALSE,FALSE,FALSE,0,FALSE,FALSE,FALSE,FALSE,63,7.669,1307,2063,7.669,FALSE,3.837,3.832,0.005,FALSE,FALSE,NA,113.4,113.3,113.3,,,,,,,,,Idle,,,TRUE,,FALSE,6,Go Home,FALSE,FALSE,FALSE,FALSE,FALSE,FALSE,FALSE,FALSE,FALSE,FALSE,FALSE,FALSE,,,,,,FALSE,,,FALSE,FALSE,FALSE,FALSE,,FALSE,FALSE,FALSE,,,,,Calm,,,1.12.8,Mavic Mini,1SDCH7G0169R0K,1SFLH6Q0AB03DJ,1SRCH7F014TAHX,1U5X071EXP6C9Y,88.9,0.3,9.8,11.258295,4.47388,0,602,Mavic Mini,1SDCH7G0169R0K,1SFLH6Q0AB03DJ,1SRCH7F014TAHX,1U5X071EXP6C9Y,DJI Fly,,1.12.8,31AD7946-3796-A7C4-7ED2-014FC5DFED87,1SDCH7G0169R0K,,,,,,,,,
2/27/2024,11:54.9,8m 24.5s,504.5,6.974621274,79.91439613,0,0,0.3,52,0.1,0,0,0,0,0,0,0,0,4.7,-1.1,20.7,20.7,,Starting Motors,Other,Takeoff (RC Assisted),14,4,TRUE,,Mavic Mini,TRUE,FALSE,,Smart,RC,TRUE,TRUE,FALSE,,,TRUE,,FALSE,FALSE,FALSE,FALSE,FALSE,FALSE,FALSE,FALSE,FALSE,FALSE,0,Follow Yaw,0,0,19.2,19.2,FALSE,FALSE,FALSE,FALSE,FALSE,FALSE,,TRUE,Normal,,100,1024,1024,1024,1024,1,FALSE,FALSE,FALSE,FALSE,FALSE,0,FALSE,FALSE,FALSE,FALSE,63,7.669,1307,2063,7.669,FALSE,3.837,3.832,0.005,FALSE,FALSE,NA,113.4,113.3,113.3,,,,,,,,,Idle,,,TRUE,,FALSE,6,Go Home,FALSE,FALSE,FALSE,FALSE,FALSE,FALSE,FALSE,FALSE,FALSE,FALSE,FALSE,FALSE,,,,,,FALSE,,,FALSE,FALSE,FALSE,FALSE,,FALSE,FALSE,FALSE,,,,,Calm,,,1.12.8,Mavic Mini,1SDCH7G0169R0K,1SFLH6Q0AB03DJ,1SRCH7F014TAHX,1U5X071EXP6C9Y,88.9,0.3,9.8,11.258295,4.47388,0,602,Mavic Mini,1SDCH7G0169R0K,1SFLH6Q0AB03DJ,1SRCH7F014TAHX,1U5X071EXP6C9Y,DJI Fly,,1.12.8,31AD7946-3796-A7C4-7ED2-014FC5DFED87,1SDCH7G0169R0K,,,,,,,,,
2/27/2024,11:55.0,8m 24.6s,504.6,6.974621333,79.91439601,0,0,0.3,52,0.2,0,0,0,0,0,0,0,0,4.6,-1.2,20.6,20.6,,Starting Motors,Other,Takeoff (RC Assisted),14,4,TRUE,,Mavic Mini,TRUE,FALSE,,Smart,RC,TRUE,TRUE,FALSE,,,TRUE,,FALSE,FALSE,FALSE,FALSE,FALSE,FALSE,FALSE,FALSE,FALSE,FALSE,0,Follow Yaw,0,0,19.2,19.2,FALSE,FALSE,FALSE,FALSE,FALSE,FALSE,,TRUE,Normal,,100,1024,1024,1024,1024,1,FALSE,FALSE,FALSE,FALSE,FALSE,0,FALSE,FALSE,FALSE,FALSE,63,7.669,1307,2063,7.669,FALSE,3.837,3.832,0.005,FALSE,FALSE,NA,113.4,113.3,113.3,,,,,,,,,Idle,,,TRUE,,FALSE,6,Go Home,FALSE,FALSE,FALSE,FALSE,FALSE,FALSE,FALSE,FALSE,FALSE,FALSE,FALSE,FALSE,,,,,,FALSE,,,FALSE,FALSE,FALSE,FALSE,,FALSE,FALSE,FALSE,,,,,Calm,,,1.12.8,Mavic Mini,1SDCH7G0169R0K,1SFLH6Q0AB03DJ,1SRCH7F014TAHX,1U5X071EXP6C9Y,88.9,0.3,9.8,11.258295,4.47388,0,602,Mavic Mini,1SDCH7G0169R0K,1SFLH6Q0AB03DJ,1SRCH7F014TAHX,1U5X071EXP6C9Y,DJI Fly,,1.12.8,31AD7946-3796-A7C4-7ED2-014FC5DFED87,1SDCH7G0169R0K,,,,,,,,,
2/27/2024,11:55.2,8m 24.7s,504.7,6.974621369,79.91439594,0,0,0.3,52,0.2,0,0,0,0,0,0,0,0,4.7,-1.3,20.6,20.6,,Starting Motors,Other,Takeoff (RC Assisted),14,4,TRUE,,Mavic Mini,TRUE,FALSE,,Smart,RC,TRUE,TRUE,FALSE,,,TRUE,,FALSE,FALSE,FALSE,FALSE,FALSE,FALSE,FALSE,FALSE,FALSE,FALSE,0,Follow Yaw,0,0,19.2,19.2,FALSE,FALSE,FALSE,FALSE,FALSE,FALSE,,TRUE,Normal,,100,1024,1024,1024,1024,1,FALSE,FALSE,FALSE,FALSE,FALSE,0,FALSE,FALSE,FALSE,FALSE,63,7.669,1307,2063,7.66,FALSE,3.837,3.832,0.005,FALSE,FALSE,NA,113.4,113.3,113.3,0,0,0,0,5,2730.8,682.7,,Idle,0,20,FALSE,5,TRUE,6,Go Home,FALSE,FALSE,FALSE,FALSE,FALSE,FALSE,FALSE,FALSE,FALSE,FALSE,FALSE,FALSE,6.974618462,79.91439752,1.2,178.6,328,TRUE,1,1,FALSE,FALSE,FALSE,FALSE,,TRUE,FALSE,FALSE,Course Lock,49.2,254.5,16.4,Calm,39,,1.12.8,Mavic Mini,1SDCH7G0169R0K,1SFLH6Q0AB03DJ,1SRCH7F014TAHX,1U5X071EXP6C9Y,88.9,0.3,9.8,11.258295,4.47388,0,602,Mavic Mini,1SDCH7G0169R0K,1SFLH6Q0AB03DJ,1SRCH7F014TAHX,1U5X071EXP6C9Y,DJI Fly,,1.12.8,31AD7946-3796-A7C4-7ED2-014FC5DFED87,1SDCH7G0169R0K,,,,,,,,Data Recorder File Index is 39.; Set Return to Home (RTH) altitude to 15 m (49 ft).; Set maximum flight altitude to 100 m (328 ft).,
2/27/2024,11:55.3,8m 24.8s,504.8,6.974621395,79.91439591,0,0,0.3,52,0.2,0,0,0,0,0,0,0,0,4.7,-1.3,20.5,20.5,,Starting Motors,Other,Takeoff (RC Assisted),14,4,TRUE,,Mavic Mini,TRUE,FALSE,,Smart,RC,TRUE,TRUE,FALSE,,,TRUE,,FALSE,FALSE,FALSE,FALSE,FALSE,FALSE,FALSE,FALSE,FALSE,FALSE,0,Follow Yaw,0,0,19.2,19.2,FALSE,FALSE,FALSE,FALSE,FALSE,FALSE,,TRUE,Normal,,100,1024,1024,1024,1024,1,FALSE,FALSE,FALSE,FALSE,FALSE,0,FALSE,FALSE,FALSE,FALSE,63,7.669,1307,2063,7.66,FALSE,3.837,3.832,0.005,FALSE,FALSE,NA,113.4,113.3,113.3,0,0,0,0,5,2730.8,682.7,,Idle,0,20,FALSE,5,TRUE,6,Go Home,FALSE,FALSE,FALSE,FALSE,FALSE,FALSE,FALSE,FALSE,FALSE,FALSE,FALSE,FALSE,6.974618462,79.91439752,1.2,178.6,328,TRUE,1,1,FALSE,FALSE,FALSE,FALSE,,TRUE,FALSE,FALSE,Course Lock,49.2,254.5,16.4,Calm,39,,1.12.8,Mavic Mini,1SDCH7G0169R0K,1SFLH6Q0AB03DJ,1SRCH7F014TAHX,1U5X071EXP6C9Y,88.9,0.3,9.8,11.258295,4.47388,0,602,Mavic Mini,1SDCH7G0169R0K,1SFLH6Q0AB03DJ,1SRCH7F014TAHX,1U5X071EXP6C9Y,DJI Fly,,1.12.8,31AD7946-3796-A7C4-7ED2-014FC5DFED87,1SDCH7G0169R0K,,,,,,,,,
2/27/2024,11:55.4,8m 24.9s,504.9,6.974621337,79.91439592,0,0,0.3,52,0.2,0,0,0,0,0,0,0,0,4.7,-1.3,20.7,20.7,,Starting Motors,Other,Takeoff (RC Assisted),14,4,TRUE,,Mavic Mini,TRUE,FALSE,,Smart,RC,TRUE,TRUE,FALSE,,,TRUE,,FALSE,FALSE,FALSE,FALSE,FALSE,FALSE,FALSE,FALSE,FALSE,FALSE,0,Follow Yaw,0,0,19.2,19.2,FALSE,FALSE,FALSE,FALSE,FALSE,FALSE,,TRUE,Normal,,100,1024,1024,1086,1024,1,FALSE,FALSE,FALSE,FALSE,FALSE,0,FALSE,FALSE,FALSE,FALSE,63,7.669,1307,2063,7.66,FALSE,3.837,3.832,0.005,FALSE,FALSE,NA,113.4,113.3,113.3,0,0,0,0,5,2730.8,682.7,,Idle,0,20,FALSE,5,TRUE,6,Go Home,FALSE,FALSE,FALSE,FALSE,FALSE,FALSE,FALSE,FALSE,FALSE,FALSE,FALSE,FALSE,6.974618462,79.91439752,1.1,178.6,328,TRUE,1,1,FALSE,FALSE,FALSE,FALSE,,TRUE,FALSE,FALSE,Course Lock,49.2,254.5,16.4,Calm,39,,1.12.8,Mavic Mini,1SDCH7G0169R0K,1SFLH6Q0AB03DJ,1SRCH7F014TAHX,1U5X071EXP6C9Y,88.9,0.3,9.8,11.258295,4.47388,0,602,Mavic Mini,1SDCH7G0169R0K,1SFLH6Q0AB03DJ,1SRCH7F014TAHX,1U5X071EXP6C9Y,DJI Fly,,1.12.8,31AD7946-3796-A7C4-7ED2-014FC5DFED87,1SDCH7G0169R0K,,,,,,,,,
2/27/2024,11:55.5,8m 25.0s,505,6.974621397,79.91439588,0,0,0.3,52,0.3,0,0,0,0,0,0,0,0,4.6,-1.3,20.6,20.6,,Starting Motors,Other,Takeoff (RC Assisted),14,4,TRUE,,Mavic Mini,TRUE,FALSE,,Smart,RC,TRUE,TRUE,FALSE,,,TRUE,,FALSE,FALSE,FALSE,FALSE,FALSE,FALSE,FALSE,FALSE,FALSE,FALSE,0,Follow Yaw,0,0,19.1,19.1,FALSE,FALSE,FALSE,FALSE,FALSE,FALSE,,TRUE,Normal,,100,1024,1024,1103,1024,1,FALSE,FALSE,FALSE,FALSE,FALSE,0,FALSE,FALSE,FALSE,FALSE,63,7.669,1307,2063,7.66,FALSE,3.837,3.832,0.005,FALSE,FALSE,NA,113.4,113.3,113.3,0,0,0,0,5,2730.8,682.7,,Idle,0,20,FALSE,5,TRUE,6,Go Home,FALSE,FALSE,FALSE,FALSE,FALSE,FALSE,FALSE,FALSE,FALSE,FALSE,FALSE,FALSE,6.974618462,79.91439752,1.2,178.6,328,TRUE,1,1,FALSE,FALSE,FALSE,FALSE,,TRUE,FALSE,FALSE,Course Lock,49.2,254.5,16.4,Calm,39,,1.12.8,Mavic Mini,1SDCH7G0169R0K,1SFLH6Q0AB03DJ,1SRCH7F014TAHX,1U5X071EXP6C9Y,88.9,0.3,9.8,11.258295,4.47388,0,602,Mavic Mini,1SDCH7G0169R0K,1SFLH6Q0AB03DJ,1SRCH7F014TAHX,1U5X071EXP6C9Y,DJI Fly,,1.12.8,31AD7946-3796-A7C4-7ED2-014FC5DFED87,1SDCH7G0169R0K,,,,,,,,,
2/27/2024,11:55.5,8m 25.1s,505.1,6.974621461,79.91439583,0,0,0.3,52,0.3,0,0,0,0,0,0,0,0,4.7,-1.3,20.6,20.6,,Manual Takeoff,Other,Takeoff (RC Assisted),14,4,TRUE,,Mavic Mini,TRUE,FALSE,,Smart,RC,TRUE,TRUE,FALSE,,,TRUE,,FALSE,FALSE,FALSE,FALSE,FALSE,FALSE,FALSE,FALSE,FALSE,FALSE,0,Follow Yaw,0,0,19.1,19.1,FALSE,FALSE,FALSE,FALSE,FALSE,FALSE,,TRUE,Normal,,100,1024,1024,1107,1024,1,FALSE,FALSE,FALSE,FALSE,FALSE,0,FALSE,FALSE,FALSE,FALSE,63,7.669,1307,2063,7.66,FALSE,3.837,3.832,0.005,FALSE,FALSE,NA,113.4,113.3,113.3,0,0,0,0,5,2730.8,682.7,,Idle,0,20,FALSE,5,TRUE,6,Go Home,FALSE,FALSE,FALSE,FALSE,FALSE,FALSE,FALSE,FALSE,FALSE,FALSE,FALSE,FALSE,6.974618462,79.91439752,1.2,178.6,328,TRUE,1,1,FALSE,FALSE,FALSE,FALSE,,TRUE,FALSE,FALSE,Course Lock,49.2,254.5,16.4,Calm,39,,1.12.8,Mavic Mini,1SDCH7G0169R0K,1SFLH6Q0AB03DJ,1SRCH7F014TAHX,1U5X071EXP6C9Y,88.9,0.3,9.8,11.258295,4.47388,0,602,Mavic Mini,1SDCH7G0169R0K,1SFLH6Q0AB03DJ,1SRCH7F014TAHX,1U5X071EXP6C9Y,DJI Fly,,1.12.8,31AD7946-3796-A7C4-7ED2-014FC5DFED87,1SDCH7G0169R0K,,,,,,,,Flight mode changed to Manual Takeoff.,
2/27/2024,11:55.7,8m 25.2s,505.2,6.974621536,79.91439578,0,0,0.3,52,0.3,0,0,0,0,0,0,0,0,4.6,-1.3,20.6,20.6,,Manual Takeoff,Other,Takeoff (RC Assisted),14,4,TRUE,,Mavic Mini,TRUE,FALSE,,Smart,RC,TRUE,TRUE,FALSE,,,TRUE,,FALSE,FALSE,FALSE,FALSE,FALSE,FALSE,FALSE,FALSE,FALSE,FALSE,0,Follow Yaw,0,0,19.1,19.1,FALSE,FALSE,FALSE,FALSE,FALSE,FALSE,,TRUE,Normal,,100,1024,1024,1114,1024,1,FALSE,FALSE,FALSE,FALSE,FALSE,0,FALSE,FALSE,FALSE,FALSE,63,7.669,1307,2063,7.66,FALSE,3.837,3.832,0.005,FALSE,FALSE,NA,113.4,113.3,113.3,0,0,0,0,5,2730.8,682.7,,Idle,0,20,FALSE,5,TRUE,6,Go Home,FALSE,FALSE,FALSE,FALSE,FALSE,FALSE,FALSE,FALSE,FALSE,FALSE,FALSE,FALSE,6.974618462,79.91439752,1.2,178.6,328,TRUE,1,1,FALSE,FALSE,FALSE,FALSE,,TRUE,FALSE,FALSE,Course Lock,49.2,254.5,16.4,Calm,39,,1.12.8,Mavic Mini,1SDCH7G0169R0K,1SFLH6Q0AB03DJ,1SRCH7F014TAHX,1U5X071EXP6C9Y,88.9,0.3,9.8,11.258295,4.47388,0,602,Mavic Mini,1SDCH7G0169R0K,1SFLH6Q0AB03DJ,1SRCH7F014TAHX,1U5X071EXP6C9Y,DJI Fly,,1.12.8,31AD7946-3796-A7C4-7ED2-014FC5DFED87,1SDCH7G0169R0K,,,,,,,,,
2/27/2024,11:55.7,8m 25.3s,505.3,6.974621505,79.91439583,0,0,0.3,52,0.4,0,0,0,0,0,0,0,0,4.5,-1.2,20.6,20.6,,Manual Takeoff,Other,Takeoff (RC Assisted),14,4,TRUE,,Mavic Mini,TRUE,FALSE,,Smart,RC,TRUE,TRUE,FALSE,,,TRUE,,FALSE,FALSE,FALSE,FALSE,FALSE,FALSE,FALSE,FALSE,FALSE,FALSE,0,Follow Yaw,0,0,19.1,19.1,FALSE,FALSE,FALSE,FALSE,FALSE,FALSE,,TRUE,Normal,,100,1024,1024,1114,1024,1,FALSE,FALSE,FALSE,FALSE,FALSE,0,FALSE,FALSE,FALSE,FALSE,63,7.669,1307,2063,7.66,FALSE,3.837,3.832,0.005,FALSE,FALSE,NA,113.4,113.3,113.3,0,0,0,0,5,2730.8,682.7,,Idle,0,20,FALSE,5,TRUE,6,Go Home,FALSE,FALSE,FALSE,FALSE,FALSE,FALSE,FALSE,FALSE,FALSE,FALSE,FALSE,FALSE,6.974618462,79.91439752,1.2,178.6,328,TRUE,1,1,FALSE,FALSE,FALSE,FALSE,,TRUE,FALSE,FALSE,Course Lock,49.2,254.5,16.4,Calm,39,,1.12.8,Mavic Mini,1SDCH7G0169R0K,1SFLH6Q0AB03DJ,1SRCH7F014TAHX,1U5X071EXP6C9Y,88.9,0.3,9.8,11.258295,4.47388,0,602,Mavic Mini,1SDCH7G0169R0K,1SFLH6Q0AB03DJ,1SRCH7F014TAHX,1U5X071EXP6C9Y,DJI Fly,,1.12.8,31AD7946-3796-A7C4-7ED2-014FC5DFED87,1SDCH7G0169R0K,,,,,,,,,
2/27/2024,11:55.8,8m 25.4s,505.4,6.974621528,79.91439583,0,0,0.3,52,0.4,0,0,0,0,0,0,0,0,4.5,-1.2,20.5,20.5,,Manual Takeoff,Other,Takeoff (RC Assisted),13,4,TRUE,,Mavic Mini,TRUE,FALSE,,Smart,RC,TRUE,TRUE,FALSE,,,TRUE,,FALSE,FALSE,FALSE,FALSE,FALSE,FALSE,FALSE,FALSE,FALSE,FALSE,0,Follow Yaw,0,0,19.1,19.1,FALSE,FALSE,FALSE,FALSE,FALSE,FALSE,,TRUE,Normal,,100,1024,1024,1217,1024,1,FALSE,FALSE,FALSE,FALSE,FALSE,0,FALSE,FALSE,FALSE,FALSE,63,7.669,1307,2063,7.66,FALSE,3.837,3.832,0.005,FALSE,FALSE,NA,113.4,113.3,113.3,0,0,0,0,5,2730.8,682.7,,Idle,0,20,FALSE,5,TRUE,6,Go Home,FALSE,FALSE,FALSE,FALSE,FALSE,FALSE,FALSE,FALSE,FALSE,FALSE,FALSE,FALSE,6.974618462,79.91439752,1.2,178.6,328,TRUE,1,1,FALSE,FALSE,FALSE,FALSE,,TRUE,FALSE,FALSE,Course Lock,49.2,254.5,16.4,Calm,39,,1.12.8,Mavic Mini,1SDCH7G0169R0K,1SFLH6Q0AB03DJ,1SRCH7F014TAHX,1U5X071EXP6C9Y,88.9,0.3,9.8,11.258295,4.47388,0,602,Mavic Mini,1SDCH7G0169R0K,1SFLH6Q0AB03DJ,1SRCH7F014TAHX,1U5X071EXP6C9Y,DJI Fly,,1.12.8,31AD7946-3796-A7C4-7ED2-014FC5DFED87,1SDCH7G0169R0K,,,,,,,,,
2/27/2024,11:55.9,8m 25.5s,505.5,6.974621565,79.91439581,0,0,0.3,52,0.4,0,0,0,0,0,0,0,0,4.5,-1.2,20.5,20.5,,Manual Takeoff,Other,Takeoff (RC Assisted),13,4,TRUE,,Mavic Mini,TRUE,FALSE,,Smart,RC,TRUE,TRUE,FALSE,,,TRUE,,FALSE,FALSE,FALSE,FALSE,FALSE,FALSE,FALSE,FALSE,FALSE,FALSE,0,Follow Yaw,0,0,19.1,19.1,FALSE,FALSE,FALSE,FALSE,FALSE,FALSE,,TRUE,Normal,,100,1024,1024,1240,1024,1,FALSE,FALSE,FALSE,FALSE,FALSE,0,FALSE,FALSE,FALSE,FALSE,63,7.635,1307,2063,7.66,FALSE,3.82,3.815,0.005,FALSE,FALSE,NA,113.4,113.3,113.3,0,0,0,0,5,2730.8,682.7,,Idle,0,20,FALSE,5,TRUE,6,Go Home,FALSE,FALSE,FALSE,FALSE,FALSE,FALSE,FALSE,FALSE,FALSE,FALSE,FALSE,FALSE,6.974618462,79.91439752,1.2,178.6,328,TRUE,1,1,FALSE,FALSE,FALSE,FALSE,,TRUE,FALSE,FALSE,Course Lock,49.2,254.5,16.4,Calm,39,,1.12.8,Mavic Mini,1SDCH7G0169R0K,1SFLH6Q0AB03DJ,1SRCH7F014TAHX,1U5X071EXP6C9Y,88.9,0.3,9.8,11.258295,4.47388,0,602,Mavic Mini,1SDCH7G0169R0K,1SFLH6Q0AB03DJ,1SRCH7F014TAHX,1U5X071EXP6C9Y,DJI Fly,,1.12.8,31AD7946-3796-A7C4-7ED2-014FC5DFED87,1SDCH7G0169R0K,,,,,,,,,
2/27/2024,11:56.0,8m 25.6s,505.6,6.974621619,79.91439577,0,0,0.3,52,0.4,0,0,0,0,0,0,0,0,4.2,-1.3,20.1,20.1,,Manual Takeoff,Other,Takeoff (RC Assisted),13,4,TRUE,,Mavic Mini,TRUE,FALSE,,Smart,RC,TRUE,TRUE,FALSE,,,TRUE,,FALSE,FALSE,FALSE,FALSE,FALSE,FALSE,FALSE,FALSE,FALSE,FALSE,0,Follow Yaw,0,0,19,19,FALSE,FALSE,FALSE,FALSE,FALSE,FALSE,,TRUE,Normal,,100,1024,1024,1189,1024,1,FALSE,FALSE,FALSE,FALSE,FALSE,0,FALSE,FALSE,FALSE,FALSE,63,7.635,1307,2063,7.66,FALSE,3.82,3.815,0.005,FALSE,FALSE,NA,113.4,113.3,113.3,0,0,0,0,5,2730.8,682.7,,Idle,0,20,FALSE,5,TRUE,6,Go Home,FALSE,FALSE,FALSE,FALSE,FALSE,FALSE,FALSE,FALSE,FALSE,FALSE,FALSE,FALSE,6.974618462,79.91439752,1.3,178.6,328,TRUE,1,1,FALSE,FALSE,FALSE,FALSE,,TRUE,FALSE,FALSE,Course Lock,49.2,254.5,16.4,Calm,39,,1.12.8,Mavic Mini,1SDCH7G0169R0K,1SFLH6Q0AB03DJ,1SRCH7F014TAHX,1U5X071EXP6C9Y,88.9,0.3,9.8,11.258295,4.47388,0,602,Mavic Mini,1SDCH7G0169R0K,1SFLH6Q0AB03DJ,1SRCH7F014TAHX,1U5X071EXP6C9Y,DJI Fly,,1.12.8,31AD7946-3796-A7C4-7ED2-014FC5DFED87,1SDCH7G0169R0K,,,,,,,,,
2/27/2024,11:56.2,8m 25.7s,505.7,6.974621676,79.91439575,0,0,0.3,52,0.4,0,0,0,0,0,0,0,0,4.2,-1.3,19.4,19.4,,Manual Takeoff,Other,Takeoff (RC Assisted),13,4,TRUE,,Mavic Mini,TRUE,FALSE,,Smart,RC,TRUE,TRUE,FALSE,,,TRUE,,FALSE,FALSE,FALSE,FALSE,FALSE,FALSE,FALSE,FALSE,FALSE,FALSE,0,Follow Yaw,0,0,18.6,18.6,FALSE,FALSE,FALSE,FALSE,FALSE,FALSE,,TRUE,Normal,,100,1024,1024,1189,1024,1,FALSE,FALSE,FALSE,FALSE,FALSE,0,FALSE,FALSE,FALSE,FALSE,63,7.635,1307,2063,7.632,FALSE,3.82,3.815,0.005,FALSE,FALSE,NA,113.4,113.3,113.3,0,0,0,0,5,2770.8,692.72,,Idle,0,20,FALSE,5,TRUE,6,Go Home,FALSE,FALSE,FALSE,FALSE,FALSE,FALSE,FALSE,FALSE,FALSE,FALSE,FALSE,FALSE,6.974618462,79.91439752,1.3,178.6,328,TRUE,1,1,FALSE,FALSE,FALSE,FALSE,,TRUE,FALSE,FALSE,Course Lock,49.2,254.5,16.4,Calm,39,,1.12.8,Mavic Mini,1SDCH7G0169R0K,1SFLH6Q0AB03DJ,1SRCH7F014TAHX,1U5X071EXP6C9Y,88.9,0.3,9.8,11.258295,4.47388,0,602,Mavic Mini,1SDCH7G0169R0K,1SFLH6Q0AB03DJ,1SRCH7F014TAHX,1U5X071EXP6C9Y,DJI Fly,,1.12.8,31AD7946-3796-A7C4-7ED2-014FC5DFED87,1SDCH7G0169R0K,,,,,,,,,
2/27/2024,11:56.2,8m 25.8s,505.8,6.974621727,79.91439578,0,0,0.3,52,0.4,0,0,0,0,0,0,0,0,3.5,-1.1,18.8,18.8,,Manual Takeoff,Other,Takeoff (RC Assisted),13,4,TRUE,,Mavic Mini,TRUE,FALSE,,Smart,RC,TRUE,TRUE,FALSE,,,TRUE,,FALSE,FALSE,FALSE,FALSE,FALSE,FALSE,FALSE,FALSE,FALSE,FALSE,0,Follow Yaw,0,0,17.9,17.9,FALSE,FALSE,FALSE,FALSE,FALSE,FALSE,,TRUE,Normal,,100,1024,1024,1217,1024,1,FALSE,FALSE,FALSE,FALSE,FALSE,0,FALSE,FALSE,FALSE,FALSE,63,7.635,1307,2063,7.632,FALSE,3.82,3.815,0.005,FALSE,FALSE,NA,113.4,113.3,113.3,0,0,0,0,5,2770.8,692.72,,Idle,0,20,FALSE,5,TRUE,6,Go Home,FALSE,FALSE,FALSE,FALSE,FALSE,FALSE,FALSE,FALSE,FALSE,FALSE,FALSE,FALSE,6.974618462,79.91439752,1.3,178.6,328,TRUE,1,1,FALSE,FALSE,FALSE,FALSE,,TRUE,FALSE,FALSE,Course Lock,49.2,254.5,16.4,Calm,39,,1.12.8,Mavic Mini,1SDCH7G0169R0K,1SFLH6Q0AB03DJ,1SRCH7F014TAHX,1U5X071EXP6C9Y,88.9,0.3,9.8,11.258295,4.47388,0,602,Mavic Mini,1SDCH7G0169R0K,1SFLH6Q0AB03DJ,1SRCH7F014TAHX,1U5X071EXP6C9Y,DJI Fly,,1.12.8,31AD7946-3796-A7C4-7ED2-014FC5DFED87,1SDCH7G0169R0K,,,,,,,,,
2/27/2024,11:56.3,8m 25.9s,505.9,6.974621784,79.91439579,0,0,0.3,52,0.5,0,0,0,0,0,0,0,0,2.1,-0.7,18.2,18.2,,Manual Takeoff,Other,Takeoff (RC Assisted),13,4,TRUE,,Mavic Mini,TRUE,FALSE,,Smart,RC,TRUE,TRUE,FALSE,,,TRUE,,FALSE,FALSE,FALSE,FALSE,FALSE,FALSE,FALSE,FALSE,FALSE,FALSE,0,Follow Yaw,0,0,17.3,17.3,FALSE,FALSE,FALSE,FALSE,FALSE,FALSE,,TRUE,Normal,,100,1024,1024,1222,1024,1,FALSE,FALSE,FALSE,FALSE,FALSE,0,FALSE,FALSE,FALSE,FALSE,63,7.635,1307,2063,7.632,FALSE,3.82,3.815,0.005,FALSE,FALSE,NA,113.4,113.3,113.3,0,0,0,0,5,2770.8,692.72,,Idle,0,20,FALSE,5,TRUE,6,Go Home,FALSE,FALSE,FALSE,FALSE,FALSE,FALSE,FALSE,FALSE,FALSE,FALSE,FALSE,FALSE,6.974618462,79.91439752,1.3,178.6,328,TRUE,1,1,FALSE,FALSE,FALSE,FALSE,,TRUE,FALSE,FALSE,Course Lock,49.2,254.5,16.4,Calm,39,,1.12.8,Mavic Mini,1SDCH7G0169R0K,1SFLH6Q0AB03DJ,1SRCH7F014TAHX,1U5X071EXP6C9Y,88.9,0.3,9.8,11.258295,4.47388,0,602,Mavic Mini,1SDCH7G0169R0K,1SFLH6Q0AB03DJ,1SRCH7F014TAHX,1U5X071EXP6C9Y,DJI Fly,,1.12.8,31AD7946-3796-A7C4-7ED2-014FC5DFED87,1SDCH7G0169R0K,,,,,,,,,
2/27/2024,11:56.4,8m 26.0s,506,6.97462183,79.9143958,0,0,0.3,52,0.5,0,0,0,0,0,0,0,0,1.2,-1.2,17.4,17.4,,Manual Takeoff,Other,Takeoff (RC Assisted),13,4,TRUE,,Mavic Mini,TRUE,FALSE,,Smart,RC,TRUE,TRUE,FALSE,,,TRUE,,FALSE,FALSE,FALSE,FALSE,FALSE,FALSE,FALSE,FALSE,FALSE,FALSE,0,Follow Yaw,0,0,16.6,16.6,FALSE,FALSE,FALSE,FALSE,FALSE,FALSE,,TRUE,Normal,,100,1024,1024,1221,1024,1,FALSE,FALSE,FALSE,FALSE,FALSE,0,FALSE,FALSE,FALSE,FALSE,63,7.635,1307,2063,7.632,FALSE,3.82,3.815,0.005,FALSE,FALSE,NA,113.4,113.3,113.3,0,0,0,0,5,2770.8,692.72,,Idle,0,20,FALSE,5,TRUE,6,Go Home,FALSE,FALSE,FALSE,FALSE,FALSE,FALSE,FALSE,FALSE,FALSE,FALSE,FALSE,FALSE,6.974618462,79.91439752,1.3,178.6,328,TRUE,1,1,FALSE,FALSE,FALSE,FALSE,,TRUE,FALSE,FALSE,Course Lock,49.2,254.5,16.4,Calm,39,,1.12.8,Mavic Mini,1SDCH7G0169R0K,1SFLH6Q0AB03DJ,1SRCH7F014TAHX,1U5X071EXP6C9Y,88.9,0.3,9.8,11.258295,4.47388,0,602,Mavic Mini,1SDCH7G0169R0K,1SFLH6Q0AB03DJ,1SRCH7F014TAHX,1U5X071EXP6C9Y,DJI Fly,,1.12.8,31AD7946-3796-A7C4-7ED2-014FC5DFED87,1SDCH7G0169R0K,,,,,6.974666789,79.91439379,5,,
2/27/2024,11:56.5,8m 26.1s,506.1,6.974621852,79.91439579,0,0,0.3,52,0.5,0,0,0,0,0,0,-0.223694,0,1.1,-1.4,16.5,16.5,,Manual Takeoff,Other,Takeoff (RC Assisted),13,4,TRUE,,Mavic Mini,TRUE,FALSE,,Smart,RC,FALSE,TRUE,FALSE,,,TRUE,,FALSE,FALSE,FALSE,FALSE,FALSE,FALSE,FALSE,FALSE,FALSE,FALSE,0,Follow Yaw,0,0,15.8,15.8,FALSE,FALSE,FALSE,FALSE,FALSE,FALSE,,TRUE,Normal,,100,1024,1024,1225,1024,1,FALSE,FALSE,FALSE,FALSE,FALSE,0,FALSE,FALSE,FALSE,FALSE,63,7.635,1307,2063,7.632,FALSE,3.82,3.815,0.005,FALSE,FALSE,NA,113.4,113.3,113.3,0,0,0,0,5,2770.8,692.72,,Idle,0,20,FALSE,5,TRUE,6,Go Home,FALSE,FALSE,FALSE,FALSE,FALSE,FALSE,FALSE,FALSE,FALSE,FALSE,FALSE,FALSE,6.974618462,79.91439752,1.3,178.6,328,TRUE,1,1,FALSE,FALSE,FALSE,FALSE,,TRUE,FALSE,FALSE,Course Lock,49.2,254.5,16.4,Calm,39,,1.12.8,Mavic Mini,1SDCH7G0169R0K,1SFLH6Q0AB03DJ,1SRCH7F014TAHX,1U5X071EXP6C9Y,88.9,0.3,9.8,11.258295,4.47388,0,602,Mavic Mini,1SDCH7G0169R0K,1SFLH6Q0AB03DJ,1SRCH7F014TAHX,1U5X071EXP6C9Y,DJI Fly,,1.12.8,31AD7946-3796-A7C4-7ED2-014FC5DFED87,1SDCH7G0169R0K,,,,,6.974666789,79.91439379,5,,
2/27/2024,11:56.6,8m 26.2s,506.2,6.974621861,79.91439575,0,0,0.3,52,0.5,0,0,0,0,0,0,-0.447388,0,1.9,-1.5,16.4,16.4,,P-GPS,Other,,13,4,TRUE,,Mavic Mini,TRUE,FALSE,,Smart,RC,FALSE,TRUE,FALSE,,,TRUE,,FALSE,FALSE,FALSE,FALSE,FALSE,FALSE,FALSE,FALSE,FALSE,FALSE,0,Follow Yaw,0,0,15.6,15.6,FALSE,FALSE,FALSE,FALSE,FALSE,FALSE,,TRUE,Normal,,100,1024,1024,1225,1024,1,FALSE,FALSE,FALSE,FALSE,FALSE,0,FALSE,FALSE,FALSE,FALSE,63,7.635,1307,2063,7.632,FALSE,3.82,3.815,0.005,FALSE,FALSE,NA,113.4,113.3,113.3,0,0,0,0,5,2770.8,692.72,,Idle,0,20,FALSE,5,TRUE,6,Go Home,FALSE,FALSE,FALSE,FALSE,FALSE,FALSE,FALSE,FALSE,FALSE,FALSE,FALSE,FALSE,6.974618462,79.91439752,1.3,178.6,328,TRUE,1,1,FALSE,FALSE,FALSE,FALSE,,TRUE,FALSE,FALSE,Course Lock,49.2,254.5,16.4,Calm,39,,1.12.8,Mavic Mini,1SDCH7G0169R0K,1SFLH6Q0AB03DJ,1SRCH7F014TAHX,1U5X071EXP6C9Y,88.9,0.3,9.8,11.258295,4.47388,0,602,Mavic Mini,1SDCH7G0169R0K,1SFLH6Q0AB03DJ,1SRCH7F014TAHX,1U5X071EXP6C9Y,DJI Fly,,1.12.8,31AD7946-3796-A7C4-7ED2-014FC5DFED87,1SDCH7G0169R0K,,,,,6.974666789,79.91439379,5,Flight mode changed to P-GPS.,
2/27/2024,11:56.7,8m 26.3s,506.3,6.974621872,79.91439571,0,0,0.3,52,0.5,0,0,0,0,0,0,-0.671082,0,0.3,-0.7,16.8,16.8,,P-GPS,Other,,13,4,TRUE,,Mavic Mini,TRUE,FALSE,,Smart,RC,FALSE,TRUE,FALSE,,,TRUE,,FALSE,FALSE,FALSE,FALSE,FALSE,FALSE,FALSE,FALSE,FALSE,FALSE,0,Follow Yaw,0,0,15.6,15.6,FALSE,FALSE,FALSE,FALSE,FALSE,FALSE,,TRUE,Normal,,100,1024,1024,1224,1024,1,FALSE,FALSE,FALSE,FALSE,FALSE,0,FALSE,FALSE,FALSE,FALSE,63,7.635,1307,2063,7.632,FALSE,3.82,3.815,0.005,FALSE,FALSE,NA,113.4,113.3,113.3,0,0,0,0,5,2770.8,692.72,,Idle,0,20,FALSE,5,TRUE,6,Go Home,FALSE,FALSE,FALSE,FALSE,FALSE,FALSE,FALSE,FALSE,FALSE,FALSE,FALSE,FALSE,6.974618462,79.91439752,1.4,178.6,328,TRUE,1,1,FALSE,FALSE,FALSE,FALSE,,TRUE,FALSE,FALSE,Course Lock,49.2,254.5,16.4,Calm,39,,1.12.8,Mavic Mini,1SDCH7G0169R0K,1SFLH6Q0AB03DJ,1SRCH7F014TAHX,1U5X071EXP6C9Y,88.9,0.3,9.8,11.258295,4.47388,0,602,Mavic Mini,1SDCH7G0169R0K,1SFLH6Q0AB03DJ,1SRCH7F014TAHX,1U5X071EXP6C9Y,DJI Fly,,1.12.8,31AD7946-3796-A7C4-7ED2-014FC5DFED87,1SDCH7G0169R0K,,,,,6.974666789,79.91439379,5,,
2/27/2024,11:56.8,8m 26.4s,506.4,6.974621887,79.91439567,0,0,0.6,52,0.5,0,0,0,0,0,0,-0.894776,0,-0.3,0,16.9,16.9,,P-GPS,Other,,13,4,TRUE,,Mavic Mini,TRUE,FALSE,,Smart,RC,FALSE,TRUE,FALSE,,,TRUE,,FALSE,FALSE,FALSE,FALSE,FALSE,FALSE,FALSE,FALSE,FALSE,FALSE,0,Follow Yaw,0,0,15.6,15.6,FALSE,FALSE,FALSE,FALSE,FALSE,FALSE,,TRUE,Normal,,100,1024,1024,1224,1024,1,FALSE,FALSE,FALSE,FALSE,FALSE,0,FALSE,FALSE,FALSE,FALSE,63,7.635,1307,2063,7.632,FALSE,3.82,3.815,0.005,FALSE,FALSE,NA,113.4,113.3,113.3,0,0,0,0,5,2770.8,692.72,,Idle,0,20,FALSE,5,TRUE,6,Go Home,FALSE,FALSE,FALSE,FALSE,FALSE,FALSE,FALSE,FALSE,FALSE,FALSE,FALSE,FALSE,6.974618462,79.91439752,1.4,178.6,328,TRUE,1,1,FALSE,FALSE,FALSE,FALSE,,TRUE,FALSE,FALSE,Course Lock,49.2,254.5,16.4,Calm,39,,1.12.8,Mavic Mini,1SDCH7G0169R0K,1SFLH6Q0AB03DJ,1SRCH7F014TAHX,1U5X071EXP6C9Y,88.9,0.3,9.8,11.258295,4.47388,0,602,Mavic Mini,1SDCH7G0169R0K,1SFLH6Q0AB03DJ,1SRCH7F014TAHX,1U5X071EXP6C9Y,DJI Fly,,1.12.8,31AD7946-3796-A7C4-7ED2-014FC5DFED87,1SDCH7G0169R0K,,,,,6.974666789,79.91439379,5,,
2/27/2024,11:57.0,8m 26.5s,506.5,6.974621855,79.91439565,0,0,0.6,52,0.6,0,0,0,0,0,0,-1.11847,0,-0.1,0.2,16.9,16.9,,P-GPS,Other,,13,4,TRUE,,Mavic Mini,TRUE,FALSE,,Smart,RC,FALSE,TRUE,FALSE,,,TRUE,,FALSE,FALSE,FALSE,FALSE,FALSE,FALSE,FALSE,FALSE,FALSE,FALSE,0,Follow Yaw,0,0,15.6,15.6,FALSE,FALSE,FALSE,FALSE,FALSE,FALSE,,TRUE,Normal,,100,1024,1024,1224,1024,1,FALSE,FALSE,FALSE,FALSE,FALSE,0,FALSE,FALSE,FALSE,FALSE,63,7.635,1307,2063,7.632,FALSE,3.82,3.815,0.005,FALSE,FALSE,NA,113.4,113.3,113.3,0,0,0,0,5,2770.8,692.72,,Idle,0,20,FALSE,5,TRUE,6,Go Home,FALSE,FALSE,FALSE,FALSE,FALSE,FALSE,FALSE,FALSE,FALSE,FALSE,FALSE,FALSE,6.974618462,79.91439752,1.4,178.6,328,TRUE,1,1,FALSE,FALSE,FALSE,FALSE,,TRUE,FALSE,FALSE,Course Lock,49.2,254.5,16.4,Calm,39,,1.12.8,Mavic Mini,1SDCH7G0169R0K,1SFLH6Q0AB03DJ,1SRCH7F014TAHX,1U5X071EXP6C9Y,88.9,0.3,9.8,11.258295,4.47388,0,602,Mavic Mini,1SDCH7G0169R0K,1SFLH6Q0AB03DJ,1SRCH7F014TAHX,1U5X071EXP6C9Y,DJI Fly,,1.12.8,31AD7946-3796-A7C4-7ED2-014FC5DFED87,1SDCH7G0169R0K,,,,,6.974666789,79.91439379,5,,
2/27/2024,11:57.2,8m 26.6s,506.6,6.974621619,79.9143957,0.3,0.3,0.9,52,0.6,0,0,0,0,0,0,-1.11847,0,0.1,-0.1,16.8,16.8,,P-GPS,Other,,13,4,TRUE,,Mavic Mini,TRUE,FALSE,,Smart,RC,FALSE,TRUE,FALSE,,,TRUE,,FALSE,FALSE,FALSE,FALSE,FALSE,FALSE,FALSE,FALSE,FALSE,FALSE,0,Follow Yaw,0,0,15.6,15.6,FALSE,FALSE,FALSE,FALSE,FALSE,FALSE,,TRUE,Normal,,100,1024,1024,1210,1024,1,FALSE,FALSE,FALSE,FALSE,FALSE,0,FALSE,FALSE,FALSE,FALSE,63,7.45,1305,2063,7.632,FALSE,3.713,3.737,0.024,FALSE,FALSE,NA,113.5,113.3,113.5,0,0,0,0,5,2770.8,692.72,,Idle,0,20,FALSE,5,TRUE,6,Go Home,FALSE,FALSE,FALSE,FALSE,FALSE,FALSE,FALSE,FALSE,FALSE,FALSE,FALSE,FALSE,6.974618462,79.91439752,1.3,178.6,328,TRUE,1,1,FALSE,FALSE,FALSE,FALSE,,TRUE,FALSE,FALSE,Course Lock,49.2,254.5,16.4,Calm,39,,1.12.8,Mavic Mini,1SDCH7G0169R0K,1SFLH6Q0AB03DJ,1SRCH7F014TAHX,1U5X071EXP6C9Y,88.9,0.3,9.8,11.258295,4.47388,0,602,Mavic Mini,1SDCH7G0169R0K,1SFLH6Q0AB03DJ,1SRCH7F014TAHX,1U5X071EXP6C9Y,DJI Fly,,1.12.8,31AD7946-3796-A7C4-7ED2-014FC5DFED87,1SDCH7G0169R0K,,,,,6.974666789,79.91439379,5,,
2/27/2024,11:57.2,8m 26.7s,506.7,6.974621575,79.91439572,0.6,0.6,0.9,52,0.7,0,0,0,0,0,0,-1.11847,0,0.3,-0.4,16.9,16.9,,P-GPS,Other,,13,4,TRUE,,Mavic Mini,TRUE,FALSE,,Smart,RC,FALSE,TRUE,FALSE,,,TRUE,,FALSE,FALSE,FALSE,FALSE,FALSE,FALSE,FALSE,FALSE,FALSE,FALSE,0,Follow Yaw,0,0,15.6,15.6,FALSE,FALSE,FALSE,FALSE,FALSE,FALSE,,TRUE,Normal,,100,1024,1024,1218,1024,1,FALSE,FALSE,FALSE,FALSE,FALSE,0,FALSE,FALSE,FALSE,FALSE,63,7.45,1305,2063,7.611,FALSE,3.713,3.737,0.024,FALSE,FALSE,NA,113.5,113.3,113.5,0,0,0,0,5,3223.9,805.99,,Idle,0,20,FALSE,5,TRUE,6,Go Home,FALSE,FALSE,FALSE,FALSE,FALSE,FALSE,FALSE,FALSE,FALSE,FALSE,FALSE,FALSE,6.974621856,79.91439578,0.1,178.6,328,TRUE,1,1,FALSE,FALSE,FALSE,FALSE,,TRUE,FALSE,FALSE,Course Lock,49.2,254.5,16.4,Calm,39,,1.12.8,Mavic Mini,1SDCH7G0169R0K,1SFLH6Q0AB03DJ,1SRCH7F014TAHX,1U5X071EXP6C9Y,88.9,0.3,9.8,11.258295,4.47388,0,602,Mavic Mini,1SDCH7G0169R0K,1SFLH6Q0AB03DJ,1SRCH7F014TAHX,1U5X071EXP6C9Y,DJI Fly,,1.12.8,31AD7946-3796-A7C4-7ED2-014FC5DFED87,1SDCH7G0169R0K,,,,,6.974666789,79.91439379,5,Home Point Updated.,
2/27/2024,11:57.2,8m 26.8s,506.8,6.974621551,79.91439576,0.6,0.6,1.3,52,0.7,0,0,0,0,0,0,-1.11847,0,0.4,-0.8,16.9,16.9,,P-GPS,Other,,13,4,TRUE,,Mavic Mini,TRUE,FALSE,,Smart,RC,FALSE,TRUE,FALSE,,,TRUE,,FALSE,FALSE,FALSE,FALSE,FALSE,FALSE,FALSE,FALSE,FALSE,FALSE,0,Follow Yaw,0,0,15.6,15.6,FALSE,FALSE,FALSE,FALSE,FALSE,FALSE,,TRUE,Normal,,100,1024,1024,1169,1024,1,FALSE,FALSE,FALSE,FALSE,FALSE,0,FALSE,FALSE,FALSE,FALSE,63,7.45,1305,2063,7.611,FALSE,3.713,3.737,0.024,FALSE,FALSE,NA,113.5,113.3,113.5,0,0,0,0,5,3223.9,805.99,,Idle,0,20,FALSE,5,TRUE,6,Go Home,FALSE,FALSE,FALSE,FALSE,FALSE,FALSE,FALSE,FALSE,FALSE,FALSE,FALSE,FALSE,6.974621856,79.91439578,0.1,178.6,328,TRUE,1,1,FALSE,FALSE,FALSE,FALSE,,TRUE,FALSE,FALSE,Course Lock,49.2,254.5,16.4,Calm,39,,1.12.8,Mavic Mini,1SDCH7G0169R0K,1SFLH6Q0AB03DJ,1SRCH7F014TAHX,1U5X071EXP6C9Y,88.9,0.3,9.8,11.258295,4.47388,0,602,Mavic Mini,1SDCH7G0169R0K,1SFLH6Q0AB03DJ,1SRCH7F014TAHX,1U5X071EXP6C9Y,DJI Fly,,1.12.8,31AD7946-3796-A7C4-7ED2-014FC5DFED87,1SDCH7G0169R0K,,,,,6.974666789,79.91439379,5,,
2/27/2024,11:57.3,8m 26.9s,506.9,6.97462149,79.91439579,0.9,0.9,1.3,53,0.7,0,0,0,0,0,0,-0.894776,0,0,-0.8,16.8,16.8,,P-GPS,Other,,13,4,TRUE,,Mavic Mini,TRUE,FALSE,,Smart,RC,FALSE,TRUE,FALSE,,,TRUE,,FALSE,FALSE,FALSE,FALSE,FALSE,FALSE,FALSE,FALSE,FALSE,FALSE,0,Follow Yaw,0,0,15.6,15.6,FALSE,FALSE,FALSE,FALSE,FALSE,FALSE,,TRUE,Normal,,100,1024,1024,1240,1024,1,FALSE,FALSE,FALSE,FALSE,FALSE,0,FALSE,FALSE,FALSE,FALSE,63,7.45,1305,2063,7.611,FALSE,3.713,3.737,0.024,FALSE,FALSE,NA,113.5,113.3,113.5,0,0,0,0,5,3223.9,805.99,,Idle,0,20,FALSE,5,TRUE,6,Go Home,FALSE,FALSE,FALSE,FALSE,FALSE,FALSE,FALSE,FALSE,FALSE,FALSE,FALSE,FALSE,6.974621856,79.91439578,0.1,178.6,328,TRUE,1,1,FALSE,FALSE,FALSE,FALSE,,TRUE,FALSE,FALSE,Course Lock,49.2,254.5,16.4,Calm,39,,1.12.8,Mavic Mini,1SDCH7G0169R0K,1SFLH6Q0AB03DJ,1SRCH7F014TAHX,1U5X071EXP6C9Y,88.9,0.3,9.8,11.258295,4.47388,0,602,Mavic Mini,1SDCH7G0169R0K,1SFLH6Q0AB03DJ,1SRCH7F014TAHX,1U5X071EXP6C9Y,DJI Fly,,1.12.8,31AD7946-3796-A7C4-7ED2-014FC5DFED87,1SDCH7G0169R0K,,,,,6.974666789,79.91439379,5,,
2/27/2024,11:57.5,8m 27.0s,507,6.97462125,79.91439581,0.9,0.9,1.6,53,0.8,0,0,0,0,0,0,-0.894776,0,0.3,-1.1,16.7,16.7,,P-GPS,Other,,14,5,TRUE,,Mavic Mini,TRUE,FALSE,,Smart,RC,FALSE,TRUE,FALSE,,,TRUE,,FALSE,FALSE,FALSE,FALSE,FALSE,FALSE,FALSE,FALSE,FALSE,FALSE,0,Follow Yaw,0,0,15.6,15.6,FALSE,FALSE,FALSE,FALSE,FALSE,FALSE,,TRUE,Normal,,100,1024,1024,1240,1024,1,FALSE,FALSE,FALSE,FALSE,FALSE,0,FALSE,FALSE,FALSE,FALSE,63,7.45,1305,2063,7.611,FALSE,3.713,3.737,0.024,FALSE,FALSE,NA,113.5,113.3,113.5,0,0,0,0,5,3223.9,805.99,,Idle,0,20,FALSE,5,TRUE,6,Go Home,FALSE,FALSE,FALSE,FALSE,FALSE,FALSE,FALSE,FALSE,FALSE,FALSE,FALSE,FALSE,6.974621856,79.91439578,0.2,178.6,328,TRUE,1,1,FALSE,FALSE,FALSE,FALSE,,TRUE,FALSE,FALSE,Course Lock,49.2,254.5,16.4,Calm,39,,1.12.8,Mavic Mini,1SDCH7G0169R0K,1SFLH6Q0AB03DJ,1SRCH7F014TAHX,1U5X071EXP6C9Y,88.9,0.3,9.8,11.258295,4.47388,0,602,Mavic Mini,1SDCH7G0169R0K,1SFLH6Q0AB03DJ,1SRCH7F014TAHX,1U5X071EXP6C9Y,DJI Fly,,1.12.8,31AD7946-3796-A7C4-7ED2-014FC5DFED87,1SDCH7G0169R0K,,,,,6.974666789,79.91439379,5,,
2/27/2024,11:57.5,8m 27.1s,507.1,6.974621232,79.91439585,0.9,0.9,1.6,53,0.8,0,0,0,0,0,0,-0.671082,0,0.7,-0.7,16.7,16.7,,P-GPS,Other,,14,5,TRUE,,Mavic Mini,TRUE,FALSE,,Smart,RC,FALSE,TRUE,FALSE,,,TRUE,,FALSE,FALSE,FALSE,FALSE,FALSE,FALSE,FALSE,FALSE,FALSE,FALSE,0,Follow Yaw,0,0,15.6,15.6,FALSE,FALSE,FALSE,FALSE,FALSE,FALSE,,TRUE,Normal,,100,1024,1024,1366,1024,1,FALSE,FALSE,FALSE,FALSE,FALSE,0,FALSE,FALSE,FALSE,FALSE,63,7.45,1305,2063,7.611,FALSE,3.713,3.737,0.024,FALSE,FALSE,NA,113.5,113.3,113.5,0,0,0,0,5,3223.9,805.99,,Idle,0,20,FALSE,5,TRUE,6,Go Home,FALSE,FALSE,FALSE,FALSE,FALSE,FALSE,FALSE,FALSE,FALSE,FALSE,FALSE,FALSE,6.974621856,79.91439578,0.2,178.6,328,TRUE,1,1,FALSE,FALSE,FALSE,FALSE,,TRUE,FALSE,FALSE,Course Lock,49.2,254.5,16.4,Calm,39,,1.12.8,Mavic Mini,1SDCH7G0169R0K,1SFLH6Q0AB03DJ,1SRCH7F014TAHX,1U5X071EXP6C9Y,88.9,0.3,9.8,11.258295,4.47388,0,602,Mavic Mini,1SDCH7G0169R0K,1SFLH6Q0AB03DJ,1SRCH7F014TAHX,1U5X071EXP6C9Y,DJI Fly,,1.12.8,31AD7946-3796-A7C4-7ED2-014FC5DFED87,1SDCH7G0169R0K,,,,,6.974666789,79.91439379,5,,
2/27/2024,11:57.6,8m 27.2s,507.2,6.974621268,79.91439592,0.9,0.9,1.9,53,0.8,0,0,0,0,0,0,-0.671082,0,0.1,0,16.8,16.8,,P-GPS,Other,,14,5,TRUE,,Mavic Mini,TRUE,FALSE,,Smart,RC,FALSE,TRUE,FALSE,,,TRUE,,FALSE,FALSE,FALSE,FALSE,FALSE,FALSE,FALSE,FALSE,FALSE,FALSE,0,Follow Yaw,0,0,15.6,15.6,FALSE,FALSE,FALSE,FALSE,FALSE,FALSE,,TRUE,Normal,,100,1024,1024,1521,1024,1,FALSE,FALSE,FALSE,FALSE,FALSE,0,FALSE,FALSE,FALSE,FALSE,63,7.45,1305,2063,7.611,FALSE,3.713,3.737,0.024,FALSE,FALSE,NA,113.5,113.3,113.5,0,0,0,0,5,3223.9,805.99,,Idle,0,20,FALSE,5,TRUE,6,Go Home,FALSE,FALSE,FALSE,FALSE,FALSE,FALSE,FALSE,FALSE,FALSE,FALSE,FALSE,FALSE,6.974621856,79.91439578,0.2,178.6,328,TRUE,1,1,FALSE,FALSE,FALSE,FALSE,,TRUE,FALSE,FALSE,Course Lock,49.2,254.5,16.4,Calm,39,,1.12.8,Mavic Mini,1SDCH7G0169R0K,1SFLH6Q0AB03DJ,1SRCH7F014TAHX,1U5X071EXP6C9Y,88.9,0.3,9.8,11.258295,4.47388,0,602,Mavic Mini,1SDCH7G0169R0K,1SFLH6Q0AB03DJ,1SRCH7F014TAHX,1U5X071EXP6C9Y,DJI Fly,,1.12.8,31AD7946-3796-A7C4-7ED2-014FC5DFED87,1SDCH7G0169R0K,,,,,6.974666789,79.91439379,5,,
2/27/2024,11:57.7,8m 27.3s,507.3,6.97462128,79.91439595,1.3,1.3,1.9,53,0.8,0,0,0,0,0,0,-0.671082,0,-0.3,0,16.8,16.8,,P-GPS,Other,,14,5,TRUE,,Mavic Mini,TRUE,FALSE,,Smart,RC,FALSE,TRUE,FALSE,,,TRUE,,FALSE,FALSE,FALSE,FALSE,FALSE,FALSE,FALSE,FALSE,FALSE,FALSE,0,Follow Yaw,0,0,15.6,15.6,FALSE,FALSE,FALSE,FALSE,FALSE,FALSE,,TRUE,Normal,,100,1024,1024,1639,1024,1,FALSE,FALSE,FALSE,FALSE,FALSE,0,FALSE,FALSE,FALSE,FALSE,63,7.45,1305,2063,7.611,FALSE,3.713,3.737,0.024,FALSE,FALSE,NA,113.5,113.3,113.5,0,0,0,0,5,3223.9,805.99,,Idle,0,20,FALSE,5,TRUE,6,Go Home,FALSE,FALSE,FALSE,FALSE,FALSE,FALSE,FALSE,FALSE,FALSE,FALSE,FALSE,FALSE,6.974621856,79.91439578,0.2,178.6,328,TRUE,1,1,FALSE,FALSE,FALSE,FALSE,,TRUE,FALSE,FALSE,Course Lock,49.2,254.5,16.4,Calm,39,,1.12.8,Mavic Mini,1SDCH7G0169R0K,1SFLH6Q0AB03DJ,1SRCH7F014TAHX,1U5X071EXP6C9Y,88.9,0.3,9.8,11.258295,4.47388,0,602,Mavic Mini,1SDCH7G0169R0K,1SFLH6Q0AB03DJ,1SRCH7F014TAHX,1U5X071EXP6C9Y,DJI Fly,,1.12.8,31AD7946-3796-A7C4-7ED2-014FC5DFED87,1SDCH7G0169R0K,,,,,6.974666789,79.91439379,5,,
2/27/2024,11:57.8,8m 27.4s,507.4,6.974621285,79.91439596,1.3,1.3,2.2,53,0.8,0,0,0,0,0,0,-1.11847,0,0.4,0,16.9,16.9,,P-GPS,Other,,13,5,TRUE,,Mavic Mini,TRUE,FALSE,,Smart,RC,FALSE,TRUE,FALSE,,,TRUE,,FALSE,FALSE,FALSE,FALSE,FALSE,FALSE,FALSE,FALSE,FALSE,FALSE,0,Follow Yaw,0,0,15.6,15.6,FALSE,FALSE,FALSE,FALSE,FALSE,FALSE,,TRUE,Normal,,100,1024,1024,1684,1024,1,FALSE,FALSE,FALSE,FALSE,FALSE,0,FALSE,FALSE,FALSE,FALSE,63,7.45,1305,2063,7.611,FALSE,3.713,3.737,0.024,FALSE,FALSE,NA,113.5,113.3,113.5,0,0,0,0,5,3223.9,805.99,,Idle,0,20,FALSE,5,TRUE,6,Go Home,FALSE,FALSE,FALSE,FALSE,FALSE,FALSE,FALSE,FALSE,FALSE,FALSE,FALSE,FALSE,6.974621856,79.91439578,0.2,178.6,328,TRUE,1,1,FALSE,FALSE,FALSE,FALSE,,TRUE,FALSE,FALSE,Course Lock,49.2,254.5,16.4,Calm,39,,1.12.8,Mavic Mini,1SDCH7G0169R0K,1SFLH6Q0AB03DJ,1SRCH7F014TAHX,1U5X071EXP6C9Y,88.9,0.3,9.8,11.258295,4.47388,0,602,Mavic Mini,1SDCH7G0169R0K,1SFLH6Q0AB03DJ,1SRCH7F014TAHX,1U5X071EXP6C9Y,DJI Fly,,1.12.8,31AD7946-3796-A7C4-7ED2-014FC5DFED87,1SDCH7G0169R0K,,,,,6.974666789,79.91439379,5,,
2/27/2024,11:57.9,8m 27.5s,507.5,6.974621332,79.91439604,1.6,1.6,2.6,53,0.9,0,0,0,0,0,0,-1.789552,0,0.6,0.4,16.9,16.9,,P-GPS,Other,,13,5,TRUE,,Mavic Mini,TRUE,FALSE,,Smart,RC,FALSE,TRUE,FALSE,,,TRUE,,FALSE,FALSE,FALSE,FALSE,FALSE,FALSE,FALSE,FALSE,FALSE,FALSE,0,Follow Yaw,0,0,15.6,15.6,FALSE,FALSE,FALSE,FALSE,FALSE,FALSE,,TRUE,Normal,,100,1024,1024,1684,1024,1,FALSE,FALSE,FALSE,FALSE,FALSE,0,FALSE,FALSE,FALSE,FALSE,63,7.45,1305,2063,7.611,FALSE,3.713,3.737,0.024,FALSE,FALSE,NA,113.5,113.3,113.5,0,0,0,0,5,3223.9,805.99,,Idle,0,20,FALSE,5,TRUE,6,Go Home,FALSE,FALSE,FALSE,FALSE,FALSE,FALSE,FALSE,FALSE,FALSE,FALSE,FALSE,FALSE,6.974621856,79.91439578,0.2,178.6,328,TRUE,1,1,FALSE,FALSE,FALSE,FALSE,,TRUE,FALSE,FALSE,Course Lock,49.2,254.5,16.4,Calm,39,,1.12.8,Mavic Mini,1SDCH7G0169R0K,1SFLH6Q0AB03DJ,1SRCH7F014TAHX,1U5X071EXP6C9Y,88.9,0.3,9.8,11.258295,4.47388,0,602,Mavic Mini,1SDCH7G0169R0K,1SFLH6Q0AB03DJ,1SRCH7F014TAHX,1U5X071EXP6C9Y,DJI Fly,,1.12.8,31AD7946-3796-A7C4-7ED2-014FC5DFED87,1SDCH7G0169R0K,,,,,6.974666789,79.91439379,5,,
2/27/2024,11:58.2,8m 27.6s,507.6,6.974621269,79.91439608,1.9,1.9,2.9,54,0.9,0,0,0,0,0,0,-2.460634,0,0.8,0.2,16.9,16.9,,P-GPS,Other,,13,5,TRUE,,Mavic Mini,TRUE,FALSE,,Smart,RC,FALSE,TRUE,FALSE,,,TRUE,,FALSE,FALSE,FALSE,FALSE,FALSE,FALSE,FALSE,FALSE,FALSE,FALSE,0,Follow Yaw,0,0,15.6,15.6,FALSE,FALSE,FALSE,FALSE,FALSE,FALSE,,TRUE,Normal,,100,1024,1024,1684,1024,1,FALSE,FALSE,FALSE,FALSE,FALSE,0,FALSE,FALSE,FALSE,FALSE,63,7.45,1305,2063,7.611,FALSE,3.713,3.737,0.024,FALSE,FALSE,NA,113.5,113.3,113.5,0,0,0,0,5,3223.9,805.99,,Idle,0,20,FALSE,5,TRUE,6,Go Home,FALSE,FALSE,FALSE,FALSE,FALSE,FALSE,FALSE,FALSE,FALSE,FALSE,FALSE,FALSE,6.974621856,79.91439578,0.2,178.6,328,TRUE,1,1,FALSE,FALSE,FALSE,FALSE,,TRUE,FALSE,FALSE,Course Lock,49.2,254.5,16.4,Calm,39,,1.12.8,Mavic Mini,1SDCH7G0169R0K,1SFLH6Q0AB03DJ,1SRCH7F014TAHX,1U5X071EXP6C9Y,88.9,0.3,9.8,11.258295,4.47388,0,602,Mavic Mini,1SDCH7G0169R0K,1SFLH6Q0AB03DJ,1SRCH7F014TAHX,1U5X071EXP6C9Y,DJI Fly,,1.12.8,31AD7946-3796-A7C4-7ED2-014FC5DFED87,1SDCH7G0169R0K,,,,,6.974666789,79.91439379,5,,
2/27/2024,11:58.2,8m 27.7s,507.7,6.974621239,79.9143961,2.2,2.2,3.2,54,0.9,0,0,0,0,0,0,-3.131716,0,0.6,0,16.8,16.8,,P-GPS,Other,,13,5,TRUE,,Mavic Mini,TRUE,FALSE,,Smart,RC,FALSE,TRUE,FALSE,,,TRUE,,FALSE,FALSE,FALSE,FALSE,FALSE,FALSE,FALSE,FALSE,FALSE,FALSE,0,Follow Yaw,0,0,15.6,15.6,FALSE,FALSE,FALSE,FALSE,FALSE,FALSE,,TRUE,Normal,,100,1024,1024,1684,1024,1,FALSE,FALSE,FALSE,FALSE,FALSE,0,FALSE,FALSE,FALSE,FALSE,63,7.416,1304,2063,7.411,FALSE,3.712,3.704,0.024,FALSE,FALSE,NA,113.5,113.3,113.5,0,0,0,0,5,3223.9,805.99,,Idle,0,20,FALSE,5,TRUE,6,Go Home,FALSE,FALSE,FALSE,FALSE,FALSE,FALSE,FALSE,FALSE,FALSE,FALSE,FALSE,FALSE,6.974621856,79.91439578,0.2,178.6,328,TRUE,1,1,FALSE,FALSE,FALSE,FALSE,,TRUE,FALSE,FALSE,Course Lock,49.2,254.5,16.4,Calm,39,,1.12.8,Mavic Mini,1SDCH7G0169R0K,1SFLH6Q0AB03DJ,1SRCH7F014TAHX,1U5X071EXP6C9Y,88.9,0.3,9.8,11.258295,4.47388,0,602,Mavic Mini,1SDCH7G0169R0K,1SFLH6Q0AB03DJ,1SRCH7F014TAHX,1U5X071EXP6C9Y,DJI Fly,,1.12.8,31AD7946-3796-A7C4-7ED2-014FC5DFED87,1SDCH7G0169R0K,,,,,6.974666789,79.91439379,5,,
2/27/2024,11:58.3,8m 27.8s,507.8,6.97462124,79.91439613,2.6,2.6,3.9,54,0.9,0,0,0,0,0,0,-3.802798,0,0.5,0,16.9,16.9,,P-GPS,Other,,12,5,TRUE,,Mavic Mini,TRUE,FALSE,,Smart,RC,FALSE,TRUE,FALSE,,,TRUE,,FALSE,FALSE,FALSE,FALSE,FALSE,FALSE,FALSE,FALSE,FALSE,FALSE,0,Follow Yaw,0,0,15.6,15.6,FALSE,FALSE,FALSE,FALSE,FALSE,FALSE,,TRUE,Normal,,100,1024,1024,1684,1024,1,FALSE,FALSE,FALSE,FALSE,FALSE,0,FALSE,FALSE,FALSE,FALSE,63,7.416,1304,2063,7.411,FALSE,3.712,3.704,0.024,FALSE,FALSE,NA,113.5,113.3,113.5,0,0,0,0,5,3223.9,805.99,,Idle,0,20,FALSE,5,TRUE,6,Go Home,FALSE,FALSE,FALSE,FALSE,FALSE,FALSE,FALSE,FALSE,FALSE,FALSE,FALSE,FALSE,6.974621856,79.91439578,0.2,178.6,328,TRUE,1,1,FALSE,FALSE,FALSE,FALSE,,TRUE,FALSE,FALSE,Course Lock,49.2,254.5,16.4,Calm,39,,1.12.8,Mavic Mini,1SDCH7G0169R0K,1SFLH6Q0AB03DJ,1SRCH7F014TAHX,1U5X071EXP6C9Y,88.9,0.3,9.8,11.258295,4.47388,0,602,Mavic Mini,1SDCH7G0169R0K,1SFLH6Q0AB03DJ,1SRCH7F014TAHX,1U5X071EXP6C9Y,DJI Fly,,1.12.8,31AD7946-3796-A7C4-7ED2-014FC5DFED87,1SDCH7G0169R0K,,,,,6.974666789,79.91439379,5,,
2/27/2024,11:58.4,8m 27.9s,507.9,6.974621079,79.91439608,3.2,3.2,4.5,55,1,0,0,0,0,0,0,-4.026492,0,0.4,0.3,17,17,,P-GPS,Other,,12,5,TRUE,,Mavic Mini,TRUE,FALSE,,Smart,RC,FALSE,TRUE,FALSE,,,TRUE,,FALSE,FALSE,FALSE,FALSE,FALSE,FALSE,FALSE,FALSE,FALSE,FALSE,0,Follow Yaw,0,0,15.6,15.6,FALSE,FALSE,FALSE,FALSE,FALSE,FALSE,,TRUE,Normal,,100,1024,1024,1684,1024,1,FALSE,FALSE,FALSE,FALSE,FALSE,0,FALSE,FALSE,FALSE,FALSE,63,7.416,1304,2063,7.411,FALSE,3.712,3.704,0.024,FALSE,FALSE,NA,113.5,113.3,113.5,0,0,0,0,5,3223.9,805.99,,Idle,0,20,FALSE,5,TRUE,6,Go Home,FALSE,FALSE,FALSE,FALSE,FALSE,FALSE,FALSE,FALSE,FALSE,FALSE,FALSE,FALSE,6.974621856,79.91439578,0.3,178.6,328,TRUE,1,1,FALSE,FALSE,FALSE,FALSE,,TRUE,FALSE,FALSE,Course Lock,49.2,254.5,16.4,Calm,39,,1.12.8,Mavic Mini,1SDCH7G0169R0K,1SFLH6Q0AB03DJ,1SRCH7F014TAHX,1U5X071EXP6C9Y,88.9,0.3,9.8,11.258295,4.47388,0,602,Mavic Mini,1SDCH7G0169R0K,1SFLH6Q0AB03DJ,1SRCH7F014TAHX,1U5X071EXP6C9Y,DJI Fly,,1.12.8,31AD7946-3796-A7C4-7ED2-014FC5DFED87,1SDCH7G0169R0K,,,,,6.974666789,79.91439379,5,Home Point updated. RTH altitude adjusted to 15 m! (Code: 120852).,
2/27/2024,11:58.5,8m 28.0s,508,6.974621044,79.9143961,3.9,3.9,5.2,56,1,0,0,0,0,0,0,-4.250186,0,0.2,0,17,17,,P-GPS,Other,,12,5,TRUE,,Mavic Mini,TRUE,FALSE,,Smart,RC,FALSE,TRUE,FALSE,,,TRUE,,FALSE,FALSE,FALSE,FALSE,FALSE,FALSE,FALSE,FALSE,FALSE,FALSE,0,Follow Yaw,0,0,15.6,15.6,FALSE,FALSE,FALSE,FALSE,FALSE,FALSE,,TRUE,Normal,,100,1024,1024,1684,1024,1,FALSE,FALSE,FALSE,FALSE,FALSE,0,FALSE,FALSE,FALSE,FALSE,63,7.416,1304,2063,7.411,FALSE,3.712,3.704,0.024,FALSE,FALSE,NA,113.5,113.3,113.5,0,0,0,0,5,3223.9,805.99,,Idle,0,20,FALSE,5,TRUE,6,Go Home,FALSE,FALSE,FALSE,FALSE,FALSE,FALSE,FALSE,FALSE,FALSE,FALSE,FALSE,FALSE,6.974621856,79.91439578,0.3,178.6,328,TRUE,1,1,FALSE,FALSE,FALSE,FALSE,,TRUE,FALSE,FALSE,Course Lock,49.2,254.5,16.4,Calm,39,,1.12.8,Mavic Mini,1SDCH7G0169R0K,1SFLH6Q0AB03DJ,1SRCH7F014TAHX,1U5X071EXP6C9Y,88.9,0.3,9.8,11.258295,4.47388,0,602,Mavic Mini,1SDCH7G0169R0K,1SFLH6Q0AB03DJ,1SRCH7F014TAHX,1U5X071EXP6C9Y,DJI Fly,,1.12.8,31AD7946-3796-A7C4-7ED2-014FC5DFED87,1SDCH7G0169R0K,,,,,6.974683679,79.91440418,5,,
2/27/2024,11:58.5,8m 28.1s,508.1,6.974621021,79.91439617,4.5,4.5,5.9,56,1,0,0,0,0,0,0,-4.47388,0,0.5,-0.3,17,17,,P-GPS,Other,,12,5,TRUE,,Mavic Mini,TRUE,FALSE,,Smart,RC,FALSE,TRUE,FALSE,,,TRUE,,FALSE,FALSE,FALSE,FALSE,FALSE,FALSE,FALSE,FALSE,FALSE,FALSE,0,Follow Yaw,0,0,15.6,15.6,FALSE,FALSE,FALSE,FALSE,FALSE,FALSE,,TRUE,Normal,,100,1024,1024,1684,1024,1,FALSE,FALSE,FALSE,FALSE,FALSE,0,FALSE,FALSE,FALSE,FALSE,63,7.416,1304,2063,7.411,FALSE,3.712,3.704,0.024,FALSE,FALSE,NA,113.5,113.3,113.5,0,0,0,0,5,3223.9,805.99,,Idle,0,20,FALSE,5,TRUE,6,Go Home,FALSE,FALSE,FALSE,FALSE,FALSE,FALSE,FALSE,FALSE,FALSE,FALSE,FALSE,FALSE,6.974621856,79.91439578,0.3,178.6,328,TRUE,1,1,FALSE,FALSE,FALSE,FALSE,,TRUE,FALSE,FALSE,Course Lock,49.2,254.5,16.4,Calm,39,,1.12.8,Mavic Mini,1SDCH7G0169R0K,1SFLH6Q0AB03DJ,1SRCH7F014TAHX,1U5X071EXP6C9Y,88.9,0.3,9.8,11.258295,4.47388,0,602,Mavic Mini,1SDCH7G0169R0K,1SFLH6Q0AB03DJ,1SRCH7F014TAHX,1U5X071EXP6C9Y,DJI Fly,,1.12.8,31AD7946-3796-A7C4-7ED2-014FC5DFED87,1SDCH7G0169R0K,,,,,6.974683679,79.91440418,5,,
2/27/2024,11:58.6,8m 28.2s,508.2,6.974621005,79.91439629,5.2,5.2,6.5,57,1.1,0,0,0,0,0,0,-4.47388,0,0.4,0.1,17,17,,P-GPS,Other,,12,5,TRUE,,Mavic Mini,TRUE,FALSE,,Smart,RC,FALSE,TRUE,FALSE,,,TRUE,,FALSE,FALSE,FALSE,FALSE,FALSE,FALSE,FALSE,FALSE,FALSE,FALSE,0,Follow Yaw,0,0,15.6,15.6,FALSE,FALSE,FALSE,FALSE,FALSE,FALSE,,TRUE,Normal,,100,1024,1024,1684,1024,1,FALSE,FALSE,FALSE,FALSE,FALSE,0,FALSE,FALSE,FALSE,FALSE,63,7.416,1304,2063,7.411,FALSE,3.712,3.704,0.024,FALSE,FALSE,NA,113.5,113.3,113.5,0,0,0,0,5,3223.9,805.99,,Idle,0,20,FALSE,5,TRUE,6,Go Home,FALSE,FALSE,FALSE,FALSE,FALSE,FALSE,FALSE,FALSE,FALSE,FALSE,FALSE,FALSE,6.974621856,79.91439578,0.3,178.6,328,TRUE,1,1,FALSE,FALSE,FALSE,FALSE,,TRUE,FALSE,FALSE,Course Lock,49.2,254.5,16.4,Calm,39,,1.12.8,Mavic Mini,1SDCH7G0169R0K,1SFLH6Q0AB03DJ,1SRCH7F014TAHX,1U5X071EXP6C9Y,88.9,0.3,9.8,11.258295,4.47388,0,602,Mavic Mini,1SDCH7G0169R0K,1SFLH6Q0AB03DJ,1SRCH7F014TAHX,1U5X071EXP6C9Y,DJI Fly,,1.12.8,31AD7946-3796-A7C4-7ED2-014FC5DFED87,1SDCH7G0169R0K,,,,,6.974683679,79.91440418,5,,
2/27/2024,11:58.8,8m 28.3s,508.3,6.974621028,79.91439642,5.9,5.9,7.2,58,1.1,0,0,0,0,0,0,-4.47388,0,0.3,0.5,17,17,,P-GPS,Other,,12,5,TRUE,,Mavic Mini,TRUE,FALSE,,Smart,RC,FALSE,TRUE,FALSE,,,TRUE,,FALSE,FALSE,FALSE,FALSE,FALSE,FALSE,FALSE,FALSE,FALSE,FALSE,0,Follow Yaw,0,0,15.6,15.6,FALSE,FALSE,FALSE,FALSE,FALSE,FALSE,,TRUE,Normal,,100,1024,1024,1684,1024,1,FALSE,FALSE,FALSE,FALSE,FALSE,0,FALSE,FALSE,FALSE,FALSE,63,7.416,1304,2063,7.411,FALSE,3.712,3.704,0.024,FALSE,FALSE,NA,113.5,113.3,113.5,0,0,0,0,5,3223.9,805.99,,Idle,0,20,FALSE,5,TRUE,6,Go Home,FALSE,FALSE,FALSE,FALSE,FALSE,FALSE,FALSE,FALSE,FALSE,FALSE,FALSE,FALSE,6.974621856,79.91439578,0.3,178.6,328,TRUE,1,1,FALSE,FALSE,FALSE,FALSE,,TRUE,FALSE,FALSE,Course Lock,49.2,254.5,16.4,Calm,39,,1.12.8,Mavic Mini,1SDCH7G0169R0K,1SFLH6Q0AB03DJ,1SRCH7F014TAHX,1U5X071EXP6C9Y,88.9,0.3,9.8,11.258295,4.47388,0,602,Mavic Mini,1SDCH7G0169R0K,1SFLH6Q0AB03DJ,1SRCH7F014TAHX,1U5X071EXP6C9Y,DJI Fly,,1.12.8,31AD7946-3796-A7C4-7ED2-014FC5DFED87,1SDCH7G0169R0K,,,,,6.974683679,79.91440418,5,,
2/27/2024,11:58.8,8m 28.4s,508.4,6.97462103,79.91439646,6.5,6.5,7.8,58,1.1,0,0,0,0,0,0,-4.47388,0,0.6,0.4,17.1,17.1,,P-GPS,Other,,12,5,TRUE,,Mavic Mini,TRUE,FALSE,,Smart,RC,FALSE,TRUE,FALSE,,,TRUE,,FALSE,FALSE,FALSE,FALSE,FALSE,FALSE,FALSE,FALSE,FALSE,FALSE,0,Follow Yaw,0,0,15.6,15.6,FALSE,FALSE,FALSE,FALSE,FALSE,FALSE,,TRUE,Normal,,100,1024,1024,1684,1024,1,FALSE,FALSE,FALSE,FALSE,FALSE,0,FALSE,FALSE,FALSE,FALSE,63,7.416,1304,2063,7.411,FALSE,3.712,3.704,0.024,FALSE,FALSE,NA,113.5,113.3,113.5,0,0,0,0,5,3223.9,805.99,,Idle,0,20,FALSE,5,TRUE,6,Go Home,FALSE,FALSE,FALSE,FALSE,FALSE,FALSE,FALSE,FALSE,FALSE,FALSE,FALSE,FALSE,6.974621856,79.91439578,0.3,178.6,328,TRUE,1,1,FALSE,FALSE,FALSE,FALSE,,TRUE,FALSE,FALSE,Course Lock,49.2,254.5,16.4,Calm,39,,1.12.8,Mavic Mini,1SDCH7G0169R0K,1SFLH6Q0AB03DJ,1SRCH7F014TAHX,1U5X071EXP6C9Y,88.9,0.3,9.8,11.258295,4.47388,0,602,Mavic Mini,1SDCH7G0169R0K,1SFLH6Q0AB03DJ,1SRCH7F014TAHX,1U5X071EXP6C9Y,DJI Fly,,1.12.8,31AD7946-3796-A7C4-7ED2-014FC5DFED87,1SDCH7G0169R0K,,,,,6.974683679,79.91440418,5,,
2/27/2024,11:58.9,8m 28.5s,508.5,6.974620979,79.91439651,7.2,7.2,8.5,59,1.2,0,0,0,0,0,0,-4.47388,0,0.5,0.6,17,17,,P-GPS,Other,,12,5,TRUE,,Mavic Mini,TRUE,FALSE,,Smart,RC,FALSE,TRUE,FALSE,,,TRUE,,FALSE,FALSE,FALSE,FALSE,FALSE,FALSE,FALSE,FALSE,FALSE,FALSE,0,Follow Yaw,0,0,15.6,15.6,FALSE,FALSE,FALSE,FALSE,FALSE,FALSE,,TRUE,Normal,,100,1024,1024,1598,1024,1,FALSE,FALSE,FALSE,FALSE,FALSE,0,FALSE,FALSE,FALSE,FALSE,63,7.416,1304,2063,7.411,FALSE,3.712,3.704,0.024,FALSE,FALSE,NA,113.5,113.3,113.5,0,0,0,0,5,3223.9,805.99,,Idle,0,20,FALSE,5,TRUE,6,Go Home,FALSE,FALSE,FALSE,FALSE,FALSE,FALSE,FALSE,FALSE,FALSE,FALSE,FALSE,FALSE,6.974621856,79.91439578,0.4,178.6,328,TRUE,1,1,FALSE,FALSE,FALSE,FALSE,,TRUE,FALSE,FALSE,Course Lock,49.2,254.5,16.4,Calm,39,,1.12.8,Mavic Mini,1SDCH7G0169R0K,1SFLH6Q0AB03DJ,1SRCH7F014TAHX,1U5X071EXP6C9Y,88.9,0.3,9.8,11.258295,4.47388,0,602,Mavic Mini,1SDCH7G0169R0K,1SFLH6Q0AB03DJ,1SRCH7F014TAHX,1U5X071EXP6C9Y,DJI Fly,,1.12.8,31AD7946-3796-A7C4-7ED2-014FC5DFED87,1SDCH7G0169R0K,,,,,6.974683679,79.91440418,5,,
2/27/2024,11:59.2,8m 28.6s,508.6,6.974620885,79.91439657,7.5,7.5,9.1,59,1.2,0,0,0,0,0,0,-4.47388,0,0.7,0.5,17,17,,P-GPS,Other,,13,5,TRUE,,Mavic Mini,TRUE,FALSE,,Smart,RC,FALSE,TRUE,FALSE,,,TRUE,,FALSE,FALSE,FALSE,FALSE,FALSE,FALSE,FALSE,FALSE,FALSE,FALSE,0,Follow Yaw,0,0,15.6,15.6,FALSE,FALSE,FALSE,FALSE,FALSE,FALSE,,TRUE,Normal,,100,1024,1024,1061,1024,1,FALSE,FALSE,FALSE,FALSE,FALSE,0,FALSE,FALSE,FALSE,FALSE,63,7.416,1304,2063,7.411,FALSE,3.712,3.704,0.024,FALSE,FALSE,NA,113.5,113.3,113.5,0,0,0,0,5,3223.9,805.99,,Idle,0,20,FALSE,5,TRUE,6,Go Home,FALSE,FALSE,FALSE,FALSE,FALSE,FALSE,FALSE,FALSE,FALSE,FALSE,FALSE,FALSE,6.974621856,79.91439578,0.4,178.6,328,TRUE,1,1,FALSE,FALSE,FALSE,FALSE,,TRUE,FALSE,FALSE,Course Lock,49.2,254.5,16.4,Calm,39,,1.12.8,Mavic Mini,1SDCH7G0169R0K,1SFLH6Q0AB03DJ,1SRCH7F014TAHX,1U5X071EXP6C9Y,88.9,0.3,9.8,11.258295,4.47388,0,602,Mavic Mini,1SDCH7G0169R0K,1SFLH6Q0AB03DJ,1SRCH7F014TAHX,1U5X071EXP6C9Y,DJI Fly,,1.12.8,31AD7946-3796-A7C4-7ED2-014FC5DFED87,1SDCH7G0169R0K,,,,,6.974683679,79.91440418,5,,
2/27/2024,11:59.2,8m 28.7s,508.7,6.97462072,79.91439652,8.2,8.2,9.8,60,1.3,0,0,0,0,0,0,-4.250186,0,0.6,0.6,17,17,,P-GPS,Other,,13,5,TRUE,,Mavic Mini,TRUE,FALSE,,Smart,RC,FALSE,TRUE,FALSE,,,TRUE,,FALSE,FALSE,FALSE,FALSE,FALSE,FALSE,FALSE,FALSE,FALSE,FALSE,0,Follow Yaw,0,0,15.6,15.6,FALSE,FALSE,FALSE,FALSE,FALSE,FALSE,,TRUE,Normal,,100,1024,1024,1024,1024,1,FALSE,FALSE,FALSE,FALSE,FALSE,0,FALSE,FALSE,FALSE,FALSE,63,7.416,1304,2063,7.428,FALSE,3.712,3.704,0.024,FALSE,FALSE,NA,113.5,113.3,113.5,0,0,1,0,5,4575.3,1143.83,,Idle,0,20,FALSE,5,TRUE,6,Go Home,FALSE,FALSE,FALSE,FALSE,FALSE,FALSE,FALSE,FALSE,FALSE,FALSE,FALSE,FALSE,6.974621856,79.91439578,0.4,178.6,328,TRUE,1,1,FALSE,FALSE,FALSE,FALSE,,TRUE,FALSE,FALSE,Course Lock,49.2,254.5,16.4,Calm,39,,1.12.8,Mavic Mini,1SDCH7G0169R0K,1SFLH6Q0AB03DJ,1SRCH7F014TAHX,1U5X071EXP6C9Y,88.9,0.3,9.8,11.258295,4.47388,0,602,Mavic Mini,1SDCH7G0169R0K,1SFLH6Q0AB03DJ,1SRCH7F014TAHX,1U5X071EXP6C9Y,DJI Fly,,1.12.8,31AD7946-3796-A7C4-7ED2-014FC5DFED87,1SDCH7G0169R0K,,,,,6.974683679,79.91440418,5,,
2/27/2024,11:59.2,8m 28.8s,508.8,6.974620695,79.91439655,8.8,8.8,10.4,61,1.3,0,0,0,0,0,0,-3.802798,0,0.7,0.5,17,17,,P-GPS,Other,,13,5,TRUE,,Mavic Mini,TRUE,FALSE,,Smart,RC,FALSE,TRUE,FALSE,,,TRUE,,FALSE,FALSE,FALSE,FALSE,FALSE,FALSE,FALSE,FALSE,FALSE,FALSE,0,Follow Yaw,0,0,15.6,15.6,FALSE,FALSE,FALSE,FALSE,FALSE,FALSE,,TRUE,Normal,,100,1024,1024,1024,1024,1,FALSE,FALSE,FALSE,FALSE,FALSE,0,FALSE,FALSE,FALSE,FALSE,63,7.449,1302,2063,7.428,FALSE,3.726,3.723,0.024,FALSE,FALSE,NA,113.5,113.3,113.5,0,0,1,0,5,4575.3,1143.83,,Idle,0,20,FALSE,5,TRUE,6,Go Home,FALSE,FALSE,FALSE,FALSE,FALSE,FALSE,FALSE,FALSE,FALSE,FALSE,FALSE,FALSE,6.974621856,79.91439578,0.5,178.6,328,TRUE,1,1,FALSE,FALSE,FALSE,FALSE,,TRUE,FALSE,FALSE,Course Lock,49.2,254.5,16.4,Calm,39,,1.12.8,Mavic Mini,1SDCH7G0169R0K,1SFLH6Q0AB03DJ,1SRCH7F014TAHX,1U5X071EXP6C9Y,88.9,0.3,9.8,11.258295,4.47388,0,602,Mavic Mini,1SDCH7G0169R0K,1SFLH6Q0AB03DJ,1SRCH7F014TAHX,1U5X071EXP6C9Y,DJI Fly,,1.12.8,31AD7946-3796-A7C4-7ED2-014FC5DFED87,1SDCH7G0169R0K,,,,,6.974683679,79.91440418,5,,
2/27/2024,11:59.3,8m 28.9s,508.9,6.974620635,79.91439663,9.1,9.1,11.1,61,1.3,0,0,0,0,0,0,-3.131716,0,0.8,0.2,17,17,,P-GPS,Other,,13,5,TRUE,,Mavic Mini,TRUE,FALSE,,Smart,RC,FALSE,TRUE,FALSE,,,TRUE,,FALSE,FALSE,FALSE,FALSE,FALSE,FALSE,FALSE,FALSE,FALSE,FALSE,0,Follow Yaw,0,0,15.6,15.6,FALSE,FALSE,FALSE,FALSE,FALSE,FALSE,,TRUE,Normal,,100,1024,1024,1024,1024,1,FALSE,FALSE,FALSE,FALSE,FALSE,0,FALSE,FALSE,FALSE,FALSE,63,7.449,1302,2063,7.428,FALSE,3.726,3.723,0.024,FALSE,FALSE,NA,113.5,113.3,113.5,0,0,1,0,5,4575.3,1143.83,,Idle,0,20,FALSE,5,TRUE,6,Go Home,FALSE,FALSE,FALSE,FALSE,FALSE,FALSE,FALSE,FALSE,FALSE,FALSE,FALSE,FALSE,6.974621856,79.91439578,0.5,178.6,328,TRUE,1,1,FALSE,FALSE,FALSE,FALSE,,TRUE,FALSE,FALSE,Course Lock,49.2,254.5,16.4,Calm,39,,1.12.8,Mavic Mini,1SDCH7G0169R0K,1SFLH6Q0AB03DJ,1SRCH7F014TAHX,1U5X071EXP6C9Y,88.9,0.3,9.8,11.258295,4.47388,0,602,Mavic Mini,1SDCH7G0169R0K,1SFLH6Q0AB03DJ,1SRCH7F014TAHX,1U5X071EXP6C9Y,DJI Fly,,1.12.8,31AD7946-3796-A7C4-7ED2-014FC5DFED87,1SDCH7G0169R0K,,,,,6.974683679,79.91440418,5,,
2/27/2024,11:59.5,8m 29.0s,509,6.974620542,79.91439677,9.5,9.5,11.4,61,1.4,0,0,0,0,0,0,-2.460634,0,0.8,0,17,17,,P-GPS,Other,,13,5,TRUE,,Mavic Mini,TRUE,FALSE,,Smart,RC,FALSE,TRUE,FALSE,,,TRUE,,FALSE,FALSE,FALSE,FALSE,FALSE,FALSE,FALSE,FALSE,FALSE,FALSE,0,Follow Yaw,0,0,15.6,15.6,FALSE,FALSE,FALSE,FALSE,FALSE,FALSE,,TRUE,Normal,,100,1024,1024,1024,1024,1,FALSE,FALSE,FALSE,FALSE,FALSE,0,FALSE,FALSE,FALSE,FALSE,63,7.449,1302,2063,7.428,FALSE,3.726,3.723,0.024,FALSE,FALSE,NA,113.5,113.3,113.5,0,0,1,0,5,4575.3,1143.83,,Idle,0,20,FALSE,5,TRUE,6,Go Home,FALSE,FALSE,FALSE,FALSE,FALSE,FALSE,FALSE,FALSE,FALSE,FALSE,FALSE,FALSE,6.974621856,79.91439578,0.5,178.6,328,TRUE,1,1,FALSE,FALSE,FALSE,FALSE,,TRUE,FALSE,FALSE,Course Lock,49.2,254.5,16.4,Calm,39,,1.12.8,Mavic Mini,1SDCH7G0169R0K,1SFLH6Q0AB03DJ,1SRCH7F014TAHX,1U5X071EXP6C9Y,88.9,0.3,9.8,11.258295,4.47388,0,602,Mavic Mini,1SDCH7G0169R0K,1SFLH6Q0AB03DJ,1SRCH7F014TAHX,1U5X071EXP6C9Y,DJI Fly,,1.12.8,31AD7946-3796-A7C4-7ED2-014FC5DFED87,1SDCH7G0169R0K,,,,,6.974683679,79.91440418,5,,
2/27/2024,11:59.6,8m 29.1s,509.1,6.97462047,79.91439691,9.8,9.8,11.8,62,1.4,0,0,0,0,0,0,-1.565858,0,0.8,-0.3,17.1,17.1,,P-GPS,Other,,13,5,TRUE,,Mavic Mini,TRUE,FALSE,,Smart,RC,FALSE,TRUE,FALSE,,,TRUE,,FALSE,FALSE,FALSE,FALSE,FALSE,FALSE,FALSE,FALSE,FALSE,FALSE,0,Follow Yaw,0,0,15.6,15.6,FALSE,FALSE,FALSE,FALSE,FALSE,FALSE,,TRUE,Normal,,100,1024,1024,1024,1024,1,FALSE,FALSE,FALSE,FALSE,FALSE,0,FALSE,FALSE,FALSE,FALSE,63,7.449,1302,2063,7.428,FALSE,3.726,3.723,0.024,FALSE,FALSE,NA,113.5,113.3,113.5,0,0,1,0,5,4575.3,1143.83,,Idle,0,20,FALSE,5,TRUE,6,Go Home,FALSE,FALSE,FALSE,FALSE,FALSE,FALSE,FALSE,FALSE,FALSE,FALSE,FALSE,FALSE,6.974621856,79.91439578,0.6,178.6,328,TRUE,1,1,FALSE,FALSE,FALSE,FALSE,,TRUE,FALSE,FALSE,Course Lock,49.2,254.5,16.4,Calm,39,,1.12.8,Mavic Mini,1SDCH7G0169R0K,1SFLH6Q0AB03DJ,1SRCH7F014TAHX,1U5X071EXP6C9Y,88.9,0.3,9.8,11.258295,4.47388,0,602,Mavic Mini,1SDCH7G0169R0K,1SFLH6Q0AB03DJ,1SRCH7F014TAHX,1U5X071EXP6C9Y,DJI Fly,,1.12.8,31AD7946-3796-A7C4-7ED2-014FC5DFED87,1SDCH7G0169R0K,,,,,6.974683679,79.91440418,5,,
2/27/2024,11:59.6,8m 29.2s,509.2,6.974620296,79.91439723,9.8,9.8,11.8,62,1.6,0,0,0,0,0,0,-0.894776,0,0.6,-0.5,17.1,17.1,,P-GPS,Other,,13,5,TRUE,,Mavic Mini,TRUE,FALSE,,Smart,RC,FALSE,TRUE,FALSE,,,TRUE,,FALSE,FALSE,FALSE,FALSE,FALSE,FALSE,FALSE,FALSE,FALSE,FALSE,0,Follow Yaw,0,0,15.6,15.6,FALSE,FALSE,FALSE,FALSE,FALSE,FALSE,,TRUE,Normal,,100,1024,1024,1024,1024,1,FALSE,FALSE,FALSE,FALSE,FALSE,0,FALSE,FALSE,FALSE,FALSE,63,7.449,1302,2063,7.428,FALSE,3.726,3.723,0.024,FALSE,FALSE,NA,113.5,113.3,113.5,0,0,1,0,5,4575.3,1143.83,,Idle,0,20,FALSE,5,TRUE,6,Go Home,FALSE,FALSE,FALSE,FALSE,FALSE,FALSE,FALSE,FALSE,FALSE,FALSE,FALSE,FALSE,6.974621856,79.91439578,0.7,178.6,328,TRUE,1,1,FALSE,FALSE,FALSE,FALSE,,TRUE,FALSE,FALSE,Course Lock,49.2,254.5,16.4,Calm,39,,1.12.8,Mavic Mini,1SDCH7G0169R0K,1SFLH6Q0AB03DJ,1SRCH7F014TAHX,1U5X071EXP6C9Y,88.9,0.3,9.8,11.258295,4.47388,0,602,Mavic Mini,1SDCH7G0169R0K,1SFLH6Q0AB03DJ,1SRCH7F014TAHX,1U5X071EXP6C9Y,DJI Fly,,1.12.8,31AD7946-3796-A7C4-7ED2-014FC5DFED87,1SDCH7G0169R0K,,,,,6.974683679,79.91440418,5,,
2/27/2024,11:59.7,8m 29.3s,509.3,6.974620262,79.91439737,10.1,10.1,12.1,62,1.6,0,0,0,0,0,0,-0.447388,0,0.7,-1,17.1,17.1,,P-GPS,Other,,13,5,TRUE,,Mavic Mini,TRUE,FALSE,,Smart,RC,FALSE,TRUE,FALSE,,,TRUE,,FALSE,FALSE,FALSE,FALSE,FALSE,FALSE,FALSE,FALSE,FALSE,FALSE,0,Follow Yaw,0,0,15.6,15.6,FALSE,FALSE,FALSE,FALSE,FALSE,FALSE,,TRUE,Normal,,100,1024,1024,1024,1024,1,FALSE,FALSE,FALSE,FALSE,FALSE,0,FALSE,FALSE,FALSE,FALSE,63,7.449,1302,2063,7.428,FALSE,3.726,3.723,0.024,FALSE,FALSE,NA,113.5,113.3,113.5,0,0,1,0,5,4575.3,1143.83,,Idle,0,20,FALSE,5,TRUE,6,Go Home,FALSE,FALSE,FALSE,FALSE,FALSE,FALSE,FALSE,FALSE,FALSE,FALSE,FALSE,FALSE,6.974621856,79.91439578,0.8,178.6,328,TRUE,1,1,FALSE,FALSE,FALSE,FALSE,,TRUE,FALSE,FALSE,Course Lock,49.2,254.5,16.4,Calm,39,,1.12.8,Mavic Mini,1SDCH7G0169R0K,1SFLH6Q0AB03DJ,1SRCH7F014TAHX,1U5X071EXP6C9Y,88.9,0.3,9.8,11.258295,4.47388,0,602,Mavic Mini,1SDCH7G0169R0K,1SFLH6Q0AB03DJ,1SRCH7F014TAHX,1U5X071EXP6C9Y,DJI Fly,,1.12.8,31AD7946-3796-A7C4-7ED2-014FC5DFED87,1SDCH7G0169R0K,,,,,6.974683679,79.91440418,5,,
